     2.11           OBSERVATION DATA    G (GPS)             RINEX VERSION / TYPE
teqc  2016Nov7                          20180403 09:56:50UTCPGM / RUN BY / DATE
BOGU                                                        MARKER NAME
18647M001                                                   MARKER NUMBER
Automatic           EXAGONE                                 OBSERVER / AGENCY
618-00682           TPS NET-G3A         4.7                 REC # / TYPE / VERS
5186                AERAT1675_120   SPKE                    ANT # / TYPE
  4151675.3430    80688.5510  4825309.5430                  APPROX POSITION XYZ
        0.0720        0.0000        0.0000                  ANTENNA: DELTA H/E/N
     1     1                                                WAVELENGTH FACT L1/2
     9    C1    L1    D1    P2    L2    D2    P1    S1    S2# / TYPES OF OBSERV
    30.0000                                                 INTERVAL
    18                                                      LEAP SECONDS
Linux 2.4.21-27.ELsmp|Opteron|gcc|Linux x86_64|=+           COMMENT
teqc  2016Nov7                          20180403 09:56:49UTCCOMMENT
     2.11           OBSERVATION DATA    M (MIXED)           COMMENT
teqc  2016Nov7                          20180403 09:56:47UTCCOMMENT
teqc  2016Nov7      IGN-RGP             20180221 09:08:25UTCCOMMENT
teqc_2016 edited: GLONASS # 25 - 30 excluded                COMMENT
GN-RINEX 1.3        Geo++ GmbH          21-FEB-18 08:00     COMMENT
Forced Modulo Decimation to 30 seconds                      COMMENT
teqc_2016 edited: all GLONASS satellites excluded           COMMENT
teqc_2016 edited: all SBAS satellites excluded              COMMENT
teqc_2016 edited: all Galileo satellites excluded           COMMENT
  2018     2    21     8     0    0.0000000     GPS         TIME OF FIRST OBS
                                                            END OF HEADER
 18  2 21  8  0  0.0000000  0 12G09G06G07G02G23G30G05G16G29G26G04G03
  20308133.940 9  68971242.891 9      -570.003    20308130.739 8  74769819.942 8
      -444.158    20308133.416          52.750          48.250
  21222195.970 8  77968955.547 8     -1423.986    21222193.392 7  82707022.881 7
     -1109.599    21222195.440          46.750          43.250
  21699907.431 9  76285052.084 9      2812.085    21699902.250 7  84663186.929 7
      2191.235    21699906.900          52.750          40.750
  21844199.705 8  77043308.046 8      1354.310    21844191.845 7  81059720.236 7
      1055.307    21844198.767          45.750          39.000
  22690986.722 8  85687510.170 8     -2042.336    22690979.764 6  84527172.958 6
     -1591.431    22690986.101          48.000          33.250
  23031437.240 8  87476598.183 8      4007.322    23031435.513 6  90115588.875 6
      3122.589    23031436.349          46.000          33.250
  23553847.708 7  94416170.373 7      3800.502    23553842.914 5  92254754.869 5
      2961.430    23553847.114          44.000          27.000
  24304615.694 6  94167198.586 6      1459.739    24304610.420 3  95329012.104 3
      1137.459    24304615.118          37.500          18.250
  24864111.148 7  97107352.607 7      1480.247    24864106.654 4  97620065.123 4
      1153.439    24864111.418          39.250          22.000
  25155829.155 6 111223243.627 6      -383.862    25155828.240 4  98814612.181 4
      -299.113    25155828.558          36.750          20.750
  25333069.034 5  99571740.569 5     -1080.433
                                        30.000
  25555100.869 6 100738514.765 6     -2880.630    25555100.494 2 100449548.201 2
     -2244.647    25555101.286          34.500          13.750
 18  2 21  8  0 30.0000000  0 11G09G06G07G02G23G30G05G16G29G26G03
  20311425.470 9  68988539.838 9      -583.195    20311422.322 8  74783298.075 8
      -454.438    20311424.906          55.000          48.750
  21230374.767 8  78011936.435 8     -1441.544    21230372.447 7  82740514.471 7
     -1123.281    21230374.369          49.250          43.500
  21683894.538 9  76200904.735 9      2797.642    21683889.532 7  84597617.561 7
      2179.981    21683894.124          52.500          40.750
  21836519.568 8  77002948.914 8      1336.160    21836511.642 7  81028271.558 7
      1041.164    21836518.522          50.000          38.750
  22702663.551 8  85748872.862 8     -2048.609    22702656.584 6  84574988.032 6
     -1596.319    22702663.209          47.500          33.000
  23008581.357 7  87356489.947 7      3999.809    23008579.348 6  90021998.069 6
      3116.735    23008580.568          44.000          33.000
  23532163.326 7  94302218.986 7      3796.267    23532158.152 5  92165961.582 5
      2958.131    23532163.338          43.000          27.500
  24296338.646 6  94123701.221 6      1440.096    24296333.261 3  95295118.086 3
      1122.153    24296338.205          37.250          18.500
  24855714.816 7  97063226.060 7      1461.245    24855709.815 4  97585680.803 4
      1138.632    24855714.195          39.750          22.000
  25158072.904 7 111235035.457 7      -402.320    25158071.710 4  98823800.580 4
      -313.496    25158072.280          39.750          20.500
  25571553.032 6 100824966.923 6     -2882.812    25571552.301 3 100516913.407 3
     -2246.347    25571552.214          36.000          14.500
 18  2 21  8  1  0.0000000  0 11G09G06G07G02G23G30G05G16G29G26G03
  20314791.965 9  69006231.575 9      -596.341    20314788.916 8  74797083.842 8
      -464.682    20314791.596          55.500          48.750
  21238653.761 9  78055443.630 9     -1458.960    21238651.731 7  82774416.167 7
     -1136.852    21238653.521          51.250          43.250
  21667964.403 9  76117191.306 9      2783.202    21667959.547 7  84532386.306 7
      2168.729    21667963.891          52.250          41.000
  21828943.363 8  76963136.209 8      1317.921    21828935.655 7  80997248.668 7
      1026.951    21828942.341          49.000          39.000
  22714376.499 8  85810423.810 8     -2054.779    22714369.538 6  84622949.789 6
     -1601.127    22714375.780          47.250          32.750
  22985769.477 7  87236612.095 7      3992.045    22985767.612 6  89928586.793 6
      3110.685    22985768.670          44.250          33.250
  23510503.660 7  94188396.210 7      3791.994    23510498.773 5  92077268.523 5
      2954.800    23510503.573          43.500          27.500
  24288172.836 6  94080787.268 6      1420.754    24288166.816 3  95261678.663 3
      1107.081    24288172.005          37.250          18.750
  24847425.308 7  97019666.791 7      1442.464    24847420.569 4  97551738.478 4
      1123.998    24847425.365          40.000          21.750
  25160420.455 7 111247374.536 7      -420.334    25160419.970 4  98833415.437 4
      -327.533    25160420.180          38.500          21.500
  25588016.378 6 100911481.857 6     -2884.858    25588015.362 3 100584327.539 3
     -2247.941    25588015.898          37.500          17.500
 18  2 21  8  1 30.0000000  0 11G09G06G07G02G23G30G05G16G29G26G03
  20318233.211 9  69024315.357 9      -609.355    20318230.117 8  74811175.094 8
      -474.822    20318232.773          55.750          48.750
  21247032.660 9  78099473.711 9     -1476.413    21247030.409 7  82808725.318 7
     -1150.451    21247032.163          51.000          43.000
  21652117.176 9  76033912.060 9      2768.723    21652111.885 7  84467493.392 7
      2157.446    21652116.529          53.250          41.250
  21821470.961 8  76923869.172 8      1299.807    21821463.259 7  80966650.970 7
      1012.836    21821470.113          48.500          39.000
  22726124.239 8  85872160.214 8     -2061.010    22726117.394 6  84671056.067 6
     -1605.982    22726123.792          45.000          32.500
  22963001.373 8  87116965.522 8      3984.313    22962999.475 6  89835355.738 6
      3104.660    22963000.653          44.500          33.500
  23488868.502 7  94074701.988 7      3787.557    23488863.129 5  91988675.623 5
      2951.343    23488868.250          42.500          27.000
  24280116.873 6  94038457.008 6      1400.985    24280111.776 3  95228694.066 3
      1091.677    24280116.525          36.750          17.500
  24839244.383 7  96976674.027 7      1423.632    24839239.709 4  97518237.610 4
      1109.324    24839243.972          41.750          22.000
  25162872.974 6 111260258.612 6      -438.556    25162871.720 4  98843454.968 4
      -341.732    25162872.251          36.000          21.750
  25604491.206 6 100998057.037 6     -2886.963    25604490.753 3 100651788.639 3
     -2249.581    25604490.558          37.750          16.000
 18  2 21  8  2  0.0000000  0 12G09G04G06G07G02G23G30G05G16G29G26G03
  20321749.246 9  69042791.163 9      -622.470    20321746.020 8  74825571.819 8
      -485.041    20321748.610          55.500          48.500
  20323802.761 5 102608005.662 5      -622.572    20323797.725 4  99999786.315 4
      -485.121    20323800.519          31.750          25.000
  21255510.311 9  78144025.876 9     -1493.777    21255508.450 7  82843441.281 7
     -1163.982    21255510.150          50.750          43.000
  21636352.605 9  75951070.265 9      2754.035    21636347.787 7  84402941.342 7
      2146.001    21636352.062          50.750          40.750
  21814103.193 8  76885150.119 8      1281.409    21814095.347 7  80936480.272 7
       998.500    21814102.179          49.250          39.000
  22737908.079 8  85934082.236 8     -2067.206    22737901.016 6  84719306.973 6
     -1610.810    22737907.506          45.250          32.750
  22940278.091 8  86997554.010 8      3976.437    22940275.989 6  89742307.840 6
      3098.522    22940277.503          45.500          33.250
  23467258.145 7  93961139.719 7      3783.174    23467253.421 5  91900185.546 5
      2947.928    23467257.974          42.750          27.500
  24272173.116 6  93996712.496 6      1381.529    24272167.939 3  95196165.891 3
      1076.516    24272172.747          35.500          16.500
  24831171.350 7  96934249.923 7      1404.810    24831166.559 4  97485179.838 4
      1094.657    24831170.858          39.000          22.250
  25165428.494 7 111273687.834 7      -456.808    25165427.346 4  98853919.278 4
      -355.954    25165427.982          40.000          22.250
  25620976.979 6 101084692.854 6     -2888.804    25620976.874 3 100719296.983 3
     -2251.016    25620976.865          37.750          18.500
 18  2 21  8  2 30.0000000  0 11G09G06G07G02G23G30G05G16G29G26G03
  20325339.479 9  69061659.271 9      -635.378    20325336.472 8  74840274.239 8
      -495.100    20325339.084          55.750          48.500
  21264087.964 9  78189099.762 9     -1511.163    21264085.668 7  82878563.787 7
     -1177.529    21264087.494          50.750          43.250
  21620672.068 9  75868668.834 9      2739.419    21620667.212 7  84338732.440 7
      2134.613    21620671.696          51.500          41.000
  21806839.794 8  76846981.490 8      1263.125    21806832.017 7  80906738.482 7
       984.253    21806838.862          46.750          38.750
  22749726.716 8  85996190.183 8     -2073.343    22749719.518 6  84767702.756 6
     -1615.592    22749726.230          44.750          32.750
  22917600.347 8  86878381.647 8      3968.453    22917598.378 6  89649446.292 6
      3092.301    22917599.418          46.250          33.500
  23445673.022 7  93847711.220 7      3778.678    23445668.226 5  91811799.702 5
      2944.425    23445673.040          42.750          27.750
  24264341.872 6  93955557.011 6      1361.821    24264336.122 3  95164096.709 3
      1061.159    24264340.322          37.250          16.500
  24823207.276 7  96892396.627 7      1385.781    24823202.141 4  97452566.871 4
      1079.829    24823206.865          39.750          23.000
  25168088.274 7 111287662.793 7      -474.724    25168086.844 4  98864808.834 4
      -369.915    25168087.273          39.750          21.750
  25637475.220 6 101171389.774 6     -2890.821    25637474.854 3 100786852.911 3
     -2252.588    25637474.869          38.250          19.250
 18  2 21  8  3  0.0000000  0 11G09G06G07G02G23G30G05G16G29G26G03
  20329003.914 9  69080915.661 9      -648.308    20329000.803 8  74855279.213 8
      -505.175    20329003.384          56.000          48.500
  21272763.367 9  78234690.512 9     -1528.246    21272761.383 7  82914089.045 7
     -1190.841    21272763.071          51.500          43.250
  21605075.261 9  75786706.936 9      2724.787    21605070.533 7  84274866.031 7
      2123.210    21605074.754          51.250          41.000
  21799681.137 8  76809361.460 8      1244.883    21799673.093 7  80877424.172 7
       970.039    21799680.100          49.250          38.500
  22761580.468 8  86058479.699 8     -2079.244    22761573.339 6  84816240.023 6
     -1620.190    22761579.553          46.750          32.500
  22894968.004 7  86759448.088 7      3960.536    22894965.981 6  89556770.831 6
      3086.132    22894967.381          44.250          34.000
  23424114.317 7  93734416.311 7      3774.300    23424109.044 5  91723517.957 5
      2941.013    23424113.981          42.750          28.500
  24256621.739 6  93914989.238 6      1342.267    24256615.956 3  95132485.479 3
      1045.922    24256621.020          38.000          16.500
  24815350.714 7  96851112.157 7      1366.819    24815345.822 4  97420397.139 4
      1065.054    24815350.732          41.750          22.000
  25170850.954 7 111302179.716 7      -492.746    25170849.300 4  98876120.698 4
      -383.958    25170850.217          38.500          21.750
  25653983.769 6 101258144.046 6     -2892.623    25653983.178 3 100854453.505 3
     -2253.992    25653983.688          37.250          17.750
 18  2 21  8  3 30.0000000  0 11G09G06G07G02G23G30G05G16G29G26G03
  20332742.341 9  69100561.391 9      -661.383    20332739.352 8  74870587.568 8
      -515.363    20332741.976          56.500          48.500
  21281537.477 9  78280798.474 9     -1545.547    21281535.460 7  82950017.331 7
     -1204.323    21281537.096          51.500          43.000
  21589562.683 8  75705188.776 8      2709.835    21589557.973 7  84211345.380 7
      2111.560    21589562.383          50.250          41.500
  21792627.608 8  76772293.143 8      1226.387    21792619.289 7  80848539.766 7
       955.626    21792626.268          48.000          39.000
  22773468.918 8  86120952.038 8     -2085.504    22773461.294 5  84864919.748 5
     -1625.068    22773467.910          44.750          32.250
  22872381.931 8  86640758.183 8      3952.288    22872380.034 6  89464285.227 6
      3079.705    22872381.239          46.500          33.750
  23402580.959 7  93621258.544 7      3769.628    23402576.037 5  91635343.073 5
      2937.373    23402580.839          43.250          29.000
  24249014.949 6  93875013.019 6      1322.488    24249008.869 3  95101335.170 3
      1030.510    24249014.371          37.000          16.750
  24807604.158 7  96810399.595 7      1347.552    24807598.351 4  97388673.035 4
      1050.041    24807603.187          40.000          22.000
  25173716.377 7 111317239.998 7      -510.995    25173715.076 4  98887855.959 4
      -398.178    25173716.338          40.500          21.750
  25670504.057 7 101344957.411 7     -2894.731    25670503.349 3 100922100.208 3
     -2255.635    25670503.946          38.750          18.500
 18  2 21  8  4  0.0000000  0 12G09G04G06G07G02G23G30G05G16G29G26G03
  20336554.730 9  69120594.274 9      -674.263    20336551.447 8  74886197.604 8
      -525.400    20336554.059          56.250          48.250
  20363789.967 5 102818144.264 5      -674.135    20363776.317 4 100163536.598 4
      -525.300    20363778.170          32.250          23.250
  21290409.139 8  78327420.708 8     -1562.651    21290407.296 7  82986346.346 7
     -1217.650    21290409.017          50.000          43.250
  21574135.120 9  75624115.291 9      2694.991    21574130.281 7  84148171.234 7
      2099.993    21574134.742          51.750          41.250
  21785678.425 8  76735776.491 8      1207.949    21785670.534 7  80820085.232 7
       941.259    21785677.420          50.000          39.000
  22785390.614 8  86183605.173 8     -2091.480    22785383.746 5  84913740.347 5
     -1629.725    22785390.386          46.000          32.250
  22849842.596 8  86522313.520 8      3944.029    22849840.638 6  89371990.722 6
      3073.269    22849842.158          45.250          34.500
  23381073.833 7  93508237.534 7      3764.950    23381068.935 5  91547274.771 5
      2933.727    23381073.348          43.750          29.750
  24241519.661 6  93835628.655 6      1302.887    24241513.908 3  95070646.075 3
      1015.236    24241519.457          37.750          16.500
  24799964.751 7  96770259.014 7      1328.299    24799959.780 4  97357394.654 4
      1035.038    24799964.409          40.750          21.500
  25176685.225 6 111332841.607 6      -529.081    25176684.106 4  98900013.059 4
      -412.271    25176684.937          38.250          21.250
  25687034.841 6 101431827.583 6     -2896.609    25687034.805 3 100989791.164 3
     -2257.098    25687034.955          36.000          17.250
 18  2 21  8  4 30.0000000  0 11G09G06G07G02G23G30G05G16G29G26G03
  20340439.495 9  69141009.854 9      -686.827    20340436.401 8  74902105.842 8
      -535.190    20340439.063          55.500          48.500
  21299378.126 8  78374551.950 8     -1579.470    21299376.283 7  83023071.997 7
     -1230.756    21299377.806          50.000          43.000
  21558791.964 9  75543484.936 9      2680.313    21558786.661 7  84085342.388 7
      2088.555    21558791.541          52.000          41.500
  21778833.995 8  76699808.850 8      1189.859    21778825.913 7  80792058.502 7
       927.163    21778832.970          48.500          39.000
  22797347.012 8  86246434.526 8     -2097.139    22797339.979 5  84962698.258 5
     -1634.134    22797346.430          45.750          32.000
  22827349.684 8  86404113.390 8      3935.929    22827348.089 6  89279886.753 6
      3066.958    22827348.856          46.000          34.250
  23359592.490 8  93395352.157 8      3760.616    23359587.786 5  91459312.141 5
      2930.350    23359591.956          44.500          30.000
  24234138.414 7  93796834.067 7      1283.159    24234132.424 3  95040416.521 3
       999.864    24234137.059          38.500          16.250
  24792434.198 7  96730687.321 7      1309.681    24792429.818 4  97326559.546 4
      1020.530    24792434.513          40.500          21.500
  25179756.358 7 111348980.317 7      -546.953    25179755.369 4  98912588.648 4
      -426.197    25179755.894          40.000          22.000
  25703576.046 6 101518750.837 6     -2898.197    25703575.491 3 101057523.492 3
     -2258.335    25703575.887          36.500          15.000
 18  2 21  8  5  0.0000000  0 11G09G06G07G02G30G23G05G16G29G26G03
  20344396.608 9  69161804.011 9      -699.535    20344393.404 8  74918309.079 8
      -545.092    20344396.009          56.250          48.250
  21308443.128 9  78422187.294 9     -1596.327    21308440.870 7  83060190.449 7
     -1243.891    21308442.498          52.250          43.000
  21543532.510 9  75463296.384 9      2665.465    21543527.227 7  84022857.810 7
      2076.985    21543532.045          53.000          41.250
  21772093.569 8  76664388.028 8      1171.509    21772085.553 7  80764457.862 7
       912.864    21772092.643          48.500          39.250
  22804904.033 8  86286157.424 8      3927.655    22804901.668 6  89187973.061 6
      3060.510    22804903.056          45.250          34.750
  22809335.856 8  86309435.921 8     -2102.923    22809328.802 5  85011790.230 5
     -1638.641    22809335.173          46.750          32.250
  23338136.970 8  93282601.898 8      3755.994    23338131.817 5  91371454.807 5
      2926.749    23338136.727          46.000          30.500
  24226867.104 6  93758627.883 6      1263.613    24226861.057 3  95010645.461 3
       984.633    24226865.881          37.750          16.750
  24785012.695 7  96691682.455 7      1290.681    24785007.580 4  97296166.116 4
      1005.725    24785012.401          42.000          22.000
  25182928.687 7 111365652.163 7      -564.446    25182927.725 4  98925579.666 4
      -439.828    25182928.321          38.750          21.500
  25720126.061 6 101605723.192 6     -2900.084    25720125.947 3 101125294.078 3
     -2259.805    25720126.001          34.750          17.000
 18  2 21  8  5 30.0000000  0 11G09G06G07G02G30G23G05G16G29G26G03
  20348425.486 9  69182975.927 9      -712.044    20348422.317 8  74934806.668 8
      -554.840    20348424.917          55.000          48.250
  21317603.223 9  78470325.110 9     -1613.026    21317601.284 7  83097700.440 7
     -1256.903    21317602.864          50.500          42.500
  21528357.561 9  75383551.999 9      2650.709    21528352.357 7  83960719.341 7
      2065.487    21528357.315          51.750          41.500
  21765457.498 8  76629515.832 8      1153.175    21765449.824 7  80737284.725 7
       898.578    21765456.617          48.750          39.000
  22782504.545 8  86168448.611 8      3919.423    22782502.564 6  89096251.964 6
      3054.096    22782503.682          46.500          35.000
  22821357.366 8  86372608.586 8     -2108.608    22821350.063 5  85061015.663 5
     -1643.072    22821356.784          47.250          32.000
  23316707.113 8  93169988.933 8      3751.431    23316702.061 5  91283704.445 5
      2923.193    23316706.954          44.750          30.250
  24219708.063 6  93721011.879 6      1244.034    24219703.575 3  94981334.278 3
       969.377    24219707.985          36.750          16.500
  24777697.900 7  96653245.789 7      1271.507    24777693.691 4  97266215.449 4
       990.784    24777697.729          42.000          22.500
  25186203.203 7 111382856.632 7      -582.290    25186201.477 4  98938985.710 4
      -453.733    25186202.421          41.250          21.250
  25736685.865 6 101692744.376 6     -2901.430    25736684.447 2 101193102.694 2
     -2260.855    25736685.847          34.250          12.500
 18  2 21  8  6  0.0000000  0 11G09G06G07G02G30G23G05G16G29G26G03
  20352526.506 9  69204527.100 9      -724.727    20352523.247 8  74951599.781 8
      -564.722    20352525.987          55.000          48.250
  21326859.334 9  78518966.053 9     -1629.804    21326857.211 7  83135602.465 7
     -1269.977    21326858.959          50.750          42.750
  21513268.047 9  75304256.252 9      2635.695    21513262.918 7  83898930.459 7
      2053.788    21513267.763          52.000          41.750
  21758926.750 8  76595195.631 8      1134.806    21758918.869 7  80710541.709 7
       884.265    21758925.731          48.250          38.750
  22760153.225 8  86050992.161 8      3910.939    22760150.796 6  89004727.490 6
      3047.485    22760152.484          47.750          34.750
  22833411.355 8  86435954.094 8     -2114.459    22833403.962 5  85110375.774 5
     -1647.630    22833410.795          45.750          31.750
  23295304.815 8  93057516.861 8      3746.604    23295299.449 5  91196063.875 5
      2919.431    23295304.668          45.500          30.500
  24212664.229 6  93683990.017 6      1224.458    24212659.106 3  94952486.091 3
       954.123    24212663.267          37.750          17.000
  24770492.388 7  96615380.440 7      1252.656    24770487.630 4  97236709.948 4
       976.096    24770492.262          42.000          22.250
  25189578.471 6 111400595.253 6      -600.180    25189576.966 4  98952808.002 4
      -467.673    25189577.625          36.250          20.750
  25753255.520 5 101779816.540 5     -2903.262    25753256.141 1 101260951.021 1
     -2262.282    25753253.943          31.500           8.250
 18  2 21  8  6 30.0000000  0 11G09G06G07G02G30G23G05G16G29G26G03
  20356699.980 9  69226459.639 9      -737.317    20356696.823 8  74968690.063 8
      -574.533    20356699.533          55.750          48.250
  21336211.350 9  78568111.408 9     -1646.469    21336209.111 7  83173897.539 7
     -1282.963    21336210.970          51.250          42.500
  21498264.946 9  75225414.044 9      2620.584    21498259.688 7  83837494.987 7
      2042.014    21498264.466          52.750          41.750
  21752501.584 8  76561431.258 8      1116.281    21752493.774 7  80684231.806 7
       869.829    21752500.444          48.250          38.750
  22737850.621 8  85933793.937 8      3902.427    22737848.900 6  88913404.235 6
      3040.852    22737849.928          45.250          35.000
  22845499.152 8  86499474.685 8     -2120.160    22845491.744 5  85159872.315 5
     -1652.073    22845498.606          45.000          31.500
  23273929.412 8  92945190.147 8      3741.871    23273924.244 5  91108536.570 5
      2915.744    23273929.235          45.000          30.250
  24205733.726 7  93647567.085 7      1204.031    24205727.512 3  94924104.580 3
       938.206    24205732.236          38.750          17.250
  24763396.564 7  96578090.530 7      1233.521    24763391.627 4  97207652.854 4
       961.185    24763396.160          41.750          22.000
  25193055.491 6 111418870.338 6      -617.863    25193054.639 4  98967048.298 4
      -481.452    25193055.389          38.250          20.750
  25769834.100 6 101866941.493 6     -2905.463    25769836.058 2 101328840.500 2
     -2263.997    25769834.082          32.750          12.000
 18  2 21  8  7  0.0000000  0 10G09G06G07G02G30G23G05G16G29G26
  20360946.234 9  69248772.877 9      -750.017    20360942.934 8  74986076.996 8
      -584.429    20360945.596          55.750          48.000
  21345659.103 9  78617759.640 9     -1663.169    21345656.920 7  83212584.451 7
     -1295.976    21345658.623          50.500          42.250
  21483348.433 9  75147027.784 9      2605.312    21483343.358 7  83776414.792 7
      2030.113    21483348.071          53.000          41.500
  21746182.522 8  76528224.548 8      1097.714    21746174.563 7  80658356.444 7
       855.361    21746181.431          47.000          39.250
  22715598.342 8  85816857.059 8      3893.561    22715596.442 6  88822284.628 6
      3033.944    22715597.890          47.000          34.750
  22857620.331 8  86563169.586 8     -2125.961    22857612.056 5  85209504.687 5
     -1656.593    22857619.527          47.250          31.250
  23252582.240 7  92833011.400 7      3736.953    23252577.504 5  91021124.566 5
      2911.911    23252582.063          44.000          29.750
  24198917.399 6  93611744.516 6      1184.031    24198910.753 3  94896190.895 3
       922.622    24198915.861          38.250          16.750
  24756410.657 7  96541377.011 7      1214.425    24756405.782 4  97179044.904 4
       946.305    24756409.709          43.000          22.000
  25196634.983 7 111437681.354 7      -635.914    25196634.185 3  98981706.228 3
      -495.517    25196635.183          38.750          19.250
 18  2 21  8  7 30.0000000  0 11G09G06G07G02G30G23G05G16G29G26G03
  20365264.415 9  69271466.659 9      -762.797    20365261.447 8  75003760.455 8
      -594.387    20365264.040          56.250          48.000
  21355202.399 9  78667909.777 9     -1679.999    21355200.154 7  83251662.460 7
     -1309.090    21355202.066          51.750          42.500
  21468519.205 9  75069100.279 9      2589.918    21468514.232 7  83715692.080 7
      2018.118    21468518.819          52.500          41.250
  21739970.253 8  76495576.554 8      1078.936    21739962.098 7  80632916.444 7
       840.729    21739969.009          49.750          38.750
  22693396.795 8  85700185.134 8      3884.673    22693394.550 6  88731371.478 6
      3027.018    22693395.698          44.750          34.500
  22869773.965 8  86627038.791 8     -2131.877    22869766.161 5  85259272.883 5
     -1661.203    22869772.976          46.500          30.750
  23231264.322 8  92720983.483 8      3731.699    23231259.505 5  90933830.099 5
      2907.817    23231264.071          45.000          30.000
  24192215.191 7  93576524.924 7      1163.758    24192208.598 3  94868747.067 3
       906.824    24192214.004          38.750          16.750
  24749534.632 7  96505241.492 7      1194.790    24749529.367 4  97150887.339 4
       931.005    24749533.735          41.750          22.000
  25200316.884 7 111457028.193 7      -653.857    25200316.089 3  98996781.665 3
      -509.499    25200316.542          38.750          19.000
  25803022.333 5 102041350.607 5     -2908.316    25803024.600 1 101464755.376 1
     -2266.221    25803021.275          28.250           1.000
 18  2 21  8  8  0.0000000  0 12G09G06G07G02G30G23G05G16G29G26G03G04
  20369654.585 9  69294538.026 9      -775.093    20369651.832 8  75021738.132 8
      -603.969    20369654.351          55.000          48.000
  21364840.253 8  78718557.980 8     -1696.413    21364838.220 7  83291128.589 7
     -1321.880    21364840.016          50.000          42.500
  21453777.298 9  74991631.536 9      2574.829    21453772.510 7  83655326.835 7
      2006.361    21453776.956          51.250          42.250
  21733863.357 8  76463487.110 8      1060.457    21733855.545 7  80607911.678 7
       826.330    21733862.269          48.250          39.250
  22671245.200 8  85583778.948 8      3875.898    22671242.966 6  88640665.376 6
      3020.180    22671244.531          46.000          34.500
  22881959.695 8  86691079.246 8     -2137.308    22881952.602 5  85309174.537 5
     -1665.435    22881959.485          46.500          30.750
  23209974.936 8  92609106.537 8      3726.838    23209969.590 5  90846653.272 5
      2904.030    23209974.609          44.750          29.500
  24185626.763 6  93541907.852 6      1143.997    24185621.181 3  94841772.729 3
       891.426    24185625.948          38.250          17.750
  24742768.010 7  96469682.930 7      1175.931    24742762.878 4  97123179.352 4
       916.310    24742767.117          40.500          21.000
  25204100.237 7 111476908.008 7      -671.468    25204099.326 3  99012272.412 3
      -523.222    25204099.662          38.500          18.750
  25819632.574 5 102128632.975 5     -2909.859
                                        26.500
  26249109.338 5 104385572.505 5      -774.923
                                        31.750
 18  2 21  8  8 30.0000000  0 10G09G06G07G02G30G23G05G16G29G26
  20374116.360 9  69317982.796 9      -787.682    20374113.263 8  75040006.773 8
      -613.778    20374115.880          56.000          47.750
  21374572.308 9  78769699.152 9     -1712.914    21374570.257 7  83330978.843 7
     -1334.738    21374572.008          51.500          42.750
  21439122.534 9  74914620.348 9      2559.418    21439117.708 7  83595318.126 7
      1994.351    21439122.118          52.250          42.250
  21727863.035 8  76431953.540 8      1041.878    21727855.040 7  80583340.058 7
       811.853    21727861.722          49.000          39.250
  22649144.497 8  85467638.009 8      3866.974    22649142.092 6  88550165.966 6
      3013.226    22649143.696          46.250          34.750
  22894179.134 8  86755287.048 8     -2143.013    22894171.039 5  85359206.563 5
     -1669.880    22894178.018          46.500          30.750
  23188713.798 8  92497379.062 8      3721.789    23188708.519 5  90759592.917 5
      2900.095    23188713.418          45.500          30.000
  24179152.673 6  93507891.171 6      1124.120    24179148.053 3  94815266.229 3
       875.938    24179152.382          37.750          17.250
  24736109.245 7  96434698.882 7      1156.517    24736105.495 3  97095919.016 3
       901.182    24736109.599          39.750          20.250
  25207982.889 6 111497316.653 6      -688.936    25207982.844 3  99028175.240 3
      -536.833    25207982.781          33.750          19.000
 18  2 21  8  9  0.0000000  0 10G09G06G07G02G30G23G05G16G29G26
  20378649.117 9  69341802.799 9      -800.096    20378646.203 8  75058567.807 8
      -623.452    20378648.655          54.500          48.000
  21384398.248 9  78821334.196 9     -1729.262    21384395.994 7  83371213.933 7
     -1347.477    21384397.831          51.750          42.500
  21424555.967 9  74838071.270 9      2543.985    21424550.963 7  83535669.498 7
      1982.326    21424555.349          52.000          41.750
  21721968.720 8  76400979.691 8      1023.254    21721960.877 7  80559204.590 7
       797.340    21721967.749          50.000          39.250
  22627094.923 8  85351767.964 8      3857.881    22627092.912 6  88459877.634 6
      3006.141    22627094.018          47.500          35.000
  22906428.794 8  86819664.013 8     -2148.516    22906421.731 5  85409370.421 5
     -1674.168    22906428.153          46.000          30.500
  23167482.062 8  92385805.921 8      3716.685    23167477.037 5  90672652.813 5
      2896.118    23167481.876          46.000          30.250
  24172795.112 6  93474479.491 6      1103.796    24172790.690 3  94789231.150 3
       860.101    24172794.567          36.750          18.250
  24729562.842 7  96400292.789 7      1137.379    24729558.471 3  97069109.066 3
       886.269    24729562.467          39.750          20.250
  25211967.910 6 111518256.066 6      -706.776    25211967.649 3  99044491.631 3
      -550.735    25211967.670          37.500          19.750
 18  2 21  8  9 30.0000000  0 11G09G04G06G07G02G30G23G05G16G29G26
  20383251.944 9  69365990.621 9      -812.297    20383249.009 8  75077415.450 8
      -632.958    20383251.462          54.750          47.500
  20464134.768 5 107539755.607 5      -812.132    20464131.806 4 100574420.438 4
      -632.830    20464135.032          31.500          24.500
  21394316.381 9  78873454.832 9     -1745.398    21394314.243 7  83411827.404 7
     -1360.051    21394315.958          51.250          42.500
  21410075.943 9  74761979.829 9      2528.750    21410071.071 7  83476377.479 7
      1970.454    21410075.688          52.500          41.750
  21716180.048 8  76370560.052 8      1004.784    21716172.152 7  80535500.973 7
       782.948    21716179.101          49.500          39.500
  22605096.665 8  85236165.203 8      3848.963    22605094.366 6  88369797.581 6
      2999.192    22605095.796          47.000          35.500
  22918710.689 8  86884202.898 8     -2153.938    22918703.446 5  85459660.438 5
     -1678.393    22918709.897          45.750          31.000
  23146279.252 8  92274381.979 8      3711.666    23146273.970 5  90585828.978 5
      2892.207    23146279.012          44.750          30.750
  24166551.404 7  93441667.508 7      1083.883    24166546.520 3  94763663.349 3
       844.585    24166550.375          38.500          18.000
  24723124.457 7  96366459.409 7      1118.212    24723119.867 3  97042745.383 3
       871.334    24723123.923          40.500          20.250
  25216052.444 6 111539718.837 6      -724.209    25216051.887 3  99061215.840 3
      -564.319    25216051.476          35.250          19.500
 18  2 21  8 10  0.0000000  0 10G09G07G06G02G30G23G05G16G29G26
  20387924.387 9  69390544.199 9      -824.597    20387921.344 8  75096548.100 8
      -642.543    20387923.838          56.750          48.000
  21395683.572 9  74686346.952 9      2513.324    21395678.848 7  83417442.787 7
      1958.434    21395683.150          52.750          41.750
  21404326.220 9  78926058.054 9     -1761.544    21404324.212 7  83452816.912 7
     -1372.631    21404326.046          51.750          42.250
  21710497.006 8  76340694.403 8       986.214    21710488.932 7  80512229.033 7
       768.478    21710495.827          49.000          39.250
  22583148.916 8  85120831.354 8      3839.929    22583147.055 6  88279927.066 6
      2992.153    22583148.182          46.500          35.750
  22931021.849 8  86948901.414 8     -2159.334    22931015.026 5  85510074.852 5
     -1682.598    22931021.282          46.000          30.500
  23125104.452 8  92163108.367 8      3706.543    23125099.347 5  90499122.270 5
      2888.215    23125103.982          45.750          30.750
  24160422.192 7  93409455.755 7      1063.669    24160416.748 3  94738563.268 3
       828.833    24160420.918          39.250          18.000
  24716794.792 7  96333198.071 7      1099.206    24716790.751 4  97016827.447 4
       856.524    24716794.924          40.250          21.000
  25220235.146 6 111561702.864 6      -741.491    25220235.637 3  99078346.232 3
      -577.785    25220235.098          37.250          19.000
 18  2 21  8 10 30.0000000  0 10G09G07G06G02G30G23G05G16G29G26
  20392666.189 9  69415462.057 9      -836.600    20392663.047 8  75115964.603 8
      -651.896    20392665.565          56.750          47.750
  21381378.801 9  74611173.804 9      2498.138    21381373.654 7  83358866.323 7
      1946.601    21381378.277          53.500          41.750
  21414427.544 9  78979141.417 9     -1777.379    21414425.710 7  83494180.549 7
     -1384.971    21414427.481          51.500          42.250
  21704919.052 8  76311383.135 8       967.835    21704911.114 7  80489389.077 7
       754.158    21704918.102          49.250          39.250
  22561253.922 8  85005768.705 8      3830.852    22561251.518 6  88190267.889 6
      2985.079    22561252.987          47.250          36.500
  22943363.852 8  87013758.465 8     -2164.569    22943357.340 5  85560612.790 5
     -1686.677    22943363.270          46.500          30.500
  23103958.354 8  92051986.507 8      3701.460    23103953.312 5  90412533.804 5
      2884.254    23103958.294          45.000          31.250
  24154407.228 6  93377845.055 6      1043.593    24154401.340 3  94713931.558 3
       813.189    24154405.630          37.500          17.750
  24710574.473 7  96300508.856 7      1080.207    24710569.641 3  96991355.315 3
       841.720    24710574.009          41.500          19.750
  25224518.145 6 111584206.756 6      -758.682    25224517.267 3  99095881.712 3
      -591.181    25224518.184          35.500          18.750
 18  2 21  8 11  0.0000000  0 10G09G07G06G02G30G23G05G16G29G26
  20397477.924 9  69440748.351 9      -848.868    20397474.917 8  75135668.197 8
      -661.456    20397477.396          55.000          47.750
  21367162.250 9  74536467.490 9      2482.569    21367157.397 7  83300653.629 7
      1934.469    21367162.035          51.250          42.000
  21424621.225 9  79032708.119 9     -1793.396    21424619.232 7  83535920.824 7
     -1397.451    21424620.848          50.750          42.500
  21699448.029 8  76282632.373 8       949.208    21699440.156 7  80466985.884 7
       739.643    21699446.979          48.500          39.250
  22539410.765 8  84890985.123 8      3821.673    22539408.903 6  88100826.150 6
      2977.927    22539410.111          46.500          36.750
  22955736.478 7  87078778.351 7     -2169.860    22955729.736 5  85611277.611 5
     -1690.800    22955735.597          43.500          29.500
  23082843.015 8  91941023.830 8      3696.222    23082837.871 5  90326069.395 5
      2880.173    23082842.862          47.500          31.250
  24148507.963 7  93346841.354 7      1023.485    24148501.817 3  94689772.816 3
       797.521    24148505.894          40.500          19.250
  24704463.246 7  96268397.516 7      1060.932    24704459.352 4  96966333.466 4
       826.700    24704463.807          38.750          21.250
  25228900.533 6 111607234.598 6      -775.985    25228900.110 3  99113825.455 3
      -604.663    25228899.873          37.500          19.250
 18  2 21  8 11 30.0000000  0 10G09G07G06G02G30G23G05G16G29G26
  20402359.334 9  69466400.057 9      -861.124    20402356.216 8  75155656.532 8
      -671.006    20402358.746          55.750          48.000
  21353035.157 9  74462227.913 9      2466.904    21353030.181 7  83242804.619 7
      1922.263    21353034.744          52.750          42.000
  21434906.151 9  79086754.196 9     -1809.497    21434903.570 7  83578034.637 7
     -1409.998    21434905.459          52.500          42.000
  21694083.282 8  76254440.845 8       930.456    21694075.490 7  80445018.451 7
       725.031    21694082.358          48.000          39.250
  22517621.567 8  84776481.371 8      3812.106    22517619.708 6  88011602.478 6
      2970.472    22517621.240          47.750          37.000
  22968139.543 8  87143957.968 8     -2175.136    22968132.899 5  85662066.907 5
     -1694.911    22968139.063          45.750          29.750
  23061757.742 8  91830220.236 8      3690.779    23061752.988 5  90239728.934 5
      2875.932    23061757.332          46.250          31.250
  24142723.578 7  93316444.313 7      1003.244    24142717.058 3  94666086.801 3
       781.749    24142721.711          40.250          19.000
  24698462.570 7  96236863.080 7      1041.674    24698458.634 4  96941761.162 4
       811.694    24698462.741          40.000          21.500
  25233381.833 6 111630783.379 6      -793.531    25233380.742 3  99132175.111 3
      -618.336    25233381.324          38.250          19.250
 18  2 21  8 12  0.0000000  0 10G09G07G06G02G30G23G05G16G29G26
  20407310.127 9  69492416.427 9      -873.310    20407306.811 8  75175929.023 8
      -680.502    20407309.471          55.750          47.500
  21338997.160 9  74388457.128 9      2451.158    21338992.093 7  83185320.905 7
      1909.994    21338996.809          52.250          42.000
  21445281.456 9  79141277.912 9     -1825.443    21445279.309 7  83620520.635 7
     -1422.423    21445281.018          50.750          41.750
  21688825.297 8  76226809.425 8       911.672    21688817.388 7  80423487.468 7
       710.394    21688824.193          49.500          39.250
  22495885.499 8  84662260.420 8      3802.620    22495883.925 6  87922599.164 6
      2963.081    22495885.199          47.000          36.750
  22980573.786 8  87209297.083 8     -2180.686    22980566.411 5  85712980.474 5
     -1699.236    22980573.054          45.500          29.750
  23040702.560 8  91719577.401 8      3685.327    23040698.281 5  90153513.739 5
      2871.684    23040702.727          44.750          31.000
  24137054.713 7  93286655.396 7       982.559    24137048.525 3  94642874.654 3
       765.631    24137053.517          39.500          18.750
  24692572.176 7  96205906.033 7      1022.391    24692567.649 4  96917638.768 4
       796.668    24692571.711          39.750          21.000
  25237961.808 7 111654852.222 7      -810.893    25237961.397 3  99150930.028 3
      -631.865    25237961.439          39.000          19.250
 18  2 21  8 12 30.0000000  0 10G09G07G06G02G30G23G05G16G29G26
  20412329.471 9  69518794.931 9      -885.308    20412326.395 8  75196483.695 8
      -689.850    20412329.145          54.500          47.750
  21325048.443 9  74315155.555 9      2435.584    21325043.356 7  83128202.812 7
      1897.857    21325048.047          52.250          42.500
  21455747.216 9  79196275.728 9     -1841.118    21455745.142 7  83663376.059 7
     -1434.637    21455746.749          50.500          41.750
  21683673.393 8  76199737.466 8       893.092    21683665.716 7  80402392.430 7
       695.916    21683672.494          47.750          39.250
  22474204.985 8  84548323.519 8      3793.207    22474202.634 6  87833817.195 6
      2955.746    22474204.079          47.750          37.000
  22993036.830 8  87274792.898 8     -2185.766    22993029.464 5  85764016.153 5
     -1703.194    22993036.278          45.250          29.500
  23019679.718 8  91609096.329 8      3680.008    23019674.388 5  90067424.597 5
      2867.539    23019679.011          44.500          31.500
  24131501.918 7  93257474.130 7       962.662    24131495.889 3  94620135.999 3
       750.126    24131499.370          39.500          17.250
  24686791.326 7  96175525.693 7      1003.064    24686786.218 4  96893965.766 4
       781.609    24686790.532          39.500          21.500
  25242640.396 6 111679438.561 6      -828.141    25242640.111 3  99170088.185 3
      -645.305    25242640.312          37.250          19.250
 18  2 21  8 13  0.0000000  0 10G09G07G06G02G30G05G23G16G29G26
  20417417.636 9  69545532.414 9      -897.179    20417414.497 8  75217318.093 8
      -699.100    20417417.207          54.000          47.750
  21311188.813 9  74242322.306 9      2419.987    21311183.435 7  83071449.645 7
      1885.704    21311188.357          52.500          42.250
  21466302.225 8  79251743.486 8     -1856.781    21466300.352 7  83706597.670 7
     -1446.843    21466301.883          47.750          42.000
  21678628.462 8  76173223.793 8       874.538    21678620.472 7  80381732.418 7
       681.458    21678627.224          48.750          39.250
  22452576.985 8  84434671.201 8      3783.753    22452575.154 6  87745256.978 6
      2948.379    22452576.017          47.750          36.250
  22998686.326 8  91498776.473 8      3674.661    22998680.822 5  89981461.076 5
      2863.372    22998686.092          45.500          31.750
  23005530.282 8  87340442.399 8     -2190.878    23005522.676 5  85815171.587 5
     -1707.178    23005529.008          46.000          29.500
  24126063.533 7  93228899.726 7       942.448    24126058.068 3  94597870.224 3
       734.375    24126062.406          39.750          18.750
  24681119.265 7  96145720.191 7       983.913    24681114.678 4  96870740.675 4
       766.685    24681119.343          39.750          21.500
  25247417.439 6 111704539.131 6      -844.954    25247416.428 3  99189647.042 3
      -658.406    25247416.683          37.500          18.750
 18  2 21  8 13 30.0000000  0 10G09G07G06G02G30G05G23G16G29G26
  20422574.588 9  69572631.778 9      -909.437    20422571.479 8  75238434.480 8
      -708.652    20422574.057          55.500          48.000
  21297419.429 9  74169963.766 9      2403.882    21297414.018 7  83015066.379 7
      1873.155    21297418.926          52.750          42.500
  21476947.259 8  79307682.984 8     -1872.583    21476945.247 7  83750186.853 7
     -1459.156    21476946.941          49.750          41.500
  21673690.017 8  76147272.847 8       855.386    21673682.051 7  80361510.898 7
       666.535    21673688.749          47.750          39.250
  22431005.128 8  84321310.142 8      3773.725    22431003.312 6  87656923.703 6
      2940.565    22431004.595          46.750          36.500
  22977724.366 8  91388622.497 8      3668.833    22977719.747 5  89895626.813 5
      2858.831    22977724.378          46.750          32.000
  23018052.346 8  87406248.718 8     -2196.227    23018044.518 5  85866449.210 5
     -1711.345    23018051.339          45.500          29.250
  24120740.904 6  93200937.562 6       921.782    24120737.333 3  94576081.528 3
       718.271    24120741.554          37.500          18.750
  24675557.674 7  96116494.083 7       964.344    24675552.359 4  96847967.086 4
       751.437    24675557.743          39.750          20.750
  25252291.126 6 111730156.779 6      -862.761    25252291.542 3  99209608.839 3
      -672.282    25252291.515          36.250          17.750
 18  2 21  8 14  0.0000000  0 10G09G07G06G02G30G05G23G16G29G26
  20427800.225 9  69600093.883 9      -921.393    20427797.401 8  75259833.516 8
      -717.968    20427799.961          54.750          47.750
  21283741.045 9  74098083.239 9      2388.029    21283735.690 7  82959055.592 7
      1860.802    21283740.478          53.750          42.750
  21487681.870 8  79364094.113 8     -1888.132    21487679.997 7  83794143.515 7
     -1471.272    21487681.556          49.000          42.000
  21668859.329 8  76121887.234 8       836.785    21668851.273 7  80341729.894 7
       652.040    21668858.229          49.750          39.250
  22409489.287 8  84208244.921 8      3763.816    22409487.234 6  87568820.962 6
      2932.843    22409488.550          47.250          36.000
  22956795.642 8  91278640.002 8      3663.192    22956790.582 5  89809926.169 5
      2854.435    22956795.285          46.750          32.250
  23030604.542 7  87472212.879 7     -2201.485    23030597.647 5  85917849.843 5
     -1715.443    23030604.108          43.250          29.250
  24115537.766 6  93173590.231 6       901.387    24115533.035 3  94554771.920 3
       702.380    24115538.065          38.000          18.750
  24670107.165 7  96087849.671 7       945.049    24670102.258 4  96825646.729 4
       736.402    24670106.506          40.500          21.250
  25257265.156 6 111756292.187 6      -879.678    25257265.180 3  99229974.064 3
      -685.463    25257264.566          36.750          16.250
 18  2 21  8 14 30.0000000  0 10G09G07G06G02G30G05G23G16G29G26
  20433094.443 9  69627913.375 9      -933.169    20433091.259 8  75281511.041 8
      -727.144    20433093.733          55.750          48.000
  21270152.868 9  74026678.054 9      2372.312    21270147.669 7  82903415.197 7
      1848.555    21270152.367          52.250          42.250
  21498505.325 9  79420970.542 9     -1903.576    21498503.434 7  83838462.764 7
     -1483.306    21498504.963          50.750          41.750
  21664135.496 8  76097063.617 8       818.191    21664127.477 7  80322386.812 7
       637.552    21664134.480          48.750          39.500
  22388029.751 8  84095473.896 8      3754.235    22388027.883 6  87480947.458 6
      2925.378    22388029.151          46.750          36.250
  22935898.441 8  91168826.689 8      3657.691    22935893.959 6  89724357.367 6
      2850.149    22935898.513          45.750          32.500
  23043186.766 8  87538329.516 8     -2206.374    23043179.031 5  85969369.259 5
     -1719.253    23043185.710          44.500          28.750
  24110451.226 7  93146854.525 7       881.114    24110445.161 3  94533938.884 3
       686.583    24110449.940          40.000          19.000
  24664766.300 7  96059783.302 7       925.915    24664761.347 4  96803776.819 4
       721.492    24664765.907          40.000          22.250
  25262336.796 6 111782939.822 6      -896.412    25262335.354 3  99250738.440 3
      -698.503    25262336.358          36.750          16.250
 18  2 21  8 15  0.0000000  0 10G09G07G06G02G30G05G23G16G29G26
  20438455.907 9  69656088.683 9      -945.067    20438452.906 8  75303465.819 8
      -736.416    20438455.482          55.500          47.750
  21256655.342 9  73955749.352 9      2356.333    21256650.431 7  82848146.097 7
      1836.104    21256655.045          52.250          42.500
  21509416.764 8  79478309.595 8     -1919.070    21509414.512 7  83883142.494 7
     -1495.379    21509416.128          50.000          41.750
  21659518.761 8  76072801.829 8       799.319    21659510.703 7  80303481.517 7
       622.846    21659517.580          49.000          39.500
  22366626.970 8  83982999.243 8      3744.180    22366624.149 6  87393304.909 6
      2917.543    22366625.999          48.750          36.250
  22915033.779 8  91059183.548 8      3651.965    22915029.300 5  89638921.160 5
      2845.687    22915033.986          45.500          32.250
  23055796.678 8  87604597.191 8     -2211.488    23055789.825 5  86021006.411 5
     -1723.238    23055796.285          44.750          29.250
  24105479.633 7  93120731.215 7       860.632    24105474.105 3  94513583.062 3
       670.622    24105478.356          39.000          18.750
  24659535.461 7  96032294.545 7       906.675    24659530.610 4  96782357.007 4
       706.500    24659535.185          42.000          22.500
  25267504.619 6 111810098.089 6      -914.037    25267503.081 2  99271900.693 2
      -712.236    25267502.826          34.000          12.750
 18  2 21  8 15 30.0000000  0 10G09G07G06G02G30G05G23G16G29G26
  20443884.660 9  69684616.927 9      -956.865    20443881.668 8  75325695.616 8
      -745.609    20443884.189          56.500          48.000
  21243248.839 9  73885297.186 9      2340.435    21243243.760 7  82793248.317 7
      1823.716    21243248.365          52.750          42.500
  21520415.070 9  79536107.302 9     -1934.308    21520413.121 7  83928179.633 7
     -1507.253    21520414.716          51.000          41.250
  21655008.534 8  76049100.849 8       780.590    21655000.541 7  80285013.214 7
       608.252    21655007.349          48.750          39.500
  22345279.940 8  83870821.763 8      3734.284    22345277.904 6  87305893.889 6
      2909.832    22345279.280          46.500          36.500
  22894201.804 8  90949710.468 8      3646.247    22894197.325 5  89553617.470 5
      2841.231    22894201.915          45.500          32.000
  23068435.565 8  87671013.426 8     -2216.318    23068428.625 5  86072759.291 5
     -1727.001    23068434.864          44.750          28.750
  24100623.633 7  93095218.938 7       840.155    24100618.957 3  94493703.358 3
       654.666    24100623.660          39.250          18.500
  24654413.794 7  96005382.195 7       887.478    24654409.064 4  96761386.338 4
       691.541    24654413.851          40.250          22.500
  25272769.115 5 111837763.705 5      -930.441    25272769.058 2  99293458.328 2
      -725.019    25272769.007          31.250          12.250
 18  2 21  8 16  0.0000000  0 10G09G07G06G02G30G05G23G16G29G26
  20449380.935 9  69713500.934 9      -968.661    20449378.129 8  75348202.628 8
      -754.801    20449380.656          55.750          47.750
  21229933.818 9  73815327.252 9      2324.350    21229928.940 7  82738726.305 7
      1811.182    21229933.587          54.000          42.500
  21531500.939 9  79594365.445 9     -1949.507    21531499.410 7  83973575.546 7
     -1519.096    21531500.798          50.500          41.000
  21650605.922 8  76025965.109 8       761.886    21650598.029 7  80266985.353 7
       593.678    21650604.801          50.000          39.250
  22323990.916 8  83758948.010 8      3724.128    22323989.036 6  87218719.554 6
      2901.918    22323990.409          48.500          37.000
  22873403.243 8  90840412.415 8      3640.373    22873398.564 5  89468450.168 5
      2836.654    22873403.145          46.000          32.250
  23081103.002 8  87737581.239 8     -2221.373    23081095.435 5  86124630.288 5
     -1730.940    23081102.255          45.000          28.500
  24095886.523 6  93070322.918 6       819.665    24095881.040 3  94474303.861 3
       638.700    24095886.586          38.250          17.750
  24649403.627 7  95979050.692 7       868.119    24649398.270 4  96740868.277 4
       676.456    24649403.318          42.250          22.750
  25278130.699 5 111865939.612 5      -948.075    25278130.226 2  99315413.528 2
      -738.760    25278130.178          31.250          11.000
 18  2 21  8 16 30.0000000  0 10G09G07G06G02G30G05G23G16G29G26
  20454944.717 9  69742737.413 9      -980.567    20454941.627 8  75370984.294 8
      -764.078    20454944.085          56.250          47.750
  21216710.698 9  73745838.528 9      2308.139    21216705.682 7  82684579.262 7
      1798.550    21216710.314          53.250          42.500
  21542674.099 8  79653079.624 8     -1964.864    21542672.246 7  84019326.803 7
     -1531.063    21542673.826          50.250          40.750
  21646310.736 8  76003392.851 8       742.894    21646302.794 7  80249396.576 7
       578.878    21646309.453          49.750          39.750
  22302759.905 8  83647378.449 8      3713.733    22302758.091 6  87131782.245 6
      2893.818    22302759.263          46.500          37.250
  22852637.831 8  90731289.971 8      3634.278    22852633.229 5  89383419.712 5
      2831.905    22852637.705          45.250          32.250
  23093798.511 8  87804297.209 8     -2226.464    23093791.451 5  86176616.743 5
     -1734.907    23093797.729          44.500          28.750
  24091267.258 7  93046041.889 7       799.075    24091261.082 3  94455383.585 3
       622.656    24091266.265          39.750          17.750
  24644502.902 7  95953298.002 7       848.706    24644497.985 4  96720801.210 4
       661.329    24644502.761          40.750          22.500
  25283588.652 5 111894623.894 5      -964.155    25283584.620 1  99337768.221 1
      -751.289    25283590.864          27.750           1.000
 18  2 21  8 17  0.0000000  0 11G04G09G07G06G02G30G05G23G16G29G26
  20446509.337 5 111641439.144 5      -991.598    20446505.770 4 100502249.685 4
      -772.674    20446508.627          32.250          24.500
  20460575.845 9  69772329.727 9      -992.193    20460572.844 8  75394043.233 8
      -773.138    20460575.362          55.000          47.750
  21203580.262 9  73676837.326 9      2292.008    21203575.180 7  82630812.107 7
      1785.980    21203579.800          52.500          42.500
  21553934.454 8  79712252.040 8     -1979.946    21553932.481 7  84065435.098 7
     -1542.815    21553934.247          47.750          41.000
  21642123.193 8  75981389.215 8       724.097    21642115.632 7  80232250.875 7
       564.231    21642122.258          48.500          39.250
  22281588.228 8  83536120.111 8      3703.570    22281586.601 6  87045087.456 6
      2885.899    22281587.635          48.250          37.500
  22831907.371 8  90622349.624 8      3628.397    22831902.599 6  89298531.142 6
      2827.323    22831907.054          46.500          32.500
  23106523.025 8  87871164.931 8     -2231.338    23106516.157 5  86228721.436 5
     -1738.705    23106522.314          45.000          29.000
  24086765.026 6  93022381.105 6       778.487    24086758.601 3  94436946.598 3
       606.614    24086763.533          38.250          17.750
  24639713.127 7  95928128.505 7       829.405    24639708.615 4  96701188.613 4
       646.290    24639713.001          43.750          22.750
  25289145.164 5 111923816.129 5      -980.935    25289155.840 1  99360513.425 1
      -764.365    25289140.427          30.250           1.000
 18  2 21  8 17 30.0000000  0 10G09G07G06G02G30G05G23G16G29G26
  20466273.098 9  69802269.223 9     -1003.693    20466270.004 8  75417372.704 8
      -782.098    20466272.699          55.250          47.500
  21190541.445 9  73608317.626 9      2276.011    21190536.370 7  82577420.146 7
      1773.515    21190540.957          53.500          42.750
  21565279.961 8  79771873.058 8     -1994.658    21565277.965 7  84111892.991 7
     -1554.279    21565279.680          50.000          41.250
  21638043.221 9  75959946.741 9       705.505    21638035.259 7  80215542.445 7
       549.744    21638042.070          50.500          39.500
  22260474.370 8  83425168.055 8      3693.259    22260472.907 6  86958631.330 6
      2877.864    22260474.094          47.250          38.000
  22811211.022 8  90513586.118 8      3622.576    22811205.899 6  89213780.372 6
      2822.787    22811210.288          47.250          32.750
  23119275.006 8  87938175.729 8     -2235.934    23119267.832 5  86280937.624 5
     -1742.286    23119274.298          45.750          29.000
  24082379.515 7  92999334.087 7       757.981    24082372.940 3  94418987.900 3
       590.635    24082377.833          39.250          17.250
  24635033.528 7  95903535.435 7       810.290    24635028.243 4  96682025.150 4
       631.394    24635032.914          41.000          22.250
  25294794.531 5 111953512.162 5      -997.974    25294814.461 1  99383652.752 1
      -777.642    25294770.755          27.500           1.000
 18  2 21  8 18  0.0000000  0 10G09G07G06G02G30G05G23G16G29G26
  20472036.365 9  69832554.534 9     -1015.361    20472033.064 8  75440971.641 8
      -791.190    20472035.808          56.250          47.500
  21177594.383 9  73540280.688 9      2259.721    21177589.389 7  82524404.360 7
      1760.821    21177594.042          52.000          42.500
  21576710.301 8  79831940.081 8     -2009.715    21576708.416 7  84158698.436 7
     -1566.012    21576710.061          50.000          41.000
  21634069.727 9  75939065.927 9       686.519    21634061.822 7  80199271.673 7
       534.950    21634068.420          50.500          39.250
  22239419.904 8  83314524.571 8      3682.826    22239418.495 6  86872415.654 6
      2869.734    22239419.274          47.750          38.000
  22790547.518 8  90405000.104 8      3616.417    22790542.248 6  89129167.917 6
      2817.988    22790547.302          46.750          32.750
  23132053.734 8  88005328.794 8     -2240.898    23132046.452 5  86333264.664 5
     -1746.154    23132053.072          45.750          28.500
  24078109.205 6  92976901.303 6       737.539    24078104.165 3  94401507.812 3
       574.706    24078109.166          37.000          17.750
  24630463.186 7  95879518.439 7       790.867    24630458.252 4  96663310.598 4
       616.260    24630462.802          42.250          22.750
  25300541.169 5 111983706.433 5     -1015.395    25300536.429 2  99407176.504 2
      -791.217    25300537.242          29.500          10.500
 18  2 21  8 18 30.0000000  0 10G09G07G06G02G30G05G23G16G29G26
  20477866.330 9  69863192.231 9     -1027.079    20477863.398 8  75464845.166 8
      -800.322    20477865.883          55.250          47.500
  21164740.899 9  73472735.777 9      2243.334    21164735.856 7  82471771.975 7
      1748.052    21164740.467          52.500          43.000
  21588226.640 8  79892458.582 8     -2024.728    21588224.757 7  84205855.669 7
     -1577.710    21588226.394          48.000          40.750
  21630204.407 8  75918755.098 8       667.584    21630196.603 7  80183445.047 7
       520.195    21630203.598          48.000          39.000
  22218426.218 8  83204200.028 8      3672.198    22218424.218 6  86786448.502 6
      2861.453    22218425.234          48.000          38.250
  22769919.890 8  90296602.120 8      3610.190    22769914.599 6  89044701.967 6
      2813.135    22769919.792          47.750          32.750
  23144860.781 8  88072630.893 8     -2245.825    23144853.754 5  86385707.839 5
     -1749.994    23144860.389          44.500          28.750
  24073958.638 6  92955091.173 6       716.705    24073954.120 3  94384512.902 3
       558.471    24073958.632          36.500          18.250
  24626004.343 7  95856085.510 7       771.497    24625999.546 4  96645051.139 4
       601.167    24626003.698          42.500          23.500
  25306381.932 5 112014403.978 5     -1030.772    25306376.188 1  99431114.746 1
      -803.199    25306376.287          30.500           4.250
 18  2 21  8 19  0.0000000  0 10G09G07G06G02G30G05G23G16G29G26
  20483762.915 9  69894178.981 9     -1038.561    20483760.022 8  75488990.679 8
      -809.268    20483762.549          55.250          47.250
  21151981.174 9  73405682.213 9      2227.047    21151976.090 7  82419522.459 7
      1735.361    21151980.542          53.250          42.500
  21599828.536 9  79953424.070 9     -2039.495    21599826.254 7  84253361.235 7
     -1589.217    21599827.861          50.500          40.500
  21626448.128 9  75899012.237 9       648.795    21626439.730 7  80168060.995 7
       505.554    21626446.512          50.750          39.500
  22197492.700 8  83094194.678 8      3661.612    22197490.814 6  86700730.076 6
      2853.204    22197491.917          46.750          38.250
  22749327.995 8  90188391.219 8      3604.028    22749322.857 6  88960381.802 6
      2808.333    22749327.779          45.250          32.750
  23157696.398 8  88140078.730 8     -2250.502    23157688.667 5  86438264.560 5
     -1753.638    23157695.097          46.000          28.750
  24069926.151 6  92933902.329 6       696.041    24069921.309 3  94368002.096 3
       542.370    24069925.983          37.750          17.500
  24621656.036 7  95833234.566 7       752.131    24621650.715 4  96627245.194 4
       586.076    24621655.479          42.500          23.750
  25312318.722 5 112045596.643 5     -1045.507    25312320.752 1  99455418.90211
      -814.681    25312320.044          28.750           1.000
 18  2 21  8 19 30.0000000  0  9G09G07G06G02G30G05G23G16G29
  20489724.888 9  69925509.348 9     -1050.213    20489721.932 8  75513403.944 8
      -818.348    20489724.567          55.500          47.500
  21139314.265 9  73339117.234 9      2210.528    21139309.028 7  82367653.655 7
      1722.489    21139313.615          53.250          42.500
  21611513.202 8  80014829.870 8     -2054.315    21611511.343 7  84301209.851 7
     -1600.765    21611512.890          50.250          40.750
  21622798.049 8  75879833.496 8       629.737    21622789.937 7  80153116.514 7
       490.704    21622796.997          47.500          39.250
  22176620.222 8  82984506.836 8      3650.811    22176617.596 7  86615259.045 7
      2844.788    22176619.299          47.750          38.500
  22728771.025 8  90080365.303 8      3597.467    22728766.298 6  88876205.771 6
      2803.221    22728771.019          44.750          32.750
  23170557.708 8  88207667.244 8     -2255.442    23170550.552 5  86490930.913 5
     -1757.487    23170557.048          46.000          29.000
  24066013.221 6  92913331.220 6       675.243    24066007.129 3  94351972.661 3
       526.163    24066011.896          36.750          17.000
  24617417.061 7  95810961.259 7       732.634    24617412.570 4  96609889.367 4
       570.884    24617416.821          42.000          23.000
 18  2 21  8 20  0.0000000  0  9G09G07G02G06G30G05G23G16G29
  20495753.426 9  69957187.913 9     -1061.749    20495750.152 8  75538088.532 8
      -827.337    20495752.896          55.750          47.250
  21126741.626 9  73273047.959 9      2194.057    21126736.425 7  82316171.118 7
      1709.655    21126741.161          53.000          42.750
  21619256.715 8  75861224.911 8       610.712    21619248.941 7  80138616.313 7
       475.880    21619255.891          48.500          39.250
  21623282.595 8  80076679.502 8     -2068.995    21623280.907 7  84349404.322 7
     -1612.204    21623282.439          48.750          40.000
  22155808.933 8  82875144.815 8      3639.912    22155806.591 6  86530041.920 6
      2836.295    22155808.117          49.000          38.250
  22708250.609 8  89972531.899 8      3591.171    22708246.097 5  88792179.752 5
      2798.315    22708250.825          45.750          32.250
  23183446.835 8  88275401.268 8     -2260.264    23183440.080 5  86543710.642 5
     -1761.245    23183446.205          45.000          28.750
  24062217.611 7  92893384.261 7       654.357    24062211.412 3  94336429.579 3
       509.888    24062216.367          39.250          16.750
  24613289.962 7  95789271.533 7       713.174    24613284.680 4  96592988.276 4
       555.720    24613289.470          40.750          23.250
 18  2 21  8 20 30.0000000  0  9G09G07G02G06G30G05G23G16G29
  20501847.445 9  69989212.024 9     -1073.149    20501844.199 8  75563042.375 8
      -836.220    20501846.840          54.750          47.250
  21114263.398 9  73207474.403 9      2177.530    21114258.154 7  82265074.850 7
      1696.777    21114262.978          53.250          43.000
  21615824.103 8  75843185.291 8       591.883    21615816.165 7  80124559.458 7
       461.207    21615823.126          49.750          39.500
  21635136.017 8  80138969.085 8     -2083.732    21635134.365 7  84397941.636 7
     -1623.687    21635135.771          46.500          40.500
  22135060.423 8  82766109.484 8      3629.028    22135058.003 6  86445079.339 6
      2827.814    22135059.496          49.500          38.250
  22687767.910 8  89864891.428 8      3584.716    22687762.994 6  88708304.063 6
      2793.285    22687767.592          46.250          32.500
  23196363.390 8  88343278.022 8     -2264.934    23196356.267 5  86596601.597 5
     -1764.884    23196362.841          45.000          28.500
  24058539.629 7  92874060.272 7       633.751    24058533.777 3  94321371.909 3
       493.832    24058538.831          39.250          17.000
  24609272.803 7  95768164.025 7       693.886    24609267.778 4  96576540.863 4
       540.691    24609272.638          40.750          22.250
 18  2 21  8 21  0.0000000  0  9G09G07G02G06G30G05G23G16G29
  20508006.654 9  70021579.213 9     -1084.675    20508003.624 8  75588263.553 8
      -845.201    20508006.133          54.500          47.250
  21101879.445 9  73142396.342 9      2160.989    21101874.246 7  82214364.688 7
      1683.888    21101878.959          52.500          42.750
  21612499.336 8  75825713.509 8       572.854    21612491.404 7  80110945.074 7
       446.379    21612498.344          46.500          39.500
  21647072.305 8  80201694.867 8     -2098.173    21647070.785 7  84446818.827 7
     -1634.940    21647072.053          49.750          40.250
  22114374.152 8  82657402.112 8      3617.988    22114371.277 6  86360372.313 6
      2819.211    22114373.262          48.000          38.000
  22667321.144 8  89757444.275 8      3578.373    22667316.719 6  88624579.020 6
      2788.343    22667321.111          45.500          33.000
  23209306.830 8  88411295.227 8     -2269.567    23209299.404 5  86649601.995 5
     -1768.494    23209306.120          44.750          27.750
  24054980.031 6  92855358.969 6       612.998    24054975.594 3  94306799.441 3
       477.661    24054979.497          34.500          16.500
  24605366.705 7  95747637.314 7       674.405    24605362.373 4  96560546.003 4
       525.510    24605366.540          41.500          23.000
 18  2 21  8 21 30.0000000  0  9G09G07G02G06G30G05G23G16G29
  20514231.875 9  70054292.508 9     -1096.227    20514228.568 8  75613754.428 8
      -854.202    20514231.197          56.250          47.250
  21089590.649 9  73077819.765 9      2144.152    21089585.742 7  82164045.289 7
      1670.768    21089590.484          53.000          43.000
  21609283.354 8  75808813.964 8       553.726    21609275.545 7  80097776.587 7
       431.475    21609282.419          48.250          39.000
  21659092.097 8  80264858.750 8     -2112.753    21659090.406 7  84496037.392 7
     -1646.301    21659091.701          49.500          40.000
  22093751.771 8  82549029.399 8      3606.773    22093748.659 6  86275926.062 6
      2810.472    22093750.731          48.750          38.250
  22646913.216 8  89650196.443 8      3571.619    22646907.916 6  88541009.285 6
      2783.079    22646912.569          48.750          33.250
  23222276.751 8  88479456.467 8     -2274.451    23222270.261 5  86702714.623 5
     -1772.299    23222276.386          44.500          27.250
  24051540.647 6  92837285.065 6       592.113    24051536.225 3  94292715.864 3
       461.387    24051540.827          34.000          16.750
  24601572.358 7  95727695.541 7       654.931    24601567.621 4  96545006.948 4
       510.336    24601571.725          42.250          22.750
 18  2 21  8 22  0.0000000  0 10G09G26G07G02G06G30G05G23G16G29
  20520521.928 9  70087347.570 9     -1107.440    20520518.747 8  75639511.612 8
      -862.940    20520521.296          55.000          47.250
  20541434.401 5 116334555.544 5     -1107.187    20541442.444 4 100890939.597 4
      -862.743    20541444.615          31.500          23.250
  21077397.310 9  73013742.649 9      2127.622    21077392.286 7  82114115.078 7
      1657.887    21077397.017          52.750          43.000
  21606175.976 8  75792483.989 8       534.910    21606167.995 7  80085051.920 7
       416.813    21606174.905          47.000          39.500
  21671194.625 8  80328455.048 8     -2127.026    21671192.620 7  84545592.913 7
     -1657.423    21671193.903          49.750          40.250
  22073192.196 8  82440990.646 8      3595.751    22073189.522 6  86191740.035 6
      2801.884    22073191.321          48.750          38.000
  22626542.271 8  89543147.483 8      3564.999    22626537.450 6  88457594.527 6
      2777.921    22626542.100          48.500          33.500
  23235274.622 7  88547757.354 7     -2278.992    23235267.328 5  86755936.076 5
     -1775.838    23235273.633          43.250          27.250
  24048221.516 6  92819835.997 6       571.171    24048216.542 3  94279119.164 3
       445.068    24048220.367          37.250          17.500
  24597888.835 7  95708335.828 7       635.714    24597883.412 4  96529921.435 4
       495.362    24597887.989          41.500          22.500
 18  2 21  8 22 30.0000000  0  9G09G07G02G06G30G05G23G16G29
  20526875.790 9  70120738.329 9     -1118.699    20526872.828 8  75665530.378 8
      -871.713    20526875.376          55.500          47.000
  21065298.499 9  72950161.557 9      2111.006    21065293.346 7  82064571.361 7
      1644.939    21065297.930          53.500          43.250
  21603175.881 8  75776718.898 8       515.989    21603168.191 7  80072767.426 7
       402.069    21603174.930          49.500          39.250
  21683377.117 8  80392476.677 8     -2141.222    21683375.337 7  84595479.849 7
     -1668.484    21683376.911          49.750          40.000
  22052696.183 8  82333283.428 8      3584.596    22052693.539 6  86107812.336 6
      2793.191    22052695.446          47.500          38.250
  22606208.832 8  89436293.505 8      3558.427    22606203.610 6  88374331.690 6
      2772.800    22606208.625          48.250          33.750
  23248297.439 7  88616192.314 7     -2283.464    23248289.959 5  86809261.995 5
     -1779.322    23248296.557          44.250          27.750
  24045019.007 7  92803007.123 7       550.673    24045014.264 3  94266005.749 3
       429.096    24045018.359          39.000          17.750
  24594313.939 7  95689553.153 7       616.344    24594308.977 4  96515285.589 4
       480.268    24594313.570          41.000          22.500
 18  2 21  8 23  0.0000000  0  9G09G07G02G06G30G05G23G16G29
  20533293.965 9  70154466.430 9     -1129.832    20533291.060 8  75691812.010 8
      -880.389    20533293.603          54.750          47.000
  21053294.477 9  72887080.300 9      2094.418    21053289.386 7  82015417.150 7
      1632.014    21053293.934          53.250          43.250
  21600284.056 8  75761521.620 8       497.218    21600276.105 7  80060925.379 7
       387.443    21600283.099          49.250          39.250
  21695640.910 8  80456923.863 8     -2155.173    21695639.121 7  84645698.387 7
     -1679.356    21695640.671          48.500          40.000
  22032264.275 8  82225913.055 8      3573.466    22032262.110 7  86024147.132 7
      2784.519    22032263.483          49.000          38.750
  22585912.973 8  89329639.377 8      3551.845    22585907.906 6  88291224.586 6
      2767.671    22585912.715          47.000          34.000
  23261345.890 8  88684762.849 8     -2287.774    23261338.734 5  86862693.571 5
     -1782.681    23261345.234          46.500          27.750
  24041935.234 6  92786801.866 6       530.092    24041930.500 3  94253378.264 3
       413.059    24041934.040          37.000          17.500
  24590849.978 7  95671350.061 7       597.216    24590845.064 4  96501101.354 4
       465.363    24590849.591          40.750          21.500
 18  2 21  8 23 30.0000000  0 10G09G07G02G06G30G05G23G16G29G26
  20539777.007 9  70188533.670 9     -1141.209    20539773.850 8  75718357.900 8
      -889.254    20539776.408          54.750          47.000
  21041386.420 9  72824503.529 9      2077.451    21041381.468 7  81966656.044 7
      1618.793    21041385.914          51.500          43.250
  21597500.881 8  75746895.084 8       478.030    21597492.820 7  80049528.074 7
       372.491    21597499.625          47.000          39.250
  21707985.905 8  80521797.305 8     -2169.643    21707984.208 7  84696249.080 7
     -1690.631    21707985.848          48.000          39.500
  22011897.374 8  82118884.917 8      3561.986    22011895.182 7  85940748.602 7
      2775.574    22011896.597          48.750          39.500
  22565656.371 8  89223190.424 8      3544.720    22565651.410 6  88208277.361 6
      2762.119    22565655.972          46.250          33.500
  23274420.700 7  88753471.098 7     -2292.569    23274413.544 5  86916232.445 5
     -1786.417    23274419.932          43.750          27.750
  24038970.619 6  92771223.675 6       508.976    24038965.385 3  94241239.401 3
       396.605    24038969.387          37.000          18.500
  24587496.697 7  95653729.558 7       577.626    24587492.149 4  96487371.084 4
       450.098    24587496.415          39.500          22.000
  25369994.354 6 112348700.371 6     -1195.636
                                        35.250
 18  2 21  8 24  0.0000000  0 10G09G07G02G06G30G05G23G16G29G26
  20546323.719 9  70222937.674 9     -1152.391    20546320.634 8  75745166.211 8
      -897.967    20546323.284          54.500          47.000
  21029574.520 9  72762431.479 9      2060.622    21029569.543 7  81918288.229 7
      1605.680    21029574.016          53.250          43.500
  21594825.725 8  75732838.484 8       459.035    21594817.898 7  80038574.868 7
       357.690    21594824.784          49.250          39.250
  21720411.625 8  80587093.247 8     -2183.617    21720409.655 7  84747129.001 7
     -1701.519    21720411.253          49.500          39.250
  21991595.920 8  82012200.345 8      3550.397    21991593.818 7  85857617.783 7
      2766.543    21991595.197          48.000          39.500
  22545439.198 8  89116947.454 8      3538.060    22545433.994 6  88125490.646 6
      2756.930    22545438.749          46.750          33.750
  23287521.474 8  88822315.009 8     -2297.080    23287514.330 5  86969877.027 5
     -1789.932    23287520.818          44.750          28.000
  24036124.704 6  92756271.979 6       487.971    24036120.687 3  94229588.721 3
       380.237    24036124.179          38.000          19.500
  24584254.481 7  95636690.105 7       558.255    24584249.933 4  96474093.567 4
       435.004    24584254.085          41.000          21.250
  25376869.351 6 112384825.094 6     -1212.237    25376868.488 2  99719726.823 2
      -944.600    25376867.456          35.500          13.000
 18  2 21  8 24 30.0000000  0 10G09G07G02G06G30G05G23G16G29G26
  20552934.062 9  70257675.584 9     -1163.438    20552931.106 8  75772234.706 8
      -906.576    20552933.579          54.250          47.000
  21017858.387 9  72700863.172 9      2043.868    21017853.363 7  81870312.937 7
      1592.624    21017858.022          54.000          43.250
  21592259.265 8  75719350.280 8       440.164    21592251.272 7  80028064.576 7
       342.985    21592258.021          49.000          39.000
  21732916.760 8  80652807.565 8     -2197.369    21732914.676 7  84798334.921 7
     -1712.236    21732916.157          49.000          39.250
  21971360.286 8  81905860.010 8      3538.947    21971358.010 7  85774755.204 7
      2757.621    21971359.398          48.250          39.500
  22525260.468 8  89010910.026 8      3531.158    22525255.506 6  88042864.086 6
      2751.552    22525260.270          46.500          33.500
  23300646.916 7  88891292.197 7     -2301.402    23300640.155 5  87023625.459 5
     -1793.300    23300646.400          44.000          27.500
  24033399.258 6  92741945.686 6       467.137    24033393.937 3  94218425.373 3
       364.003    24033397.978          37.500          18.500
  24581121.572 7  95620229.769 7       539.119    24581117.258 4  96461267.317 4
       420.093    24581121.404          39.500          21.000
  25383834.642 6 112421432.110 6     -1228.230    25383834.402 3  99748251.767 3
      -957.062    25383833.847          36.250          14.750
 18  2 21  8 25  0.0000000  0 10G09G07G02G06G30G05G23G16G29G26
  20559608.215 9  70292746.851 9     -1174.577    20559604.921 8  75799562.960 8
      -915.255    20559607.481          54.500          47.000
  21006238.459 9  72639800.885 9      2027.004    21006233.740 7  81822731.966 7
      1579.483    21006238.072          54.750          43.500
  21589800.463 8  75706430.981 8       421.184    21589792.791 7  80017997.581 7
       328.196    21589799.387          49.500          39.000
  21745501.373 8  80718938.454 8     -2211.334    21745499.016 7  84849865.453 7
     -1723.117    21745500.761          50.250          39.000
  21951190.324 8  81799867.069 8      3527.318    21951188.193 7  85692163.326 7
      2748.560    21951189.617          48.500          40.000
  22505122.236 8  88905081.421 8      3524.054    22505116.942 6  87960400.249 6
      2746.016    22505121.900          47.250          33.750
  23313798.283 7  88960401.929 7     -2305.816    23313791.523 5  87077477.163 5
     -1796.740    23313797.882          44.000          27.500
  24030791.019 6  92728244.998 6       446.153    24030787.469 3  94207749.491 3
       347.652    24030790.038          37.750          19.250
  24578100.008 7  95604349.225 7       519.656    24578095.023 4  96448892.854 4
       404.926    24578099.271          41.250          20.750
  25390892.251 5 112458520.424 5     -1244.167    25390891.780 2  99777151.729 2
      -969.481    25390891.253          31.500          13.500
 18  2 21  8 25 30.0000000  0 10G09G07G02G06G30G05G23G16G29G26
  20566344.081 9  70328145.550 9     -1185.262    20566340.924 8  75827146.353 8
      -923.581    20566343.596          54.500          46.750
  20994714.590 9  72579241.243 9      2010.375    20994709.559 7  81775542.650 7
      1566.526    20994714.071          53.250          43.000
  21587449.218 8  75694075.805 8       402.566    21587441.618 7  80008370.162 7
       313.688    21587448.333          49.000          38.750
  21758163.050 8  80785478.710 8     -2224.635    21758161.293 7  84901714.989 7
     -1733.482    21758162.774          48.000          39.000
  21931086.227 8  81694219.166 8      3515.992    21931083.859 7  85609840.313 7
      2739.734    21931085.459          49.500          40.000
  22485022.909 8  88799458.132 8      3517.419    22485017.788 6  87878096.407 6
      2740.846    22485022.474          47.500          34.250
  23326973.964 7  89029638.900 7     -2309.912    23326966.943 5  87131428.023 5
     -1799.932    23326973.190          43.750          27.750
  24028303.638 7  92715166.174 7       425.818    24028298.250 3  94197558.206 3
       331.806    24028301.974          39.500          19.750
  24575187.977 7  95589043.440 7       500.639    24575182.782 4  96436966.258 4
       390.108    24575187.372          40.750          21.250
  25398039.867 6 112496083.618 6     -1259.799    25398040.275 2  99806421.712 2
      -981.662    25398038.890          33.500          11.500
 18  2 21  8 26  0.0000000  0 10G09G07G02G06G30G05G23G16G29G26
  20573141.228 9  70363865.058 9     -1195.994    20573138.101 8  75854979.729 8
      -931.944    20573140.691          54.500          46.500
  20983285.125 9  72519179.665 9      1993.710    20983280.319 7  81728741.432 7
      1553.540    20983284.615          53.000          43.000
  21585204.582 8  75682279.508 8       383.881    21585196.928 7  79999178.232 7
       299.128    21585203.554          48.750          39.000
  21770901.942 8  80852420.432 8     -2238.157    21770900.015 7  84953877.362 7
     -1744.019    21770901.567          49.500          39.750
  21911047.290 8  81588913.285 8      3504.477    21911044.879 7  85527783.809 7
      2730.762    21911046.297          48.500          39.500
  22464961.556 8  88694036.683 8      3510.690    22464956.570 6  87795949.824 6
      2735.602    22464961.529          47.500          34.250
  23340172.015 7  89098996.573 7     -2313.854    23340165.447 5  87185472.933 5
     -1803.004    23340171.155          43.250          27.500
  24025932.798 7  92702704.151 7       405.136    24025926.607 3  94187847.532 3
       315.691    24025931.083          41.000          18.750
  24572382.873 7  95574307.064 7       481.791    24572378.589 4  96425483.364 4
       375.421    24572382.837          41.250          21.000
  25405278.644 6 112534114.480 6     -1275.461    25405276.803 2  99836056.139 2
      -993.866    25405278.203          33.250          10.250
 18  2 21  8 26 30.0000000  0 10G09G07G02G06G30G05G23G16G29G26
  20579999.769 9  70399906.650 9     -1206.637    20579996.621 8  75883064.079 8
      -940.237    20579999.277          55.250          46.500
  20971951.501 9  72459619.992 9      1976.979    20971946.390 7  81682331.316 7
      1540.503    20971950.860          53.500          43.500
  21583066.468 8  75671044.815 8       365.169    21583059.015 7  79990423.915 7
       284.547    21583065.551          47.250          39.000
  21783716.850 8  80919763.507 8     -2251.408    21783714.799 7  85006352.495 7
     -1754.344    21783716.613          49.500          39.250
  21891074.133 8  81483954.273 8      3493.015    21891071.668 7  85445997.597 7
      2721.830    21891073.197          49.500          39.250
  22444940.210 8  88588822.571 8      3503.666    22444935.150 6  87713964.813 6
      2730.130    22444939.898          47.000          34.250
  23353393.624 7  89168476.491 7     -2317.901    23353386.837 5  87239613.095 5
     -1806.157    23353392.686          44.000          27.000
  24023678.338 6  92690861.068 6       384.639    24023672.648 3  94178619.125 3
       299.718    24023677.558          38.000          19.750
  24569687.685 7  95560141.994 7       462.746    24569683.206 3  96414445.629 3
       360.581    24569687.328          40.250          20.250
  25412604.642 5 112572613.720 5     -1291.167
                                        30.750
 18  2 21  8 27  0.0000000  0 10G09G07G02G06G30G05G23G16G29G26
  20586919.452 9  70436271.123 9     -1217.356    20586916.706 8  75911400.025 8
      -948.589    20586919.236          54.750          46.750
  20960713.613 9  72400565.461 9      1960.203    20960708.816 7  81636314.811 7
      1527.431    20960713.226          54.000          43.750
  21581036.040 8  75660373.496 8       346.443    21581028.467 7  79982108.589 7
       269.955    21581034.954          47.750          39.250
  21796608.144 8  80987507.384 8     -2264.702    21796606.345 7  85059139.913 7
     -1764.703    21796607.766          48.750          40.000
  21871167.731 8  81379346.579 8      3481.105    21871165.392 7  85364485.133 7
      2712.549    21871166.783          48.500          39.500
  22424958.308 8  88483818.652 8      3496.835    22424953.398 6  87632143.588 6
      2724.807    22424958.245          48.500          34.500
  23366638.925 7  89238079.786 7     -2322.036    23366631.796 5  87293849.410 5
     -1809.379    23366638.191          42.250          26.500
  24021542.982 6  92679639.552 6       364.055    24021537.403 3  94169875.080 3
       283.680    24021542.208          37.750          18.750
  24567100.941 7  95546550.047 7       443.713    24567096.006 3  96403854.490 3
       345.750    24567100.812          40.000          20.250
  25420020.902 5 112611581.703 5     -1306.516
                                        31.000
 18  2 21  8 27 30.0000000  0  9G09G07G02G06G30G05G23G16G29
  20593901.448 9  70472959.272 9     -1228.309    20593898.192 8  75939988.186 8
      -957.124    20593900.746          54.750          46.500
  20949572.732 9  72342019.153 9      1943.067    20949567.686 7  81590694.304 7
      1514.078    20949572.168          53.750          43.500
  21579113.033 8  75650267.648 8       327.462    21579105.451 7  79974233.889 7
       255.165    21579112.184          48.750          39.750
  21809575.505 8  81055651.495 8     -2278.105    21809573.859 7  85112239.195 7
     -1775.147    21809575.157          49.250          39.750
  21851329.214 8  81275094.456 8      3469.160    21851326.869 7  85283249.743 7
      2703.242    21851328.380          47.750          39.250
  22405017.631 8  88379028.979 8      3489.397    22405012.870 6  87550489.306 6
      2719.011    22405017.391          47.000          34.500
  23379907.101 7  89307807.248 7     -2326.256    23379900.506 4  87348182.468 4
     -1812.667    23379906.759          44.250          26.250
  24019526.200 6  92669041.737 6       343.022    24019521.155 3  94161617.041 3
       267.290    24019525.669          38.250          19.750
  24564624.400 7  95533532.212 7       424.432    24564619.226 3  96393710.723 3
       330.726    24564623.879          40.500          20.000
 18  2 21  8 28  0.0000000  0  9G09G07G02G06G30G05G23G16G29
  20600944.169 9  70509970.232 9     -1239.148    20600941.174 8  75968827.887 8
      -965.570    20600943.632          54.750          46.250
  20938528.698 9  72283982.484 9      1925.945    20938523.599 7  81545470.938 7
      1500.736    20938528.201          53.000          43.500
  21577297.748 8  75640727.266 8       308.531    21577290.118 7  79966799.812 7
       240.414    21577296.671          48.250          39.500
  21822618.486 8  81124193.742 8     -2291.517    21822617.044 7  85165648.711 7
     -1785.598    21822618.114          49.000          39.250
  21831558.857 8  81171200.692 8      3456.992    21831556.369 7  85202293.580 7
      2693.760    21831557.787          49.250          39.250
  22385118.025 8  88274455.648 8      3482.027    22385113.076 6  87469003.592 6
      2713.268    22385117.791          49.000          34.750
  23393199.845 7  89377658.401 7     -2330.562    23393192.434 4  87402611.924 4
     -1816.022    23393199.110          43.500          26.000
  24017627.824 6  92659068.381 6       321.928    24017623.073 3  94153845.579 3
       250.853    24017627.623          37.750          19.500
  24562256.511 7  95521089.510 7       405.053    24562251.765 4  96384015.082 4
       315.625    24562255.824          41.750          20.500
 18  2 21  8 28 30.0000000  0  9G09G07G02G30G06G05G23G16G29
  20608048.579 9  70547303.433 9     -1249.842    20608045.533 8  75997918.685 8
      -973.903    20608048.138          54.500          46.750
  20927582.133 9  72226457.275 9      1908.960    20927576.734 7  81500646.107 7
      1487.502    20927581.582          54.250          43.500
  21575589.740 8  75631752.998 8       289.718    21575582.290 7  79959806.863 7
       225.754    21575589.057          50.250          39.250
  21811857.303 8  81067668.271 8      3444.985    21811855.040 7  85121618.991 7
      2684.404    21811856.428          50.000          39.750
  21835736.912 8  81193132.076 8     -2304.548    21835735.680 7  85219366.864 7
     -1795.752    21835736.654          46.250          39.000
  22365259.875 8  88170101.652 8      3474.728    22365254.982 6  87387688.796 6
      2707.580    22365260.004          48.250          35.000
  23406515.912 7  89447633.245 7     -2334.586    23406508.570 4  87457137.744 4
     -1819.158    23406514.827          44.250          26.250
  24015849.168 6  92649720.118 6       300.900    24015844.005 3  94146561.196 3
       234.468    24015848.493          38.000          18.750
  24559997.655 7  95509221.563 7       385.986    24559993.398 4  96374767.321 4
       300.768    24559997.476          41.250          22.000
 18  2 21  8 29  0.0000000  0  9G09G07G02G30G06G05G23G16G29
  20915006.092 9  72160376.246 9     -1260.505    20915003.172 8  77254858.529 8
      -982.212    20915005.636          53.750          46.500
  21216525.465 9  73744866.483 9      1891.861    21216520.339 7  82683822.128 7
      1474.177    21216525.183          52.750          43.500
  21873782.718 8  77198764.997 8       270.803    21873774.840 7  81180855.165 7
       211.016    21873781.501          46.750          39.500
  22092017.690 8  82539922.784 8      3432.941    22092015.781 7  86268830.341 7
      2675.019    22092016.860          50.250          40.250
  22148722.723 8  82837881.532 8     -2317.662    22148721.089 7  86500989.781 7
     -1805.970    22148722.043          48.500          39.000
  22645237.538 8  89641392.507 8      3467.394    22645232.385 6  88534149.204 6
      2701.865    22645237.247          49.250          35.000
  23719646.994 8  91093148.208 8     -2338.584    23719639.694 5  88739357.168 5
     -1822.274    23719646.514          44.750          26.750
  24313981.216 6  94216417.153 6       280.341    24313977.361 3  95367364.076 3
       218.447    24313980.775          37.250          19.000
  24857641.747 7  97073348.238 7       366.854    24857636.875 4  97593567.323 4
       285.860    24857641.498          42.000          21.750
 18  2 21  8 29 30.0000000  0  9G09G07G02G30G06G05G23G16G29
  20922232.382 9  72198350.604 9     -1271.170    20922229.360 8  77284448.926 8
      -990.522    20922231.896          54.500          46.500
  21205774.290 9  73688367.780 9      1874.660    21205768.840 7  82639797.173 7
      1460.774    21205773.768          53.500          43.750
  21872290.525 8  77190923.284 8       251.887    21872282.383 7  81174744.723 7
       196.275    21872289.338          47.250          39.250
  22072455.597 8  82437120.361 8      3420.595    22072453.025 7  86188724.592 7
      2665.399    22072454.608          48.500          40.500
  22161990.380 8  82907604.762 8     -2330.612    22161988.962 7  86555319.533 7
     -1816.061    22161990.155          47.750          38.500
  22625464.295 8  89537483.338 8      3459.833    22625459.040 6  88453181.024 6
      2695.974    22625463.977          47.250          35.000
  23733009.230 7  91163367.611 7     -2342.691    23733002.110 4  88794073.568 4
     -1825.474    23733008.591          43.750          26.000
  24312439.824 6  94208320.001 6       259.682    24312435.594 3  95361054.584 3
       202.350    24312440.274          35.750          18.000
  24855601.251 7  97062629.005 7       347.767    24855596.587 4  97585214.660 4
       270.987    24855600.820          41.250          20.500
 18  2 21  8 30  0.0000000  0 10G09G07G02G30G06G05G23G16G29G26
  20929518.823 9  72236640.879 9     -1281.406    20929515.852 8  77314285.501 8
      -998.498    20929518.175          55.000          46.250
  21195120.281 9  73632380.940 9      1857.832    21195114.893 7  82596171.073 7
      1447.661    21195119.840          53.500          43.500
  21870905.151 8  77183644.420 8       233.352    21870897.180 7  81169072.867 7
       181.833    21870904.135          49.250          39.500
  22052962.351 8  82334683.552 8      3408.627    22052960.054 7  86108903.733 7
      2656.073    22052961.404          50.250          40.500
  22175331.720 8  82977713.677 8     -2343.230    22175330.161 6  86609949.824 6
     -1825.893    22175331.196          48.750          38.250
  22605733.526 8  89433796.784 8      3452.697    22605727.941 6  88372386.314 6
      2690.413    22605733.161          48.500          34.750
  23746393.959 7  91233704.878 7     -2346.350    23746386.958 5  88848881.801 5
     -1828.325    23746393.167          43.750          26.500
  24311020.016 6  94200845.784 6       238.768    24311013.589 3  95355230.509 3
       186.053    24311018.196          38.250          18.000
  24853670.564 7  97052480.755 7       328.896    24853665.464 4  97577306.911 4
       256.283    24853670.255          42.500          22.000
  26996286.398 5 112506312.834 5     -1281.022
                                        30.500
 18  2 21  8 30 30.0000000  0  9G09G07G02G30G06G05G23G16G29
  20936863.918 9  72275240.331 9     -1291.801    20936861.151 8  77344362.986 8
     -1006.598    20936863.375          55.000          46.750
  21184562.795 9  73576901.410 9      1840.770    21184557.459 7  82552940.287 7
      1434.366    21184562.319          53.000          43.500
  21869626.150 8  77176922.899 8       214.694    21869618.133 7  81163835.308 7
       167.294    21869624.867          48.250          39.500
  22033538.255 8  82232609.215 8      3396.378    22033535.869 7  86029365.328 7
      2646.528    22033537.406          50.250          40.500
  22188745.022 8  83048200.156 8     -2355.839    22188743.233 6  86664874.326 6
     -1835.718    22188744.429          48.250          38.250
  22586044.225 8  89330328.421 8      3445.193    22586038.814 6  88291761.615 6
      2684.566    22586043.778          48.500          35.000
  23759798.962 7  91304153.761 7     -2350.231    23759793.075 4  88903777.000 4
     -1831.349    23759799.058          42.750          25.750
  24309715.109 7  94193988.587 7       218.431    24309708.508 3  95349887.227 3
       170.206    24309712.912          38.500          18.250
  24851846.372 7  97042897.378 7       310.059    24851842.310 4  97569839.331 4
       241.604    24851846.228          41.750          22.250
 18  2 21  8 31  0.0000000  0  9G09G07G02G30G06G05G23G16G29
  20944268.012 9  72314149.376 9     -1302.212    20944265.296 8  77374681.714 8
     -1014.711    20944267.586          54.250          46.500
  21174102.392 9  73521931.961 9      1823.737    21174097.170 7  82510106.960 7
      1421.094    21174101.960          54.000          43.250
  21868452.873 8  77170760.139 8       196.035    21868445.327 7  81159033.146 7
       152.755    21868452.232          48.250          39.250
  22014183.759 9  82130901.232 9      3384.076    22014181.387 7  85950112.405 7
      2636.942    22014183.036          50.750          41.250
  22202229.543 8  83119063.207 8     -2368.440    22202228.086 6  86720092.272 6
     -1845.537    22202229.318          47.500          38.250
  22566396.927 8  89227082.551 8      3437.736    22566391.693 6  88211310.296 6
      2678.756    22566396.565          48.250          34.750
  23773226.505 7  91374714.941 7     -2354.056    23773220.359 4  88958759.703 4
     -1834.330    23773226.181          42.750          25.500
  24308525.977 6  94187749.959 6       197.540    24308521.771 3  95345025.907 3
       153.927    24308525.842          37.500          16.500
  24850131.055 7  97033879.771 7       291.067    24850126.375 4  97562812.615 4
       226.805    24850130.414          41.750          21.750
 18  2 21  8 31 30.0000000  0  9G09G07G02G30G06G05G23G16G29
  20951731.663 9  72353370.428 9     -1312.599    20951728.785 8  77405243.566 8
     -1022.805    20951731.039          54.500          46.250
  21163740.015 9  73467477.190 9      1806.528    21163734.792 7  82467674.687 7
      1407.684    21163739.589          53.750          43.250
  21867387.513 8  77165159.543 8       177.302    21867379.718 7  81154669.035 7
       138.157    21867386.388          48.500          39.250
  21994900.166 9  82029565.492 9      3371.526    21994897.921 7  85871149.519 7
      2627.163    21994899.390          51.250          41.000
  22215786.356 8  83190303.816 8     -2380.960    22215784.527 6  86775604.414 6
     -1855.293    22215785.954          47.750          37.750
  22546793.040 8  89124064.424 8      3430.144    22546788.087 6  88131036.433 6
      2672.839    22546792.899          49.000          35.500
  23786676.265 7  91445391.188 7     -2357.883    23786669.912 4  89013832.062 4
     -1837.311    23786675.878          42.000          26.250
  24307458.059 6  94182134.176 6       176.627    24307454.042 3  95340649.950 3
       137.632    24307456.236          36.000          17.250
  24848523.487 7  97025431.332 7       272.151    24848518.544 4  97556229.389 4
       212.066    24848522.998          42.250          22.250
 18  2 21  8 32  0.0000000  0  9G09G07G02G30G06G05G23G16G29
  20959255.509 9  72392909.035 9     -1323.255    20959252.694 8  77436052.863 8
     -1031.108    20959255.084          54.750          46.250
  21153477.094 9  73413544.960 9      1789.019    21153471.925 7  82425649.585 7
      1394.041    21153476.641          54.250          43.250
  21866429.877 8  77160127.403 8       158.207    21866422.304 7  81150747.881 7
       123.278    21866429.076          49.250          39.250
  21975689.436 8  81928611.053 8      3358.760    21975686.831 7  85792483.751 7
      2617.215    21975688.521          50.250          41.000
  22229415.581 8  83261926.103 8     -2393.735    22229413.827 6  86831413.945 6
     -1865.248    22229415.164          48.500          37.750
  22527234.271 8  89021283.105 8      3422.065    22527229.756 6  88050947.100 6
      2666.544    22527234.232          49.500          35.500
  23800148.257 7  91516188.316 7     -2362.037    23800141.797 4  89068998.628 4
     -1840.549    23800147.730          43.250          26.000
  24306507.771 6  94177147.310 6       155.746    24306503.978 3  95336764.070 3
       121.361    24306507.537          35.750          15.750
  24847025.331 7  97017558.192 7       252.795    24847020.316 4  97550094.454 4
       196.983    24847024.423          43.250          22.000
 18  2 21  8 32 30.0000000  0  9G09G07G02G30G06G05G23G16G29
  20966838.888 9  72432759.840 9     -1333.353    20966836.079 8  77467105.437 8
     -1038.977    20966838.475          54.000          46.250
  21143312.984 9  73360132.249 9      1771.950    21143307.771 7  82384029.295 7
      1380.740    21143312.492          52.250          43.750
  21865579.707 8  77155659.523 8       139.712    21865572.251 7  81147266.401 7
       108.866    21865578.760          47.750          39.500
  21956550.209 8  81828036.090 8      3346.322    21956548.014 7  85714113.680 7
      2607.524    21956549.564          49.500          41.250
  22243116.342 8  83333923.259 8     -2406.066    22243114.714 6  86887515.581 6
     -1874.857    22243115.877          46.500          37.750
  22507720.474 8  88918736.510 8      3414.441    22507715.528 6  87971040.669 6
      2660.604    22507720.238          47.500          36.000
  23813642.653 7  91587101.061 7     -2365.684    23813636.145 4  89124255.282 4
     -1843.390    23813642.278          42.250          26.000
  24305678.986 6  94172785.527 6       135.099    24305674.285 3  95333365.229 3
       105.272    24305677.334          36.750          16.000
  24845635.472 7  97010255.493 7       234.052    24845630.610 4  97544404.038 4
       182.378    24845635.071          42.500          22.750
 18  2 21  8 33  0.0000000  0  9G09G07G02G30G06G05G23G16G29
  20974480.358 9  72472915.449 9     -1343.476    20974477.441 8  77498395.509 8
     -1046.865    20974479.897          54.000          46.250
  21133246.520 9  73307233.505 9      1754.774    21133241.342 7  82342809.506 7
      1367.356    21133246.193          54.000          43.500
  21864835.559 8  77151749.416 8       121.078    21864828.121 7  81144219.559 7
        94.347    21864834.765          47.750          39.500
  21937482.902 9  81727836.714 9      3333.815    21937480.533 7  85636036.302 7
      2597.778    21937482.140          51.250          41.000
  22256886.277 8  83406286.476 8     -2418.169    22256884.829 6  86943902.451 6
     -1884.288    22256886.139          48.500          37.750
  22488250.198 8  88816419.503 8      3406.765    22488245.273 6  87891313.139 6
      2654.622    22488250.060          49.500          36.250
  23827158.206 7  91658122.445 7     -2369.096    23827151.457 4  89179596.577 4
     -1846.049    23827157.072          43.000          25.750
  24304966.796 6  94169042.390 6       114.520    24304961.813 3  95330448.477 3
        89.237    24304965.839          37.000          16.250
  24844353.080 7  97003516.583 7       215.363    24844348.547 4  97539152.928 4
       167.815    24844352.945          41.250          22.750
 18  2 21  8 33 30.0000000  0  9G09G07G02G30G06G05G23G16G29
  20982180.336 9  72513377.620 9     -1353.954    20982177.137 8  77529924.462 8
     -1055.029    20982179.697          53.500          46.000
  21123278.759 9  73254852.417 9      1737.319    21123273.549 7  82301993.081 7
      1353.755    21123278.352          53.000          43.250
  21864198.602 8  77148399.819 8       102.211    21864190.943 7  81141609.469 7
        79.645    21864197.451          46.750          39.750
  21918488.090 9  81628018.091 9      3320.786    21918485.452 7  85558255.605 7
      2587.625    21918487.314          51.000          41.000
  22270726.460 8  83479016.091 8     -2430.463    22270724.931 6  87000574.830 6
     -1893.867    22270726.082          48.250          37.750
  22468825.071 8  88714337.977 8      3398.584    22468820.053 6  87811769.099 6
      2648.247    22468824.612          49.750          36.000
  23840693.817 7  91729254.718 7     -2373.019    23840687.282 4  89235024.285 4
     -1849.105    23840693.071          41.750          25.250
  24304372.421 6  94165920.801 6        93.610    24304367.864 3  95328016.061 3
        72.942    24304371.138          35.750          16.000
  24843177.888 7  96997343.661 7       196.238    24843173.745 4  97534342.843 4
       152.913    24843178.113          40.750          22.750
 18  2 21  8 34  0.0000000  0 10G09G07G02G30G06G05G23G16G29G26
  20989938.047 9  72554145.029 9     -1364.125    20989934.851 8  77561691.269 8
     -1062.955    20989937.415          55.500          45.500
  21113409.544 9  73202990.063 9      1720.037    21113404.468 7  82261580.864 7
      1340.289    21113409.196          53.500          43.250
  21863667.520 8  77145610.162 8        83.603    21863659.920 7  81139435.692 7
        65.145    21863666.372          50.250          39.500
  21899565.937 8  81528582.339 8      3308.013    21899563.784 7  85480773.244 7
      2577.672    21899565.167          49.250          41.000
  22284635.790 8  83552109.302 8     -2442.549    22284634.141 6  87057530.537 6
     -1903.285    22284635.220          47.250          37.500
  22449444.379 8  88612493.602 8      3390.720    22449439.325 6  87732409.854 6
      2642.119    22449444.325          48.750          36.250
  23854250.534 7  91800496.866 7     -2376.493    23854244.148 4  89290537.622 4
     -1851.813    23854249.883          41.750          24.500
  24303897.034 6  94163420.579 6        72.628    24303891.116 3  95326067.826 3
        56.593    24303896.348          36.250          16.000
  24842111.526 7  96991735.989 7       177.452    24842106.139 4  97529973.208 4
       138.274    24842111.196          42.250          22.250
  27007869.857 5 112567185.504 5     -1363.840
                                        30.500
 18  2 21  8 34 30.0000000  0  9G09G07G02G30G06G05G23G16G29
  20997753.841 9  72595218.417 9     -1374.034    20997750.837 8  77593696.488 8
     -1070.676    20997753.343          54.500          46.000
  21103639.652 9  73151649.190 9      1702.882    21103634.616 7  82221575.001 7
      1326.921    21103639.242          52.500          43.250
  21863243.547 8  77143381.913 8        65.095    21863236.005 7  81137699.385 7
        50.723    21863242.408          48.500          39.500
  21880717.502 9  81429533.647 9      3295.328    21880715.179 7  85403592.481 7
      2567.788    21880716.990          50.750          41.000
  22298614.012 8  83625565.353 8     -2454.394    22298612.669 6  87114768.969 6
     -1912.515    22298613.346          47.000          37.250
  22430109.807 8  88510889.800 8      3382.910    22430104.986 6  87653238.063 6
      2636.034    22430109.597          49.500          36.250
  23867828.191 7  91871849.804 7     -2379.971    23867822.282 4  89346137.282 4
     -1854.523    23867827.550          41.000          24.750
  24303539.526 6  94161543.647 6        52.231    24303534.951 3  95324605.268 3
        40.699    24303539.109          36.250          16.500
  24841152.448 7  96986694.702 7       158.682    24841146.497 4  97526044.915 4
       123.648    24841151.546          42.750          21.500
 18  2 21  8 35  0.0000000  0 10G09G07G30G02G06G05G23G16G29G13
  21005626.489 9  72636589.974 9     -1384.047    21005623.638 8  77625934.055 8
     -1078.478    21005626.154          54.500          45.750
  21093968.222 9  73100824.124 9      1685.533    21093962.924 7  82181971.060 7
      1313.402    21093967.601          53.000          44.000
  21861942.160 9  81330867.726 9      3282.466    21861939.729 7  85326709.988 7
      2557.765    21861941.300          50.750          41.000
  21862924.697 8  77141708.133 8        46.512    21862917.301 7  81136395.126 7
        36.243    21862923.867          47.750          39.250
  22312659.660 8  83699375.035 8     -2466.289    22312658.080 6  87172282.970 6
     -1921.784    22312659.300          47.250          37.750
  22410820.348 8  88409522.582 8      3374.920    22410815.341 6  87574250.622 6
      2629.808    22410820.261          48.750          36.500
  23881426.274 7  91943306.154 7     -2383.604    23881419.681 4  89401817.514 4
     -1857.354    23881424.916          41.000          24.250
  24303299.320 6  94160282.630 6        31.620    24303295.411 3  95323622.623 3
        24.639    24303299.518          37.000          16.750
  24840299.278 7  96982212.415 7       140.008    24840294.454 4  97522552.209 4
       109.097    24840298.729          41.250          21.500
  25597140.310 6  96765144.579 6      3983.629
                                        33.500
 18  2 21  8 35 30.0000000  0 10G09G07G30G02G06G05G23G16G29G13
  21013556.653 9  72678262.155 9     -1394.099    21013553.542 8  77658405.875 8
     -1086.311    21013556.054          53.500          45.250
  21084395.654 9  73050519.348 9      1668.144    21084390.383 7  82142772.543 7
      1299.853    21084395.021          53.500          43.500
  21843240.399 9  81232590.367 9      3269.427    21843237.983 7  85250130.271 7
      2547.606    21843239.788          51.000          41.250
  21862712.426 8  77140592.074 8        27.856    21862704.877 7  81135525.460 7
        21.706    21862711.533          47.750          39.500
  22326772.555 8  83773539.232 8     -2478.133    22326771.254 6  87230073.198 6
     -1931.013    22326772.210          47.250          37.500
  22391576.868 8  88308397.541 8      3366.758    22391571.553 6  87495451.893 6
      2623.448    22391576.625          50.000          36.500
  23895044.370 7  92014868.514 7     -2387.219    23895037.802 4  89457580.368 4
     -1860.171    23895043.549          41.000          24.250
  24303178.722 7  94159641.372 7        11.133    24303172.691 3  95323122.927 3
         8.675    24303177.349          39.250          17.000
  24839553.814 7  96978292.374 7       121.341    24839548.040 4  97519497.620 4
        94.552    24839553.034          43.750          22.000
  25574404.865 6  96645667.129 6      3981.705
                                        36.000
 18  2 21  8 36  0.0000000  0 10G09G07G30G02G06G05G23G16G29G13
  21021542.813 9  72720231.955 9     -1403.837    21021539.971 8  77691109.606 8
     -1093.899    21021542.564          53.250          45.250
  21074921.624 9  73000733.837 9      1650.986    21074916.504 7  82103978.645 7
      1286.483    21074921.259          53.250          43.750
  21824612.762 9  81134702.021 9      3256.528    21824610.648 7  85173853.684 7
      2537.554    21824612.069          51.250          41.750
  21862606.060 8  77140031.457 8         9.525    21862598.247 7  81135088.602 7
         7.422    21862604.885          48.250          39.250
  22340951.938 8  83848053.461 8     -2489.483    22340950.781 6  87288136.201 6
     -1939.857    22340951.962          45.750          37.250
  22372379.424 8  88207514.220 8      3358.859    22372374.456 6  87416841.521 6
      2617.293    22372379.082          49.500          36.500
  23908682.121 7  92086534.363 7     -2390.413    23908675.651 4  89513423.851 4
     -1862.660    23908681.116          41.000          24.500
  24303173.020 6  94159618.132 6        -9.287    24303168.245 3  95323104.780 3
        -7.237    24303172.874          37.000          17.500
  24838913.373 7  96974931.971 7       102.833    24838908.957 4  97516879.117 4
        80.130    24838913.520          42.250          22.250
  25551678.978 6  96526243.113 6      3979.910
                  25551676.774          33.500
 18  2 21  8 36 30.0000000  0 10G09G07G30G02G05G06G23G16G29G13
  21029585.828 9  72762496.808 9     -1413.762    21029582.761 8  77724043.238 8
     -1101.632    21029585.321          54.000          45.000
  21065546.587 9  72951467.140 9      1633.484    21065541.352 7  82065589.019 7
      1272.845    21065546.134          54.750          44.250
  21806059.707 8  81037203.521 8      3243.330    21806057.123 7  85097880.877 7
      2527.270    21806058.760          50.250          41.500
  21862604.804 8  77140024.609 8        -9.067    21862596.775 7  81135083.250 7
        -7.066    21862603.712          48.250          39.250
  22353227.941 8  88106873.749 8      3350.568    22353222.977 6  87338420.382 6
      2610.832    22353227.818          48.500          36.250
  22355197.737 8  83922913.682 8     -2501.287    22355196.376 6  87346468.804 6
     -1949.054    22355197.530          47.000          37.250
  23922338.812 7  92158301.446 7     -2393.966    23922332.502 4  89569346.218 4
     -1865.428    23922338.063          41.250          24.250
  24303287.232 6  94160210.445 6       -30.056    24303281.494 3  95323566.304 3
       -23.420    24303285.949          37.750          17.500
  24838380.570 7  96972129.085 7        84.102    24838375.524 4  97514695.057 4
        65.534    24838380.402          42.000          23.250
  25528963.790 6  96406872.029 6      3977.990    25528958.933 2 100342533.496 2
      3099.732    25528963.553          36.500          11.250
 18  2 21  8 37  0.0000000  0 10G09G07G30G02G05G06G23G16G29G13
  21037684.781 9  72805056.813 9     -1423.695    21037681.675 8  77757206.868 8
     -1109.373    21037684.235          52.250          45.000
  21056270.504 9  72902721.328 9      1616.106    21056265.324 7  82027605.278 7
      1259.303    21056270.177          53.500          43.750
  21787580.947 9  80940098.361 9      3230.166    21787578.779 7  85022214.573 7
      2517.012    21787580.266          51.750          42.000
  21862708.526 8  77140572.300 8       -27.576    21862701.073 7  81135510.014 7
       -21.488    21862707.854          49.000          39.000
  22334123.760 8  88006479.372 8      3342.265    22334118.771 6  87260191.005 6
      2604.362    22334123.421          48.250          36.750
  22369508.917 8  83998118.440 8     -2512.669    22369507.280 6  87405069.872 6
     -1957.924    22369508.677          47.750          37.500
  23936015.407 7  92230170.044 7     -2397.497    23936008.356 4  89625347.669 4
     -1868.179    23936014.310          41.250          24.250
  24303516.379 6  94161419.446 6       -50.669    24303511.744 3  95324508.374 3
       -39.483    24303515.800          38.250          17.750
  24837952.469 7  96969883.729 7        65.415    24837948.074 4  97512945.413 4
        50.973    24837952.424          40.750          21.750
  25506259.431 6  96287556.353 6      3976.110
                                        34.750
 18  2 21  8 37 30.0000000  0 10G09G07G30G02G05G06G23G16G29G13
  21045840.092 9  72847912.754 9     -1433.347    21045836.800 8  77790601.101 8
     -1116.893    21045839.445          54.500          45.250
  21047094.208 9  72854499.227 9      1598.787    21047088.935 7  81990029.623 7
      1245.808    21047093.689          53.500          44.000
  21769178.238 9  80843390.694 9      3217.039    21769175.737 7  84946857.999 7
      2506.784    21769177.443          50.750          42.000
  21862918.818 8  77141675.833 8       -45.965    21862910.865 7  81136369.895 7
       -35.817    21862917.997          48.250          39.250
  22315066.988 8  87906334.951 8      3334.049    22315061.915 6  87182156.399 6
      2597.960    22315066.595          50.250          37.000
  22383884.967 8  84073667.075 8     -2523.907    22383883.543 6  87463938.901 6
     -1966.681    22383884.934          48.250          36.500
  23949710.475 7  92302141.456 7     -2400.770    23949704.513 4  89681429.247 4
     -1870.730    23949710.149          39.750          24.500
  24303863.628 6  94163247.244 6       -71.220    24303858.982 3  95325932.617 3
       -55.496    24303862.915          38.000          17.250
  24837632.030 7  96968197.611 7        46.995    24837627.320 4  97511631.546 4
        36.620    24837631.589          41.000          22.000
  25483564.231 6  96168298.848 6      3974.336    25483565.541 1 100156633.375 1
      3096.885    25483560.558          34.500           7.000
 18  2 21  8 38  0.0000000  0 10G07G09G30G02G05G06G23G16G29G13
  21038016.645 9  72806796.666 9      1581.475    21038011.384 7  81952858.804 7
      1232.318    21038016.291          54.000          44.000
  21054050.442 9  72891058.740 9     -1442.931    21054047.183 8  77824221.336 8
     -1124.362    21054049.897          53.750          45.250
  21750850.246 9  80747077.963 9      3203.871    21750848.003 7  84871809.147 7
      2496.523    21750849.631          50.750          42.250
  21863233.711 8  77143330.159 8       -64.294    21863225.923 7  81137658.970 7
       -50.099    21863232.632          49.250          39.000
  22296057.178 8  87806437.714 8      3325.834    22296051.931 6  87104314.396 6
      2591.559    22296057.043          49.500          37.250
  22398325.937 8  84149552.095 8     -2535.088    22398323.907 6  87523070.052 6
     -1975.393    22398325.370          47.750          36.500
  23963424.787 7  92374209.974 7     -2403.871    23963418.644 4  89737586.488 4
     -1873.146    23963424.296          42.250          24.500
  24304328.567 7  94165688.460 7       -91.653    24304323.366 3  95327834.864 3
       -71.418    24304327.566          39.000          16.500
  24837416.602 7  96967065.009 7        28.714    24837412.042 4  97510748.974 4
        22.375    24837416.231          40.000          21.500
  25460879.718 5  96049095.772 5      3972.552
                                        32.000
 18  2 21  8 38 30.0000000  0 10G07G09G30G02G05G06G23G16G29G13
  21029039.711 9  72759623.078 9      1563.543    21029034.572 7  81916100.175 7
      1218.345    21029039.456          54.250          44.250
  21062317.261 9  72934501.922 9     -1453.108    21062314.317 8  77858073.161 8
     -1132.292    21062316.853          53.250          44.750
  21732599.654 9  80651170.718 9      3190.119    21732597.271 7  84797076.253 7
      2485.807    21732599.091          51.750          42.500
  21863654.758 8  77145543.126 8       -83.055    21863647.017 7  81139383.344 7
       -64.718    21863653.673          48.000          39.000
  22277096.555 8  87706798.339 8      3316.996    22277091.330 6  87026673.335 6
      2584.672    22277096.243          49.750          37.250
  22412831.197 8  84225779.157 8     -2546.664    22412829.632 6  87582467.728 6
     -1984.414    22412830.735          46.500          36.250
  23977158.831 7  92446383.116 7     -2407.372    23977152.982 4  89793825.255 4
     -1875.874    23977158.735          40.750          25.500
  24304911.256 7  94168751.205 7      -112.394    24304906.699 3  95330221.413 3
       -87.580    24304910.183          38.500          17.750
  24837308.656 7  96966493.281 7         9.660    24837303.709 4  97510303.463 4
         7.528    24837307.391          41.000          21.750
  25438209.382 6  95929956.654 6      3970.269    25438206.846 1  99970915.175 1
      3093.716    25438210.629          34.250           3.750
 18  2 21  8 39  0.0000000  0 10G07G09G30G02G05G06G23G16G29G13
  21020162.418 9  72712972.151 9      1546.394    21020157.166 7  81879748.828 7
      1204.982    21020162.011          53.750          44.250
  21070639.371 9  72978234.518 9     -1462.701    21070636.574 8  77892150.500 8
     -1139.767    21070638.828          52.750          44.750
  21714425.750 9  80555664.512 9      3176.816    21714423.100 7  84722655.859 7
      2475.441    21714424.892          52.250          42.500
  21864180.678 8  77148307.307 8      -101.383    21864173.075 7  81141537.240 7
       -78.999    21864179.727          48.750          39.250
  22258183.968 8  87607412.069 8      3308.667    22258178.584 6  86949229.491 6
      2578.182    22258183.752          49.250          37.500
  22427400.361 8  84302338.903 8     -2557.562    22427398.418 6  87642124.640 6
     -1992.905    22427399.983          47.250          36.250
  23990912.035 7  92518653.656 7     -2410.549    23990905.922 4  89850139.914 4
     -1878.350    23990911.289          42.750          25.000
  24305610.720 6  94172428.454 6      -132.901    24305606.421 3  95333086.786 3
      -103.559    24305610.303          37.750          18.000
  24837303.536 7  96966474.818 7        -8.569    24837299.773 4  97510289.060 4
        -6.678    24837304.150          41.000          21.250
  25415549.449 6  95810875.487 6      3968.548
                                        35.250
 18  2 21  8 39 30.0000000  0 10G07G09G30G02G05G06G23G16G29G13
  21011385.143 9  72666847.141 9      1528.785    21011379.860 7  81843807.270 7
      1191.261    21011384.666          54.000          44.000
  21079016.690 9  73022257.540 9     -1472.265    21079013.911 8  77926454.141 8
     -1147.219    21079016.229          52.750          44.750
  21696328.622 9  80460563.726 9      3163.289    21696325.852 7  84648551.369 7
      2464.900    21696327.723          52.250          42.500
  21864811.987 8  77151624.577 8      -119.755    21864804.582 7  81144122.106 7
       -93.316    21864811.015          48.000          39.250
  22239320.172 9  87508283.365 9      3300.015    22239315.103 6  86871986.351 6
      2571.440    22239319.827          50.500          38.000
  22442031.909 8  84379230.858 8     -2568.539    22442030.634 6  87702040.426 6
     -2001.459    22442031.849          45.250          36.000
  24004682.900 7  92591022.797 7     -2413.934    24004677.027 4  89906531.429 4
     -1880.987    24004682.669          40.250          24.500
  24306428.209 6  94176722.100 6      -153.553    24306423.130 3  95336432.469 3
      -119.652    24306427.975          37.750          17.250
  24837406.020 7  96967011.339 7       -27.105    24837401.487 4  97510707.111 4
       -21.121    24837405.903          40.750          21.250
  25392899.730 6  95691855.751 6      3966.163
                                        34.750
 18  2 21  8 40  0.0000000  0 10G07G09G30G02G05G06G23G16G29G13
  21002708.456 9  72621251.118 9      1511.114    21002703.270 7  81808277.904 7
      1177.492    21002708.112          54.750          44.000
  21087449.451 9  73066572.082 9     -1482.007    21087446.704 8  77960984.945 8
     -1154.811    21087449.019          54.250          45.000
  21678309.441 9  80365872.757 9      3149.470    21678306.701 7  84574766.218 7
      2454.133    21678308.760          51.250          42.500
  21865548.754 8  77155496.583 8      -138.364    21865541.298 7  81147139.237 7
      -107.816    21865547.803          49.500          39.500
  22220506.768 9  87409416.240 9      3291.260    22220501.225 6  86794947.038 6
      2564.618    22220506.289          51.000          38.000
  22456727.072 8  84456454.517 8     -2579.597    22456725.681 6  87762214.689 6
     -2010.075    22456727.114          46.000          36.250
  24018474.066 7  92663491.781 7     -2417.242    24018467.702 4  89963000.709 4
     -1883.565    24018472.759          40.500          23.250
  24307362.947 7  94181633.636 7      -173.900    24307357.721 3  95340259.630 3
      -135.506    24307362.620          38.500          17.250
  24837614.564 7  96968103.648 7       -45.807    24837609.846 4  97511558.245 4
       -35.694    24837614.252          41.500          22.000
  25370263.157 6  95572900.081 6      3963.750
                                        34.500
 18  2 21  8 40 30.0000000  0 10G07G09G30G02G05G06G23G16G29G13
  20994132.309 9  72576183.062 9      1493.501    20994127.065 7  81773159.948 7
      1163.767    20994131.895          54.000          44.250
  21095937.013 9  73111175.686 9     -1491.576    21095934.461 8  77995740.988 8
     -1162.267    21095936.767          53.000          44.750
  21660368.712 9  80271592.396 9      3135.902    21660365.726 7  84501301.015 7
      2443.560    21660367.806          51.250          42.250
  21866391.062 8  77159921.417 8      -156.598    21866383.403 7  81150587.147 7
      -122.024    21866389.968          49.000          39.500
  22201742.390 8  87310811.338 8      3282.417    22201737.245 6  86718112.060 6
      2557.727    22201742.408          49.500          37.750
  22471485.127 8  84534005.838 8     -2590.323    22471483.694 6  87822644.257 6
     -2018.434    22471484.668          46.250          36.500
  24032282.945 7  92736058.776 7     -2420.435    24032276.769 4  90019546.371 4
     -1886.053    24032282.300          40.250          23.750
  24308415.551 6  94187161.558 6      -194.469    24308409.049 3  95344567.093 3
      -151.534    24308414.610          37.750          16.750
  24837927.557 7  96969750.213 7       -64.020    24837923.081 4  97512841.260 4
       -49.886    24837927.377          40.500          21.750
  25347640.384 6  95454008.813 6      3961.926    25347636.028 2  99600045.864 2
      3087.215    25347640.318          36.500          11.500
 18  2 21  8 41  0.0000000  0 10G07G09G30G02G05G06G23G16G29G13
  20985656.465 9  72531640.621 9      1475.956    20985651.039 8  81738451.559 8
      1150.095    20985655.824          54.500          44.500
  21104479.353 9  73156063.941 9     -1501.002    21104476.505 8  78030718.838 8
     -1169.612    21104478.798          54.250          44.750
  21642505.248 9  80177721.611 9      3122.224    21642502.640 7  84428154.963 7
      2432.902    21642504.691          51.250          42.000
  21867337.462 8  77164895.115 8      -174.960    21867329.728 7  81154462.740 7
      -136.333    21867336.443          49.750          39.250
  22183028.526 8  87212468.170 8      3273.730    22183023.205 6  86641481.017 6
      2550.958    22183028.217          49.000          38.000
  22486303.523 8  84611878.869 8     -2601.150    22486302.372 6  87883324.518 6
     -2026.870    22486303.253          47.000          36.000
  24046109.655 7  92808719.735 7     -2423.525    24046103.821 4  90076165.263 4
     -1888.461    24046108.695          40.250          23.000
  24309583.563 6  94193301.600 6      -214.769    24309578.182 3  95349351.517 3
      -167.352    24309582.478          37.500          17.500
  24838344.808 7  96971946.446 7       -82.277    24838341.240 4  97514552.592 4
       -64.112    24838344.769          40.500          22.000
  25325026.379 6  95335179.691 6      3959.733    25325022.865 2  99507451.723 2
      3085.506    25325026.244          36.000          11.750
 18  2 21  8 41 30.0000000  0 10G07G09G30G02G05G06G23G16G29G13
  20977280.483 9  72487625.774 9      1458.259    20977275.392 7  81704154.282 7
      1136.305    20977280.027          54.000          44.250
  21113075.359 9  73201236.962 9     -1510.579    21113072.637 8  78065918.584 8
     -1177.074    21113074.984          53.000          44.500
  21624720.912 9  80084263.811 9      3108.248    21624718.346 7  84355330.709 7
      2422.011    21624720.430          52.250          42.250
  21868388.295 8  77170418.136 8      -193.314    21868380.836 7  81158766.373 7
      -150.634    21868387.297          48.500          39.000
  22164364.719 8  87114388.833 8      3264.836    22164359.370 6  86565055.563 6
      2544.028    22164364.377          50.000          38.000
  22501183.395 8  84690072.145 8     -2611.872    22501181.866 6  87944254.325 6
     -2035.225    22501182.777          45.750          36.000
  24059954.961 7  92881475.120 7     -2426.783    24059948.350 4  90132857.724 4
     -1890.999    24059954.055          41.000          22.250
  24310869.847 7  94200055.097 7      -235.340    24310862.796 3  95354613.971 3
      -183.382    24310868.129          39.250          17.250
  24838868.680 7  96974692.761 7      -100.826    24838863.691 4  97516692.567 4
       -78.566    24838867.982          40.500          21.250
  25302427.646 6  95216414.636 6      3957.700    25302423.074 2  99414907.533 2
      3083.923    25302426.489          35.000          11.750
 18  2 21  8 42  0.0000000  0 10G07G09G30G02G05G06G23G16G29G13
  20969006.010 9  72444143.767 9      1440.614    20969001.169 8  81670272.205 8
      1122.556    20969005.671          55.250          44.500
  21121726.278 9  73246698.221 9     -1520.053    21121723.484 8  78101342.927 8
     -1184.457    21121725.999          52.750          44.750
  21607016.747 9  79991225.684 9      3094.349    21607013.611 7  84282833.479 7
      2411.181    21607015.934          51.250          42.500
  21869544.804 8  77176494.690 8      -211.614    21869536.989 7  81163501.338 7
      -164.894    21869543.734          49.250          39.000
  22145752.209 8  87016580.887 8      3255.822    22145747.115 6  86488841.587 6
      2537.004    22145751.996          49.500          37.750
  22516124.733 8  84768587.501 8     -2622.405    22516122.913 6  88005435.088 6
     -2043.432    22516124.215          47.250          36.250
  24073818.896 7  92954328.741 7     -2430.015    24073812.016 4  90189626.742 4
     -1893.518    24073818.117          42.250          23.500
  24312271.865 6  94207426.244 6      -255.830    24312265.696 3  95360357.724 3
      -199.348    24312270.549          37.750          16.500
  24839495.765 7  96977992.372 7      -119.058    24839491.607 4  97519263.673 4
       -92.772    24839495.810          40.250          21.250
  25279840.248 6  95097719.100 6      3955.513    25279835.349 2  99322417.521 2
      3082.218    25279838.560          35.500          12.000
 18  2 21  8 42 30.0000000  0 10G07G09G30G02G05G06G23G16G29G13
  20960831.374 9  72401186.113 9      1423.257    20960826.632 8  81636798.716 8
      1109.031    20960831.114          53.250          44.500
  21130430.638 9  73292437.538 9     -1529.251    21130427.308 8  78136983.938 8
     -1191.624    21130429.958          54.250          45.000
  21589390.638 9  79898600.313 9      3080.678    21589387.817 7  84210657.868 7
      2400.529    21589389.819          52.250          43.250
  21870804.568 8  77183115.118 8      -229.623    21870797.007 7  81168660.096 7
      -178.927    21870803.525          48.750          39.000
  22127190.310 8  86919037.817 8      3247.100    22127185.483 6  86412834.009 6
      2530.208    22127190.253          48.500          38.250
  22531124.129 8  84847413.181 8     -2632.579    22531123.098 6  88066857.660 6
     -2051.360    22531123.794          45.500          35.500
  24087699.338 7  93027270.591 7     -2432.722    24087692.523 4  90246464.497 4
     -1895.628    24087698.211          42.000          24.250
  24313789.556 6  94215404.663 6      -275.845    24313784.597 3  95366574.643 3
      -214.944    24313788.698          37.250          15.750
  24840227.259 7  96981835.295 7      -137.101    24840222.603 4  97522258.159 4
      -106.832    24840227.420          41.250          21.250
  25257264.823 6  94979085.011 6      3953.608    25257259.652 2  99229975.381 2
      3080.734    25257263.588          36.250          12.500
 18  2 21  8 43  0.0000000  0 10G07G09G30G02G05G06G23G16G29G13
  20952756.569 9  72358752.168 9      1405.746    20952751.659 8  81603733.312 8
      1095.387    20952756.234          54.000          44.750
  21139186.994 9  73338452.339 9     -1538.362    21139183.790 8  78172839.619 8
     -1198.724    21139186.344          54.000          44.750
  21571842.928 9  79806388.418 9      3066.867    21571840.461 7  84138804.442 7
      2389.767    21571842.454          52.000          42.750
  21872167.425 8  77190277.090 8      -247.733    21872159.783 7  81174240.839 7
      -193.039    21872166.381          48.000          38.750
  22108678.926 8  86821759.232 8      3238.255    22108673.899 6  86337032.521 6
      2523.315    22108678.551          50.250          38.000
  22546183.067 8  84926545.039 8     -2642.699    22546181.271 6  88128518.814 6
     -2059.246    22546182.588          47.500          35.750
  24101596.667 7  93100298.608 7     -2435.585    24101589.115 4  90303369.408 4
     -1897.858    24101595.375          42.000          25.250
  24315423.248 6  94223989.157 6      -296.207    24315418.688 3  95373263.842 3
      -230.810    24315422.408          38.000          16.500
  24841061.380 7  96986219.339 7      -155.172    24841057.114 4  97525674.260 4
      -120.913    24841061.065          40.500          21.000
  25234700.533 6  94860512.445 6      3951.580    25234696.366 2  99137581.184 2
      3079.154    25234699.838          34.000          13.500
 18  2 21  8 43 30.0000000  0 10G07G09G30G02G05G06G23G16G29G13
  20944781.479 9  72316842.649 9      1388.198    20944776.622 8  81571076.551 8
      1081.713    20944781.107          53.500          44.500
  21147995.044 9  73384741.543 9     -1547.563    21147992.292 8  78208909.115 8
     -1205.894    21147994.747          52.250          44.750
  21554374.918 9  79714592.119 9      3052.912    21554372.370 7  84067274.866 7
      2378.893    21554374.093          51.500          43.250
  21873633.113 8  77197980.153 8      -265.862    21873625.708 7  81180243.215 7
      -207.165    21873632.318          48.000          39.000
  22090218.120 8  86724747.988 8      3229.224    22090213.342 7  86261439.355 7
      2516.278    22090218.216          48.000          38.500
  22561298.834 8  85005980.374 8     -2652.931    22561297.470 6  88190416.452 6
     -2067.219    22561298.480          47.250          35.500
  24115509.228 7  93173412.145 7     -2438.564    24115502.177 4  90360340.956 4
     -1900.180    24115508.308          41.750          25.500
  24317172.165 6  94233178.297 6      -316.393    24317166.832 3  95380424.216 3
      -246.540    24317171.233          38.000          16.500
  24841998.181 7  96991143.363 7      -173.192    24841993.902 4  97529511.172 4
      -134.955    24841998.130          38.500          21.500
  25212148.481 6  94742002.207 6      3949.395    25212145.366 2  99045235.576 2
      3077.451    25212148.924          34.750          12.500
 18  2 21  8 44  0.0000000  0 10G07G09G30G02G05G06G23G16G29G13
  20936907.891 9  72275465.286 9      1370.311    20936902.705 8  81538834.454 8
      1067.775    20936907.229          53.750          44.500
  21156857.313 9  73431311.459 9     -1557.084    21156854.208 7  78245197.347 7
     -1213.312    21156856.684          53.000          44.250
  21536987.309 9  79623220.959 9      3038.509    21536985.028 7  83996076.570 7
      2367.669    21536986.505          52.000          43.500
  21875203.333 8  77206230.647 8      -284.199    21875195.451 7  81186672.149 7
      -221.454    21875202.344          48.000          39.000
  22071810.219 9  86628013.207 9      3219.807    22071805.257 7  86186061.607 7
      2508.941    22071809.928          50.500          38.500
  22576473.854 8  85085723.900 8     -2663.290    22576472.137 6  88252554.230 6
     -2075.291    22576473.126          46.750          35.000
  24129439.777 7  93246617.718 7     -2441.827    24129433.311 4  90417384.214 4
     -1902.722    24129438.773          41.250          25.250
  24319036.763 6  94242979.523 6      -336.940    24319031.835 3  95388061.518 3
      -262.550    24319035.324          37.500          16.500
  24843039.908 7  96996613.902 7      -191.412    24843035.241 4  97533773.916 4
      -149.152    24843039.438          41.500          21.500
  25189610.680 6  94623562.656 6      3946.569    25189605.923 2  98952945.041 2
      3075.249    25189610.698          36.500          12.000
 18  2 21  8 44 30.0000000  0 10G07G09G30G02G05G06G23G16G29G13
  20929134.717 9  72234619.124 9      1352.772    20929129.908 8  81507006.277 8
      1054.108    20929134.369          54.500          44.750
  21165772.104 9  73478159.415 9     -1566.098    21165769.163 7  78281702.234 7
     -1220.336    21165771.639          54.250          44.250
  21519680.920 9  79532275.477 9      3024.432    21519678.734 7  83925209.969 7
      2356.700    21519680.203          51.750          43.000
  21876876.915 8  77215026.546 8      -302.155    21876869.567 7  81193526.088 7
      -235.446    21876876.151          48.000          38.750
  22053454.940 8  86531555.543 8      3210.663    22053449.780 7  86110899.797 7
      2501.815    22053454.877          50.250          39.000
  22591705.880 8  85165771.265 8     -2673.184    22591704.846 6  88314928.771 6
     -2083.001    22591705.677          46.000          35.250
  24143387.085 7  93319913.017 7     -2444.576    24143380.840 4  90474497.378 4
     -1904.864    24143386.120          40.500          24.500
  24321018.131 6  94253390.370 6      -357.174    24321013.442 3  95396173.856 3
      -278.318    24321017.420          37.500          17.250
  24844184.828 7  97002628.079 7      -209.422    24844179.440 4  97538460.264 4
      -163.186    24844184.144          42.250          21.250
  25167085.588 6  94505193.159 6      3944.579    25167082.290 2  98860709.058 2
      3073.698    25167085.070          34.000          12.500
 18  2 21  8 45  0.0000000  0 10G07G09G30G02G05G06G23G16G29G13
  20921461.358 9  72194294.994 9      1335.314    20921456.387 7  81475584.880 7
      1040.504    20921460.890          54.250          44.250
  21174737.772 9  73525274.342 9     -1575.011    21174734.918 8  78318415.150 8
     -1227.282    21174737.172          53.500          44.750
  21502454.027 9  79441747.748 9      3010.497    21502451.775 7  83854668.885 7
      2345.842    21502453.316          52.750          43.000
  21878652.532 8  77224357.194 8      -319.970    21878645.139 7  81200796.702 7
      -249.328    21878651.738          48.250          39.250
  22035151.243 9  86435367.221 9      3201.737    22035145.940 7  86035947.862 7
      2494.860    22035150.803          50.500          39.250
  22606993.728 8  85246109.795 8     -2682.816    22606992.742 6  88377530.174 6
     -2090.506    22606993.470          46.750          34.750
  24157349.904 7  93393287.378 7     -2447.191    24157343.395 4  90531672.139 4
     -1906.902    24157349.094          41.250          24.250
  24323113.326 6  94264400.455 6      -377.034    24323107.909 3  95404753.141 3
      -293.793    24323112.514          38.250          17.250
  24845429.890 7  97009174.884 7      -227.203    24845425.732 4  97543561.677 4
      -177.041    24845429.089          41.750          21.750
  25144572.931 6  94386884.568 6      3942.504    25144568.243 2  98768520.598 2
      3072.081    25144571.831          36.250          12.250
 18  2 21  8 45 30.0000000  0 10G07G09G30G02G05G06G23G16G29G13
  20913888.306 9  72154498.633 9      1317.802    20913883.309 8  81444574.732 8
      1026.859    20913887.920          55.000          44.500
  21183755.068 9  73572660.355 9     -1584.037    21183752.243 7  78355339.300 7
     -1234.314    21183754.489          54.250          44.250
  21485308.090 9  79351645.103 9      2996.309    21485305.853 7  83784459.032 7
      2334.786    21485307.289          52.250          43.250
  21880530.894 8  77234226.771 8      -337.968    21880523.249 7  81208487.271 7
      -263.352    21880529.862          48.000          38.750
  22016899.618 9  86339455.509 9      3192.474    22016894.386 7  85961211.467 7
      2487.642    22016899.426          50.750          39.250
  22622337.843 8  85326742.024 8     -2692.600    22622336.437 6  88440360.455 6
     -2098.130    22622337.415          46.250          34.750
  24171328.468 7  93466745.428 7     -2449.919    24171322.076 4  90588912.121 4
     -1909.027    24171327.604          40.000          23.750
  24325323.351 6  94276013.996 6      -397.092    24325318.072 3  95413802.630 3
      -309.423    24325322.362          37.750          16.000
  24846778.545 7  97016258.183 7      -245.002    24846773.832 4  97549081.121 4
      -190.911    24846777.439          41.500          22.500
  25122071.355 6  94268643.570 6      3940.189    25122068.240 2  98676384.773 2
      3070.277    25122072.218          35.750          13.000
 18  2 21  8 46  0.0000000  0 10G07G09G30G02G05G06G23G16G29G13
  20906415.698 9  72115229.908 9      1300.085    20906410.700 7  81413975.730 7
      1013.053    20906415.233          52.750          44.250
  21192823.616 9  73620316.109 9     -1593.014    21192820.803 7  78392473.641 7
     -1241.310    21192823.136          52.500          44.000
  21468243.486 9  79261969.370 9      2982.040    21468241.172 7  83714581.842 7
      2323.668    21468242.527          52.000          43.500
  21882511.446 8  77244634.308 8      -355.965    21882503.945 7  81216597.017 7
      -277.375    21882510.354          47.500          38.500
  21998701.295 9  86243822.402 9      3183.064    21998695.941 7  85886692.171 7
      2480.309    21998701.094          50.500          39.250
  22637737.229 8  85407664.924 8     -2702.159    22637735.700 6  88503417.220 6
     -2105.579    22637736.773          46.500          35.000
  24185322.791 7  93540286.300 7     -2452.862    24185316.121 4  90646216.621 4
     -1911.321    24185321.691          38.750          21.750
  24327647.855 6  94288230.114 6      -417.339    24327642.911 3  95423321.659 3
      -325.199    24327646.905          36.250          16.250
  24848227.628 7  97023876.915 7      -262.884    24848223.305 4  97555017.781 4
      -204.845    24848227.271          42.000          22.500
  25099584.996 6  94150470.965 6      3938.093    25099580.676 2  98584302.250 2
      3068.644    25099584.633          36.750          13.750
 18  2 21  8 46 30.0000000  0 10G07G09G30G02G05G06G23G16G29G13
  20899044.727 9  72076494.354 9      1282.376    20899039.472 7  81383792.189 7
       999.254    20899044.101          54.250          43.750
  21201944.342 9  73668245.184 9     -1602.075    21201941.395 7  78429820.956 7
     -1248.370    21201943.749          53.250          44.250
  21451261.332 9  79172727.283 9      2967.581    21451258.879 7  83645042.563 7
      2312.401    21451260.504          51.500          43.250
  21884595.090 8  77255583.792 8      -373.908    21884587.484 7  81225129.069 7
      -291.357    21884594.002          47.250          38.500
  21980557.028 8  86148474.417 8      3173.600    21980551.917 7  85812395.041 7
      2472.935    21980556.959          50.250          39.750
  22653190.870 8  85488880.436 8     -2711.883    22653190.391 6  88566701.985 6
     -2113.156    22653191.080          44.500          34.250
  24199333.964 7  93613913.949 7     -2455.477    24199326.931 4  90703588.760 4
     -1913.358    24199333.175          40.000          22.500
  24330088.567 6  94301052.872 6      -437.413    24330083.381 3  95433313.400 3
      -340.841    24330087.281          37.250          16.500
  24849779.929 7  97032034.541 7      -280.751    24849775.253 4  97561374.364 4
      -218.767    24849779.312          39.500          21.250
  25077110.817 6  94032371.771 6      3935.406    25077106.971 2  98492276.950 2
      3066.550    25077109.744          34.500          12.500
 18  2 21  8 47  0.0000000  0 10G07G09G30G02G05G06G23G16G29G13
  20891774.922 9  72038291.818 9      1264.427    20891769.688 7  81354023.985 7
       985.268    20891774.425          53.000          44.000
  21211116.550 9  73716445.852 9     -1611.302    21211113.756 7  78467379.905 7
     -1255.560    21211115.974          51.500          43.750
  21434361.779 9  79083920.245 9      2952.869    21434359.447 7  83575842.282 7
      2300.937    21434361.060          51.000          43.500
  21886781.656 8  77267073.534 8      -392.101    21886773.970 7  81234082.108 7
      -305.534    21886780.568          48.250          39.000
  21962467.248 8  86053412.647 8      3163.830    21962462.167 7  85738320.939 7
      2465.322    21962467.269          48.500          39.500
  22668701.733 8  85570385.155 8     -2721.770    22668700.249 6  88630212.118 6
     -2120.859    22668701.260          46.000          34.250
  24213360.749 7  93687626.279 7     -2458.696    24213354.139 4  90761026.900 4
     -1915.867    24213360.317          41.000          22.500
  24332643.950 6  94314480.791 6      -457.597    24332638.482 3  95443776.708 3
      -356.569    24332642.490          38.000          17.000
  24851435.083 7  97040729.232 7      -298.797    24851430.191 4  97568149.454 4
      -232.829    24851434.568          43.250          21.250
  25054651.530 6  93914347.160 6      3932.720    25054646.634 2  98400309.739 2
      3064.457    25054650.360          35.750          11.500
 18  2 21  8 47 30.0000000  0 10G07G09G30G02G05G06G23G16G29G13
  20884607.169 9  72000625.033 9      1246.697    20884602.040 7  81324673.228 7
       971.453    20884606.768          53.000          44.000
  21220340.930 9  73764919.249 9     -1620.196    21220337.938 7  78505151.365 7
     -1262.490    21220340.288          52.250          44.000
  21417546.132 9  78995552.493 9      2938.327    21417543.653 7  83506984.303 7
      2289.605    21417545.332          51.000          44.000
  21889070.599 8  77279104.960 8      -409.947    21889063.365 7  81243457.233 7
      -319.439    21889069.780          48.500          38.500
  21944433.533 8  85958643.074 8      3154.132    21944428.193 7  85664474.524 7
      2457.765    21944433.077          49.000          39.000
  22684266.295 8  85652178.540 8     -2731.103    22684264.970 6  88693947.181 6
     -2128.132    22684265.896          45.750          34.250
  24227404.191 7  93761425.434 7     -2461.380    24227397.841 4  90818532.704 4
     -1917.958    24227403.436          42.250          22.250
  24335313.866 6  94328515.811 6      -477.677    24335308.790 3  95454713.063 3
      -372.216    24335312.691          36.000          15.250
  24853191.954 7  97049961.855 7      -316.614    24853186.540 4  97575343.689 4
      -246.712    24853191.061          40.500          20.500
  25032207.181 6  93796400.039 6      3930.335    25032202.888 2  98308402.919 2
      3062.598    25032205.487          38.000          13.250
 18  2 21  8 48  0.0000000  0 10G07G09G30G02G05G06G23G16G29G13
  20877540.294 9  71963488.689 9      1228.944    20877535.158 7  81295735.824 7
       957.619    20877540.003          53.000          44.250
  21229615.651 9  73813658.442 9     -1629.120    21229612.479 7  78543129.945 7
     -1269.444    21229615.180          52.250          44.250
  21400813.114 9  78907620.212 9      2923.731    21400810.587 7  83438465.650 7
      2278.232    21400812.380          51.250          44.000
  21891461.911 8  77291671.349 8      -427.859    21891454.803 6  81253249.217 6
      -333.397    21891461.162          48.750          38.250
  21926454.110 8  85864161.004 8      3144.554    21926448.800 7  85590852.135 7
      2450.302    21926453.654          48.500          39.500
  22699884.382 8  85734252.065 8     -2740.457    22699883.255 6  88757900.540 6
     -2135.421    22699884.073          44.750          34.000
  24241463.033 7  93835304.897 7     -2464.033    24241456.870 4  90876101.089 4
     -1920.026    24241462.368          40.750          22.750
  24338099.276 6  94343150.260 6      -497.703    24338093.449 3  95466116.504 3
      -387.820    24338097.819          38.000          15.000
  24855049.405 7  97059725.551 7      -334.334    24855044.570 4  97582951.759 4
      -260.520    24855049.396          41.750          21.000
  25009775.696 6  93678525.477 6      3927.975    25009772.560 3  98216552.654 3
      3060.760    25009775.294          36.750          14.500
 18  2 21  8 48 30.0000000  0 10G07G09G30G02G05G06G23G16G29G13
  20870575.866 9  71926889.490 9      1210.922    20870570.530 7  81267216.973 7
       943.575    20870575.374          52.750          44.250
  21238942.146 9  73862668.738 9     -1638.210    21238938.672 7  78581319.777 7
     -1276.528    21238941.508          53.250          44.000
  21384164.788 9  78820131.813 9      2908.748    21384161.979 7  83370292.885 7
      2266.557    21384163.849          52.750          43.750
  21893956.463 8  77304778.323 8      -446.002    21893948.852 7  81263462.428 7
      -347.534    21893955.459          48.250          38.500
  21908530.859 8  85769974.376 8      3134.518    21908525.909 7  85517459.959 7
      2442.482    21908530.700          50.250          39.500
  22715557.106 8  85816609.344 8     -2750.020    22715555.235 6  88822075.002 6
     -2142.873    22715556.378          46.000          33.750
  24255538.112 7  93909270.136 7     -2466.931    24255531.673 4  90933736.295 4
     -1922.284    24255537.309          41.750          23.000
  24340999.184 6  94358389.978 6      -518.150    24340993.746 3  95477991.595 3
      -403.753    24340998.824          37.750          16.000
  24857009.787 7  97070025.447 7      -352.344    24857004.862 4  97590977.651 4
      -274.554    24857009.430          43.000          21.500
  24987359.557 6  93560730.812 6      3925.067    24987356.817 2  98124764.595 2
      3058.494    24987359.698          35.750          13.500
 18  2 21  8 49  0.0000000  0 10G07G09G30G05G02G06G23G16G29G13
  20863713.632 9  71890828.534 9      1193.191    20863708.376 7  81239117.529 7
       929.759    20863713.266          55.000          44.250
  21248319.954 9  73911949.822 9     -1647.043    21248316.779 7  78619720.607 7
     -1283.410    21248319.292          53.250          44.250
  21367601.239 9  78733090.029 9      2894.008    21367598.484 7  83302468.125 7
      2255.071    21367600.433          52.750          43.500
  21890664.892 9  85676087.129 9      3124.647    21890659.607 7  85444301.065 7
      2434.790    21890664.472          51.500          39.750
  21896553.442 8  77318425.680 8      -463.804    21896545.975 7  81274096.720 7
      -361.406    21896552.390          48.500          39.000
  22731281.910 8  85899248.354 8     -2759.238    22731280.723 6  88886469.006 6
     -2150.056    22731281.655          45.250          33.250
  24269630.028 7  93983321.605 7     -2469.907    24269623.585 4  90991438.684 4
     -1924.603    24269629.365          40.500          23.500
  24344013.207 6  94374235.084 6      -537.975    24344008.588 3  95490338.428 3
      -419.201    24344012.997          37.250          15.250
  24859071.358 7  97080860.914 7      -369.975    24859066.708 4  97599420.845 4
      -288.293    24859071.091          42.500          22.250
  24964960.827 6  93443018.060 6      3922.485    24964955.995 2  98033040.351 2
      3056.482    24964960.680          36.500          13.500
 18  2 21  8 49 30.0000000  0 10G07G09G30G05G02G06G23G16G29G13
  20856953.602 9  71855303.898 9      1175.281    20856948.239 7  81211435.997 7
       915.803    20856953.078          53.500          44.250
  21257748.436 9  73961498.070 9     -1655.952    21257745.312 7  78658329.622 7
     -1290.352    21257747.983          52.000          44.000
  21351122.739 9  78646494.310 9      2879.103    21351119.654 7  83234990.949 7
      2243.457    21351121.801          53.000          44.000
  21872855.157 9  85582497.769 9      3114.710    21872850.244 7  85371374.295 7
      2427.046    21872855.074          51.250          39.750
  21899252.750 8  77332609.917 8      -481.711    21899244.970 6  81285149.354 6
      -375.360    21899251.713          47.500          38.250
  22747060.353 8  85982163.787 8     -2768.411    22747059.238 6  88951078.392 6
     -2157.203    22747060.239          44.750          33.500
  24283737.712 7  94057455.871 7     -2472.394    24283730.901 4  91049205.587 4
     -1926.541    24283736.789          41.500          23.500
  24347144.749 6  94390682.187 6      -558.210    24347138.751 3  95503154.353 3
      -434.969    24347143.334          36.250          15.500
  24861234.933 7  97092228.129 7      -387.702    24861229.759 4  97608278.422 4
      -302.105    24861234.400          40.750          22.000
  24942576.083 6  93325385.445 6      3919.664    24942571.571 2  97941378.604 2
      3054.284    24942575.960          36.750          14.000
 18  2 21  8 50  0.0000000  0 10G07G09G30G05G02G06G23G16G29G13
  20850295.335 9  71820315.021 9      1157.502    20850290.035 7  81184171.944 7
       901.950    20850294.903          53.750          44.250
  21267227.535 9  74011311.647 9     -1664.794    21267224.657 7  78697145.387 7
     -1297.242    21267227.238          52.500          43.750
  21334729.293 9  78560345.879 9      2864.207    21334726.256 7  83167862.307 7
      2231.850    21334728.346          53.750          44.000
  21855102.968 9  85489208.985 9      3104.722    21855098.096 7  85298681.738 7
      2419.264    21855102.692          50.750          40.250
  21902053.573 8  77347329.082 8      -499.452    21902046.156 7  81296618.822 7
      -389.184    21902052.643          48.000          38.750
  22762890.795 8  86065352.094 8     -2777.290    22762889.523 6  89015900.405 6
     -2164.122    22762890.720          46.250          33.500
  24297860.125 7  94131670.865 7     -2475.009    24297853.377 4  91107035.392 4
     -1928.579    24297858.986          39.500          23.250
  24350387.128 6  94407729.850 6      -578.155    24350382.964 3  95516438.229 3
      -450.510    24350386.468          36.500          16.250
  24863498.792 7  97104124.801 7      -405.128    24863493.758 4  97617548.534 4
      -315.684    24863498.600          43.000          21.750
  24920206.322 6  93207833.369 6      3917.266    24920201.807 3  97849779.570 3
      3052.415    24920205.962          37.750          15.000
 18  2 21  8 50 30.0000000  0 10G07G09G30G05G02G06G23G16G29G13
  20843739.216 9  71785862.464 9      1139.236    20843733.933 7  81157325.822 7
       887.716    20843738.835          53.500          44.250
  21276757.292 9  74061389.621 9     -1673.899    21276754.223 7  78736167.166 7
     -1304.337    21276756.726          51.000          43.750
  21318421.180 9  78474646.821 9      2848.861    21318418.257 7  83101083.820 7
      2219.892    21318420.410          51.250          44.000
  21837408.126 8  85396222.451 8      3094.317    21837403.275 7  85226224.706 7
      2411.156    21837407.760          49.250          39.750
  21904956.268 8  77362582.436 8      -517.545    21904948.765 7  81308504.542 7
      -403.282    21904955.375          47.250          38.750
  22778772.807 8  86148810.748 8     -2786.671    22778771.398 6  89080933.083 6
     -2171.432    22778772.252          44.750          33.500
  24311997.459 7  94205966.796 7     -2478.000    24311991.820 4  91164928.245 4
     -1930.909    24311996.971          39.750          23.500
  24353745.178 6  94425376.680 6      -598.424    24353741.050 3  95530188.993 3
      -466.305    24353744.483          35.500          16.750
  24865862.883 7  97116549.953 7      -423.096    24865858.198 4  97627230.459 4
      -329.685    24865862.530          39.500          21.750
  24897853.395 6  93090363.181 6      3914.047    24897848.319 3  97758244.356 3
      3049.907    24897851.815          37.750          15.500
 18  2 21  8 51  0.0000000  0 10G07G09G30G05G02G06G23G16G29G13
  20837286.264 9  71751951.192 9      1121.420    20837280.871 8  81130901.463 8
       873.833    20837285.694          54.000          44.500
  21286337.544 9  74111735.414 9     -1682.570    21286334.714 7  78775397.644 7
     -1311.094    21286337.271          53.500          43.750
  21302199.800 9  78389403.565 9      2833.895    21302196.862 7  83034660.511 7
      2208.230    21302199.275          53.750          43.750
  21819772.262 9  85303544.632 9      3084.126    21819767.246 7  85154008.227 7
      2403.215    21819771.911          50.750          40.000
  21907961.052 8  77378373.601 8      -535.292    21907953.638 7  81320809.331 7
      -417.111    21907960.258          47.000          38.500
  22794706.017 8  86232541.392 8     -2795.520    22794704.485 6  89146177.701 6
     -2178.327    22794705.748          45.000          33.250
  24326151.890 7  94280347.431 7     -2480.823    24326145.916 4  91222887.104 4
     -1933.109    24326151.366          38.750          23.000
  24357218.891 6  94443626.489 6      -618.326    24357213.927 3  95544409.610 3
      -481.812    24357217.683          35.250          16.250
  24868328.745 7  97129506.830 7      -440.647    24868323.793 4  97637326.733 4
      -343.362    24868328.221          40.750          20.750
  24875515.004 6  92972979.960 6      3911.300    24875510.471 3  97666776.911 3
      3047.766    24875514.761          36.000          15.250
 18  2 21  8 51 30.0000000  0 10G07G30G09G05G02G06G23G16G13G29
  20830935.254 9  71718577.428 9      1103.368    20830930.085 7  81104895.936 7
       859.767    20830934.924          53.500          44.250
  21286064.943 9  78304614.042 9      2818.612    21286062.008 7  82968590.757 7
      2196.321    21286064.130          53.000          44.000
  21295968.449 9  74162343.923 9     -1691.454    21295965.274 7  78814832.828 7
     -1318.016    21295967.912          53.500          44.000
  21802194.801 9  85211173.771 9      3073.722    21802189.638 7  85082030.939 7
      2395.108    21802194.552          51.000          40.500
  21911067.622 8  77394697.258 8      -553.141    21911059.905 7  81333529.048 7
      -431.019    21911066.725          48.750          38.500
  22810689.767 7  86316537.219 7     -2804.393    22810688.505 6  89211628.965 6
     -2185.241    22810689.755          44.250          33.000
  24340321.257 7  94354807.829 7     -2483.523    24340315.252 4  91280908.115 4
     -1935.213    24340320.865          40.750          23.250
  24360805.560 6  94462474.708 6      -638.438    24360800.919 3  95559096.522 3
      -497.484    24360805.105          36.250          15.000
  24853193.474 6  92855680.803 6      3908.299    24853189.520 3  97575374.968 3
      3045.427    24853193.753          35.500          14.500
  24870894.177 7  97142990.011 7      -458.401    24870889.722 4  97647833.079 4
      -357.195    24870894.369          41.000          22.000
 18  2 21  8 52  0.0000000  0 10G07G30G09G05G02G06G23G16G13G29
  20824687.066 9  71685742.490 9      1085.651    20824681.814 7  81079310.275 7
       845.962    20824686.607          53.500          44.250
  21270016.642 9  78220281.189 9      2803.539    21270014.151 7  82902876.852 7
      2184.576    21270016.159          54.000          44.000
  21305648.564 9  74213215.105 9     -1699.961    21305645.782 7  78854472.701 7
     -1324.645    21305648.295          52.000          43.750
  21784676.108 9  85119112.867 9      3063.509    21784670.984 7  85010295.170 7
      2387.150    21784675.802          51.250          40.250
  21914275.227 8  77411553.688 8      -570.695    21914267.612 7  81346663.913 7
      -444.697    21914274.229          48.250          38.750
  22826723.864 8  86400796.510 8     -2812.957    22826722.734 6  89277285.521 6
     -2191.915    22826723.711          45.750          33.250
  24354506.681 7  94429348.459 7     -2485.915    24354500.046 4  91338991.642 4
     -1937.077    24354505.761          42.000          23.750
  24364506.492 6  94481921.016 6      -657.922    24364501.363 3  95574249.469 3
      -512.667    24364505.461          36.250          16.000
  24830888.148 6  92738467.595 6      3905.680    24830884.568 2  97484040.033 2
      3043.387    24830887.707          36.000          13.750
  24873559.782 7  97156998.909 7      -475.607    24873555.180 4  97658749.095 4
      -370.603    24873560.007          40.750          21.500
 18  2 21  8 52 30.0000000  0 10G07G30G09G05G02G06G16G23G13G29
  20818540.982 9  71653443.874 9      1067.561    20818535.613 8  81054142.527 8
       831.866    20818540.337          53.250          44.500
  21254055.338 9  78136404.193 9      2788.178    21254052.984 7  82837518.161 7
      2172.606    21254054.744          52.500          44.250
  21315378.506 9  74264345.193 9     -1708.786    21315375.711 7  78894314.312 7
     -1331.521    21315378.008          53.250          43.750
  21767216.615 9  85027361.469 9      3053.087    21767211.293 7  84938800.573 7
      2379.029    21767216.336          51.500          40.500
  21917583.883 8  77428938.852 8      -588.386    21917575.783 6  81360210.771 6
      -458.482    21917582.594          49.250          38.000
  22842807.121 7  86485313.765 7     -2821.669    22842805.436 6  89343143.071 6
     -2198.703    22842806.929          43.500          32.500
  24368319.831 6  94501960.961 6      -677.782    24368314.846 3  95589865.004 3
      -528.142    24368318.953          35.750          17.000
  24368705.439 7  94503965.824 7     -2488.544    24368699.165 4  91397134.990 4
     -1939.125    24368704.900          42.000          23.500
  24808600.212 6  92621339.262 6      3902.783    24808595.841 2  97392771.221 2
      3041.130    24808599.202          36.250          14.000
  24876325.484 7  97171529.513 7      -493.080    24876320.493 4  97670071.636 4
      -384.218    24876325.193          42.000          21.250
 18  2 21  8 53  0.0000000  0 10G07G30G09G05G02G06G16G23G13G29
  20812496.078 9  71621678.549 9      1049.991    20812490.774 7  81029390.330 7
       818.175    20812495.598          53.500          44.250
  21238180.380 9  78052981.500 9      2773.169    21238178.185 7  82772513.476 7
      2160.911    21238179.753          52.250          44.250
  21325156.806 9  74315729.681 9     -1717.006    21325153.838 7  78934354.159 7
     -1337.927    21325156.195          52.750          44.000
  21749815.356 9  84935918.769 9      3042.889    21749810.290 7  84867546.522 7
      2371.082    21749815.326          51.250          41.000
  21920991.498 8  77446848.383 8      -605.725    21920983.782 6  81374166.234 6
      -471.993    21920990.650          48.250          38.000
  22858937.868 7  86570082.741 7     -2829.826    22858936.821 6  89409196.772 6
     -2205.059    22858937.640          44.000          32.750
  24372245.350 6  94522590.703 6      -697.458    24372240.928 3  95605940.094 3
      -543.474    24372244.426          35.500          16.250
  24382918.489 7  94578655.871 7     -2490.898    24382912.190 4  91455334.975 4
     -1940.959    24382917.835          40.500          23.000
  24786326.487 6  92504292.847 6      3900.278    24786323.013 2  97301566.242 2
      3039.178    24786326.157          35.500          14.250
  24879189.012 7  97186576.829 7      -510.117    24879184.161 4  97681796.792 4
      -397.494    24879188.757          42.250          21.250
 18  2 21  8 53 30.0000000  0 10G07G30G09G05G02G06G16G23G13G29
  20806552.773 9  71590447.139 9      1032.195    20806547.605 8  81005054.174 8
       804.308    20806552.375          53.250          44.500
  21222392.457 9  77970015.398 9      2757.910    21222390.392 7  82707864.573 7
      2149.020    21222391.825          53.500          44.000
  21334983.214 9  74367367.924 9     -1725.438    21334980.390 7  78974591.736 7
     -1344.497    21334982.705          52.500          43.750
  21732473.762 9  84844787.192 9      3032.577    21732468.588 7  84796534.902 7
      2363.047    21732473.523          50.500          40.750
  21924499.478 8  77465281.323 8      -623.098    21924491.467 6  81388529.549 6
      -485.531    21924498.294          47.750          37.750
  22875116.297 8  86655101.091 8     -2838.030    22875115.190 6  89475444.781 6
     -2211.452    22875116.362          44.750          32.500
  24376282.853 6  94543809.294 6      -717.237    24376278.580 3  95622474.022 3
      -558.886    24376281.953          34.000          16.500
  24397145.892 7  94653418.308 7     -2493.142    24397139.147 4  91513591.375 4
     -1942.708    24397145.011          42.250          22.250
  24764069.272 6  92387329.855 6      3897.478    24764065.419 2  97210426.292 2
      3036.996    24764068.024          34.250          14.250
  24882149.876 7  97202140.146 7      -527.497    24882145.529 4  97693924.062 4
      -411.037    24882150.050          41.250          21.750
 18  2 21  8 54  0.0000000  0 10G07G30G09G05G02G06G16G23G13G29
  20800711.776 9  71559752.297 9      1014.269    20800706.622 8  80981136.117 8
       790.340    20800711.269          54.500          44.500
  21206692.431 9  77887510.018 9      2742.537    21206690.054 8  82643574.674 8
      2137.042    21206691.676          51.750          44.500
  21344858.204 9  74419261.116 9     -1733.960    21344855.266 7  79015027.979 7
     -1351.138    21344857.521          53.000          43.500
  21715192.172 9  84753970.646 9      3021.974    21715186.719 7  84725768.766 7
      2354.785    21715191.929          51.000          40.750
  21928106.845 8  77484239.099 8      -640.615    21928099.110 6  81403301.830 6
      -499.180    21928105.795          49.000          37.750
  22891342.389 8  86740368.312 8     -2846.364    22891341.202 6  89541886.738 6
     -2217.946    22891342.099          44.750          32.750
  24380433.554 6  94565618.388 6      -736.535    24380428.871 3  95639468.096 3
      -573.924    24380431.845          34.500          15.500
  24411386.268 7  94728254.852 7     -2495.614    24411380.194 4  91571905.521 4
     -1944.634    24411385.839          39.000          22.500
  24741828.347 6  92270453.752 6      3894.429    24741825.139 2  97119354.034 2
      3034.620    24741828.068          36.500          13.500
  24885210.523 7  97218219.915 7      -544.520    24885205.310 4  97706453.762 4
      -424.301    24885209.783          40.000          21.500
 18  2 21  8 54 30.0000000  0 10G07G30G09G05G02G06G16G23G13G29
  20794972.837 9  71529593.095 9       996.438    20794967.501 8  80957635.446 8
       776.445    20794972.327          52.250          44.500
  21191079.966 9  77805466.213 9      2727.154    21191077.639 8  82579644.446 8
      2125.055    21191079.237          52.750          44.750
  21354781.212 9  74471407.209 9     -1742.340    21354778.199 7  79055661.277 7
     -1357.668    21354780.639          51.500          43.750
  21697970.466 9  84663470.332 9      3011.465    21697965.189 7  84655249.045 7
      2346.596    21697970.082          51.750          41.000
  21931813.805 8  77503719.667 8      -657.927    21931806.203 6  81418481.472 6
      -512.670    21931812.822          48.250          37.500
  22907615.316 8  86825880.537 8     -2854.326    22907613.655 6  89608519.589 6
     -2224.150    22907614.848          44.750          32.750
  24384694.339 6  94588015.819 6      -756.417    24384690.862 3  95656920.619 3
      -589.415    24384694.549          33.500          15.000
  24425640.131 7  94803163.817 7     -2498.139    24425634.996 4  91630276.089 4
     -1946.601    24425640.107          40.000          21.250
  24719604.669 6  92153663.988 6      3891.767    24719600.196 3  97028349.017 3
      3032.546    24719604.234          36.500          15.250
  24888368.177 7  97234813.688 7      -561.527    24888363.129 4  97719383.974 4
      -437.553    24888367.782          42.500          20.500
 18  2 21  8 55  0.0000000  0 10G07G30G09G05G02G06G16G23G13G29
  20789335.156 9  71499969.149 9       978.546    20789330.305 7  80934551.854 7
       762.503    20789335.087          54.500          44.000
  21175555.693 9  77723885.386 9      2711.582    21175553.241 7  82516074.978 7
      2112.921    21175555.063          51.250          44.250
  21364752.216 9  74523804.713 9     -1750.729    21364749.071 7  79096490.490 7
     -1364.204    21364751.619          52.500          43.500
  21680808.912 9  84573288.172 9      3000.707    21680803.777 7  84584977.231 7
      2338.213    21680808.921          51.750          40.750
  21935619.874 8  77523721.064 8      -675.383    21935612.502 6  81434066.956 6
      -526.273    21935618.897          48.500          38.000
  22923933.577 8  86911634.613 8     -2862.457    22923932.195 6  89675340.901 6
     -2230.486    22923933.307          44.750          32.500
  24389069.127 6  94610999.373 6      -776.095    24389064.180 3  95674829.820 3
      -604.750    24389067.196          34.000          14.750
  24439909.806 7  94878144.015 7     -2500.568    24439903.000 4  91688702.166 4
     -1948.495    24439908.163          41.750          20.750
  24697396.403 6  92036961.840 6      3888.822    24697391.957 3  96937412.287 3
      3030.251    24697396.211          36.750          14.750
  24891623.255 7  97251919.570 7      -578.728    24891618.179 3  97732713.229 3
      -450.957    24891622.445          42.000          20.000
 18  2 21  8 55 30.0000000  0 10G07G30G09G05G02G06G16G23G13G29
  20783799.800 9  71470879.289 9       960.664    20783794.583 7  80911884.434 7
       748.569    20783799.536          53.000          44.250
  21160119.547 9  77642767.795 9      2696.106    21160116.897 8  82452866.467 8
      2100.861    21160118.920          53.000          44.750
  21374770.245 9  74576451.041 9     -1759.081    21374767.400 7  79137513.590 7
     -1370.713    21374769.802          51.000          42.750
  21663708.640 9  84483424.981 9      2990.071    21663703.546 7  84514953.964 7
      2329.925    21663708.451          51.750          41.000
  21939524.905 8  77544240.890 8      -692.691    21939517.278 6  81450056.421 6
      -539.759    21939523.778          46.250          38.000
  22940296.816 7  86997626.171 7     -2870.440    22940296.034 6  89742347.271 6
     -2236.706    22940296.648          43.750          32.500
  24393554.391 6  94634566.691 6      -795.484    24393549.306 3  95693193.941 3
      -619.858    24393552.190          33.250          15.250
  24454190.629 7  94953193.386 7     -2502.824    24454184.345 4  91747182.132 4
     -1950.253    24454189.727          39.000          21.250
  24675205.034 6  91920346.264 6      3885.524    24675201.661 3  96846543.049 3
      3027.681    24675205.139          37.000          15.500
  24894974.827 7  97269534.411 7      -595.767    24894970.159 3  97746439.063 3
      -464.234    24894974.530          39.750          20.250
 18  2 21  8 56  0.0000000  0 10G07G30G09G05G02G06G16G23G13G29
  20778366.050 9  71442323.513 9       942.823    20778360.629 7  80889633.180 7
       734.667    20778365.603          53.500          44.000
  21144771.834 9  77562115.244 9      2680.564    21144769.286 8  82390020.327 8
      2088.751    21144771.187          52.500          44.750
  21384835.813 9  74629345.131 9     -1767.267    21384832.671 7  79178729.749 7
     -1377.091    21384835.244          51.750          43.250
  21646669.429 9  84393883.105 9      2979.302    21646664.077 7  84445181.074 7
      2321.534    21646669.342          51.750          40.750
  21943527.932 8  77565277.606 8      -709.958    21943520.338 6  81466448.665 6
      -553.214    21943527.029          47.750          37.750
  22956705.596 7  87083852.370 7     -2878.085    22956704.394 6  89809536.471 6
     -2242.664    22956705.306          43.750          32.750
  24398148.728 6  94658716.149 6      -814.616    24398144.489 3  95712011.646 3
      -634.765    24398147.958          34.500          16.500
  24468484.437 6  95028310.985 6     -2505.072    24468479.424 4  91805715.268 4
     -1952.004    24468483.945          37.500          20.750
  24653030.024 6  91803818.526 6      3882.853    24653026.793 3  96755742.271 3
      3025.599    24653030.633          37.500          15.500
  24898424.068 7  97287656.663 7      -612.510    24898418.671 4  97760560.255 4
      -477.280    24898423.636          40.750          20.500
 18  2 21  8 56 30.0000000  0 10G07G30G09G05G02G06G16G23G13G29
  20773034.301 9  71414304.713 9       925.057    20773028.760 7  80867800.352 7
       720.824    20773033.812          53.750          44.250
  21129513.630 9  77481931.863 9      2665.007    21129510.803 8  82327539.770 8
      2076.629    21129512.800          54.250          44.500
  21394948.583 9  74682488.279 9     -1775.550    21394945.513 7  79220139.976 7
     -1383.545    21394948.218          52.750          43.500
  21629692.173 9  84304666.826 9      2968.492    21629687.178 7  84375661.893 7
      2313.110    21629691.885          52.500          41.000
  21947630.076 8  77586832.306 8      -727.062    21947622.206 6  81483244.527 6
      -566.542    21947628.715          47.750          38.250
  22973158.857 8  87170312.840 8     -2885.853    22973157.400 6  89876908.206 6
     -2248.717    22973158.207          44.500          32.500
  24402855.245 6  94683449.394 6      -833.830    24402851.219 3  95731284.289 3
      -649.738    24402854.321          35.250          15.750
  24482792.427 7  95103498.784 7     -2507.233    24482787.625 3  91864303.076 3
     -1953.688    24482791.789          39.000          20.250
  24630873.896 6  91687382.064 6      3879.797    24630869.894 3  96665012.576 3
      3023.218    24630873.848          38.000          15.750
  24901968.211 7  97306287.199 7      -629.508    24901963.852 3  97775077.543 3
      -490.526    24901968.214          40.500          20.000
 18  2 21  8 57  0.0000000  0 10G07G30G09G05G02G06G16G23G13G29
  20767804.382 9  71386821.912 9       907.221    20767799.079 7  80846385.182 7
       706.926    20767803.947          54.750          44.250
  21114344.725 9  77402218.717 9      2649.334    21114341.922 8  82265425.625 8
      2064.416    21114343.988          54.000          44.750
  21405108.658 9  74735878.742 9     -1783.712    21405105.312 7  79261742.919 7
     -1389.906    21405108.139          53.000          43.250
  21612777.217 9  84215777.477 9      2957.584    21612771.853 7  84306397.467 7
      2304.611    21612776.947          52.250          41.000
  21951829.665 8  77608903.076 8      -744.208    21951822.212 6  81500442.511 6
      -579.902    21951828.696          48.750          37.500
  22989655.201 7  87257003.971 7     -2893.431    22989654.496 5  89944459.697 5
     -2254.622    22989654.925          43.250          32.000
  24407673.386 6  94708764.395 6      -853.136    24407668.431 3  95751010.236 3
      -664.781    24407672.115          36.250          17.250
  24497113.693 7  95178755.366 7     -2509.643    24497108.240 4  91922944.512 4
     -1955.566    24497112.914          39.750          21.750
  24608733.461 6  91571036.583 6      3876.694    24608729.438 3  96574353.804 3
      3020.801    24608733.707          37.000          17.000
  24905610.231 7  97325423.597 7      -646.212    24905605.728 3  97789989.010 3
      -503.542    24905609.751          40.750          20.000
 18  2 21  8 57 30.0000000  0 10G07G30G09G05G02G06G16G23G13G29
  20762675.953 9  71359871.710 9       889.374    20762670.622 7  80825385.026 7
       693.018    20762675.380          54.000          44.000
  21099264.829 9  77322974.085 9      2633.606    21099262.071 8  82203676.565 8
      2052.160    21099264.163          54.500          44.750
  21415314.447 9  74789511.986 9     -1791.902    21415311.380 7  79303535.041 7
     -1396.287    21415314.022          52.250          43.250
  21595924.036 9  84127213.784 9      2946.603    21595918.876 7  84237386.796 7
      2296.054    21595923.724          51.750          40.750
  21956126.563 8  77631484.971 8      -761.260    21956119.392 6  81518038.774 6
      -593.190    21956125.657          46.500          37.500
  23006194.682 7  87343919.580 7     -2900.891    23006193.657 5  90012186.094 5
     -2260.435    23006194.373          43.500          31.500
  24412600.089 6  94734656.188 6      -872.732    24412595.604 3  95771185.643 3
      -680.051    24412599.267          35.500          17.750
  24511446.887 7  95254076.504 7     -2511.873    24511441.293 4  91981636.246 4
     -1957.303    24511445.922          40.500          22.500
  24586610.999 6  91454780.151 6      3873.743    24586606.745 3  96483764.439 3
      3018.501    24586610.430          37.250          16.750
  24909346.763 7  97345060.713 7      -662.895    24909342.650 3  97805290.656 3
      -516.542    24909346.679          39.500          20.000
 18  2 21  8 58  0.0000000  0 10G07G30G09G05G02G06G16G23G13G29
  20757649.093 9  71333456.247 9       871.466    20757643.948 8  80804801.551 8
       679.064    20757648.808          52.500          44.500
  21084275.122 9  77244201.739 9      2617.727    21084272.304 8  82142295.515 8
      2039.787    21084274.319          52.500          44.750
  21425567.026 9  74843388.977 9     -1800.087    21425563.839 7  79345517.098 7
     -1402.665    21425566.363          52.750          42.750
  21579133.275 9  84038979.489 9      2935.487    21579128.295 7  84168632.805 7
      2287.393    21579133.200          50.750          40.500
  21960521.295 8  77654579.135 8      -778.489    21960514.235 6  81536034.197 6
      -606.615    21960520.312          47.250          37.750
  23022776.598 7  87431058.810 7     -2908.456    23022776.125 5  90080086.747 5
     -2266.329    23022776.293          43.000          32.000
  24417638.014 6  94761125.356 6      -892.073    24417632.402 3  95791810.940 3
      -695.122    24417636.356          35.500          17.000
  24525792.808 7  95329463.792 7     -2514.042    24525787.013 4  92040379.507 4
     -1958.994    24525791.765          39.750          22.500
  24564506.270 7  91338615.595 7      3870.377    24564501.509 3  96393246.667 3
      3015.878    24564505.359          39.250          17.250
  24913179.900 7  97365199.030 7      -679.690    24913174.960 4  97820982.854 4
      -529.629    24913179.484          40.000          20.500
 18  2 21  8 58 30.0000000  0 10G07G30G09G05G02G06G16G23G13G29
  20752724.705 9  71307578.141 9       853.713    20752719.569 7  80784636.797 7
       665.231    20752724.207          54.250          44.250
  21069375.980 9  77165905.679 9      2602.023    21069373.036 8  82081285.592 8
      2027.550    21069375.101          54.250          44.750
  21435866.297 9  74897510.995 9     -1808.041    21435863.233 7  79387690.076 7
     -1408.863    21435865.547          52.500          43.000
  21562406.628 9  83951078.991 9      2924.535    21562401.555 7  84100138.906 7
      2278.858    21562406.337          50.750          40.750
  21965013.718 8  77678186.474 8      -795.325    21965006.670 6  81554429.503 6
      -619.734    21965012.576          47.250          37.500
  23039400.684 7  87518421.164 7     -2915.747    23039400.510 5  90148161.270 5
     -2272.011    23039400.786          42.500          31.000
  24422784.164 6  94788173.408 6      -911.176    24422779.925 3  95812887.288 3
      -710.008    24422782.872          36.250          18.000
  24540151.629 7  95404918.638 7     -2516.188    24540145.120 4  92099175.419 4
     -1960.666    24540150.795          41.000          23.000
  24542418.872 6  91222546.078 6      3867.655    24542414.063 3  96302802.935 3
      3013.757    24542417.817          37.750          18.000
  24917106.312 7  97385839.137 7      -696.271    24917102.253 3  97837066.054 3
      -542.549    24917106.729          39.750          20.250
 18  2 21  8 59  0.0000000  0 10G07G30G09G05G02G06G16G13G23G29
  20747901.647 9  71282233.343 9       835.964    20747896.589 7  80764887.602 7
       651.401    20747901.314          53.500          44.250
  21054566.661 9  77088083.695 9      2586.171    21054563.987 8  82020645.089 8
      2015.198    21054566.037          52.250          45.000
  21446210.980 9  74951873.016 9     -1816.110    21446208.174 7  79430050.083 7
     -1415.151    21446210.339          51.750          42.750
  21545743.020 9  83863511.176 9      2913.356    21545737.882 7  84031904.250 7
      2270.147    21545742.781          50.500          40.750
  21969602.797 8  77702301.528 8      -812.144    21969595.438 6  81573220.436 6
      -632.840    21969601.676          46.750          37.750
  23056066.488 7  87605999.896 7     -2922.859    23056066.117 5  90216404.388 5
     -2277.552    23056066.060          43.000          30.500
  24428040.638 6  94815794.744 6      -930.111    24428035.623 3  95834410.396 3
      -724.762    24428039.802          37.750          18.000
  24520349.212 7  91106568.832 7      3864.341    24520344.368 3  96212431.123 3
      3011.175    24520348.352          39.750          17.500
  24554521.583 6  95480436.679 6     -2518.329    24554515.929 4  92158020.581 4
     -1962.334    24554521.104          38.250          21.750
  24921128.733 7  97406975.319 7      -712.696    24921124.706 3  97853535.807 3
      -555.348    24921128.966          39.750          19.500
 18  2 21  8 59 30.0000000  0 10G07G30G09G05G02G06G16G13G23G29
  20743180.368 9  71257421.326 9       818.193    20743174.984 7  80745553.563 7
       637.553    20743179.688          54.000          44.250
  21039848.218 9  77010737.057 9      2570.267    21039845.445 8  81960374.977 8
      2002.806    21039847.517          54.500          45.250
  21456601.037 9  75006473.654 9     -1824.003    21456598.372 7  79472596.011 7
     -1421.301    21456600.543          51.750          42.750
  21529143.326 9  83776278.208 9      2902.156    21529137.939 7  83963930.513 7
      2261.420    21529142.993          53.000          41.250
  21974288.353 8  77726922.590 8      -829.240    21974280.606 6  81592405.655 6
      -646.161    21974287.187          47.750          37.750
  23072773.065 7  87693791.749 7     -2929.866    23072772.606 5  90284813.578 5
     -2283.013    23072772.861          42.750          31.250
  24433405.128 6  94843987.589 6      -949.291    24433401.047 3  95856378.807 3
      -739.707    24433404.609          37.500          19.250
  24498296.087 6  90990684.455 6      3861.160    24498292.180 3  96122131.659 3
      3008.696    24498296.557          38.250          17.750
  24568903.902 6  95556017.016 6     -2520.583    24568899.123 4  92216914.281 4
     -1964.091    24568902.864          38.000          21.000
  24925244.958 7  97428605.642 7      -729.278    24925240.560 3  97870390.601 3
      -568.269    24925244.805          39.500          20.250
                            4  1
RINEX FILE SPLICE; other post-header comments skipped       COMMENT
 18  2 21  9  0  0.0000000  0 10G07G30G09G05G02G06G16G13G23G29
  20738560.347 9  71233144.248 9       800.405    20738555.275 7  80726636.359 7
       623.692    20738559.904          54.500          44.000
  21025220.775 9  76933869.562 9      2554.292    21025218.142 8  81900478.223 8
      1990.357    21025220.088          53.500          44.750
  21467036.612 9  75061313.913 9     -1831.958    21467034.240 7  79515328.666 7
     -1427.500    21467036.348          52.500          42.750
  21512607.629 9  83689383.786 9      2890.805    21512602.577 7  83896220.571 7
      2252.575    21512607.527          53.250          41.250
  21979069.698 8  77752050.177 8      -845.945    21979062.434 6  81611985.584 6
      -659.178    21979068.693          48.750          38.000
  23089519.336 7  87781796.035 7     -2936.947    23089518.923 5  90353388.306 5
     -2288.530    23089519.417          42.250          30.750
  24438879.230 6  94872752.313 6      -968.364    24438874.664 3  95878792.850 3
      -754.569    24438878.720          38.250          19.250
  24476262.369 7  90874895.942 7      3858.060    24476258.046 3  96031906.926 3
      3006.280    24476262.132          38.750          17.750
  24583299.147 7  95631660.585 7     -2522.449    24583292.953 4  92275857.263 4
     -1965.544    24583298.631          40.750          20.500
  24929454.521 6  97450730.062 6      -745.588    24929450.543 3  97887630.401 3
      -580.977    24929454.641          37.500          19.750
 18  2 21  9  0 30.0000000  0 10G07G30G09G05G02G06G16G13G23G29
  20734042.202 9  71209402.138 9       782.609    20734037.307 7  80708136.014 7
       609.826    20734041.846          53.500          44.250
  21010684.738 9  76857482.719 9      2538.316    21010682.171 8  81840956.004 8
      1977.909    21010684.027          53.500          45.000
  21477517.923 9  75116392.648 9     -1839.805    21477515.180 7  79558247.146 7
     -1433.614    21477517.569          52.000          42.750
  21496137.037 9  83602829.190 9      2879.583    21496131.599 7  83828775.430 7
      2243.831    21496136.719          52.750          41.000
  21983947.831 8  77777683.180 8      -862.776    21983940.000 6  81631959.335 6
      -672.293    21983946.991          48.250          37.750
  23106306.380 7  87870009.767 7     -2943.768    23106306.080 5  90422126.242 5
     -2293.845    23106306.266          43.250          31.000
  24444461.815 6  94902087.766 6      -987.279    24444456.881 3  95901651.593 3
      -769.308    24444460.811          38.250          19.500
  24454247.038 6  90759204.324 6      3854.951    24454242.496 3  95941757.663 3
      3003.858    24454246.765          38.250          17.750
  24597705.896 7  95707367.080 7     -2524.324    24597698.961 3  92334849.276 3
     -1967.006    24597705.113          40.250          20.250
  24933759.163 7  97473347.104 7      -761.918    24933754.978 3  97905254.069 3
      -593.702    24933758.974          39.250          19.750
 18  2 21  9  1  0.0000000  0 10G07G30G05G09G02G06G13G16G23G29
  20729625.657 9  71186192.358 9       764.850    20729620.557 7  80690050.472 7
       595.987    20729625.207          53.250          44.250
  20996240.086 9  76781575.786 9      2522.256    20996237.679 8  81781807.742 8
      1965.394    20996239.451          53.000          45.000
  21479730.988 9  83516615.052 9      2868.125    21479725.723 7  83761595.582 7
      2234.903    21479730.655          53.000          41.500
  21488043.540 9  75171706.432 9     -1847.664    21488041.088 7  79601348.786 7
     -1439.738    21488043.381          51.500          42.750
  21988920.677 8  77803817.348 8      -879.458    21988913.068 6  81652323.604 6
      -685.292    21988919.784          48.250          37.500
  23123132.184 7  87958427.766 7     -2950.591    23123131.035 5  90491023.328 5
     -2299.162    23123131.413          42.750          31.000
  24432249.620 6  90643607.733 6      3851.719    24432245.560 3  95851682.463 3
      3001.339    24432249.266          38.250          18.000
  24450151.582 6  94931990.470 6     -1006.066    24450147.766 3  95924952.360 3
      -783.947    24450151.109          36.500          19.000
  24612123.323 7  95783133.448 7     -2526.609    24612117.561 4  92393887.948 4
     -1968.786    24612122.807          39.750          20.500
  24938156.360 7  97496452.539 7      -778.393    24938151.371 3  97923258.294 3
      -606.540    24938155.922          39.750          20.000
 18  2 21  9  1 30.0000000  0 10G07G30G05G09G02G06G13G16G23G29
  20725310.675 9  71163517.785 9       746.894    20725305.677 8  80672381.974 8
       581.995    20725310.438          54.250          44.750
  20981887.672 9  76706153.083 9      2506.002    20981885.064 8  81723036.800 8
      1952.729    20981886.962          53.250          45.250
  21463390.674 9  83430745.841 9      2856.553    21463385.359 7  83694684.511 7
      2225.885    21463390.236          52.250          41.250
  21498614.462 9  75227256.920 9     -1855.584    21498612.010 7  79644634.861 7
     -1445.910    21498614.051          51.250          42.500
  21993989.601 8  77830453.952 8      -896.225    21993981.860 6  81673079.383 6
      -698.357    21993988.435          47.000          37.500
  23139996.220 7  88047049.867 7     -2957.413    23139995.441 5  90560079.469 5
     -2304.478    23139995.638          43.750          30.750
  24410270.662 6  90528110.181 6      3848.439    24410267.011 3  95761684.414 3
      2998.784    24410270.641          38.000          17.250
  24455950.165 6  94962460.627 6     -1025.114    24455945.821 3  95948695.313 3
      -798.790    24455948.990          37.500          18.000
  24626552.942 7  95858961.766 7     -2528.679    24626547.339 3  92452974.890 3
     -1970.399    24626552.882          39.500          19.750
  24942645.512 7  97520047.293 7      -794.606    24942641.722 3  97941643.798 3
      -619.173    24942645.836          39.250          19.000
 18  2 21  9  2  0.0000000  0 10G07G30G05G09G02G06G13G16G23G29
  20721097.859 9  71141377.574 9       729.174    20721092.640 8  80655129.856 8
       568.187    20721097.347          54.500          44.500
  20967627.843 9  76631215.828 9      2489.909    20967625.064 8  81664644.131 8
      1940.189    20967626.977          52.500          45.500
  21447116.296 9  83345223.829 9      2845.015    21447111.164 7  83628043.979 7
      2216.895    21447116.083          52.000          41.500
  21509230.365 9  75283042.680 9     -1863.302    21509227.631 7  79688104.269 7
     -1451.924    21509229.630          51.500          42.250
  21999153.259 8  77857591.531 8      -912.783    21999146.163 6  81694225.528 6
      -711.260    21999152.471          47.250          37.500
  23156898.537 7  88135872.893 7     -2964.012    23156898.096 5  90629292.164 5
     -2309.620    23156898.243          42.750          30.500
  24388312.322 6  90412712.266 6      3845.055    24388307.579 3  95671764.028 3
      2996.147    24388311.434          38.250          16.750
  24461856.451 6  94993496.831 6     -1043.757    24461851.801 3  95972879.327 3
      -813.317    24461855.468          37.750          17.750
  24640994.604 7  95934850.765 7     -2530.579    24640988.231 3  92512109.107 3
     -1971.880    24640993.903          39.500          18.750
  24947229.288 7  97544128.711 7      -810.633    24947224.026 3  97960408.535 3
      -631.662    24947228.169          39.500          19.250
 18  2 21  9  2 30.0000000  0 10G07G30G05G09G02G06G13G16G23G29
  20716985.121 9  71119765.350 9       711.705    20716979.979 8  80638289.162 8
       554.575    20716984.728          52.250          44.750
  20953458.971 9  76556759.015 9      2473.983    20953456.402 8  81606625.834 8
      1927.779    20953458.303          52.250          45.250
  21430907.088 9  83260044.382 9      2833.652    21430901.916 7  83561670.387 7
      2208.040    21430906.998          52.750          41.000
  21519889.306 9  75339056.096 9     -1870.836    21519886.563 7  79731751.072 7
     -1457.794    21519888.865          50.750          42.250
  22004411.496 8  77885221.790 8      -929.105    22004404.151 6  81715755.584 6
      -723.977    22004410.543          48.250          37.500
  23173837.284 7  88224887.369 7     -2970.217    23173836.385 5  90698654.061 5
     -2314.455    23173837.029          43.500          30.250
  24366368.389 6  90297408.184 6      3841.943    24366365.574 3  95581916.709 3
      2993.722    24366369.423          35.500          17.000
  24467868.558 6  95025091.309 6     -1062.405    24467863.060 3  95997498.389 3
      -827.848    24467867.365          36.250          17.750
  24655446.304 7  96010793.396 7     -2532.265    24655439.717 3  92571285.122 3
     -1973.194    24655445.308          40.250          19.000
  24951902.246 7  97568689.169 7      -826.421    24951897.973 3  97979546.546 3
      -643.965    24951902.033          38.750          19.000
 18  2 21  9  3  0.0000000  0 10G07G30G05G09G02G06G13G16G23G29
  20712972.974 9  71098681.021 9       693.894    20712967.758 8  80621859.813 8
       540.697    20712972.560          53.500          44.500
  20939382.201 9  76482784.341 9      2457.604    20939379.593 8  81548983.227 8
      1915.016    20939381.350          53.500          45.250
  21414763.792 9  83175209.555 9      2821.887    21414758.365 7  83495565.326 7
      2198.873    21414763.387          52.750          41.500
  21530591.279 9  75395296.227 9     -1878.621    21530588.701 7  79775574.543 7
     -1463.861    21530590.985          50.750          41.750
  22009762.773 8  77913343.285 8      -945.694    22009755.431 6  81737668.421 6
      -736.904    22009761.676          47.500          37.500
  23190812.508 7  88314090.604 7     -2976.754    23190812.187 5  90768163.025 5
     -2319.549    23190811.776          42.000          30.500
  24344446.524 6  90182199.104 6      3838.651    24344442.219 3  95492143.476 3
      2991.156    24344445.616          38.000          15.750
  24473986.693 6  95057241.975 6     -1081.031    24473981.905 3  96022550.820 3
      -842.362    24473985.718          36.500          16.750
  24669907.611 7  96086788.692 7     -2534.273    24669901.933 4  92630502.168 4
     -1974.758    24669906.727          39.750          20.500
  24956666.625 7  97593726.587 7      -842.366    24956662.392 3  97999056.203 3
      -656.389    24956666.182          39.000          19.000
 18  2 21  9  3 30.0000000  0 10G07G30G05G09G02G06G13G16G23G29
  20709062.233 9  71078129.336 9       676.155    20709056.812 8  80605845.511 8
       526.874    20709061.831          54.000          44.500
  20925398.211 9  76409298.291 9      2441.327    20925395.648 8  81491721.370 8
      1902.333    20925397.471          54.000          45.500
  21398686.998 9  83090726.347 9      2810.197    21398681.875 7  83429734.256 7
      2189.764    21398686.713          53.000          41.250
  21541337.729 9  75451767.013 9     -1886.245    21541334.974 7  79819577.733 7
     -1469.802    21541337.016          51.250          42.250
  22015208.314 8  77941959.438 8      -962.131    22015200.916 6  81759966.708 6
      -749.713    22015207.337          45.750          37.250
  23207823.739 7  88403484.728 7     -2983.095    23207822.663 5  90837820.723 5
     -2324.490    23207823.016          41.000          29.750
  24322541.697 6  90067090.906 6      3835.428    24322537.464 3  95402448.802 3
      2988.645    24322541.727          35.500          16.750
  24480211.062 6  95089952.824 6     -1099.861    24480206.861 3  96048039.758 3
      -857.035    24480210.354          35.250          16.750
  24684379.538 7  96162841.407 7     -2536.217    24684374.330 3  92689763.956 3
     -1976.273    24684378.962          40.250          19.750
  24961522.457 7  97619243.751 7      -858.607    24961517.990 3  98018939.721 3
      -669.045    24961521.848          39.250          18.250
 18  2 21  9  4  0.0000000  0 10G07G30G05G09G02G06G13G16G23G29
  20705252.503 9  71058108.917 9       658.409    20705247.089 8  80590245.188 8
       513.046    20705251.963          55.250          44.750
  20911507.004 9  76336300.953 9      2425.023    20911504.797 8  81434840.325 8
      1889.628    20911506.452          54.750          46.000
  21382677.724 9  83006595.255 9      2798.393    21382672.154 7  83364177.559 7
      2180.566    21382677.341          53.250          41.750
  21552126.669 9  75508465.973 9     -1893.841    21552124.367 7  79863758.729 7
     -1475.720    21552126.363          51.000          42.000
  22020747.271 8  77971067.057 8      -978.469    22020739.734 6  81782647.965 6
      -762.443    22020746.521          47.000          37.500
  23224869.141 7  88493065.428 7     -2989.421    23224869.902 5  90907623.827 5
     -2329.419    23224869.228          40.000          29.250
  24300656.991 6  89952083.062 6      3831.524    24300652.788 3  95312832.367 3
      2985.603    24300656.275          36.500          17.250
  24486541.863 6  95123220.654 6     -1118.148    24486537.384 3  96073962.712 3
      -871.284    24486541.092          36.500          16.250
  24698863.390 7  96238949.636 7     -2538.067    24698856.947 3  92749069.005 3
     -1977.715    24698862.202          41.000          19.500
  24966469.404 7  97645237.433 7      -874.482    24966464.523 3  98039194.541 3
      -681.415    24966468.894          39.250          18.500
 18  2 21  9  4 30.0000000  0 10G07G30G05G09G02G06G13G16G23G29
  20701543.824 9  71038620.967 9       640.716    20701538.575 7  80575059.769 7
       499.260    20701543.546          53.250          44.250
  20897709.922 9  76263795.806 9      2408.665    20897707.596 8  81378342.810 8
      1876.881    20897709.227          54.000          45.750
  21366735.736 9  82922820.422 9      2786.539    21366730.357 7  83298898.468 7
      2171.329    21366735.349          52.000          42.250
  21562960.350 9  75565394.021 9     -1901.385    21562957.349 7  79908118.231 7
     -1481.599    21562959.685          50.750          41.750
  22026379.847 8  78000666.685 8      -994.787    22026372.376 6  81805712.603 6
      -775.159    22026378.998          46.750          37.000
  23241951.720 7  88582831.792 7     -2995.262    23241951.480 5  90977571.583 5
     -2333.970    23241952.025          42.250          29.000
  24278790.858 6  89837178.265 6      3828.528    24278786.406 3  95223296.217 3
      2983.268    24278790.672          37.750          18.750
  24492978.572 6  95157045.519 6     -1136.797    24492974.066 3  96100319.699 3
      -885.816    24492978.014          36.000          15.500
  24713356.164 7  96315114.731 7     -2539.723    24713350.932 4  92808418.370 4
     -1979.005    24713356.113          40.000          20.750
  24971506.520 6  97671707.486 6      -890.418    24971501.528 3  98059820.533 3
      -693.832    24971505.689          37.500          18.000
 18  2 21  9  5  0.0000000  0 10G07G30G05G09G02G06G13G16G23G29
  20697937.210 9  71019667.545 9       622.854    20697931.880 7  80560290.870 7
       485.341    20697936.889          54.250          44.250
  20884006.997 9  76191786.081 9      2392.075    20884004.473 8  81322231.340 8
      1863.954    20884006.193          52.500          46.250
  21350862.271 9  82839405.943 9      2774.389    21350856.844 7  83233900.176 7
      2161.862    21350862.118          53.250          41.500
  21573837.024 9  75622551.841 9     -1909.168    21573834.248 7  79952656.779 7
     -1487.663    21573836.455          51.750          42.000
  22032105.829 8  78030758.355 8     -1011.261    22032098.433 6  81829160.641 6
      -787.996    22032105.313          47.750          36.750
  23259069.027 7  88672782.732 7     -3001.402    23259068.673 5  91047663.179 5
     -2338.755    23259068.454          42.250          29.000
  24256945.608 7  89722379.799 7      3824.856    24256940.838 3  95133842.907 3
      2980.407    24256945.437          39.000          17.750
  24499520.094 6  95191427.642 6     -1155.059    24499515.678 3  96127110.933 3
      -900.046    24499520.643          33.500          15.250
  24727861.709 7  96391337.594 7     -2541.721    24727856.033 3  92867812.722 3
     -1980.562    24727860.614          39.250          20.250
  24976633.612 6  97698654.491 6      -906.065    24976629.766 3  98080818.183 3
      -706.024    24976633.016          38.000          17.500
 18  2 21  9  5 30.0000000  0 10G07G30G05G09G02G06G13G16G23G29
  20694431.932 9  71001247.442 9       605.139    20694426.686 7  80545937.545 7
       471.536    20694431.536          53.500          44.250
  20870398.362 9  76120272.425 9      2375.479    20870396.011 8  81266506.420 8
      1851.023    20870397.642          54.000          45.750
  21335057.842 9  82756353.538 9      2762.449    21335052.721 7  83169184.016 7
      2152.558    21335057.632          54.000          41.750
  21584756.911 8  75679937.563 8     -1916.617    21584754.351 7  79997372.908 7
     -1493.467    21584756.503          49.750          41.250
  22037925.544 8  78061339.681 8     -1027.457    22037918.187 6  81852990.230 6
      -800.616    22037924.470          46.750          36.250
  23276221.112 7  88762914.563 7     -3007.318    23276220.231 5  91117895.736 5
     -2343.364    23276220.771          41.750          28.750
  24235120.066 7  89607687.485 7      3821.318    24235115.935 3  95044472.321 3
      2977.650    24235119.869          38.750          18.500
  24506169.500 6  95226364.852 6     -1173.712    24506164.298 3  96154334.727 3
      -914.581    24506168.559          35.000          14.500
  24742377.479 7  96467616.780 7     -2543.493    24742371.193 3  92927250.984 3
     -1981.943    24742376.916          39.750          20.250
  24981851.434 6  97726075.309 6      -922.301    24981847.219 3  98102185.054 3
      -718.676    24981851.086          37.500          17.500
 18  2 21  9  6  0.0000000  0 10G07G30G05G09G02G06G13G16G23G29
  20691027.962 9  70983359.279 9       587.373    20691022.623 7  80531998.713 7
       457.693    20691027.507          54.000          44.250
  20856884.036 9  76049255.182 9      2358.862    20856881.670 8  81211168.314 8
      1838.074    20856883.481          54.750          45.500
  21319322.665 9  82673663.827 9      2750.187    21319317.392 7  83104750.475 7
      2143.003    21319322.452          53.000          41.750
  21595720.006 8  75737549.080 8     -1924.162    21595717.371 7  80042264.976 7
     -1499.347    21595719.470          49.500          41.750
  22043837.595 8  78092408.036 8     -1043.722    22043830.106 6  81877199.326 6
      -813.290    22043836.543          45.750          36.250
  23293406.113 7  88853223.381 7     -3013.334    23293405.534 5  91188266.177 5
     -2348.052    23293405.777          42.500          29.250
  24213314.359 6  89493101.060 6      3817.701    24213311.110 3  94955184.256 3
      2974.832    24213314.503          38.000          19.000
  24512921.306 6  95261854.009 6     -1192.178    24512917.073 3  96181988.584 3
      -928.970    24512921.953          34.250          14.500
  24756903.962 7  96543950.596 7     -2545.418    24756896.575 4  92986731.796 4
     -1983.443    24756902.883          42.000          20.750
  24987159.254 7  97753966.501 7      -937.551    24987154.910 3  98123918.430 3
      -730.559    24987159.218          39.000          17.500
 18  2 21  9  6 30.0000000  0 10G07G30G05G09G02G06G13G16G23G29
  20687724.486 9  70965999.338 9       569.856    20687719.156 8  80518471.465 8
       444.043    20687724.079          53.500          44.750
  20843464.297 9  75978732.144 9      2342.512    20843461.674 8  81156215.301 8
      1825.334    20843463.419          53.750          45.750
  21303656.222 9  82591335.357 9      2738.174    21303650.777 7  83040598.420 7
      2133.642    21303655.781          52.000          41.750
  21606725.540 8  75795381.691 8     -1931.438    21606722.317 7  80087329.330 7
     -1505.016    21606725.120          50.000          41.500
  22049841.152 8  78123958.149 8     -1059.661    22049834.008 6  81901783.816 6
      -825.710    22049840.321          47.000          36.250
  23310623.922 7  88943702.589 7     -3018.754    23310623.355 5  91258769.415 5
     -2352.276    23310623.262          42.000          29.000
  24191529.500 6  89378617.884 6      3814.410    24191525.330 3  94865976.624 3
      2972.268    24191529.377          38.000          18.750
  24519780.359 6  95297889.590 6     -1210.234    24519775.044 2  96210068.224 2
      -943.039    24519779.100          35.250          14.000
  24771438.641 7  96620334.552 7     -2546.842    24771432.348 4  93046251.700 4
     -1984.553    24771437.945          41.000          20.750
  24992556.072 7  97782322.673 7      -952.896    24992550.766 3  98146014.150 3
      -742.516    24992555.029          38.750          17.250
 18  2 21  9  7  0.0000000  0 10G07G30G05G09G02G06G13G16G23G29
  20684522.136 9  70949171.031 9       552.213    20684516.881 8  80505358.498 8
       430.296    20684521.666          54.250          44.750
  20830139.098 9  75908708.668 9      2325.892    20830136.550 8  81101651.562 8
      1812.383    20830138.420          54.500          46.250
  21288059.243 9  82509373.597 9      2726.077    21288054.051 7  82976732.107 7
      2124.216    21288058.901          53.500          42.000
  21617773.033 8  75853438.292 8     -1938.782    21617770.371 7  80132568.223 7
     -1510.739    21617772.535          50.000          41.250
  22055937.206 8  78155992.056 8     -1075.642    22055930.299 6  81926745.275 6
      -838.162    22055936.307          47.250          36.250
  23327874.151 7  89034353.340 7     -3024.411    23327873.221 5  91329406.320 5
     -2356.684    23327873.956          42.250          28.500
  24169764.588 7  89264243.024 7      3810.729    24169760.523 3  94776853.397 3
      2969.399    24169764.099          39.250          19.000
  24526742.419 6  95334474.154 6     -1228.529    24526736.965 3  96238575.642 3
      -957.296    24526740.392          35.750          14.500
  24785983.702 7  96696772.124 7     -2548.542    24785977.856 3  93105813.374 3
     -1985.877    24785983.219          40.250          20.000
  24998040.215 6  97811145.842 6      -968.444    24998035.643 3  98168473.744 3
      -754.632    24998039.684          38.250          18.250
 18  2 21  9  7 30.0000000  0 10G07G30G05G09G02G06G13G16G23G29
  20681420.016 9  70932869.624 9       534.498    20681414.826 8  80492656.098 8
       416.492    20681419.602          54.250          44.500
  20816908.690 9  75839181.767 9      2309.131    20816906.037 8  81047474.757 8
      1799.323    20816907.845          54.750          46.000
  21272531.718 9  82427776.026 9      2713.661    21272526.597 7  82913149.584 7
      2114.541    21272531.520          53.750          42.000
  21628862.635 9  75911713.476 9     -1946.266    21628859.658 7  80177977.442 7
     -1516.571    21628862.020          50.750          41.000
  22062124.008 8  78188503.741 8     -1091.809    22062116.747 6  81952079.033 6
      -850.760    22062123.145          47.500          36.250
  23345155.585 7  89125168.360 7     -3030.082    23345154.350 5  91400171.233 5
     -2361.102    23345155.540          42.750          28.500
  24148019.865 7  89149972.857 7      3807.167    24148015.749 3  94687811.759 3
      2966.623    24148019.712          38.750          18.750
  24533806.665 6  95371601.637 6     -1246.686    24533802.219 3  96267506.095 3
      -971.444    24533805.979          35.000          15.750
  24800538.964 7  96773258.355 7     -2550.468    24800532.249 3  93165412.958 3
     -1987.377    24800538.020          39.750          18.750
  25003612.451 7  97840429.259 7      -983.936    25003607.897 3  98191291.985 3
      -766.703    25003612.107          39.500          18.500
 18  2 21  9  8  0.0000000  0 10G07G30G05G09G02G06G13G16G23G29
  20678419.354 9  70917100.269 9       516.811    20678414.090 7  80480368.288 7
       402.710    20678418.800          54.500          44.250
  20803773.817 9  75770157.782 9      2292.438    20803771.110 8  80993689.837 8
      1786.315    20803773.017          52.000          45.750
  21257075.234 9  82346551.146 9      2701.305    21257070.156 7  82849857.467 7
      2104.913    21257075.048          52.000          42.250
  21639994.567 8  75970211.162 8     -1953.563    21639991.639 7  80223560.036 7
     -1522.257    21639993.845          50.000          41.250
  22068402.799 8  78221496.561 8     -1107.674    22068395.427 6  81977787.713 6
      -863.122    22068401.701          47.000          36.750
  23362469.568 7  89216149.728 7     -3035.492    23362468.300 5  91471065.759 5
     -2365.318    23362468.863          43.250          28.750
  24126295.800 7  89035813.280 7      3803.509    24126291.963 3  94598856.311 3
      2963.773    24126295.764          40.000          18.500
  24540976.696 6  95409274.772 6     -1264.798    24540971.459 3  96296861.739 3
      -985.557    24540975.452          37.000          15.750
  24815103.724 7  96849797.475 7     -2552.057    24815098.217 3  93225053.807 3
     -1988.616    24815103.242          38.750          16.750
  25009273.459 6  97870175.977 6      -999.229    25009268.666 3  98214471.231 3
      -778.620    25009273.135          38.000          19.750
 18  2 21  9  8 30.0000000  0 10G07G30G05G09G02G06G13G16G23G29
  20675519.345 9  70901862.565 9       498.984    20675514.395 8  80468494.754 8
       388.818    20675519.132          53.000          44.500
  20790734.863 9  75701638.680 9      2275.513    20790732.330 8  80940298.336 8
      1773.127    20790734.194          53.250          45.750
  21241690.071 9  82265701.069 9      2688.707    21241684.612 7  82786857.407 7
      2095.096    21241689.651          52.750          42.000
  21651168.594 9  76028930.943 9     -1961.094    21651165.752 7  80269315.695 7
     -1528.126    21651168.111          50.750          41.250
  22074772.201 8  78254969.450 8     -1123.795    22074764.916 6  82003870.468 6
      -875.685    22074771.455          48.750          36.750
  23379813.968 7  89307295.231 7     -3040.935    23379812.538 5  91542088.194 5
     -2369.560    23379813.383          42.250          29.000
  24104593.311 7  88921765.881 7      3799.707    24104589.168 3  94509988.232 3
      2960.810    24104593.068          38.500          19.250
  24548249.320 6  95447492.642 6     -1283.074    24548244.958 3  96326641.854 3
      -999.798    24548247.704          36.000          16.750
  24829678.374 6  96926389.394 6     -2553.891    24829673.419 3  93284735.724 3
     -1990.045    24829677.772          38.250          17.250
  25015022.396 7  97900384.799 7     -1014.710    25015017.411 3  98238010.550 3
      -790.683    25015021.701          41.250          19.250
 18  2 21  9  9  0.0000000  0 10G07G30G05G09G02G06G13G16G23G29
  20672721.547 9  70887157.809 9       481.363    20672716.288 7  80457036.503 7
       375.088    20672721.073          54.000          44.250
  20777792.876 9  75633627.201 9      2258.673    20777790.055 8  80887302.382 8
      1760.005    20777791.986          54.250          45.750
  21226376.456 9  82185228.980 9      2676.099    21226371.228 7  82724151.879 7
      2085.271    21226376.258          54.000          42.500
  21662384.651 9  76087873.162 9     -1968.414    21662382.061 7  80315244.681 7
     -1533.829    21662384.489          50.750          41.500
  22081233.211 8  78288921.763 8     -1139.672    22081225.747 6  82030326.798 6
      -888.057    22081232.354          47.750          36.500
  23397189.111 7  89398603.377 7     -3046.047    23397187.978 5  91613237.344 5
     -2373.543    23397188.610          42.000          27.750
  24082912.492 7  88807832.813 7      3795.888    24082908.462 3  94421209.276 3
      2957.835    24082912.707          38.750          19.000
  24555625.938 6  95486254.901 6     -1300.990    24555620.434 3  96356846.168 3
     -1013.758    24555624.688          37.500          17.500
  24844264.075 7  97003034.879 7     -2555.439    24844258.193 3  93344459.372 3
     -1991.252    24844263.035          39.750          18.000
  25020857.326 7  97931054.517 7     -1029.958    25020853.749 3  98261909.029 3
      -802.564    25020858.141          39.500          20.250
 18  2 21  9  9 30.0000000  0 10G07G30G05G09G02G06G13G16G23G29
  20670024.491 9  70872984.699 9       463.404    20670019.184 8  80445992.514 8
       361.094    20670024.029          54.000          44.750
  20764947.201 9  75566123.739 9      2241.353    20764944.629 8  80834702.288 8
      1746.508    20764946.452          53.250          45.500
  21211135.341 9  82105135.899 9      2663.184    21211130.106 7  82661741.689 7
      2075.208    21211135.020          54.250          42.500
  21673643.051 8  76147035.813 8     -1975.965    21673640.344 7  80361345.431 7
     -1539.713    21673642.431          50.250          41.000
  22087784.501 8  78323350.805 8     -1155.813    22087777.522 6  82057154.601 6
      -900.634    22087783.841          46.000          36.500
  23414594.722 7  89490070.384 7     -3051.705    23414593.601 5  91684510.291 5
     -2377.952    23414594.456          42.250          28.500
  24061253.584 7  88694014.133 7      3791.794    24061249.084 3  94332519.440 3
      2954.645    24061253.967          39.750          18.750
  24563105.259 7  95525558.711 7     -1319.404    24563099.671 3  96387472.481 3
     -1028.107    24563103.715          39.000          17.750
  24858858.718 7  97079732.649 7     -2557.555    24858853.115 3  93404223.807 3
     -1992.900    24858858.191          39.250          18.000
  25026781.863 7  97962182.616 7     -1045.375    25026777.142 4  98286164.685 4
      -814.578    25026781.393          39.000          20.500
 18  2 21  9 10  0.0000000  0 10G07G30G05G09G02G06G13G16G23G29
  20667429.436 9  70859347.902 9       445.747    20667424.100 8  80435366.438 8
       347.336    20667429.008          54.750          44.500
  20752199.831 9  75499134.574 9      2224.499    20752196.956 8  80782502.942 8
      1733.376    20752198.938          53.500          46.000
  21195967.470 9  82025428.825 9      2650.627    21195962.155 7  82599632.280 7
      2065.423    21195967.272          53.250          42.250
  21684943.899 8  76206422.912 8     -1983.181    21684941.368 7  80407621.073 7
     -1545.336    21684943.551          49.250          41.000
  22094427.923 8  78358260.040 8     -1171.477    22094419.915 6  82084356.580 6
      -912.839    22094426.993          47.000          36.500
  23432031.095 7  89581698.333 7     -3056.697    23432029.354 5  91755908.662 5
     -2381.842    23432030.499          41.250          27.500
  24039617.940 7  88580315.486 7      3788.260    24039613.023 3  94243923.125 3
      2951.891    24039617.610          39.500          18.500
  24570687.997 7  95565407.103 7     -1337.235    24570683.140 4  96418523.153 4
     -1042.002    24570686.776          38.750          20.500
  24873465.230 7  97156487.153 7     -2559.392    24873459.417 3  93464032.434 3
     -1994.331    24873464.490          38.500          18.000
  25032792.675 7  97993771.832 7     -1060.286    25032788.841 3  98310779.628 3
      -826.197    25032792.432          39.750          20.000
 18  2 21  9 10 30.0000000  0 10G07G30G05G09G02G06G13G16G23G29
  20664934.704 9  70846237.616 9       428.317    20664929.311 7  80425150.632 7
       333.754    20664934.225          54.500          44.000
  20739548.457 9  75432651.941 9      2207.734    20739545.792 8  80730698.298 8
      1720.312    20739547.831          55.000          45.750
  21180871.993 9  81946101.037 9      2638.005    21180866.747 7  82537818.425 7
      2055.588    21180871.841          52.500          42.250
  21696285.845 8  76266024.353 8     -1990.208    21696283.210 7  80454063.741 7
     -1550.811    21696285.152          49.750          40.500
  22101160.341 8  78393638.114 8     -1186.986    22101152.657 6  82111923.894 6
      -924.924    22101159.151          46.750          36.500
  23449496.282 7  89673475.426 7     -3061.601    23449494.504 5  91827423.236 5
     -2385.663    23449495.433          43.750          26.750
  24018002.574 7  88466729.253 7      3784.380    24017998.557 3  94155414.416 3
      2948.867    24018002.055          39.500          19.000
  24578371.563 6  95605788.864 6     -1354.814    24578367.570 3  96449989.416 3
     -1055.699    24578370.754          37.000          20.000
  24888079.522 7  97233288.497 7     -2560.709    24888073.499 3  93523877.592 3
     -1995.358    24888079.051          39.250          17.000
  25038890.229 6  98025810.902 6     -1075.260    25038885.498 3  98335745.141 3
      -837.865    25038889.312          38.000          19.500
 18  2 21  9 11  0.0000000  0 11G07G30G28G05G09G02G06G13G16G23G29
  20662539.998 9  70833653.686 9       410.684    20662534.599 8  80415344.971 8
       320.013    20662539.534          53.500          44.500
  20726994.127 9  75366677.355 9      2190.632    20726991.150 8  80679289.529 8
      1706.986    20726993.242          53.250          45.750
  20732267.125 5 100560188.838 5      2190.791    20732265.797 4  97478078.016 4
      1707.110    20732267.641          30.250          22.250
  21165849.127 9  81867155.160 9      2625.088    21165843.868 7  82476302.153 7
      2045.523    21165848.908          52.500          42.250
  21707668.005 8  76325839.343 8     -1997.391    21707665.652 7  80500672.812 7
     -1556.409    21707667.499          50.250          40.500
  22107981.525 8  78429483.816 8     -1202.601    22107973.685 6  82139855.599 6
      -937.092    22107980.317          47.250          36.000
  23466988.002 7  89765398.840 7     -3066.481    23466987.346 5  91899051.834 5
     -2389.465    23466987.780          41.500          28.000
  23996409.611 7  88353256.405 7      3780.548    23996404.761 3  94066994.061 3
      2945.881    23996409.165          38.750          18.750
  24586157.467 6  95646702.685 6     -1372.665    24586153.042 3  96481870.295 3
     -1069.609    24586156.718          37.250          19.250
  24902703.935 7  97310136.362 7     -2562.430    24902697.136 3  93583758.962 3
     -1996.699    24902703.140          39.500          16.750
  25045072.651 7  98058297.763 7     -1090.453    25045067.078 3  98361059.572 3
      -849.703    25045071.830          40.500          20.000
 18  2 21  9 11 30.0000000  0 10G07G30G05G09G02G06G13G16G23G29
  20660245.525 9  70821596.073 9       393.110    20660240.080 7  80405949.449 7
       306.320    20660244.997          53.000          44.250
  20714536.599 9  75301212.337 9      2173.526    20714533.661 8  80628277.830 8
      1693.657    20714535.744          54.250          46.000
  21150899.355 9  81788593.195 9      2612.287    21150894.106 7  82415085.042 7
      2035.548    21150898.998          53.250          42.750
  21719091.183 8  76385867.133 8     -2004.559    21719088.593 7  80547447.690 7
     -1561.994    21719090.500          50.250          40.500
  22114891.207 8  78465795.525 8     -1218.244    22114884.018 6  82168150.422 6
      -949.281    22114890.152          46.250          36.000
  23484508.284 7  89857466.107 7     -3071.365    23484506.632 5  91970792.513 5
     -2393.272    23484507.975          41.250          27.500
  23974838.123 7  88239898.228 7      3776.539    23974833.293 3  93978663.050 3
      2942.757    23974836.999          39.250          19.000
  24594043.673 6  95688147.030 6     -1390.402    24594040.150 3  96514164.557 3
     -1083.430    24594042.519          37.500          20.250
  24917335.405 7  97387030.308 7     -2563.943    24917330.173 3  93643676.258 3
     -1997.878    24917335.615          38.750          17.500
  25051339.084 7  98091230.567 7     -1105.213    25051334.104 3  98386721.505 3
      -861.205    25051338.550          40.000          20.000
 18  2 21  9 12  0.0000000  0 10G07G30G05G09G02G06G13G16G23G29
  20658051.077 9  70810064.416 9       375.697    20658045.615 7  80396963.742 7
       292.751    20658050.600          53.250          43.750
  20702176.300 9  75236258.295 9      2156.682    20702173.332 8  80577664.289 8
      1680.532    20702175.361          54.500          46.000
  21136022.565 9  81710417.270 9      2599.481    21136017.657 7  82354168.741 7
      2025.569    21136022.529          52.500          42.500
  21730554.524 8  76446106.892 8     -2011.463    21730551.802 7  80594387.747 7
     -1567.374    21730553.877          50.000          40.500
  22121889.272 8  78502571.359 8     -1233.409    22121882.002 6  82196806.900 6
      -961.098    22121888.600          46.000          35.750
  23502054.537 7  89949674.513 7     -3075.903    23502053.836 5  92042643.175 5
     -2396.808    23502054.402          41.500          27.000
  23953289.089 6  88126655.677 6      3772.856    23953284.343 3  93890422.147 3
      2939.888    23953288.361          38.250          19.500
  24602031.379 6  95730119.979 6     -1407.749    24602027.290 3  96546870.723 3
     -1096.947    24602030.264          36.750          19.750
  24931976.983 7  97463969.894 7     -2565.180    24931971.389 3  93703629.104 3
     -1998.841    24931976.258          39.000          17.250
  25057690.172 7  98124607.325 7     -1120.036    25057685.966 3  98412729.366 3
      -872.755    25057690.214          39.750          19.750
 18  2 21  9 12 30.0000000  0 10G07G30G05G09G02G06G13G16G23G29
  20655955.749 9  70799053.883 9       358.390    20655950.389 7  80388384.102 7
       279.265    20655955.273          51.250          44.250
  20689912.363 9  75171811.530 9      2139.842    20689909.599 8  80527446.028 8
      1667.409    20689911.556          53.000          46.250
  21121219.506 9  81632624.813 9      2586.718    21121214.380 7  82293551.240 7
      2015.624    21121219.053          53.750          42.750
  21742056.961 8  76506552.653 8     -2018.214    21742054.221 7  80641488.318 7
     -1572.634    21742056.470          49.500          40.750
  22128974.780 8  78539804.577 8     -1248.687    22128967.333 6  82225819.775 6
      -973.003    22128973.529          46.500          35.750
  23519625.748 7  90042016.252 7     -3080.129    23519625.661 5  92114597.726 5
     -2400.101    23519626.246          41.750          27.750
  23931760.648 7  88013524.725 7      3769.162    23931756.280 3  93802268.198 3
      2937.010    23931760.228          39.000          20.000
  24610117.498 6  95772614.515 6     -1425.169    24610113.541 3  96579983.310 3
     -1110.521    24610116.269          37.750          19.250
  24946626.012 6  97540949.688 6     -2566.535    24946620.160 3  93763613.277 3
     -1999.897    24946625.233          38.000          17.000
  25064124.318 7  98158420.846 7     -1134.228    25064120.495 3  98439077.558 3
      -883.814    25064124.267          38.500          19.000
 18  2 21  9 13  0.0000000  0 10G07G30G05G09G02G06G13G16G23G29
  20653959.413 9  70788562.996 9       341.000    20653954.059 7  80380209.382 7
       265.715    20653958.976          53.500          44.000
  20677745.322 9  75107873.153 9      2122.731    20677742.636 8  80477623.919 8
      1654.076    20677744.509          55.500          46.250
  21106489.338 9  81555217.463 9      2573.758    21106484.080 7  82233233.828 7
      2005.525    21106489.033          53.500          42.000
  21753597.643 8  76567203.354 8     -2025.164    21753595.688 7  80688748.594 7
     -1578.050    21753597.772          48.500          40.500
  22136146.613 8  78577493.196 8     -1263.873    22136139.196 6  82255187.507 6
      -984.836    22136145.611          45.250          35.750
  23537223.742 7  90134488.464 7     -3084.655    23537222.372 5  92186653.942 5
     -2403.627    23537223.427          41.750          27.500
  23910254.727 7  87900506.026 7      3765.506    23910249.610 3  93714201.727 3
      2934.160    23910253.717          40.500          20.000
  24618302.618 6  95815628.598 6     -1442.310    24618299.008 3  96613500.753 3
     -1123.878    24618302.183          36.750          19.250
  24961283.099 7  97617968.834 7     -2567.921    24961277.034 3  93823628.120 3
     -2000.978    24961281.777          39.750          15.500
  25070642.148 7  98192669.260 7     -1148.871    25070637.534 3  98465764.631 3
      -895.224    25070641.605          41.500          19.000
 18  2 21  9 13 30.0000000  0 10G07G30G05G09G02G06G13G16G23G29
  20652063.868 9  70778602.511 9       323.428    20652058.669 7  80372447.966 7
       252.022    20652063.391          52.000          44.000
  20665677.233 9  75044455.464 9      2105.463    20665674.718 8  80428207.539 8
      1640.620    20665676.397          53.000          46.500
  21091834.728 9  81478208.109 9      2560.530    21091829.673 7  82173226.540 7
      1995.218    21091834.569          52.500          42.500
  21765180.913 8  76628069.044 8     -2032.201    21765178.014 7  80736176.382 7
     -1583.533    21765180.238          50.250          40.250
  22143407.121 8  78615646.507 8     -1279.253    22143399.492 6  82284917.329 6
      -996.820    22143406.072          47.000          35.750
  23554846.838 7  90227099.264 7     -3089.083    23554845.567 5  92258818.166 5
     -2407.078    23554846.631          41.500          27.250
  23888771.036 7  87787611.635 7      3761.324    23888766.218 4  93626232.101 4
      2930.902    23888770.832          39.500          21.000
  24626589.391 6  95859171.880 6     -1459.907    24626584.867 3  96647430.530 3
     -1137.590    24626588.099          37.000          19.250
  24975948.566 7  97695038.115 7     -2569.557    24975943.292 3  93883682.029 3
     -2002.252    24975947.477          39.000          17.000
  25077243.871 7  98227361.130 7     -1163.549    25077239.431 3  98492797.249 3
      -906.662    25077243.140          40.750          19.250
 18  2 21  9 14  0.0000000  0 10G07G30G05G09G02G06G13G16G23G29
  20650267.176 9  70769160.286 9       306.075    20650261.857 7  80365090.390 7
       238.500    20650266.735          52.500          43.750
  20653706.266 9  74981547.790 9      2088.376    20653703.798 8  80379188.576 8
      1627.306    20653705.432          53.500          46.250
  21077254.606 9  81401587.673 9      2547.580    21077249.312 7  82113522.307 7
      1985.127    21077254.190          52.000          42.750
  21776801.330 8  76689136.935 8     -2038.933    21776798.668 7  80783761.724 7
     -1588.779    21776801.021          50.250          40.500
  22150753.041 8  78654250.938 8     -1294.326    22150745.933 6  82314998.665 6
     -1008.566    22150752.219          46.000          35.250
  23572493.641 7  90319834.077 7     -3093.131    23572492.457 5  92331079.014 5
     -2410.232    23572493.521          41.750          27.250
  23867309.748 7  87674831.170 7      3757.525    23867305.194 4  93538351.277 4
      2927.941    23867309.658          39.750          21.000
  24634972.700 6  95903229.427 6     -1477.353    24634968.776 3  96681761.058 3
     -1151.184    24634972.155          37.000          19.250
  24990621.988 7  97772145.043 7     -2570.825    24990616.835 3  93943765.299 3
     -2003.240    24990621.107          39.500          16.250
  25083926.545 7  98262482.344 7     -1177.745    25083922.213 3  98520164.401 3
      -917.723    25083926.530          39.750          20.000
 18  2 21  9 14 30.0000000  0 10G30G07G05G09G02G06G13G16G23G29
  20641833.852 9  74919158.161 9      2071.167    20641831.364 8  80330573.285 8
      1613.896    20641833.060          54.500          46.750
  20648570.263 9  70760242.458 9       288.667    20648564.972 7  80358141.433 7
       224.935    20648569.769          53.250          44.250
  21062749.439 9  81325364.753 9      2534.249    21062744.591 7  82054127.825 7
      1974.739    21062749.430          53.750          42.500
  21788461.332 8  76750412.832 8     -2045.813    21788458.952 7  80831509.161 7
     -1594.140    21788461.377          49.000          40.250
  22158186.104 8  78693310.859 8     -1309.474    22158178.858 6  82345434.930 6
     -1020.369    22158184.965          46.500          35.500
  23590164.845 7  90412696.868 7     -3097.334    23590163.990 5  92403439.570 5
     -2413.507    23590164.518          41.000          26.500
  23845871.365 7  87562172.050 7      3753.298    23845866.061 4  93450565.003 4
      2924.648    23845870.795          40.250          20.500
  24643455.646 6  95947806.667 6     -1494.444    24643451.721 3  96716496.541 3
     -1164.502    24643454.689          36.250          18.750
  25005302.861 7  97849295.729 7     -2572.378    25005297.786 3  94003882.636 3
     -2004.450    25005302.031          39.250          17.750
  25090692.597 7  98298037.135 7     -1192.346    25090688.304 3  98547869.444 3
      -929.101    25090692.657          40.000          19.250
 18  2 21  9 15  0.0000000  0 10G30G07G05G09G02G06G13G16G23G29
  20630059.533 9  74857284.361 9      2053.739    20630057.246 8  80282359.943 8
      1600.316    20630058.837          54.000          46.750
  20646972.318 9  70751845.354 9       271.161    20646966.961 8  80351598.232 8
       211.294    20646971.797          54.500          44.500
  21048320.470 9  81249538.092 9      2520.861    21048315.251 7  81995042.115 7
      1964.307    21048320.200          52.250          42.500
  21800161.224 9  76811892.463 9     -2052.843    21800158.385 7  80879415.354 7
     -1599.618    21800160.826          50.750          39.750
  22165704.716 8  78732821.354 8     -1324.631    22165697.284 6  82376222.264 6
     -1032.180    22165703.364          46.250          35.250
  23607859.204 7  90505681.509 7     -3101.637    23607858.269 4  92475895.083 4
     -2416.860    23607859.567          42.000          26.250
  23824455.697 7  87449631.778 7      3749.244    23824450.861 4  93362871.310 4
      2921.489    23824455.097          39.750          21.000
  24652036.209 6  95992898.500 6     -1511.629    24652032.438 3  96751632.999 3
     -1177.893    24652035.376          38.000          18.750
  25019992.419 7  97926486.146 7     -2573.867    25019986.777 3  94064030.915 3
     -2005.610    25019991.780          40.000          17.250
  25097540.261 7  98334020.563 7     -1206.570    25097536.196 3  98575908.495 3
      -940.184    25097540.174          39.000          19.500
 18  2 21  9 15 30.0000000  0 10G30G07G05G09G02G06G13G16G23G29
  20618384.149 9  74795928.949 9      2036.637    20618381.612 8  80234550.536 8
      1586.989    20618383.312          55.500          46.500
  20645473.830 9  70743969.492 9       253.939    20645468.332 8  80345461.195 8
       197.874    20645473.152          53.500          44.500
  21033967.136 9  81174111.371 9      2507.623    21033961.961 7  81936268.052 7
      1953.992    21033967.082          51.750          42.750
  21811899.271 8  76873576.233 8     -2059.438    21811896.378 7  80927480.601 7
     -1604.757    21811898.714          49.500          39.750
  22173308.991 8  78772781.896 8     -1339.338    22173301.664 6  82407360.270 6
     -1043.640    22173307.920          44.500          35.500
  23625576.687 7  90598786.512 7     -3105.327    23625575.679 4  92548444.396 4
     -2419.735    23625576.417          40.750          26.250
  23803062.684 7  87337212.909 7      3745.389    23803057.896 4  93275272.249 4
      2918.485    23803062.036          39.000          21.000
  24660715.186 6  96038504.088 6     -1528.538    24660711.115 3  96787169.783 3
     -1191.069    24660713.981          37.750          18.750
  25034687.552 6  98003717.501 6     -2574.889    25034683.820 3  94124211.100 3
     -2006.407    25034687.292          37.750          17.250
  25104468.399 7  98370431.524 7     -1220.639    25104464.019 3  98604280.682 3
      -951.147    25104468.471          40.000          17.750
 18  2 21  9 16  0.0000000  0 11G30G07G21G05G09G02G06G13G16G23G29
  20606807.147 9  74735091.067 9      2019.211    20606804.617 8  80187144.401 8
      1573.411    20606806.299          54.750          46.250
  20644073.709 9  70736612.678 9       236.534    20644068.316 7  80339728.612 7
       184.313    20644073.244          54.250          44.250
  20676412.948 5 100266681.177 5       236.560    20676420.881 3  97249364.135 3
       184.332    20676425.471          29.500          17.750
  21019690.242 9  81099084.604 9      2494.188    21019684.897 7  81877805.639 7
      1943.523    21019689.924          53.250          42.500
  21823675.698 8  76935461.207 8     -2066.195    21823673.072 7  80975702.643 7
     -1610.022    21823675.119          48.750          40.000
  22180998.035 8  78813188.196 8     -1354.267    22180991.103 6  82438845.615 6
     -1055.273    22180997.066          46.500          35.250
  23643315.469 7  90692007.154 7     -3109.416    23643315.146 5  92621083.805 5
     -2422.922    23643316.132          40.250          26.750
  23781692.497 7  87224913.853 7      3741.275    23781688.393 4  93187766.523 4
      2915.279    23781692.203          39.500          21.000
  24669490.408 6  96084619.574 6     -1545.630    24669486.163 3  96823103.898 3
     -1204.387    24669489.731          36.250          17.250
  25049392.405 6  98080987.125 6     -2576.433    25049386.497 3  94184421.119 3
     -2007.610    25049391.563          37.500          15.750
  25111478.356 7  98407265.644 7     -1234.792    25111473.572 3  98632982.586 3
      -962.175    25111478.188          40.000          17.750
 18  2 21  9 16 30.0000000  0 10G30G07G05G09G02G06G13G16G23G29
  20595329.245 9  74674774.216 9      2001.784    20595326.700 8  80140144.252 8
      1559.832    20595328.424          54.000          46.250
  20642772.976 9  70729776.781 9       219.091    20642767.573 8  80334401.940 8
       170.720    20642772.454          54.500          44.500
  21005490.129 9  81024461.803 9      2480.560    21005484.655 7  81819658.005 7
      1932.904    21005489.703          53.250          43.000
  21835489.910 8  76997548.799 8     -2073.078    21835487.817 7  81024082.564 7
     -1615.385    21835489.931          50.250          40.000
  22188772.010 8  78854040.819 8     -1369.204    22188764.812 6  82470678.770 6
     -1066.912    22188770.865          46.250          35.250
  23661077.333 7  90785342.982 7     -3113.183    23661076.164 4  92693812.945 4
     -2425.857    23661076.898          40.000          25.500
  23760345.883 7  87112738.608 7      3737.033    23760342.016 4  93100357.280 4
      2911.973    23760346.042          40.000          20.750
  24678362.775 6  96131244.913 6     -1562.751    24678359.165 3  96859435.301 3
     -1217.728    24678361.903          35.750          16.250
  25064103.335 6  98158296.710 6     -2577.633    25064098.650 3  94244662.272 3
     -2008.545    25064103.245          37.000          15.750
  25118568.094 7  98444522.872 7     -1249.056    25118563.738 3  98662014.191 3
      -973.290    25118567.860          39.250          18.250
 18  2 21  9 17  0.0000000  0 10G30G07G05G09G02G06G13G16G23G29
  20583950.218 9  74614976.542 9      1984.681    20583947.634 8  80093548.661 8
      1546.505    20583949.282          55.000          46.500
  20641570.508 9  70723457.694 9       202.096    20641564.983 7  80329477.970 7
       157.477    20641570.088          54.500          44.250
  20991366.342 9  80950242.640 9      2467.261    20991361.327 7  81761824.895 7
      1922.541    20991366.223          54.000          42.750
  21847342.909 8  77059835.129 8     -2079.483    21847340.730 7  81072617.345 7
     -1620.377    21847342.714          49.500          39.500
  22196630.451 8  78895334.972 8     -1383.759    22196623.086 6  82502855.986 6
     -1078.254    22196629.513          46.750          35.500
  23678860.296 7  90878788.249 7     -3116.535    23678858.270 4  92766627.391 4
     -2428.469    23678859.562          40.750          25.500
  23739023.717 7  87000685.115 7      3733.207    23739018.698 4  93013042.887 4
      2908.992    23739022.907          41.500          20.500
  24687331.966 6  96178374.868 6     -1579.264    24687327.391 3  96896159.913 3
     -1230.595    24687330.602          36.750          16.500
  25078821.856 6  98235642.851 6     -2578.634    25078817.107 3  94304931.918 3
     -2009.325    25078821.571          36.000          15.000
  25125737.964 7  98482198.525 7     -1262.664    25125732.423 3  98691371.834 3
      -983.894    25125737.193          40.250          18.000
 18  2 21  9 17 30.0000000  0 10G30G07G05G09G02G06G13G16G23G29
  20572670.185 9  74555700.671 9      1967.091    20572667.828 8  80047359.671 8
      1532.798    20572669.561          53.250          46.750
  20640466.477 9  70717656.649 9       184.661    20640461.129 7  80324957.674 7
       143.892    20640466.079          54.500          44.000
  20977320.346 9  80876430.334 9      2453.550    20977315.094 7  81704308.816 7
      1911.857    20977320.205          52.750          42.750
  21859233.964 8  77122320.752 8     -2086.258    21859231.134 7  81121307.417 7
     -1625.655    21859233.278          49.250          39.250
  22204572.230 8  78937070.192 8     -1398.569    22204564.957 6  82535376.859 6
     -1089.794    22204571.066          46.250          35.000
  23696662.203 7  90972341.667 7     -3120.360    23696660.722 4  92839526.118 4
     -2431.449    23696661.903          40.750          25.750
  23717723.936 7  86888755.688 7      3728.842    23717719.086 4  92925825.182 4
      2905.591    23717723.757          40.250          20.750
  24696396.209 6  96226009.381 6     -1596.139    24696391.025 3  96933277.671 3
     -1243.745    24696395.660          36.500          16.500
  25093547.997 6  98313026.706 6     -2580.529    25093543.275 2  94365230.928 2
     -2010.802    25093547.575          37.000          13.500
  25132986.723 7  98520291.427 7     -1276.702    25132981.792 3  98721054.601 3
      -994.832    25132986.675          39.750          19.000
 18  2 21  9 18  0.0000000  0 10G30G07G05G09G02G13G06G16G23G29
  20561489.836 9  74496947.340 9      1949.809    20561487.306 8  80001577.858 8
      1519.332    20561489.119          54.500          46.750
  20639460.929 9  70712372.732 9       167.606    20639455.583 7  80320840.335 7
       130.602    20639460.578          52.750          44.250
  20963352.296 9  80803026.772 9      2440.021    20963346.849 7  81647111.231 7
      1901.315    20963351.960          50.500          42.750
  21871161.963 9  77185004.438 9     -2092.669    21871159.483 7  81170151.814 7
     -1630.651    21871161.660          50.500          39.750
  22212597.913 8  78979243.947 8     -1413.001    22212590.320 6  82568239.449 6
     -1101.040    22212596.576          45.000          35.000
  23696448.193 7  86776950.970 7      3724.765    23696443.457 4  92838704.666 4
      2902.414    23696447.884          38.500          20.500
  23714485.224 7  91066000.188 7     -3123.711    23714483.788 4  92912506.717 4
     -2434.060    23714484.376          41.000          25.750
  24705556.160 6  96274145.951 6     -1612.661    24705552.422 3  96970786.650 3
     -1256.619    24705555.186          35.500          17.250
  25108280.629 6  98390447.316 6     -2581.283    25108275.371 2  94425558.562 2
     -2011.389    25108280.509          37.750          14.000
  25140314.191 6  98558799.044 6     -1290.477    25140309.406 3  98751060.555 3
     -1005.566    25140313.795          37.750          17.750
 18  2 21  9 18 30.0000000  0 11G30G07G05G09G02G13G06G16G28G23G29
  20850201.359 9  76014137.021 9      1932.366    20850198.895 8  81183803.586 8
      1505.739    20850200.699          54.750          46.750
  20938345.540 9  72283022.822 9       150.417    20938340.372 7  81544723.517 7
       117.208    20938345.321          54.250          43.750
  21249254.710 9  82305453.807 9      2426.355    21249249.173 7  82817833.596 7
      1890.666    21249254.371          54.750          42.750
  22182919.734 8  78823300.603 8     -2099.218    22182916.790 7  82446746.205 7
     -1635.755    22182919.069          50.000          39.500
  22520497.875 8  80597270.527 8     -1427.521    22520490.746 6  83829039.322 6
     -1112.354    22520496.966          47.750          35.000
  23974988.946 7  88240693.013 7      3720.575    23974984.329 4  93979282.908 4
      2899.149    23974988.571          40.750          21.500
  24032118.775 6  92735175.257 6     -3126.865    24032116.560 4  94213162.589 4
     -2436.519    24032118.209          38.250          25.250
  25014604.069 6  97898198.065 6     -1629.413    25014598.574 3  98236281.769 3
     -1269.672    25014602.792          37.500          16.500
  25180389.895 6  98769414.384 6      3759.203
                                        34.000
  25422812.170 6 100043319.083 6     -2582.311    25422806.369 2  95713510.522 2
     -2012.190    25422811.673          36.250          13.000
  25447511.987 7 100173135.282 7     -1304.123    25447507.838 3 100008984.900 3
     -1016.200    25447511.819          39.500          17.000
 18  2 21  9 19  0.0000000  0 11G30G07G05G09G02G13G06G16G28G23G29
  20839220.540 9  75956430.114 9      1914.745    20839217.596 8  81138837.166 8
      1492.009    20839219.419          55.500          46.250
  20937536.274 9  72278769.089 9       133.172    20937530.953 7  81541408.916 7
       103.770    20937535.786          52.750          44.000
  21235442.669 9  82232872.055 9      2412.408    21235437.360 7  82761276.388 7
      1879.798    21235442.555          52.750          42.750
  22194922.534 8  78886375.771 8     -2105.878    22194919.890 7  82495895.675 7
     -1640.944    22194922.156          49.250          39.500
  22528689.062 8  80640313.823 8     -1442.063    22528681.624 6  83862579.494 6
     -1123.686    22528687.809          45.250          34.750
  23953760.270 7  88129138.472 7      3716.383    23953756.307 4  93892357.324 4
      2895.883    23953760.237          38.750          21.500
  24049978.506 7  92829033.689 7     -3130.259    24049978.192 4  94286298.979 4
     -2439.162    24049978.225          39.500          24.500
  25023952.518 6  97947330.361 6     -1646.148    25023949.113 3  98274566.637 3
     -1282.713    25023951.958          35.750          16.750
  25158924.650 6  98656618.537 6      3760.432
                                        34.000
  25437558.473 6 100120809.946 6     -2583.695    25437553.127 2  95773892.948 2
     -2013.269    25437557.483          37.500          12.000
  25454996.444 7 100212463.536 7     -1317.894    25454991.002 3 100039630.302 3
     -1026.930    25454995.289          38.500          16.500
 18  2 21  9 19 30.0000000  0 11G30G07G05G09G02G13G06G16G28G23G29
  20828338.655 9  75899247.492 9      1897.475    20828336.008 8  81094279.283 8
      1478.552    20828337.879          54.500          46.500
  20936824.873 9  72275029.261 9       116.212    20936819.126 7  81538494.762 7
        90.555    20936824.051          53.750          44.000
  21221709.536 9  82160703.922 9      2398.795    21221704.290 7  82705041.479 7
      1869.191    21221709.404          54.250          43.000
  22206961.872 8  78949644.845 8     -2112.139    22206959.501 7  82545196.226 7
     -1645.823    22206961.482          48.500          39.250
  22536961.613 8  80683788.205 8     -1456.200    22536954.466 6  83896455.576 6
     -1134.701    22536960.837          45.750          34.250
  23932556.780 6  88017710.390 6      3712.223    23932552.580 4  93805530.287 4
      2892.641    23932556.195          37.750          22.000
  24067858.365 7  92922987.483 7     -3133.282    24067856.965 4  94359509.646 4
     -2441.519    24067857.586          41.250          25.250
  25033396.673 6  97996957.066 6     -1662.412    25033392.851 3  98313236.767 3
     -1295.386    25033396.436          37.250          17.500
  25137453.166 6  98543781.000 6      3762.138
                                        35.500
  25452311.023 6 100198334.490 6     -2584.591    25452305.414 2  95834301.627 2
     -2013.967    25452309.656          36.750          12.500
  25462557.608 6 100252198.122 6     -1331.058    25462552.356 2 100070592.322 2
     -1037.188    25462556.877          36.250          13.500
 18  2 21  9 20  0.0000000  0 11G30G07G05G09G02G13G06G16G28G23G29
  20817556.625 9  75842587.820 9      1880.019    20817554.062 8  81050128.894 8
      1464.950    20817555.945          55.500          46.750
  20936210.184 9  72271800.334 9        99.202    20936204.797 7  81535978.711 7
        77.300    20936209.750          53.750          43.750
  21208054.802 9  82088948.665 9      2385.058    21208049.709 7  82649128.293 7
      1858.487    21208054.748          52.750          43.250
  22219038.013 8  79013104.567 8     -2118.336    22219035.720 7  82594645.339 7
     -1650.651    22219037.653          49.750          39.250
  22545315.906 8  80727689.199 8     -1470.258    22545308.830 6  83930664.090 6
     -1145.655    22545314.685          46.000          34.500
  23911376.227 7  87906407.333 7      3708.133    23911372.087 4  93718800.675 4
      2889.455    23911375.825          39.750          22.000
  24085753.955 7  93017031.457 7     -3136.251    24085752.587 4  94432790.628 4
     -2443.832    24085753.313          39.500          24.750
  25042933.980 6  98047073.550 6     -1678.564    25042929.036 3  98352288.547 3
     -1307.972    25042932.897          37.750          17.750
  25115971.930 6  98430902.457 6      3763.071    25115966.768 2  98651405.455 2
      2932.263    25115971.703          34.750          10.750
  25467068.750 6 100275890.029 6     -2585.634    25467063.783 2  95894734.454 2
     -2014.780    25467068.930          36.250          11.250
  25470194.296 6 100292334.472 6     -1344.378    25470189.973 2 100101867.382 2
     -1047.567    25470193.880          36.250          12.000
 18  2 21  9 20 30.0000000  0 11G30G07G05G09G02G13G06G16G28G29G23
  20806874.286 9  75786450.663 9      1862.501    20806871.498 8  81006385.657 8
      1451.299    20806873.362          54.000          46.500
  20935692.479 9  72269079.644 9        82.181    20935687.070 7  81533858.688 7
        64.037    20935691.966          53.000          44.250
  21194479.222 9  82017607.125 9      2371.126    21194473.871 7  82593537.484 7
      1847.631    21194478.977          54.500          43.000
  22231150.102 8  79076752.618 8     -2124.848    22231147.299 7  82644241.192 7
     -1655.726    22231149.568          49.000          39.000
  22553750.602 8  80772013.615 8     -1484.583    22553743.350 6  83965202.551 6
     -1156.818    22553749.631          46.250          34.750
  23890219.615 7  87795228.630 7      3703.795    23890215.412 4  93632167.957 4
      2886.074    23890219.129          39.500          22.250
  24103666.200 7  93111161.456 7     -3138.989    24103665.088 4  94506138.624 4
     -2445.965    24103665.714          39.250          24.500
  25052562.645 6  98097675.733 6     -1694.872    25052558.247 3  98391718.803 3
     -1320.679    25052561.766          37.500          18.000
  25094485.433 6  98317984.653 6      3764.417    25094482.375 2  98563417.616 2
      2933.312    25094483.748          35.000          11.500
  25477908.127 6 100332868.539 6     -1357.916    25477903.337 2 100133452.356 2
     -1058.116    25477906.658          35.250          12.750
  25481832.333 6 100353474.847 6     -2586.990    25481828.153 2  95955190.104 2
     -2015.836    25481831.352          34.500          12.500
 18  2 21  9 21  0.0000000  0 11G30G07G05G09G02G13G06G16G28G29G23
  20796291.291 9  75730837.046 9      1845.165    20796288.599 8  80963050.379 8
      1437.791    20796290.395          54.000          46.750
  20935271.117 9  72266866.726 9        65.442    20935266.033 7  81532134.334 7
        50.994    20935270.881          53.500          43.750
  21180982.602 9  81946682.000 9      2357.342    21180977.385 7  82538271.153 7
      1836.890    21180982.488          52.500          43.000
  22243297.453 8  79140588.068 8     -2130.798    22243294.958 7  82693983.080 7
     -1660.362    22243297.171          48.000          39.000
  22562265.476 8  80816759.102 8     -1498.405    22562258.278 6  84000069.097 6
     -1167.588    22562264.429          44.500          34.500
  23869086.843 7  87684175.244 7      3699.752    23869082.994 4  93545632.884 4
      2882.923    23869086.744          39.750          22.750
  24121594.146 7  93205374.805 7     -3141.661    24121593.720 4  94579551.570 4
     -2448.048    24121593.882          40.000          24.250
  25062284.270 6  98148762.034 6     -1710.808    25062279.821 3  98431526.292 3
     -1333.097    25062283.238          37.250          19.000
  25072990.956 6  98205030.265 6      3765.824    25072987.361 2  98475401.226 2
      2934.408    25072989.879          37.000          13.000
  25485696.007 6 100373798.158 6     -1370.793    25485690.895 2 100165345.553 2
     -1068.150    25485696.594          35.500          12.000
  25496602.298 6 100431088.249 6     -2587.186    25496597.195 2  96015668.017 2
     -2015.989    25496601.272          36.250          11.500
 18  2 21  9 21 30.0000000  0 11G30G07G05G09G02G13G06G28G16G29G23
  20785807.933 9  75675747.390 9      1827.513    20785805.252 8  80920123.378 8
      1424.036    20785807.216          52.750          46.750
  20934946.802 9  72265160.577 9        48.383    20934941.328 7  81530804.862 7
        37.701    20934946.286          53.250          44.250
  21167565.402 9  81876174.117 9      2343.207    21167560.063 7  82483329.945 7
      1825.875    21167565.151          53.000          42.750
  22255480.529 8  79204609.521 8     -2137.284    22255477.774 7  82743869.905 7
     -1665.416    22255479.981          49.750          39.250
  22570859.854 8  80861923.390 8     -1512.516    22570853.010 6  84035261.996 6
     -1178.584    22570858.937          44.750          34.750
  23847978.540 7  87573247.785 7      3695.307    23847974.151 4  93459195.952 4
      2879.460    23847978.057          41.000          23.000
  24139537.297 7  93299668.173 7     -3144.589    24139536.671 4  94653026.867 4
     -2450.329    24139537.087          39.000          24.000
  25051490.455 6  98092041.628 6      3766.696    25051487.196 2  98387358.163 2
      2935.088    25051489.211          37.000          13.500
  25072097.193 6  98200329.593 6     -1727.113    25072092.370 3  98471708.787 3
     -1345.803    25072096.252          37.250          18.500
  25493560.870 6 100415120.547 6     -1384.038    25493555.327 2 100197544.823 2
     -1078.471    25493560.276          35.500          12.250
  25511376.235 6 100508729.184 6     -2588.682    25511371.963 2  96076167.354 2
     -2017.155    25511376.199          34.500          14.250
 18  2 21  9 22  0.0000000  0 11G30G07G05G09G02G13G06G28G16G29G23
  20775425.115 9  75621184.722 9      1810.102    20775422.318 8  80877607.018 8
      1410.469    20775424.267          53.750          46.750
  20934718.714 9  72263962.369 9        31.613    20934713.386 7  81529871.188 7
        24.634    20934718.267          51.750          44.250
  21154228.310 9  81806087.710 9      2329.339    21154223.124 7  82428717.157 7
      1815.070    21154228.146          52.500          43.000
  22267699.060 8  79268818.226 8     -2143.305    22267696.446 7  82793902.633 7
     -1670.108    22267698.529          48.500          38.750
  22579534.139 7  80907506.227 7     -1526.195    22579527.055 6  84070781.057 6
     -1189.243    22579532.991          44.250          34.500
  23826894.583 7  87462449.162 7      3691.190    23826889.664 4  93372859.383 4
      2876.252    23826893.852          41.000          23.500
  24157495.522 6  93394040.998 6     -3147.186    24157495.288 4  94726564.073 4
     -2452.353    24157495.123          38.000          22.750
  25029982.945 6  97979023.548 6      3768.180    25029979.624 3  98299292.168 3
      2936.244    25029982.043          36.500          14.750
  25082002.039 6  98252379.209 6     -1742.670    25081997.336 3  98512266.899 3
     -1357.925    25082001.422          37.000          18.500
  25501499.326 6 100456834.982 6     -1396.932    25501493.253 2 100230049.577 2
     -1088.519    25501498.247          36.500          10.500
  25526156.872 6 100586399.535 6     -2589.510    25526152.121 2  96136689.620 2
     -2017.800    25526156.402          36.000          14.000
 18  2 21  9 22 30.0000000  0 11G30G07G05G09G02G13G06G28G16G29G23
  20765141.608 9  75567144.870 9      1792.696    20765138.787 8  80835498.046 8
      1396.906    20765140.885          55.250          46.500
  20934586.248 9  72263266.262 9        14.921    20934580.893 7  81529328.762 7
        11.626    20934585.846          53.500          44.250
  21140970.846 9  81736419.832 9      2315.336    21140965.804 7  82374430.499 7
      1804.158    21140970.724          53.000          42.750
  22279952.009 8  79333208.104 8     -2149.275    22279949.344 7  82844076.531 7
     -1674.760    22279951.413          49.000          38.750
  22588286.658 8  80953500.337 8     -1539.919    22588279.543 6  84106620.578 6
     -1199.937    22588285.473          44.500          34.500
  23805833.746 7  87351775.364 7      3687.211    23805829.025 4  93286620.079 4
      2873.152    23805833.389          42.250          24.000
  24175469.519 7  93488485.226 7     -3149.206    24175468.119 4  94800156.920 4
     -2453.927    24175468.224          40.000          24.500
  25008470.807 6  97865973.903 6      3768.902    25008467.563 2  98211201.597 2
      2936.807    25008470.486          35.500          14.250
  25091996.442 6  98304901.699 6     -1758.293    25091992.623 3  98553193.486 3
     -1370.099    25091995.786          38.250          18.000
  25509509.595 6 100498934.403 6     -1409.604
                                        34.250
  25540942.097 6 100664093.479 6     -2590.018    25540936.682 2  96197230.257 2
     -2018.196    25540941.461          34.750          13.750
 18  2 21  9 23  0.0000000  0 11G30G07G05G09G02G13G06G28G16G29G23
  20754957.871 9  75513629.155 9      1775.144    20754955.131 8  80793797.495 8
      1383.229    20754957.166          55.500          46.500
  20934549.181 9  72263071.953 9        -1.871    20934543.974 7  81529177.350 7
        -1.458    20934548.854          53.250          44.000
  21127793.847 9  81667173.033 9      2301.240    21127788.531 7  82320471.955 7
      1793.174    21127793.619          53.500          43.000
  22292239.132 8  79397778.710 8     -2155.381    22292236.620 7  82894391.266 7
     -1679.517    22292238.928          47.000          38.500
  22597117.329 8  80999904.203 8     -1553.669    22597110.011 6  84142779.404 6
     -1210.651    22597116.055          46.750          34.250
  23784797.046 7  87241227.703 7      3682.720    23784792.336 4  93200479.049 4
      2869.652    23784797.142          40.750          23.750
  24193453.277 7  93582998.728 7     -3151.800    24193453.780 4  94873803.756 4
     -2455.948    24193452.902          38.500          24.500
  24986952.826 6  97752895.984 6      3769.820    24986949.048 2  98123089.044 2
      2937.522    24986951.806          35.250          12.750
  25102080.711 6  98357896.241 6     -1774.275    25102075.950 3  98594487.925 3
     -1382.552    25102080.028          36.500          17.250
  25517592.386 6 100541416.629 6     -1422.490
                                        32.500
  25555731.164 6 100741811.148 6     -2590.966    25555725.789 2  96257789.408 2
     -2018.935    25555730.466          36.000          13.000
 18  2 21  9 23 30.0000000  0 11G30G07G05G09G02G13G06G28G16G29G23
  20744875.661 9  75460646.543 9      1757.280    20744872.963 8  80752512.345 8
      1369.309    20744874.972          55.500          47.000
  20934609.083 9  72263386.621 9       -18.933    20934603.902 8  81529422.541 8
       -14.753    20934608.609          54.250          44.500
  21114698.304 9  81598356.861 9      2286.702    21114693.237 7  82266848.964 7
      1781.846    21114698.304          53.250          43.250
  22304562.728 8  79462537.227 8     -2161.651    22304559.909 7  82944852.424 7
     -1684.404    22304562.146          49.000          38.750
  22606026.361 8  81046723.546 8     -1567.565    22606019.441 6  84179261.988 6
     -1221.479    22606025.224          45.500          34.250
  23763786.271 7  87130815.440 7      3678.201    23763781.681 4  93114443.531 4
      2866.131    23763786.241          41.000          23.250
  24211452.798 6  93677586.733 6     -3154.056    24211452.804 4  94947508.633 4
     -2457.706    24211452.363          38.250          23.250
  24965430.965 6  97639800.794 6      3770.158    24965427.712 2  98034963.036 2
      2937.786    24965430.716          33.250          13.000
  25112256.827 6  98411368.329 6     -1790.201    25112252.918 3  98636154.486 3
     -1394.962    25112255.727          37.000          16.500
  25525751.973 6 100584287.326 6     -1435.471
                                        32.750
  25570526.048 6 100819560.117 6     -2592.075    25570521.234 2  96318372.998 2
     -2019.799    25570525.278          36.500          13.750
 18  2 21  9 24  0.0000000  0 11G30G07G05G09G02G13G06G28G16G29G23
  20734894.521 9  75408195.558 9      1739.574    20734891.916 8  80711641.449 8
      1355.512    20734893.856          55.750          46.750
  20934765.185 9  72264207.066 9       -35.691    20934759.974 7  81530061.846 7
       -27.811    20934764.741          53.250          44.000
  21101685.257 9  81529971.486 9      2272.388    21101679.891 7  82213561.658 7
      1770.692    21101684.934          54.250          43.250
  22316920.724 8  79527480.465 8     -2167.711    22316917.993 6  82995457.513 6
     -1689.126    22316920.152          47.500          38.250
  22615014.088 7  81093953.944 7     -1581.036    22615006.988 6  84216064.877 6
     -1231.976    22615013.200          44.000          34.250
  23742800.961 7  87020536.604 7      3673.835    23742796.089 4  93028511.982 4
      2862.729    23742800.874          41.250          23.250
  24229465.684 7  93772244.188 7     -3156.104    24229465.345 4  95021267.641 4
     -2459.302    24229465.474          38.500          22.500
  24943906.751 6  97526688.751 6      3771.010    24943903.450 2  97946823.899 2
      2938.450    24943905.824          34.250          13.500
  25122521.149 6  98465314.647 6     -1806.153    25122517.482 3  98678190.548 3
     -1407.392    25122521.149          36.000          17.250
  25533983.452 5 100627541.889 5     -1448.058
                                        31.250
  25585327.207 6 100897337.573 6     -2592.869    25585321.507 2  96378978.721 2
     -2020.417    25585326.532          36.250          12.750
 18  2 21  9 24 30.0000000  0 11G30G07G05G09G02G13G06G28G16G29G23
  20725013.931 9  75356272.612 9      1721.873    20725011.317 8  80671182.018 8
      1341.720    20725013.236          53.000          46.750
  20935016.696 9  72265528.247 9       -52.456    20935011.422 7  81531091.306 7
       -40.874    20935016.036          54.000          43.750
  21088753.266 9  81462014.436 9      2258.001    21088748.097 7  82160608.112 7
      1759.482    21088753.116          53.750          43.250
  22329312.888 8  79592603.065 8     -2173.712    22329310.511 6  83046202.378 6
     -1693.802    22329312.322          47.750          37.750
  22624079.116 8  81141588.917 8     -1594.539    22624072.020 6  84253183.045 6
     -1242.498    22624077.995          45.250          34.250
  23721840.051 7  86910388.580 7      3669.338    23721835.356 4  92942682.368 4
      2859.224    23721840.231          41.000          23.250
  24247490.010 6  93866963.938 6     -3158.385    24247490.064 4  95095075.176 4
     -2461.079    24247489.590          38.250          23.250
  24922378.771 6  97413558.591 6      3771.370    24922374.883 2  97858670.646 2
      2938.730    24922377.113          33.750          13.000
  25132877.104 6  98519726.425 6     -1821.418    25132871.651 3  98720589.327 3
     -1419.287    25132876.241          36.250          15.750
  25542287.059 5 100671173.320 5     -1460.768
                                        30.000
  25600132.607 6 100975138.614 6     -2593.637    25600127.576 2  96439602.839 2
     -2021.015    25600131.408          36.750          14.250
 18  2 21  9 25  0.0000000  0 11G30G07G05G09G02G13G06G28G16G29G23
  20715234.971 9  75304883.464 9      1703.950    20715232.345 8  80631138.528 8
      1327.753    20715234.162          54.000          47.750
  20935364.074 9  72267354.215 9       -69.396    20935358.909 7  81532514.139 7
       -54.075    20935363.582          53.500          44.000
  21075904.293 9  81394492.541 9      2243.292    21075899.224 7  82107993.649 7
      1748.019    21075904.059          53.250          43.500
  22341740.671 8  79657909.096 8     -2179.970    22341738.054 6  83097090.166 6
     -1698.678    22341739.978          48.250          38.000
  22633220.618 7  81189630.888 7     -1608.311    22633213.813 6  84290618.334 6
     -1253.229    22633219.746          44.250          34.000
  23700905.433 7  86800376.947 7      3664.554    23700901.367 4  92856959.049 4
      2855.497    23700905.211          41.250          23.250
  24265527.134 6  93961748.221 6     -3160.713    24265526.586 4  95168932.961 4
     -2462.894    24265526.199          38.000          21.500
  24900848.630 6  97300417.840 6      3771.298    24900844.793 2  97770509.090 2
      2938.674    24900847.080          32.500          11.750
  25143320.147 6  98574607.304 6     -1837.323    25143316.081 3  98763353.626 3
     -1431.680    25143319.361          36.250          15.000
  25550662.489 5 100715183.910 5     -1473.216
                                        29.000
  25614942.948 6 101052967.867 6     -2594.904    25614937.414 2  96500248.932 2
     -2022.003    25614941.632          34.750          10.750
 18  2 21  9 25 30.0000000  0 11G30G07G05G09G02G13G06G28G16G29G23
  20705557.908 9  75254030.948 9      1686.219    20705555.395 8  80591513.196 8
      1313.937    20705557.302          55.000          47.000
  20935807.704 9  72269686.228 9       -86.089    20935802.613 7  81534331.285 7
       -67.082    20935807.296          52.750          44.000
  21063139.073 9  81327410.226 9      2228.816    21063133.929 7  82055721.717 7
      1736.740    21063138.722          53.500          43.500
  22354202.761 8  79723399.723 8     -2186.073    22354200.399 6  83148121.790 6
     -1703.434    22354202.435          47.750          38.000
  22642440.568 8  81238079.823 8     -1621.652    22642433.283 6  84328370.751 6
     -1263.625    22642439.494          44.500          34.000
  23679997.148 7  86690504.568 7      3660.183    23679992.771 4  92771344.231 4
      2852.091    23679997.097          40.750          23.500
  24283575.989 6  94056596.198 6     -3162.445    24283575.731 4  95242840.469 4
     -2464.243    24283575.917          38.250          22.000
  24879317.296 6  97187271.384 6      3771.695    24879314.520 2  97682343.099 2
      2938.983    24879316.574          35.500          11.500
  25153852.941 6  98629957.329 6     -1852.749    25153847.844 3  98806483.492 3
     -1443.700    25153852.254          35.250          14.750
  25559107.718 4 100759573.327 4     -1486.178
                                        26.250
  25629757.795 6 101130826.874 6     -2595.722    25629753.130 2  96560918.218 2
     -2022.641    25629758.083          34.000           9.250
 18  2 21  9 26  0.0000000  0 10G30G07G05G09G02G13G06G28G16G23
  20695982.132 9  75203709.696 9      1668.373    20695979.565 8  80552301.836 8
      1300.031    20695981.415          54.750          47.250
  20936346.503 9  72272517.089 9      -102.749    20936341.275 7  81536537.148 7
       -80.064    20936346.089          52.500          44.000
  21050456.494 9  81260762.809 9      2214.188    21050451.302 7  82003788.666 7
      1725.341    21050456.185          54.000          43.000
  22366698.729 8  79789067.881 8     -2192.130    22366696.345 6  83199291.762 6
     -1708.153    22366698.510          48.250          37.500
  22651735.669 8  81286927.362 8     -1635.009    22651728.764 6  84366433.749 6
     -1274.033    22651734.652          46.250          33.750
  23659115.188 7  86580766.407 7      3655.609    23659110.614 4  92685834.023 4
      2848.526    23659114.853          41.500          24.500
  24301635.505 6  94151499.199 6     -3164.642    24301635.937 4  95316790.772 4
     -2465.955    24301634.728          37.500          22.000
  24857785.110 6  97074116.264 6      3772.074    24857781.426 2  97594170.351 2
      2939.278    24857783.114          33.750          11.000
  25164473.529 6  98685767.751 6     -1868.024    25164468.487 2  98849972.117 2
     -1455.603    25164472.687          35.250          13.000
  25644579.585 5 101208709.076 5     -2596.429
                                        32.250
 18  2 21  9 26 30.0000000  0 10G30G07G05G09G02G13G06G28G16G23
  20686508.630 9  75153926.751 9      1650.578    20686506.157 8  80513509.936 8
      1286.165    20686508.024          53.500          47.000
  20936981.337 9  72275852.114 9      -119.475    20936975.875 7  81539135.867 7
       -93.098    20936980.684          52.500          43.750
  21037858.205 9  81194558.588 9      2199.506    21037852.976 7  81952200.962 7
      1713.900    21037857.950          54.250          43.250
  22379229.661 8  79854918.956 8     -2197.930    22379227.760 6  83250604.272 6
     -1712.673    22379229.715          47.750          37.250
  22661107.553 8  81336177.711 8     -1648.234    22661100.490 6  84404810.627 6
     -1284.338    22661106.830          45.750          33.250
  23638259.961 7  86471169.714 7      3650.988    23638255.134 4  92600434.021 4
      2844.926    23638259.116          40.750          24.750
  24319706.868 7  94246460.557 7     -3166.338    24319706.161 4  95390786.550 4
     -2467.277    24319706.323          38.750          23.500
  24836251.381 6  96960961.737 6      3771.659    24836248.992 2  97505998.039 2
      2938.955    24836250.616          35.250          11.750
  25175181.855 6  98742042.148 6     -1883.572    25175176.480 2  98893822.274 2
     -1467.719    25175180.758          35.250          13.250
  25659405.527 5 101286620.560 5     -2597.332    25659403.965 1  96682361.84111
     -2023.895    25659403.830          31.500           1.000
 18  2 21  9 27  0.0000000  0 10G30G07G05G09G02G13G06G28G16G23
  20677136.656 9  75104675.406 9      1632.897    20677133.958 8  80475132.264 8
      1272.388    20677135.874          56.000          46.750
  20937710.349 9  72279683.193 9      -135.820    20937704.961 7  81542121.122 7
      -105.834    20937709.857          54.250          43.500
  21025343.168 9  81128791.890 9      2185.001    21025338.068 7  81900954.184 7
      1702.598    21025342.871          53.250          43.500
  22391794.739 8  79920944.654 8     -2203.626    22391791.870 6  83302052.843 6
     -1717.111    22391794.151          49.000          37.000
  22670554.316 8  81385820.793 8     -1661.115    22670547.127 6  84443493.543 6
     -1294.375    22670553.458          45.750          33.250
  23617429.904 7  86361707.835 7      3646.468    23617425.225 4  92515139.090 4
      2841.404    23617429.044          42.500          25.000
  24337785.760 6  94341470.177 6     -3167.571    24337785.795 4  95464819.999 4
     -2468.237    24337785.250          37.000          22.500
  24814719.894 6  96847802.847 6      3772.202    24814714.974 2  97417822.346 2
      2939.378    24814718.212          36.500          12.500
  25185976.959 6  98798771.045 6     -1898.403    25185971.467 2  98938026.589 2
     -1479.275    25185976.069          34.750          12.500
  25674234.944 5 101364553.263 5     -2597.963
                                        30.500
 18  2 21  9 27 30.0000000  0 10G30G07G05G09G02G13G06G28G16G23
  20667865.754 9  75055956.309 9      1615.044    20667862.975 8  80437169.332 8
      1258.476    20667864.909          56.500          46.750
  20938533.420 9  72284009.231 9      -152.484    20938528.108 7  81545492.061 7
      -118.818    20938532.976          54.250          44.000
  21012911.998 9  81063464.840 9      2170.148    21012906.655 7  81850049.985 7
      1691.025    21012911.671          54.750          43.500
  22404392.111 8  79987144.079 8     -2209.625    22404389.143 6  83353636.784 6
     -1721.786    22404391.476          49.000          36.750
  22680075.832 7  81435854.480 7     -1674.274    22680068.158 6  84482480.801 6
     -1304.629    22680074.741          43.750          33.000
  23596626.203 7  86252381.666 7      3641.872    23596620.767 4  92429949.896 4
      2837.823    23596625.543          42.500          25.000
  24355874.880 7  94436525.354 7     -3169.437    24355874.748 4  95538888.904 4
     -2469.691    24355874.265          38.500          22.000
  24793184.525 6  96734642.839 6      3771.821    24793182.354 3  97329645.783 3
      2939.081    24793184.513          35.500          14.500
  25196858.103 6  98855952.354 6     -1913.709    25196853.426 2  98982583.435 2
     -1491.202    25196857.980          35.000          12.000
  25689068.315 5 101442507.029 5     -2598.887
                                        30.500
 18  2 21  9 28  0.0000000  0 10G30G07G05G09G02G13G06G28G16G23
  20658697.645 9  75007777.424 9      1597.068    20658694.779 8  80399627.344 8
      1244.469    20658696.872          55.000          47.000
  20939451.924 9  72288836.655 9      -169.222    20939446.750 7  81549253.682 7
      -131.861    20939451.666          53.250          43.500
  21000565.999 9  80998586.316 9      2155.177    21000560.662 7  81799495.290 7
      1679.359    21000565.768          54.750          43.500
  22417023.564 8  80053523.503 8     -2215.530    22417020.910 6  83405360.986 6
     -1726.387    22417023.156          47.500          36.750
  22689671.982 8  81486283.572 8     -1687.488    22689664.736 6  84521776.171 6
     -1314.926    22689670.822          46.000          32.500
  23575849.386 7  86143199.719 7      3637.086    23575844.164 4  92344873.070 4
      2834.093    23575848.969          43.500          25.000
  24373971.953 7  94531630.474 7     -3170.968    24373972.814 4  95612996.718 4
     -2470.884    24373972.841          39.000          23.750
  24771652.306 6  96621491.852 6      3771.623    24771650.372 2  97241476.255 2
      2938.927    24771651.359          36.500          14.000
  25207826.307 6  98913590.428 6     -1928.561    25207821.453 2  99027496.171 2
     -1502.774    25207824.961          34.000          12.750
  25703909.301 5 101520488.537 5     -2599.936
                                        29.500
 18  2 21  9 28 30.0000000  0 11G30G07G05G09G02G13G06G28G16G23G20
  20649632.224 9  74960138.420 9      1578.931    20649629.448 8  80362506.046 8
      1230.336    20649631.457          53.750          47.000
  20940465.456 9  72294163.204 9      -185.966    20940460.363 7  81553404.234 7
      -144.909    20940465.280          53.250          44.250
  20988305.536 9  80934157.867 9      2140.047    20988300.254 7  81749291.302 7
      1667.569    20988305.318          52.750          43.250
  22429688.827 8  80120081.128 8     -2221.641    22429686.320 6  83457224.049 6
     -1731.149    22429688.701          47.500          37.000
  22699342.867 8  81537105.188 8     -1700.613    22699336.074 6  84561377.389 6
     -1325.153    22699341.911          45.000          32.750
  23555099.404 7  86034161.538 7      3632.145    23555095.189 4  92259908.274 4
      2830.243    23555099.365          41.000          25.000
  24392078.366 6  94626781.880 6     -3172.254    24392079.391 4  95687140.604 4
     -2471.886    24392078.530          37.250          22.000
  24750123.226 6  96508351.771 6      3770.981    24750119.938 3  97153315.208 3
      2938.427    24750122.582          36.750          15.000
  25218880.467 6  98971682.124 6     -1943.932    25218876.117 2  99072762.438 2
     -1514.752    25218881.028          33.500           9.250
  25718754.259 5 101598496.029 5     -2600.704
                                        30.250
  26637018.534 5  98035431.440 5      1578.577
                                        32.250
 18  2 21  9 29  0.0000000  0 10G30G07G05G09G02G13G06G28G16G23
  20640669.182 9  74913038.228 9      1561.039    20640666.571 8  80325804.596 8
      1216.394    20640668.502          55.250          47.000
  20941573.624 9  72299986.186 9      -202.394    20941568.516 7  81557941.637 7
      -157.710    20941573.348          53.750          44.250
  20976130.896 9  80870179.663 9      2125.101    20976125.544 7  81699438.152 7
      1655.923    20976130.695          53.750          43.500
  22442387.921 8  80186814.285 8     -2227.309    22442385.319 6  83509223.877 6
     -1735.566    22442387.367          47.250          36.750
  22709088.094 8  81588314.935 8     -1713.469    22709080.660 6  84601281.043 6
     -1335.170    22709086.778          46.000          32.500
  23534377.956 7  85925266.439 7      3627.519    23534372.908 4  92175054.972 4
      2826.638    23534377.423          41.750          24.500
  24410194.134 7  94721975.232 7     -3173.897    24410193.712 3  95761317.166 3
     -2473.167    24410193.508          38.500          20.000
  24728594.824 6  96395223.885 6      3770.216    24728591.826 3  97065163.649 3
      2937.831    24728595.175          35.250          15.250
  25230020.425 6  99030223.121 6     -1959.079
                                        32.500
  25733603.192 5 101676527.530 5     -2601.260    25733601.642 1  96986189.88611
     -2026.956    25733601.354          27.000           1.000
 18  2 21  9 29 30.0000000  0  9G30G07G05G09G02G13G06G28G16
  20631810.021 9  74866481.594 9      1542.772    20631807.125 8  80289526.703 8
      1202.160    20631809.056          55.750          47.000
  20942776.721 9  72306309.140 9      -219.148    20942771.757 7  81562868.612 7
      -170.764    20942776.518          53.250          43.750
  20964043.168 9  80806657.454 9      2109.748    20964037.856 7  81649940.324 7
      1643.960    20964042.778          54.000          43.750
  22455120.805 8  80253726.252 8     -2233.468    22455118.209 6  83561363.040 6
     -1740.365    22455120.314          48.500          36.000
  22718907.383 8  81639914.543 8     -1726.487    22718900.191 6  84641488.495 6
     -1345.314    22718906.058          45.750          32.750
  23513683.939 7  85816519.650 7      3622.357    23513678.558 4  92090317.226 4
      2822.616    23513683.403          41.500          24.500
  24428317.440 7  94817211.721 7     -3175.259    24428317.374 4  95835527.377 4
     -2474.228    24428316.139          38.750          21.250
  24707071.398 6  96282115.030 6      3769.680    24707067.651 3  96977026.914 3
      2937.413    24707071.278          35.500          14.750
  25241246.250 6  99089214.821 6     -1973.732
                                        32.500
 18  2 21  9 30  0.0000000  0  9G30G07G05G09G02G13G06G28G16
  20623054.040 9  74820468.863 9      1524.928    20623051.291 8  80253672.627 8
      1188.256    20623053.089          55.000          47.000
  20944075.215 9  72313130.579 9      -235.456    20944069.882 7  81568184.010 7
      -183.472    20944074.643          53.500          43.750
  20952042.275 9  80743592.646 9      2094.676    20952036.969 7  81600798.914 7
      1632.215    20952041.984          54.500          43.750
  22467887.509 8  80320815.849 8     -2239.010    22467885.153 6  83613640.619 6
     -1744.683    22467887.101          47.500          36.500
  22728799.646 7  81691901.472 7     -1739.144    22728793.048 6  84681997.764 6
     -1355.177    22728798.684          44.250          33.000
  23493018.769 7  85707921.914 7      3617.582    23493013.618 4  92005695.616 4
      2818.895    23493018.187          43.250          24.750
  24446446.966 6  94912488.483 6     -3176.286    24446447.820 4  95909768.923 4
     -2475.028    24446446.588          37.000          21.500
  24685551.633 6  96169027.670 6      3769.224    24685548.428 2  96888906.938 2
      2937.058    24685549.724          35.750          14.000
  25252558.160 5  99148654.912 5     -1988.493
                                        32.250
 18  2 21  9 30 30.0000000  0  9G30G05G07G09G02G13G06G28G16
  20614400.503 9  74774995.548 9      1506.806    20614397.916 8  80218238.875 8
      1174.134    20614399.874          54.000          47.500
  20940127.728 9  80680982.323 9      2079.482    20940122.641 7  81552011.651 7
      1620.376    20940127.638          53.000          43.500
  20945466.867 9  72320444.238 9      -251.982    20945461.468 7  81573882.964 7
      -196.349    20945466.408          53.250          44.000
  22480686.791 8  80388077.108 8     -2244.836    22480684.411 6  83666051.968 6
     -1749.223    22480686.597          48.250          36.500
  22738764.871 7  81744268.402 7     -1751.857    22738757.858 6  84722803.135 6
     -1365.083    22738763.908          43.250          33.000
  23472380.570 7  85599468.587 7      3612.762    23472375.555 4  91921186.541 4
      2815.139    23472379.890          43.250          25.000
  24464583.076 6  95007797.681 6     -3177.526    24464584.032 3  95984035.752 3
     -2475.994    24464583.441          36.000          20.250
  24664035.651 6  96055960.185 6      3768.747    24664031.754 2  96800802.432 2
      2936.686    24664034.347          35.000          13.750
  25263952.435 5  99208535.723 5     -2003.231
                                        31.750
 18  2 21  9 31  0.0000000  0 10G30G05G07G09G02G13G06G28G20G16
  20605850.501 9  74730064.283 9      1488.754    20605847.781 8  80183227.503 8
      1160.068    20605849.691          55.750          47.000
  20928300.544 9  80618830.084 9      2064.129    20928295.445 7  81503581.331 7
      1608.412    20928300.412          52.750          43.500
  20946952.273 9  72328251.309 9      -268.400    20946947.179 7  81579966.388 7
      -209.143    20946952.039          52.500          43.750
  22493519.261 8  80455511.309 8     -2250.548    22493516.563 6  83718598.062 6
     -1753.674    22493518.904          48.500          36.250
  22748802.576 7  81797015.217 7     -1764.456    22748795.402 6  84763904.526 6
     -1374.901    22748801.272          44.000          33.250
  23451770.669 7  85491163.353 7      3607.825    23451765.944 4  91836792.868 4
      2811.293    23451770.063          42.500          25.250
  24482726.149 6  95103138.736 6     -3178.619    24482727.280 3  96058327.442 3
     -2476.846    24482726.344          36.000          20.250
  24642524.544 6  95942917.622 6      3767.654    24642521.178 2  96712717.361 2
      2935.834    24642523.057          35.250          13.500
  25226689.479 6  99012710.624 6      4202.297
                                        33.500
  25275432.723 6  99268856.948 6     -2017.996
                                        32.500
 18  2 21  9 31 30.0000000  0 10G30G05G07G09G02G13G06G28G20G16
  20597402.946 9  74685672.937 9      1470.726    20597400.475 8  80148636.846 8
      1146.020    20597402.268          55.000          47.250
  20916560.506 9  80557135.478 9      2048.843    20916555.149 7  81455507.612 7
      1596.501    20916560.270          53.750          43.500
  20948531.181 9  72336548.009 9      -284.700    20948526.021 7  81586431.347 7
      -221.844    20948530.869          53.500          43.500
  22506384.078 8  80523114.791 8     -2256.241    22506381.086 6  83771276.077 6
     -1758.110    22506383.199          47.750          35.750
  22758911.185 8  81850136.354 8     -1776.804    22758903.951 6  84805297.590 6
     -1384.522    22758910.282          44.750          33.250
  23431188.568 7  85383004.433 7      3602.789    23431183.801 4  91752513.193 4
      2807.368    23431188.379          43.000          25.000
  24500875.303 6  95198506.127 6     -3179.289    24500875.633 4  96132639.627 4
     -2477.368    24500874.458          37.000          20.500
  24621018.219 6  95829899.947 6      3766.922    24621014.064 2  96624651.688 2
      2935.264    24621017.149          36.500          13.500
  25202704.964 6  98886672.502 6      4200.411    25202701.619 2  99006561.939 2
      3273.048    25202703.972          33.500          10.750
  25286992.109 5  99329613.610 5     -2032.536
                                        32.250
 18  2 21  9 32  0.0000000  0 10G30G05G07G09G02G13G06G28G20G16
  20589058.046 9  74641820.124 9      1452.799    20589055.560 8  80114465.826 8
      1132.051    20589057.356          53.500          46.750
  20904907.873 9  80495898.438 9      2033.608    20904902.273 7  81407790.437 7
      1584.630    20904907.358          52.000          43.750
  20950202.727 9  72345331.332 9      -300.902    20950197.442 7  81593275.485 7
      -234.469    20950202.323          52.250          43.500
  22519280.034 8  80590884.821 8     -2261.699    22519277.408 6  83824083.860 6
     -1762.363    22519279.344          48.250          35.500
  22769090.278 8  81903627.950 8     -1789.194    22769082.930 6  84846979.324 6
     -1394.177    22769089.510          45.250          33.000
  23410634.224 7  85274990.451 7      3598.027    23410629.538 4  91668346.468 4
      2803.657    23410633.747          41.000          25.750
  24519026.426 6  95293895.371 6     -3180.123    24519027.580 4  96206968.843 4
     -2478.018    24519026.105          36.500          21.250
  24599515.749 6  95716908.165 6      3766.087    24599513.137 2  96536606.180 2
      2934.613    24599515.323          37.500          14.000
  25178730.175 6  98760686.654 6      4198.653    25178724.518 2  98908394.084 2
      3271.678    25178730.163          34.000          10.750
  25298637.238 5  99390800.735 5     -2046.712
                                        31.500
 18  2 21  9 32 30.0000000  0 10G30G05G07G09G02G13G06G28G20G16
  20580815.729 9  74598506.245 9      1434.609    20580813.142 8  80080714.752 8
      1117.877    20580815.039          55.000          47.500
  20893341.811 9  80435120.127 9      2018.075    20893336.541 7  81360430.707 7
      1572.526    20893341.668          54.500          44.000
  20951966.508 9  72354600.354 9      -317.199    20951961.283 7  81600498.097 7
      -247.168    20951966.026          54.000          43.750
  22532207.879 8  80658820.435 8     -2267.536    22532205.364 6  83877020.662 6
     -1766.911    22532207.217          46.250          35.500
  22779339.393 8  81957487.067 8     -1801.534    22779332.142 6  84888947.446 6
     -1403.792    22779338.281          44.500          32.500
  23390107.444 7  85167122.447 7      3592.966    23390102.929 4  91584293.485 4
      2799.714    23390106.982          42.000          25.500
  24537182.550 6  95389303.531 6     -3180.685    24537182.922 3  96281312.800 3
     -2478.456    24537182.031          37.000          20.000
  24578019.385 6  95603944.938 6      3764.890    24578016.561 3  96448582.913 3
      2933.680    24578019.271          36.000          14.750
  25154767.605 6  98634754.711 6      4196.703    25154762.454 2  98810265.287 2
      3270.158    25154766.822          35.000          11.000
  25310361.240 5  99452416.073 5     -2061.077
                  25310361.123          32.000
 18  2 21  9 33  0.0000000  0 10G30G05G07G09G02G13G06G28G20G16
  20572676.166 9  74555731.751 9      1416.812    20572673.536 8  80047383.979 8
      1104.009    20572675.398          54.750          47.250
  20881863.894 9  80374803.101 9      2002.947    20881858.675 7  81313430.427 7
      1560.738    20881863.673          53.250          43.500
  20953822.610 9  72364353.524 9      -333.144    20953817.211 7  81608097.947 7
      -259.593    20953822.047          54.750          43.500
  22545167.361 8  80726920.648 8     -2272.710    22545164.109 6  83930085.743 6
     -1770.943    22545166.963          48.000          35.750
  22789658.034 8  82011711.690 8     -1813.518    22789651.094 6  84931200.358 6
     -1413.131    22789657.207          45.000          32.500
  23369608.810 7  85059401.296 7      3588.287    23369604.314 4  91500354.951 4
      2796.068    23369608.559          43.250          25.500
  24555341.231 6  95484727.959 6     -3180.962    24555341.660 3  96355669.439 3
     -2478.672    24555341.201          37.500          20.250
  24556530.331 6  95491013.328 6      3763.796    24556526.104 3  96360584.299 3
      2932.828    24556529.431          37.000          15.000
  25130814.373 6  98508878.790 6      4194.781    25130807.304 2  98712180.114 2
      3268.660    25130812.628          34.750          11.500
  25322168.068 6  99514457.284 6     -2075.191    25322162.090 2  99495728.058 2
     -1617.032    25322167.267          34.500          12.000
 18  2 21  9 33 30.0000000  0 10G30G05G07G09G02G13G28G06G20G16
  20564639.923 9  74513501.344 9      1398.603    20564637.369 8  80014477.174 8
      1089.821    20564639.213          54.750          47.250
  20870474.725 9  80314953.065 9      1987.221    20870469.679 7  81266794.036 7
      1548.484    20870474.590          52.000          43.750
  20955771.417 9  72374594.382 9      -349.471    20955766.027 7  81616077.823 7
      -272.315    20955770.896          55.250          43.750
  22558158.091 8  80795188.920 8     -2278.305    22558154.871 6  83983281.781 6
     -1775.302    22558157.617          48.250          35.500
  22800046.478 7  82066303.514 7     -1825.799    22800039.160 5  84973739.385 5
     -1422.700    22800045.462          43.000          31.750
  23349138.466 7  84951832.192 7      3583.179    23349134.299 4  91416534.887 4
      2792.087    23349138.583          40.250          25.250
  24535046.604 6  95378120.570 6      3762.392    24535043.849 3  96272615.962 3
      2931.734    24535046.112          35.750          15.750
  24573503.210 6  95580170.173 6     -3181.677    24573504.010 4  96430039.920 4
     -2479.229    24573502.979          38.000          21.250
  25106871.922 6  98383065.509 6      4192.917    25106867.335 2  98614143.775 2
      3267.208    25106871.326          35.000          12.250
  25334055.270 6  99576925.488 6     -2089.526    25334050.486 2  99544404.515 2
     -1628.202    25334054.446          32.500          11.500
 18  2 21  9 34  0.0000000  0 10G30G05G07G09G02G13G28G06G20G16
  20556707.777 9  74471817.553 9      1380.297    20556705.202 8  79981996.300 8
      1075.556    20556707.016          55.500          47.500
  20859175.286 9  80255573.855 9      1971.436    20859170.124 7  81220524.521 7
      1536.184    20859175.008          53.750          43.750
  20957813.040 9  72385323.383 9      -365.760    20957807.686 7  81624438.084 7
      -285.008    20957812.386          54.250          43.750
  22571180.773 8  80863626.383 8     -2284.135    22571178.596 6  84036609.646 6
     -1779.846    22571180.743          47.000          35.250
  22810504.918 8  82121262.068 8     -1837.995    22810497.801 5  85016564.189 5
     -1432.204    22810503.980          44.750          31.500
  23328698.922 7  84844417.928 7      3577.870    23328693.499 4  91332835.471 4
      2787.950    23328698.541          41.500          25.250
  24513572.656 6  95265271.820 6      3760.875    24513568.788 3  96184681.886 3
      2930.552    24513571.957          37.250          16.250
  24591668.192 6  95675629.538 6     -3182.378    24591668.810 4  96504423.779 4
     -2479.775    24591668.390          37.250          20.500
  25082943.106 6  98257319.054 6      4190.438    25082938.831 2  98516159.512 2
      3265.277    25082941.586          34.250          12.500
  25346023.768 6  99639820.661 6     -2103.396    25346018.620 2  99593413.743 2
     -1639.010    25346022.680          34.000          11.500
 18  2 21  9 34 30.0000000  0 10G30G05G07G09G02G13G28G06G20G16
  20548879.033 9  74430676.998 9      1362.264    20548876.383 8  79949938.726 8
      1061.504    20548878.239          55.250          47.250
  20847965.126 9  80196663.888 9      1955.817    20847959.865 7  81174620.649 7
      1524.013    20847964.859          54.750          43.750
  20959946.654 9  72396536.197 9      -381.789    20959941.384 7  81633175.335 7
      -297.498    20959946.201          52.750          43.500
  22584235.739 8  80932228.420 8     -2289.580    22584233.296 6  84090065.750 6
     -1784.088    22584235.103          47.500          35.000
  22821031.318 8  82176580.915 8     -1849.936    22821024.977 5  85059669.732 5
     -1441.509    22821030.224          44.750          31.500
  23308287.450 7  84737155.841 7      3572.728    23308282.780 4  91249254.629 4
      2783.944    23308287.064          43.750          25.500
  24492106.053 6  95152466.134 6      3759.434    24492102.464 3  96096781.390 3
      2929.429    24492105.336          36.750          16.250
  24609835.867 6  95771099.546 6     -3182.473    24609835.882 3  96578815.945 3
     -2479.849    24609836.158          36.750          19.500
  25059027.150 6  98131637.696 6      4188.225    25059022.995 2  98418225.952 2
      3263.552    25059025.109          35.000          13.250
  25358072.166 6  99703136.208 6     -2117.480
                  25358071.135          32.500
 18  2 21  9 35  0.0000000  0 10G30G05G07G09G02G13G28G06G20G16
  20541153.981 9  74390080.310 9      1344.077    20541151.109 8  79918304.943 8
      1047.333    20541152.977          55.750          47.500
  20836844.625 9  80138224.593 9      1940.062    20836839.369 7  81129083.533 7
      1511.736    20836844.223          54.750          44.000
  20962172.292 9  72408231.257 9      -397.935    20962166.917 7  81642288.363 7
      -310.079    20962171.749          52.750          43.500
  22597320.966 8  81000994.358 8     -2294.967    22597319.054 6  84143649.563 6
     -1788.286    22597321.002          46.500          35.000
  22831626.508 8  82232258.087 8     -1861.887    22831619.292 5  85103054.492 5
     -1450.821    22831625.363          44.500          31.000
  23287905.422 7  84630047.389 7      3567.642    23287900.730 4  91165793.505 4
      2779.981    23287905.182          43.000          26.000
  24470649.304 6  95039706.856 6      3757.771    24470645.122 3  96008917.076 3
      2928.133    24470648.480          36.000          15.750
  24628005.790 6  95866577.796 6     -3182.869    24628005.074 3  96653214.507 3
     -2480.158    24628004.189          38.250          19.000
  25035123.694 6  98006023.475 6      4186.007    25035118.720 2  98320344.724 2
      3261.824    25035122.359          35.750          13.250
  25370199.161 5  99766869.742 5     -2131.273
                                        31.500
 18  2 21  9 35 30.0000000  0 10G30G05G07G09G02G13G28G06G20G16
  20533532.097 9  74350028.645 9      1325.832    20533529.500 8  79887095.854 8
      1033.116    20533531.383          54.250          47.500
  20825814.043 9  80080258.957 9      1924.172    20825808.854 7  81083915.508 7
      1499.355    20825813.695          53.250          44.250
  20964489.493 9  72420408.619 9      -414.033    20964484.286 7  81651777.212 7
      -322.623    20964489.031          52.750          43.750
  22610438.493 8  81069924.134 8     -2300.540    22610436.434 6  84197361.048 6
     -1792.628    22610437.927          46.750          35.250
  22842289.307 7  82288291.685 7     -1873.661    22842282.553 5  85146716.990 5
     -1459.995    22842288.600          43.500          31.500
  23267553.105 7  84523093.780 7      3562.451    23267547.931 4  91082453.037 4
      2775.936    23267552.739          44.250          26.000
  24449200.994 6  94926997.573 6      3756.067    24449197.340 3  95921091.704 3
      2926.806    24449200.419          35.750          16.000
  24646175.459 6  95962062.256 6     -3182.907    24646175.681 4  96727617.909 4
     -2480.187    24646175.252          38.250          21.750
  25011233.092 6  97880479.452 6      4183.672    25011229.134 2  98222518.212 2
      3260.004    25011231.898          34.750          13.750
  25382408.442 5  99831019.938 5     -2145.364
                                        31.000
 18  2 21  9 36  0.0000000  0 10G30G05G07G09G02G13G28G06G20G16
  20526014.945 9  74310525.846 9      1307.580    20526012.312 8  79856314.454 8
      1018.894    20526014.189          56.500          47.250
  20814874.721 9  80022772.065 9      1908.195    20814869.508 7  81039120.525 7
      1486.905    20814874.367          54.500          44.000
  20966898.745 9  72433070.279 9      -430.153    20966893.736 7  81661643.433 7
      -335.184    20966898.496          53.250          43.500
  22623586.668 8  81139020.340 8     -2306.054    22623584.755 6  84251202.215 6
     -1796.925    22623586.317          46.250          35.000
  22853020.717 8  82344682.843 8     -1885.658    22853013.309 5  85190658.091 5
     -1469.344    22853019.704          46.000          31.750
  23247230.717 7  84416299.347 7      3557.267    23247225.791 5  90999236.607 5
      2771.896    23247230.273          43.750          26.500
  24427763.978 6  94814344.663 6      3754.100    24427759.742 3  95833310.243 3
      2925.273    24427763.528          37.000          15.500
  24664346.662 6  96057553.844 6     -3183.398    24664347.570 4  96802026.880 4
     -2480.570    24664346.572          37.000          22.000
  24987358.349 6  97755011.489 6      4180.993    24987352.491 3  98124750.939 3
      3257.916    24987356.262          37.250          15.250
  25394694.138 5  99895587.267 5     -2159.629
                                        29.000
 18  2 21  9 36 30.0000000  0 10G30G05G07G09G02G13G28G06G20G16
  20518600.816 9  74271565.086 9      1289.607    20518598.298 8  79825955.421 8
      1004.889    20518600.214          56.000          47.250
  20804025.241 9  79965758.501 9      1892.538    20804020.154 7  80994694.372 7
      1474.705    20804025.064          54.000          44.250
  20969398.774 9  72446208.005 9      -445.876    20969393.873 7  81671880.614 7
      -347.435    20969398.430          53.750          43.750
  22636766.186 8  81208274.920 8     -2311.075    22636763.500 6  84305166.786 6
     -1800.838    22636765.239          48.250          34.750
  22863817.386 8  82401421.943 8     -1897.102    22863810.418 5  85234870.327 5
     -1478.261    22863816.501          44.500          31.750
  23226937.757 7  84309658.323 7      3552.057    23226932.762 5  90916139.725 5
      2767.836    23226937.109          43.000          26.750
  24406337.457 6  94701743.907 6      3752.476    24406332.753 3  95745569.463 3
      2924.007    24406336.444          36.250          16.000
  24682517.937 6  96153042.704 6     -3183.161    24682518.639 3  96876433.707 3
     -2480.385    24682517.128          33.250          17.750
  24963494.548 6  97629613.433 6      4178.726    24963490.573 3  98027038.143 3
      3256.150    24963493.664          37.250          15.750
  25407058.775 5  99960562.234 5     -2173.114
                                        31.250
 18  2 21  9 37  0.0000000  0 10G30G05G07G09G02G13G28G06G20G16
  20511290.278 9  74233146.854 9      1271.628    20511287.565 8  79796019.137 8
       990.879    20511289.493          55.500          47.250
  20793266.289 9  79909220.201 9      1876.682    20793261.241 7  80950638.551 7
      1462.349    20793266.220          52.750          43.750
  20971989.410 9  72459820.782 9      -461.626    20971984.238 7  81682487.963 7
      -359.708    20971988.939          53.000          43.250
  22649974.496 8  81277687.236 8     -2316.336    22649971.705 6  84359254.274 6
     -1804.937    22649974.073          47.000          34.500
  22874680.611 8  82458506.381 8     -1908.612    22874673.569 5  85279351.658 5
     -1487.230    22874679.262          44.500          32.250
  23206674.014 7  84203171.620 7      3546.945    23206669.004 5  90833163.103 5
      2763.854    23206673.615          44.000          27.250
  24384919.621 6  94589198.233 6      3750.662    24384915.895 3  95657871.581 3
      2922.593    24384918.902          37.250          16.500
  24700687.816 6  96248526.227 6     -3182.546    24700688.295 3  96950836.394 3
     -2479.906    24700688.484          35.500          16.000
  24939646.784 6  97504289.008 6      4176.200    24939642.029 3  97929382.719 3
      3254.182    24939645.255          36.750          17.000
  25419500.342 5 100025942.047 5     -2185.823    25419501.424 1  99894305.85711
     -1703.239    25419501.493          29.750           1.000
 18  2 21  9 37 30.0000000  0  9G30G05G07G09G02G13G28G06G20
  20504082.845 9  74195271.431 9      1253.489    20504080.066 8  79766505.823 8
       976.745    20504081.993          54.500          47.250
  20782598.040 9  79853158.312 9      1860.791    20782593.072 7  80906953.960 7
      1449.967    20782597.941          52.750          44.000
  20974670.034 9  72473907.356 9      -477.428    20974664.812 7  81693464.516 7
      -372.022    20974669.512          52.500          43.750
  22663212.953 8  81347256.388 8     -2321.585    22663210.693 6  84413463.964 6
     -1809.027    22663212.312          47.750          34.250
  22885608.325 8  82515933.744 8     -1919.936    22885601.906 6  85324100.222 6
     -1496.054    22885607.564          45.000          32.500
  23186439.630 7  84096839.961 7      3541.927    23186434.662 5  90750307.281 5
      2759.943    23186439.165          44.000          27.250
  24363513.891 6  94476710.891 6      3748.757    24363510.459 3  95570219.179 3
      2921.110    24363513.496          36.500          16.750
  24718856.033 6  96344001.783 6     -3182.439    24718857.166 3  97025232.900 3
     -2479.823    24718856.309          35.750          17.750
  24915811.760 6  97379040.108 6      4173.685    24915807.506 3  97831786.156 3
      3252.222    24915811.278          35.750          16.750
 18  2 21  9 38  0.0000000  0  9G30G05G07G09G02G13G28G06G20
  20496979.263 9  74157942.593 9      1235.076    20496976.609 8  79737418.418 8
       962.397    20496978.540          56.000          47.500
  20772021.827 9  79797578.835 9      1844.489    20772016.658 7  80863645.272 7
      1437.264    20772021.515          52.500          44.000
  20977441.055 9  72488470.001 9      -493.465    20977436.126 7  81704812.018 7
      -384.518    20977440.605          52.250          43.250
  22676482.448 8  81416985.004 8     -2326.999    22676479.417 6  84467797.918 6
     -1813.246    22676481.659          46.750          34.250
  22896602.008 7  82573705.040 7     -1931.556    22896595.761 6  85369116.754 6
     -1505.109    22896601.424          44.000          32.500
  23166235.393 7  83990667.972 7      3536.245    23166230.905 5  90667575.878 5
      2755.516    23166235.129          42.500          27.250
  24342121.211 6  94364288.442 6      3746.145    24342117.206 3  95482617.329 3
      2919.074    24342120.144          36.750          16.000
  24737023.174 6  96439470.298 6     -3182.204    24737024.295 3  97099623.868 3
     -2479.639    24737023.372          33.500          17.750
  24891993.256 6  97253872.106 6      4170.759    24891988.558 3  97734252.618 3
      3249.942    24891992.788          35.250          16.750
 18  2 21  9 38 30.0000000  0  9G30G05G07G09G02G13G28G06G20
  20489980.754 9  74121164.855 9      1216.872    20489978.188 8  79708760.442 8
       948.212    20489979.927          55.500          47.500
  20761538.339 9  79742487.727 9      1828.404    20761533.144 7  80820717.134 7
      1424.730    20761537.973          53.750          44.000
  20980303.548 9  72503511.817 9      -509.209    20980298.362 7  81716532.925 7
      -396.786    20980303.047          53.250          43.500
  22689781.973 8  81486876.492 8     -2332.285    22689779.538 6  84522258.783 6
     -1817.365    22689781.496          46.500          34.500
  22907661.625 7  82631822.091 7     -1942.762    22907654.538 5  85414402.703 5
     -1513.841    22907660.402          43.500          31.500
  23146062.967 7  83884660.669 7      3530.939    23146058.173 5  90584972.810 5
      2751.381    23146062.943          44.250          27.500
  24320740.256 6  94251937.891 6      3743.981    24320737.651 3  95395071.508 3
      2917.387    24320739.647          36.500          16.750
  24755189.761 6  96534933.265 6     -3181.755    24755189.797 3  97174010.504 3
     -2479.290    24755188.987          34.250          17.500
  24868191.048 6  97128791.157 6      4167.997    24868187.873 3  97636786.944 3
      3247.790    24868190.433          35.750          16.500
