     2.11           OBSERVATION DATA    G (GPS)             RINEX VERSION / TYPE
teqc  2016Nov7                          20180403 09:56:50UTCPGM / RUN BY / DATE
Linux 2.4.21-27.ELsmp|Opteron|gcc|Linux x86_64|=+           COMMENT
teqc  2016Nov7                          20180403 09:56:49UTCCOMMENT
     2.11           OBSERVATION DATA    M (MIXED)           COMMENT
teqc  2016Nov7                          20180403 09:56:48UTCCOMMENT
teqc  2016Nov7      IGN-RGP             20180221 09:11:04UTCCOMMENT
TPP 3.10.3                              21-FEB-18 07:59     COMMENT
                                                            COMMENT
                                                            COMMENT
                                                            COMMENT
CHE2                                                        MARKER NAME
19989M002                                                   MARKER NUMBER
Automatic           SAT-INFO                                OBSERVER / AGENCY
5502R50014          TRIMBLE NETR9       4.81                REC # / TYPE / VERS
60073464            TRM41249.00     TZGD                    ANT # / TYPE
  4215066.5540   212263.8100  4766322.2090                  APPROX POSITION XYZ
        0.0000        0.0000        0.0000                  ANTENNA: DELTA H/E/N
     1     1                                                WAVELENGTH FACT L1/2
     9    C1    L1    S1    P2    L2    S2    C5    L5    S5# / TYPES OF OBSERV
    30.0000                                                 INTERVAL
     0                                                      RCV CLOCK OFFS APPL
    18                                                      LEAP SECONDS
Forced Modulo Decimation to 30 seconds                      COMMENT
teqc_2016 edited: all GLONASS satellites excluded           COMMENT
teqc_2016 edited: all SBAS satellites excluded              COMMENT
teqc_2016 edited: all Galileo satellites excluded           COMMENT
  2018     2    21     8     0    0.0000000     GPS         TIME OF FIRST OBS
                                                            END OF HEADER
 18  2 21  8  0  0.0000000  0  8G02G05G06G07G09G16G23G30
  21917708.754   115178320.189 6        46.000    21917711.154    89749338.683 8
        36.750
  23672733.824   124401048.516 6        43.750    23672740.344    96935880.408 7
        28.250
  21199597.380   111404617.893 7        49.500    21199605.600    86808790.757 8
        40.000
  21585462.276   113432390.200 7        51.750    21585467.716    88388880.206 8
        38.750
  20259442.266   106464103.320 8        53.250    20259449.366    82959045.653 9
        45.750
  24224503.740   127300623.052 4        38.500    24224508.780    99195297.415 6
        20.250
  22593828.910   118731383.263 7        47.500    22593832.610    92517962.503 7
        31.750
  22923696.388   120464849.626 7        48.250    22923704.048    93868716.157 7
        32.750
 18  2 21  8  0 30.0000000  0  8G02G05G06G07G09G16G23G30
  21912873.454   115152910.681 6        46.250    21912875.614    89729539.071 8
        37.000
  23654045.884   124302848.682 6        43.000    23654051.064    96859361.068 6
        24.500
  21210539.500   111462118.646 7        49.500    21210547.640    86853596.533 8
        40.000
  21572842.118   113366069.417 7        51.500    21572847.218    88337201.680 8
        38.750
  20265561.846   106496261.158 8        54.500    20265568.506    82984103.696 9
        45.500
  24219922.980   127276557.646 4        37.500    24219928.560    99176545.147 6
        18.250
  22608345.550   118807667.236 7        48.250    22608348.670    92577404.550 7
        32.000
  22904112.188   120361934.636 6        47.000    22904122.188    93788522.705 8
        33.500
 18  2 21  8  1  0.0000000  0  8G02G05G06G07G09G16G23G30
  21908139.454   115128034.686 7        47.250    21908142.314    89710155.181 8
        36.500
  23635380.504   124204754.288 6        44.750    23635385.404    96782923.892 7
        28.000
  21221580.680   111520141.056 7        48.750    21221588.460    86898808.803 8
        40.250
  21560302.478   113300175.718 7        51.250    21560307.778    88285855.948 8
        38.750
  20271752.386   106528793.553 8        53.500    20271760.006    83009453.615 9
        45.500
  24215453.740   127253069.610 3        36.750    24215458.240    99158242.790 5
        17.250
  22622895.150   118884126.273 7        47.750    22622898.750    92636982.996 7
        32.250
  22884571.028   120259246.461 7        47.500    22884579.408    93708505.976 7
        32.500
 18  2 21  8  1 30.0000000  0  8G02G05G06G07G09G16G23G30
  21903507.294   115103692.716 7        47.500    21903510.554    89691187.403 8
        36.250
  23616731.864   124106766.458 5        41.000    23616739.804    96706569.741 7
        27.750
  21232721.020   111578682.931 7        49.750    21232728.760    86944425.840 8
        40.250
  21547844.978   113234710.533 7        51.500    21547850.758    88234844.112 8
        38.500
  20278014.126   106561699.098 8        54.250    20278021.226    83035094.289 9
        45.500
  24211093.980   127230160.270 4        37.750    24211098.220    99140391.411 6
        18.500
  22637477.510   118960758.866 7        48.000    22637480.790    92696696.692 7
        32.500
  22865074.348   120156787.206 7        47.500    22865082.728    93628667.630 8
        33.500
 18  2 21  8  2  0.0000000  0  8G02G05G06G07G09G16G23G30
  21898977.654   115079886.104 7        47.250    21898980.194    89672636.787 8
        36.250
  23598108.444   124008887.529 6        44.750    23598111.904    96630300.449 7
        27.750
  21243959.520   111637742.512 7        48.750    21243967.920    86990446.290 8
        40.000
  21535469.158   113169676.034 8        52.500    21535474.898    88184167.884 8
        38.750
  20284346.566   106594976.757 8        53.500    20284353.366    83061024.936 9
        45.500
  24206845.140   127207830.715 4        38.250    24206848.400    99122991.695 6
        18.250
  22652093.570   119037564.181 6        47.000    22652097.110    92756544.969 7
        31.750
  22845620.528   120054559.579 7        47.500    22845629.828    93549009.784 8
        33.500
 18  2 21  8  2 30.0000000  0  8G02G05G06G07G09G16G23G30
  21894548.934   115056615.772 6        46.500    21894552.034    89654504.062 8
        36.500
  23579501.984   123911117.901 6        43.250    23579508.764    96554116.332 7
        27.250
  21255296.660   111697317.895 7        50.000    21255304.220    87036868.657 8
        40.000
  21523176.238   113105073.555 7        52.000    21523181.018    88133828.287 8
        39.000
  20290749.626   106628625.406 8        54.250    20290756.846    83087244.647 9
        45.500
  24202706.680   127186082.541 4        38.500    24202711.500    99106045.036 6
        19.250
  22666742.010   119114541.181 7        48.000    22666745.430    92816527.027 7
        31.500
  22826211.688   119952566.091 7        47.250    22826219.508    93469534.373 7
        33.000
 18  2 21  8  3  0.0000000  0  8G02G05G06G07G09G16G23G30
  21890223.174   115033882.678 6        47.000    21890226.134    89636789.969 8
        36.750
  23560918.984   123813460.030 6        45.000    23560925.764    96478019.322 7
        28.500
  21266730.980   111757406.984 7        49.750    21266739.080    87083691.330 8
        40.500
  21510964.998   113040904.935 7        51.500    21510970.418    88083826.765 8
        38.500
  20297223.186   106662643.771 8        53.500    20297230.066    83113752.449 9
        45.250
  24198679.640   127164917.031 5        40.000    24198684.480    99089552.460 6
        19.250
  22681422.370   119191688.239 7        47.750    22681426.030    92876641.597 7
        32.000
  22806848.528   119850809.129 7        48.250    22806857.028    93390243.263 8
        34.500
 18  2 21  8  3 30.0000000  0  8G02G05G06G07G09G16G23G30
  21885999.314   115011687.439 6        46.500    21886002.454    89619494.976 8
        36.500
  23542356.404   123715915.079 6        46.000    23542361.084    96402010.237 7
        27.250
  21278263.320   111818007.659 7        48.750    21278271.080    87130912.631 8
        40.500
  21498836.938   112977171.809 8        52.250    21498842.618    88034164.595 8
        38.750
  20303766.866   106697030.521 8        53.250    20303774.186    83140547.313 9
        45.250
  24194762.020   127144335.498 4        38.750    24194767.720    99073514.867 6
        20.250
  22696134.910   119269004.199 7        47.750    22696139.170    92936887.787 7
        32.250
  22787530.008   119749291.011 7        47.500    22787538.728    93311138.297 8
        33.500
 18  2 21  8  4  0.0000000  0  8G02G05G06G07G09G16G23G30
  21881878.616   114990031.719 6        46.750    21881881.316    89602620.382 8
        36.500
  23523816.304   123618484.228 6        45.750    23523821.084    96326090.112 7
        28.000
  21289892.058   111879118.667 7        49.500    21289899.918    87178531.591 8
        40.250
  21486792.618   112913876.678 7        51.000    21486797.858    87984843.716 8
        38.750
  20310380.286   106731785.174 8        54.250    20310387.326    83167628.860 9
        45.250
  24190957.020   127124339.700 3        37.000    24190963.380    99057933.766 6
        18.500
  22710880.210   119346488.769 7        48.000    22710883.590    92997265.358 7
        31.500
  22768257.890   119648014.893 7        49.000    22768265.610    93232221.866 8
        34.000
 18  2 21  8  4 30.0000000  0  8G02G05G06G07G09G16G23G30
  21877860.476   114968915.959 7        48.750    21877863.376    89586166.527 8
        37.000
  23505297.744   123521169.487 6        46.000    23505304.284    96250260.474 7
        28.000
  21301618.018   111940737.754 7        49.250    21301625.538    87226546.457 8
        40.750
  21474831.278   112851020.981 7        52.000    21474836.698    87935865.255 8
        39.000
  20317063.566   106766906.396 8        55.000    20317070.506    83194996.049 9
        45.250
  24187263.380   127104930.560 4        37.500    24187269.740    99042809.786 6
        19.000
  22725656.350   119424140.497 7        47.250    22725660.290    93057773.184 7
        31.750
  22749032.050   119546983.136 7        47.750    22749041.250    93153495.865 8
        34.250
 18  2 21  8  5  0.0000000  0  8G02G05G06G07G09G16G23G30
  21873944.956   114948340.383 7        47.750    21873948.016    89570133.615 8
        37.250
  23486801.544   123423972.698 6        45.500    23486807.584    96174522.700 7
        27.750
  21313439.858   112002862.510 7        48.750    21313448.018    87274955.341 8
        40.000
  21462953.898   112788605.729 7        51.250    21462959.778    87887229.991 8
        39.500
  20323816.386   106802392.555 8        53.750    20323823.386    83222647.595 9
        45.500
  24183681.780   127086109.093 4        38.000    24183687.580    99028143.696 6
        18.500
  22740464.910   119501957.675 6        46.750    22740468.330    93118409.929 7
        31.500
  22729853.450   119446197.702 7        48.750    22729860.910    93074961.799 8
        33.750
 18  2 21  8  5 30.0000000  0  8G02G05G06G07G09G16G23G30
  21870132.636   114928306.296 7        48.250    21870135.616    89554522.634 8
        36.500
  23468328.724   123326895.581 6        45.750    23468333.704    96098878.202 7
        27.000
  21325357.498   112065490.785 7        49.500    21325365.718    87323756.582 8
        40.750
  21451160.978   112726632.686 7        51.750    21451166.858    87838939.315 8
        39.250
  20330638.346   106838242.426 8        54.000    20330645.906    83250582.541 9
        45.250
  24180212.120   127067876.385 4        39.000    24180217.920    99013936.405 6
        18.250
  22755303.550   119579939.130 7        47.500    22755307.190    93179174.687 7
        31.000
  22710721.450   119345661.038 7        47.500    22710729.590    92996621.568 8
        33.500
 18  2 21  8  6  0.0000000  0  8G02G05G06G07G09G16G23G30
  21866423.576   114908814.954 7        49.000    21866426.556    89539334.575 8
        35.750
  23449879.104   123229939.507 6        46.000    23449883.644    96023328.051 7
        27.000
  21337370.878   112128621.048 7        48.500    21337379.058    87372948.988 8
        40.000
  21439452.538   112665104.108 7        51.750    21439457.958    87790994.979 8
        39.250
  20337529.646   106874455.351 8        53.250    20337536.906    83278800.394 9
        45.500
  24176855.560   127050234.122 5        39.500    24176860.860    99000189.220 6
        19.500
  22770174.410   119658084.232 6        46.500    22770177.990    93240066.962 7
        30.750
  22691638.110   119245376.169 7        48.250    22691646.730    92918477.572 8
        34.250
 18  2 21  8  6 30.0000000  0  8G02G05G06G07G09G16G23G30
  21862817.996   114889866.796 7        49.250    21862820.816    89524569.767 8
        36.250
  23431452.204   123133105.586 6        46.250    23431457.684    95947873.047 7
        28.500
  21349479.238   112192251.240 7        48.250    21349487.958    87422530.944 8
        40.750
  21427828.958   112604021.381 7        51.750    21427834.598    87743398.046 8
        39.000
  20344489.586   106911030.085 8        54.500    20344496.746    83307300.183 9
        45.500
  24173610.800   127033183.532 5        41.000    24173616.240    98986903.056 6
        19.000
  22785075.788   119736391.993 7        47.500    22785079.468    93301085.974 7
        31.250
  22672602.830   119145345.487 7        47.500    22672610.330    92840531.627 8
        33.750
 18  2 21  8  7  0.0000000  0  8G02G05G06G07G09G16G23G30
  21859316.016   114871463.139 7        48.000    21859318.036    89510229.245 8
        36.250
  23413048.644   123036395.836 6        45.750    23413054.024    95872514.801 7
        28.500
  21361682.238   112256379.247 7        50.000    21361690.518    87472500.801 8
        40.000
  21416290.518   112543386.299 8        52.250    21416295.998    87696149.932 8
        40.000
  20351518.146   106947965.512 8        55.000    20351525.386    83336081.027 9
        45.500
  24170479.140   127016725.599 4        38.000    24170483.980    98974078.658 6
        19.000
  22800008.508   119814861.105 6        46.750    22800011.748    93362230.714 7
        31.000
  22653616.230   119045571.457 7        47.250    22653625.090    92762785.677 8
        34.500
 18  2 21  8  7 30.0000000  0  8G02G05G06G07G09G16G23G30
  21855917.316   114853603.836 7        49.000    21855920.036    89496312.892 8
        36.000
  23394669.024   122939811.921 6        45.500    23394674.544    95797254.621 7
        28.500
  21373979.758   112321002.875 7        49.000    21373988.078    87522856.875 8
        39.500
  21404837.418   112483200.394 7        52.000    21404842.818    87649251.837 8
        39.000
  20358615.186   106985260.322 8        53.250    20358622.086    83365141.912 9
        45.500
  24167459.640   127000861.430 4        37.250    24167465.140    98961716.992 6
        18.500
  22814971.008   119893490.380 6        46.750    22814974.288    93423500.281 7
        30.250
  22634679.210   118946056.512 7        47.750    22634687.910    92685241.608 8
        33.750
 18  2 21  8  8  0.0000000  0  8G02G05G06G07G09G16G23G30
  21852622.956   114836290.449 7        49.000    21852625.496    89482821.933 8
        36.250
  23376313.746   122843355.752 6        45.750    23376319.146    95722093.997 7
        27.750
  21386370.958   112386119.974 7        49.250    21386379.378    87573597.458 8
        39.500
  21393470.318   112423465.265 8        52.750    21393475.478    87602704.993 8
        39.500
  20365780.246   107022913.327 8        53.250    20365787.546    83394481.911 9
        45.250
  24164554.460   126985592.244 4        38.750    24164559.360    98949818.909 6
        19.000
  22829964.188   119972278.633 7        47.500    22829967.108    93484893.694 7
        30.500
  22615791.850   118846803.051 7        47.500    22615800.070    92607901.285 8
        33.500
 18  2 21  8  8 30.0000000  0  8G02G05G06G07G09G16G23G30
  21849431.396   114819523.210 7        48.750    21849434.936    89469756.550 8
        36.750
  23357983.366   122747028.685 6        43.500    23357989.026    95647033.944 7
        27.250
  21398856.158   112451728.354 7        48.500    21398864.278    87624720.860 8
        39.750
  21382188.938   112364182.529 8        52.500    21382194.478    87556510.660 8
        39.500
  20373013.386   107060923.266 8        53.000    20373020.406    83424100.042 9
        45.750
  24161762.380   126970918.661 5        40.250    24161766.300    98938384.968 6
        19.500
  22844987.148   120051224.810 7        47.250    22844990.468    93546410.190 7
        30.000
  22596954.690   118747813.415 6        45.750    22596964.010    92530766.538 8
        34.500
 18  2 21  8  9  0.0000000  0  8G02G05G06G07G09G16G23G30
  21846345.436   114803303.012 7        48.750    21846348.276    89457117.424 8
        36.500
  23339678.266   122650832.544 6        44.250    23339683.966    95572075.925 7
        28.250
  21411434.178   112517825.969 7        48.250    21411442.258    87676225.465 8
        40.250
  21370994.098   112305353.682 8        52.250    21370999.778    87510669.997 8
        39.500
  20380313.906   107099289.108 8        53.000    20380321.146    83453995.497 9
        45.250
  24159083.840   126956842.139 5        39.250    24159088.240    98927416.248 6
        20.000
  22860039.368   120130327.881 6        46.500    22860043.648    93608048.924 7
        30.750
  22578168.730   118649090.217 7        47.250    22578176.330    92453839.419 8
        34.500
 18  2 21  8  9 30.0000000  0  8G02G05G06G07G09G16G23G30
  21843362.836   114787630.623 7        49.250    21843365.776    89444905.163 8
        36.000
  23321397.146   122554768.530 6        43.000    23321403.406    95497220.867 7
        29.000
  21424105.098   112584410.737 7        48.250    21424112.918    87728109.662 8
        39.750
  21359886.418   112246980.388 7        52.000    21359891.438    87465184.322 8
        39.750
  20387682.504   107138009.713 8        53.250    20387689.544    83484167.395 9
        45.250
  24156518.760   126943363.627 5        40.000    24156524.000    98916913.534 6
        19.500
  22875122.168   120209586.880 6        46.500    22875125.868    93669809.158 7
        30.500
  22559433.110   118550636.089 6        46.250    22559441.090    92377121.924 8
        34.750
 18  2 21  8 10  0.0000000  0  8G02G05G06G07G09G16G23G30
  21840484.836   114772506.586 7        49.000    21840487.836    89433120.203 8
        37.000
  23303142.266   122458838.514 6        45.000    23303148.186    95422470.218 7
        28.500
  21436867.538   112651480.418 7        49.500    21436876.278    87780371.697 8
        39.750
  21348864.858   112189064.269 8        52.500    21348870.478    87420054.887 8
        39.000
  20395117.904   107177083.852 8        54.250    20395125.144    83514614.766 9
        45.250
  24154068.080   126930484.263 4        39.000    24154072.940    98906877.656 6
        20.250
  22890234.168   120289000.377 6        46.500    22890237.588    93731689.781 7
        30.000
  22540749.410   118452453.303 7        47.750    22540758.310    92300615.899 8
        35.000
 18  2 21  8 10 30.0000000  0  8G02G05G06G07G09G16G23G30
  21837711.696   114757931.443 7        49.500    21837714.316    89421762.938 8
        37.000
  23284913.466   122363043.984 6        43.250    23284919.166    95347825.150 7
        28.750
  21449722.678   112719032.804 7        49.250    21449730.638    87833009.882 8
        40.000
  21337931.198   112131606.565 7        52.000    21337937.018    87375282.654 8
        39.500
  20402620.644   107216510.273 8        54.000    20402627.544    83545336.646 9
        45.250
  24151730.680   126918204.853 5        39.250    24151735.640    98897309.344 6
        19.750
  22905375.268   120368567.452 6        45.250    22905378.628    93793690.085 7
        30.000
  22522118.150   118354544.265 6        46.250    22522125.770    92224323.150 8
        35.000
 18  2 21  8 11  0.0000000  0  8G02G05G06G07G09G16G23G30
  21835042.636   114743906.137 7        48.500    21835045.496    89410834.120 8
        36.250
  23266710.466   122267387.235 6        44.500    23266715.426    95273287.455 7
        27.750
  21462668.858   112787065.767 7        48.750    21462677.138    87886022.536 8
        39.500
  21327085.018   112074609.039 8        52.500    21327090.918    87330868.988 8
        39.000
  20410190.044   107256287.923 8        53.000    20410197.204    83576332.207 9
        45.250
  24149508.320   126906526.160 4        37.500    24149513.580    98888209.022 6
        19.750
  22920545.348   120448287.239 6        45.500    22920549.128    93855809.379 7
        29.750
  22503538.890   118256911.591 7        48.000    22503547.850    92148245.779 8
        35.250
 18  2 21  8 11 30.0000000  0  8G02G05G06G07G09G16G23G30
  21832478.436   114730430.991 7        48.000    21832481.116    89400333.996 8
        36.250
  23248533.926   122171869.719 6        44.500    23248539.846    95198858.211 7
        28.000
  21475706.138   112855576.934 7        49.000    21475714.618    87939407.811 8
        40.000
  21316326.298   112018073.084 8        53.000    21316332.198    87286815.005 8
        39.500
  20417825.944   107296415.471 8        54.500    20417832.964    83607600.422 9
        45.000
  24147400.820   126895449.131 4        37.500    24147406.040    98879577.600 6
        19.750
  22935744.208   120528158.289 6        45.500    22935747.468    93918046.540 7
        29.500
  22485013.430   118159557.545 7        49.000    22485021.950    92072385.514 8
        35.250
 18  2 21  8 12  0.0000000  0  8G02G05G06G07G09G16G23G30
  21830018.796   114717506.528 7        48.000    21830021.776    89390262.980 8
        36.500
  23230384.746   122076492.738 6        42.750    23230390.346    95124538.523 7
        27.750
  21488834.238   112924564.212 7        48.250    21488842.318    87993164.068 8
        40.000
  21305656.498   111962000.356 8        52.500    21305661.818    87243121.976 8
        39.750
  20425528.524   107336891.879 8        53.500    20425535.864    83639140.475 9
        44.750
  24145407.960   126884974.865 5        40.000    24145412.960    98871415.851 6
        20.750
  22950971.928   120608180.075 6        45.250    22950975.528    93980401.166 7
        30.000
  22466540.512   118062484.688 7        47.250    22466549.152    91996744.333 8
        34.250
 18  2 21  8 12 30.0000000  0  8G02G05G06G07G09G16G23G30
  21827664.196   114705133.248 7        47.750    21827666.836    89380621.455 8
        36.500
  23212262.446   121981258.421 6        44.500    23212268.266    95050329.978 7
        28.500
  21502052.258   112994025.281 7        50.000    21502060.498    88047289.554 8
        39.750
  21295074.518   111906392.295 8        52.750    21295079.838    87199791.036 8
        39.250
  20433296.964   107377715.746 8        54.750    20433304.024    83670951.274 9
        45.250
  24143529.000   126875103.919 4        38.750    24143534.420    98863724.170 6
        20.250
  22966228.228   120688350.967 6        44.250    22966231.708    94042871.979 7
        29.500
  22448122.652   117965695.303 7        48.000    22448131.632    91921324.064 8
        35.750
 18  2 21  8 13  0.0000000  0  8G02G05G06G07G09G16G23G30
  21825414.576   114693311.948 7        48.250    21825417.336    89371410.046 8
        36.500
  23194167.666   121886168.210 6        46.250    23194174.026    94976233.718 7
        30.000
  21515360.038   113063957.864 7        50.250    21515368.318    88101782.459 8
        40.250
  21284580.940   111851249.837 8        52.750    21284586.680    87156822.895 8
        39.250
  20441131.324   107418885.988 8        54.000    20441138.284    83703031.973 9
        45.000
  24141765.960   126865837.198 5        40.250    24141770.780    98856503.336 6
        19.500
  22981511.688   120768669.980 6        45.250    22981516.068    94105458.208 7
        29.750
  22429758.472   117869191.874 7        49.000    22429767.172    91846126.618 8
        36.000
 18  2 21  8 13 30.0000000  0  8G02G05G06G07G09G16G23G30
  21823270.556   114682043.515 7        48.500    21823272.796    89362629.437 8
        36.000
  23176100.206   121791223.172 7        47.500    23176104.666    94902250.569 7
        29.000
  21528756.678   113134360.302 7        49.750    21528764.778    88156641.510 8
        40.000
  21274177.040   111796575.733 7        52.000    21274182.420    87114219.699 8
        39.750
  20449031.684   107460402.019 8        55.000    20449038.344    83735382.119 9
        44.500
  24140117.080   126857176.503 4        38.750    24140122.680    98849754.754 6
        19.250
  22996824.368   120849136.778 6        44.250    22996828.168    94168159.585 7
        29.750
  22411449.472   117772977.401 7        49.500    22411457.692    91771154.327 8
        36.000
 18  2 21  8 14  0.0000000  0  8G02G05G06G07G09G16G23G30
  21821231.396   114671327.657 7        48.000    21821234.356    89354279.418 8
        36.250
  23158061.206   121696425.982 7        47.750    23158064.986    94828382.629 7
        30.250
  21542243.058   113205229.403 7        49.500    21542251.358    88211864.178 8
        39.250
  21263862.060   111742370.244 8        53.250    21263867.820    87071981.642 8
        40.000
  20456997.244   107502261.734 8        55.000    20457004.264    83768000.071 9
        44.750
  24138585.200   126849121.329 5        40.000    24138589.860    98843477.961 6
        19.000
  23012164.668   120929749.393 6        45.250    23012168.248    94230974.607 7
        28.500
  22393195.772   117677053.507 7        49.750    22393204.732    91696408.457 8
        36.000
 18  2 21  8 14 30.0000000  0  8G02G05G06G07G09G16G23G30
  21819297.756   114661165.175 7        48.000    21819300.456    89346360.586 8
        36.750
  23140049.526   121601778.513 7        47.500    23140053.446    94754631.354 7
        29.250
  21555817.338   113276562.883 7        47.750    21555825.578    88267448.688 8
        39.500
  21253636.640   111688634.787 8        52.750    21253641.980    87030109.861 8
        39.750
  20465028.184   107544464.083 8        52.750    20465035.224    83800885.008 9
        44.750
  24137167.280   126841672.566 4        38.500    24137171.500    98837673.724 6
        19.500
  23027532.748   121010506.739 6        45.000    23027535.528    94293902.387 7
        29.000
  22374997.932   117581422.606 7        48.750    22375005.912    91621890.883 8
        36.000
 18  2 21  8 15  0.0000000  0  8G02G05G06G07G09G16G23G30
  21817469.036   114651556.256 7        47.750    21817471.616    89338873.113 8
        36.250
  23122067.086   121507282.034 7        47.250    23122072.866    94680997.759 7
        29.000
  21569479.778   113348358.463 7        49.500    21569488.058    88323393.242 8
        39.750
  21243500.760   111635370.741 8        53.000    21243506.380    86988605.411 8
        40.000
  20473124.044   107587007.881 8        55.000    20473131.004    83834036.013 9
        44.500
  24135864.920   126834831.120 4        37.500    24135870.680    98832342.698 6
        19.750
  23042927.448   121091407.815 6        45.500    23042930.728    94356942.170 7
        29.250
  22356855.852   117486087.137 7        49.250    22356863.812    91547603.517 8
        35.500
 18  2 21  8 15 30.0000000  0  8G02G05G06G07G09G16G23G30
  21815745.636   114642501.985 7        48.000    21815748.656    89331817.835 8
        37.250
  23104114.186   121412938.537 6        46.500    23104120.466    94607483.369 7
        29.000
  21583229.698   113420614.270 7        49.750    21583238.018    88379696.413 8
        39.250
  21233455.000   111582580.134 8        52.750    21233460.260    86947469.867 8
        39.500
  20481284.844   107629892.375 8        54.500    20481291.644    83867452.486 9
        44.500
  24134679.380   126828597.709 4        39.000    24134684.560    98827485.540 6
        19.250
  23058349.448   121172452.218 6        46.250    23058352.988    94420093.632 7
        29.500
  22338771.512   117391049.973 7        48.500    22338779.572    91473548.615 8
        35.500
 18  2 21  8 16  0.0000000  0  8G02G05G06G07G09G16G23G30
  21814128.796   114634002.877 7        48.000    21814131.556    89325195.139 8
        36.500
  23086190.466   121318749.024 6        45.250    23086197.926    94534088.989 7
        30.000
  21597066.516   113493328.159 7        50.250    21597074.616    88436356.542 8
        39.750
  21223499.680   111530264.653 8        53.750    21223504.820    86906704.553 8
        40.000
  20489509.744   107673116.519 8        55.250    20489516.964    83901133.639 9
        44.500
  24133610.120   126822973.405 4        38.250    24133613.960    98823102.918 6
        19.250
  23073798.628   121253639.076 6        45.750    23073802.148    94483356.099 7
        29.250
  22320743.252   117296313.696 7        49.500    22320750.992    91399728.154 8
        35.750
 18  2 21  8 16 30.0000000  0  8G02G05G06G07G09G16G23G30
  21812616.716   114626058.650 7        47.500    21812619.716    89319004.824 8
        37.250
  23068297.308   121224715.621 6        45.500    23068303.428    94460816.223 7
        29.750
  21610990.116   113566497.223 7        49.750    21610998.216    88493371.358 8
        39.000
  21213634.780   111478424.666 8        53.500    21213640.260    86866309.752 8
        39.750
  20497799.584   107716678.587 8        55.000    20497806.844    83935078.095 9
        44.500
  24132654.700   126817958.307 5        39.500    24132659.360    98819195.052 6
        19.250
  23089274.826   121334966.570 6        46.500    23089278.626    94546728.141 7
        30.250
  22302773.272   117201880.155 7        49.000    22302781.272    91326143.597 8
        36.250
 18  2 21  8 17  0.0000000  0  8G02G05G06G07G09G16G23G30
  21811210.776   114618670.123 6        46.750    21811214.196    89313247.520 8
        36.250
  23050433.948   121130840.490 6        46.750    23050439.488    94387666.782 7
        30.250
  21624999.876   113640119.293 7        49.750    21625008.116    88550739.143 8
        38.750
  21203861.140   111427062.026 8        53.000    21203866.500    86826286.918 8
        40.000
  20506153.304   107760577.643 8        54.500    20506160.424    83969285.143 9
        44.750
  24131816.880   126813553.263 4        39.000    24131821.420    98815762.531 6
        18.500
  23104777.966   121416433.982 6        46.500    23104780.326    94610209.215 7
        30.000
  22284861.352   117107751.970 7        49.500    22284869.412    91252796.996 8
        36.500
 18  2 21  8 17 30.0000000  0  8G02G05G06G07G09G16G23G30
  21809910.636   114611836.853 6        46.750    21809913.696    89307922.888 8
        36.750
  23032600.848   121037125.330 7        48.500    23032606.048    94314641.962 7
        32.000
  21639095.396   113714191.588 7        49.750    21639103.576    88608457.749 8
        38.750
  21194177.980   111376177.649 8        52.750    21194183.240    86786636.760 8
        39.500
  20514570.704   107804812.109 8        53.500    20514578.344    84003753.548 9
        44.250
  24131095.360   126809758.641 4        38.750    24131099.980    98812805.694 6
        20.250
  23120306.586   121498039.701 6        45.250    23120310.146    94673798.054 7
        29.750
  22267007.892   117013931.136 7        48.750    22267015.372    91179689.878 8
        36.000
 18  2 21  8 18  0.0000000  0  8G02G05G06G07G09G16G23G30
  21808715.856   114605559.953 6        46.000    21808718.856    89303031.788 8
        36.000
  23014797.408   120943571.413 7        48.000    23014802.108    94241742.803 7
        31.250
  21653276.376   113788712.189 7        49.500    21653284.396    88666525.688 8
        38.500
  21184586.260   111325773.301 8        53.000    21184591.380    86747360.653 8
        39.750
  20523051.904   107849381.289 8        53.750    20523059.104    84038482.771 9
        44.250
  24130487.260   126806575.432 3        37.000    24130493.480    98810325.290 5
        17.750
  23135862.166   121579783.559 6        46.250    23135865.646    94737494.549 7
        30.000
  22249212.992   116920420.452 7        48.250    22249221.912    91106824.457 8
        36.500
 18  2 21  8 18 30.0000000  0  8G02G05G06G07G09G16G23G30
  21807627.596   114599839.615 6        46.750    21807630.756    89298574.368 8
        36.500
  22997024.628   120850181.127 6        46.250    22997029.748    94168971.152 7
        29.500
  21667542.136   113863678.429 7        48.000    21667550.236    88724940.864 8
        38.000
  21175086.200   111275849.991 7        52.000    21175091.460    86708459.391 8
        40.000
  20531596.284   107894283.654 8        53.000    20531603.784    84073471.615 9
        44.250
  24129998.120   126804003.755 4        38.750    24130004.800    98808321.385 6
        18.500
  23151443.686   121661664.240 6        45.750    23151447.386    94801297.642 7
        29.500
  22231478.072   116827222.072 7        48.750    22231486.212    91034202.375 8
        36.000
 18  2 21  8 19  0.0000000  0  8G02G05G06G07G09G16G23G30
  21806644.996   114594676.054 6        46.500    21806647.516    89294550.806 8
        36.250
  22979284.008   120756955.681 6        44.500    22979288.648    94096327.964 7
        29.500
  21681892.356   113939087.956 7        49.500    21681899.956    88783701.465 8
        38.750
  21165677.940   111226409.140 8        52.500    21165683.440    86669934.065 8
        40.750
  20540204.464   107939518.143 8        53.250    20540212.044    84108719.263 9
        43.750
  24129626.880   126802044.204 4        37.500    24129631.080    98806794.465 6
        19.250
  23167051.246   121743680.701 6        46.000    23167054.406    94865206.547 7
        29.500
  22213802.772   116734338.396 7        48.250    22213810.852    90961825.517 8
        36.500
 18  2 21  8 19 30.0000000  0  8G02G05G06G07G09G16G23G30
  21805768.136   114590069.467 6        47.000    21805771.176    89290961.251 8
        36.000
  22961576.428   120663897.088 6        44.500    22961580.688    94023814.838 7
        28.250
  21696326.016   114014938.337 7        49.500    21696334.116    88842805.597 8
        37.500
  21156361.720   111177451.998 8        52.250    21156367.440    86631785.648 8
        40.500
  20548875.004   107985083.470 8        53.250    20548882.524    84144224.698 9
        44.000
  24129370.120   126800697.378 5        39.750    24129375.240    98805744.990 6
        19.250
  23182683.986   121825832.021 6        45.750    23182686.546    94929220.543 7
        28.750
  22196187.912   116641771.813 7        48.500    22196196.732    90889695.718 8
        36.500
 18  2 21  8 20  0.0000000  0  8G02G05G06G07G09G16G23G30
  21804997.696   114586020.086 6        46.000    21805000.496    89287805.883 8
        36.250
  22943901.288   120571007.047 6        46.250    22943904.108    93951433.023 7
        28.500
  21710843.196   114091227.027 7        49.250    21710851.656    88902251.274 8
        38.500
  21147137.880   111128979.700 8        52.750    21147143.480    86594015.041 8
        39.500
  20557608.624   108030978.415 8        53.500    20557615.884    84179986.984 9
        43.500
  24129231.740   126799963.636 4        38.500    24129235.420    98805173.253 6
        19.500
  23198342.226   121908117.229 6        46.000    23198346.186    94993338.864 7
        29.500
  22178633.834   116549524.566 7        48.000    22178641.994    90817814.775 8
        36.500
 18  2 21  8 20 30.0000000  0  8G02G05G06G07G09G16G23G30
  21804333.396   114582528.309 6        46.750    21804335.776    89285085.012 8
        36.500
  22926256.748   120478287.595 7        47.500    22926261.248    93879184.095 7
        29.000
  21725443.476   114167951.764 7        48.750    21725451.656    88962036.726 8
        37.500
  21138006.160   111080993.751 7        52.000    21138012.140    86556623.407 8
        40.500
  20566404.864   108077201.977 8        53.750    20566412.124    84216005.337 9
        44.250
  24129208.000   126799843.288 4        39.000    24129213.080    98805079.477 6
        18.500
  23214025.386   121990535.214 6        45.000    23214029.326    95057560.650 7
        28.500
  22161140.834   116457599.166 7        49.250    22161149.714    90746184.618 8
        37.250
 18  2 21  8 21  0.0000000  0  8G02G05G06G07G09G16G23G30
  21803775.356   114579594.118 6        46.250    21803777.836    89282798.619 8
        36.500
  22908644.428   120385740.223 6        47.000    22908650.288    93807069.235 7
        29.500
  21740126.096   114245109.960 7        47.500    21740134.376    89022159.965 8
        37.500
  21128967.640   111033494.944 8        52.250    21128972.680    86519611.355 8
        40.250
  20575263.364   108123752.850 8        54.000    20575270.264    84252278.738 9
        44.500
  24129300.920   126800336.977 4        38.000    24129307.360    98805464.131 6
        19.500
  23229734.166   122073084.827 6        45.500    23229738.666    95121884.987 7
        28.500
  22143709.494   116365997.891 7        48.250    22143718.134    90674807.040 8
        36.750
 18  2 21  8 21 30.0000000  0  8G02G05G06G07G09G16G23G30
  21803322.976   114577217.683 7        48.000    21803325.276    89280946.846 8
        36.000
  22891066.568   120293366.539 6        46.750    22891073.128    93735089.772 7
        30.250
  21754890.916   114322699.208 7        48.250    21754898.696    89082619.095 8
        37.250
  21120021.780   110986484.928 7        51.750    21120027.300    86482980.189 8
        40.000
  20584183.684   108170629.926 8        54.000    20584190.824    84288806.315 9
        44.250
  24129511.300   126801445.091 4        37.500    24129517.320    98806327.570 6
        19.500
  23245467.566   122155765.450 6        45.000    23245471.006    95186311.422 7
        28.250
  22126340.914   116274723.135 7        50.000    22126348.914    90603683.874 8
        37.000
 18  2 21  8 22  0.0000000  0  8G02G05G06G07G09G16G23G30
  21802977.116   114575399.268 7        47.750    21802979.276    89279529.882 8
        36.000
  22873522.768   120201169.099 6        47.000    22873528.988    93663247.641 7
        30.000
  21769736.876   114400716.650 7        48.000    21769744.816    89143411.871 8
        37.250
  21111169.140   110939964.493 7        50.750    21111174.400    86446730.509 8
        40.250
  20593166.004   108217831.782 8        53.750    20593172.564    84325586.976 9
        44.500
  24129840.860   126803167.710 4        38.750    24129845.660    98807669.895 6
        19.000
  23261226.006   122238575.678 6        46.000    23261230.046    95250838.850 7
        29.000
  22109034.434   116183777.006 7        49.750    22109042.674    90532816.775 8
        37.250
 18  2 21  8 22 30.0000000  0  8G02G05G06G07G09G16G23G30
  21802737.036   114574139.026 7        48.500    21802739.556    89278547.872 8
        36.500
  22856011.888   120109148.959 7        47.250    22856018.228    93591543.632 7
        31.750
  21784664.536   114479160.106 7        47.750    21784672.676    89204536.610 8
        37.000
  21102410.280   110893934.959 7        50.250    21102415.400    86410863.324 8
        40.250
  20602209.944   108265357.319 8        53.000    20602217.124    84362619.858 9
        44.500
  24130285.640   126805505.176 5        39.500    24130290.580    98809491.287 6
        19.250
  23277009.546   122321514.855 6        46.000    23277012.586    95315466.743 7
        28.500
  22091791.134   116093161.912 7        50.500    22091799.234    90462207.633 8
        37.750
 18  2 21  8 23  0.0000000  0  8G02G05G06G07G09G16G23G30
  21802603.656   114573437.355 7        48.750    21802606.496    89278001.099 8
        36.250
  22838534.528   120017308.369 6        45.250    22838541.008    93519979.526 7
        31.250
  21799672.396   114558027.277 7        47.500    21799680.056    89265991.536 8
        37.250
  21093744.600   110848397.450 7        50.250    21093750.080    86375379.566 8
        40.250
  20611314.924   108313205.638 8        53.000    20611321.724    84399904.252 9
        44.000
  24130847.500   126808458.078 5        39.500    24130852.140    98811792.239 6
        20.000
  23292816.266   122404581.984 6        44.250    23292820.206    95380194.355 7
        27.500
  22074610.594   116002880.466 6        47.000    22074618.594    90391858.452 8
        37.000
 18  2 21  8 23 30.0000000  0  8G02G05G06G07G09G16G23G30
  21802576.356   114573293.746 7        48.000    21802579.116    89277889.191 8
        36.500
  22821092.308   119925649.168 6        45.000    22821098.848    93448556.758 7
        30.750
  21814759.996   114637315.199 7        47.500    21814768.356    89327774.314 8
        36.750
  21085172.800   110803353.099 7        50.500    21085178.500    86340280.080 8
        40.500
  20620481.304   108361375.175 8        52.500    20620488.404    84437438.952 9
        44.500
  24131526.860   126812026.252 4        38.000    24131532.220    98814572.612 6
        21.500
  23308647.506   122487775.766 6        46.000    23308651.306    95445020.629 7
        28.500
  22057494.894   115912934.590 7        48.750    22057503.154    90321770.780 8
        38.250
 18  2 21  8 24  0.0000000  0  8G02G05G06G07G09G16G23G30
  21802655.376   114573708.366 7        48.500    21802658.016    89278212.261 8
        37.000
  22803685.688   119834173.203 6        46.500    22803692.008    93377276.817 7
        30.250
  21829927.636   114717021.257 6        46.500    21829936.116    89389882.929 8
        36.750
  21076695.360   110758803.049 7        51.250    21076700.580    86305565.768 8
        40.750
  20629708.724   108409864.622 7        51.750    20629715.864    84475222.933 9
        44.000
  24132321.760   126816210.085 4        39.000    24132328.140    98817832.725 6
        19.000
  23324503.126   122571095.195 6        46.250    23324507.446    95509944.834 7
        29.000
  22040442.874   115823326.529 7        49.750    22040450.874    90251946.343 8
        37.500
 18  2 21  8 24 30.0000000  0  8G02G05G06G07G09G16G23G30
  21802840.076   114574681.498 7        48.000    21802843.216    89278970.542 8
        36.750
  22786313.368   119742881.770 6        45.500    22786320.008    93306140.642 7
        31.500
  21845174.296   114797142.973 7        47.500    21845182.316    89452315.420 8
        36.750
  21068312.000   110714747.943 7        51.000    21068317.100    86271237.130 8
        40.500
  20638996.664   108458672.916 8        52.750    20639003.784    84513255.355 9
        43.750
  24133235.000   126821010.108 3        37.000    24133240.780    98821572.991 6
        19.250
  23340381.926   122654539.766 6        44.500    23340385.746    95574966.555 7
        27.500
  22023455.854   115734058.606 7        47.500    22023464.074    90182386.943 8
        37.750
 18  2 21  8 25  0.0000000  0  8G02G05G06G07G09G16G23G30
  21803131.996   114576213.102 7        48.500    21803134.896    89280163.988 8
        37.500
  22768976.690   119651777.645 6        45.500    22768982.690    93235150.405 7
        31.500
  21860499.596   114877677.999 7        47.500    21860507.756    89515069.984 8
        37.500
  21060023.240   110671189.482 7        51.000    21060028.520    86237295.495 8
        40.500
  20648344.644   108507799.084 8        52.500    20648352.404    84551535.482 9
        44.000
  24134265.920   126826425.803 5        39.500    24134271.720    98825793.000 6
        20.250
  23356284.466   122738108.199 6        45.500    23356287.786    95640084.798 7
        27.000
  22006533.554   115645133.411 7        48.000    22006542.134    90113094.606 8
        37.500
 18  2 21  8 25 30.0000000  0  8G02G05G06G07G09G16G23G30
  21803529.636   114578302.964 7        48.500    21803532.916    89281792.441 8
        37.250
  22751675.490   119560861.880 6        44.500    22751682.030    93164306.967 7
        31.250
  21875903.136   114958623.662 7        48.000    21875911.576    89578144.516 8
        37.000
  21051828.760   110628128.715 7        50.500    21051834.100    86203741.657 9
        41.250
  20657753.204   108557241.795 7        51.000    20657761.104    84590062.264 9
        43.500
  24135413.940   126832458.006 5        40.750    24135420.080    98830493.385 6
        20.750
  23372210.386   122821799.873 6        45.750    23372213.706    95705299.049 7
        27.000
  21989677.554   115556553.012 7        49.000    21989685.634    90044070.941 8
        37.750
 18  2 21  8 26  0.0000000  0  8G02G05G06G07G09G16G23G30
  21804033.496   114580951.063 7        47.250    21804036.436    89283855.891 8
        36.500
  22734411.530   119470136.204 6        46.500    22734417.870    93093611.656 7
        31.750
  21891384.354   115039977.221 6        46.500    21891392.934    89641536.877 8
        36.000
  21043729.860   110585566.149 7        51.000    21043734.780    86170576.023 8
        40.000
  20667222.044   108606999.731 7        51.250    20667229.884    84628834.665 9
        43.500
  24136679.020   126839106.566 5        41.250    24136685.400    98835674.061 6
        19.250
  23388159.224   122905613.450 6        44.000    23388163.264    95770608.309 7
        26.500
  21972887.614   115468319.566 7        49.000    21972895.794    89975317.614 8
        37.750
 18  2 21  8 26 30.0000000  0  8G02G05G06G07G09G16G23G30
  21804643.736   114584158.274 7        48.250    21804646.496    89286355.017 8
        37.250
  22717183.370   119379604.290 6        45.000    22717189.850    93023067.311 7
        31.500
  21906942.814   115121736.771 7        48.000    21906950.834    89705245.601 8
        36.750
  21035725.280   110543503.752 7        51.750    21035730.560    86137800.142 8
        40.250
  20676750.504   108657072.371 7        52.000    20676757.984    84667852.303 9
        43.750
  24138061.140   126846371.779 5        39.500    24138066.920    98841335.297 6
        19.750
  23404131.684   122989548.742 6        44.500    23404135.764    95836012.398 7
        26.250
  21956163.514   115380436.052 7        48.000    21956171.794    89906836.961 8
        38.000
 18  2 21  8 27  0.0000000  0  8G02G05G06G07G09G16G23G30
  21805360.616   114587923.638 7        47.750    21805363.116    89289289.048 8
        36.750
  22699992.990   119289266.262 6        47.000    22699998.850    92952674.045 7
        31.750
  21922577.834   115203898.914 6        46.500    21922586.334    89769268.036 8
        36.250
  21027816.300   110501941.816 7        50.500    21027821.780    86105414.230 8
        40.750
  20686338.822   108707457.790 7        51.250    20686345.842    84707113.658 9
        44.000
  24139561.880   126854253.326 4        38.000    24139566.700    98847476.750 6
        20.000
  23420127.384   123073604.075 6        45.000    23420130.444    95901510.040 7
        26.750
  21939507.074   115292903.959 7        49.500    21939514.974    89838630.141 8
        38.000
 18  2 21  8 27 30.0000000  0  8G02G05G06G07G09G16G23G30
  21806183.216   114592247.306 6        46.500    21806185.956    89292658.142 8
        36.750
  22682839.110   119199124.153 6        46.750    22682845.110    92882433.437 7
        31.250
  21938289.014   115286461.202 7        47.500    21938296.894    89833602.266 8
        36.000
  21020002.720   110460881.444 7        50.250    21020008.080    86073419.122 8
        40.250
  20695986.062   108758154.946 7        51.500    20695993.422    84746617.927 9
        43.750
  24141178.220   126862751.270 5        40.250    24141184.760    98854098.494 6
        19.000
  23436145.044   123157778.403 6        43.500    23436148.144    95967100.386 7
        27.250
  21922917.394   115205725.638 7        49.250    21922925.594    89770698.987 8
        38.500
 18  2 21  8 28  0.0000000  0  8G02G05G06G07G09G16G23G30
  21807111.976   114597128.745 7        47.500    21807114.916    89296461.846 8
        36.250
  22665723.510   119109179.576 6        46.500    22665728.830    92812346.776 7
        31.000
  21954075.354   115369420.852 7        47.750    21954084.134    89898246.130 8
        36.500
  21012284.460   110420323.385 7        50.750    21012290.340    86041815.444 8
        40.500
  20705692.482   108809162.491 8        52.500    20705699.702    84786364.060 9
        44.250
  24142913.200   126871865.732 5        40.250    24142919.480    98861200.674 6
        19.750
  23452185.804   123242070.809 6        43.000    23452188.604    96032782.766 7
        26.250
  21906395.694   115118903.271 7        49.250    21906403.434    89703045.218 8
        38.000
 18  2 21  8 28 30.0000000  0  8G02G05G06G07G09G16G23G30
  21808146.896   114602567.893 7        47.500    21808150.276    89300700.133 8
        36.750
  22648646.030   119019434.847 7        48.250    22648651.470    92742415.841 7
        31.750
  21969937.454   115452775.223 6        46.000    21969946.454    89963197.546 8
        37.000
  21004662.300   110380268.685 7        51.000    21004668.060    86010604.006 8
        40.500
  20715457.722   108860479.189 8        52.500    20715465.062    84826351.087 9
        44.250
  24144764.480   126881596.503 4        37.750    24144770.960    98868783.051 6
        19.500
  23468247.824   123326480.565 6        43.000    23468251.184    96098556.567 7
        26.750
  21889941.674   115032439.004 7        50.500    21889950.214    89635670.481 8
        38.750
 18  2 21  8 29  0.0000000  0  8G02G05G06G07G09G16G23G30
  21809288.116   114608564.982 7        47.750    21809291.456    89305373.177 8
        36.500
  22631606.970   118929892.346 7        49.500    22631611.630    92672642.465 7
        32.500
  21985874.194   115536521.794 7        47.250    21985882.414    90028454.593 8
        36.750
  20997136.080   110340718.573 7        50.500    20997141.480    85979785.745 8
        40.500
  20725281.682   108912104.103 7        51.000    20725289.182    84866578.281 9
        43.500
  24146733.600   126891943.796 5        39.750    24146739.160    98876845.822 6
        18.500
  23484333.104   123411006.888 6        42.500    23484336.144    96164421.214 6
        26.000
  21873556.556   114946335.258 7        49.000    21873564.916    89568576.677 8
        37.750
 18  2 21  8 29 30.0000000  0  8G02G05G06G07G09G16G23G30
  21810535.736   114615119.627 6        46.750    21810538.356    89310480.676 8
        36.250
  22614606.010   118840553.148 7        47.500    22614611.090    92603027.496 7
        32.500
  22001884.294   115620657.768 6        45.750    22001893.834    90094015.049 8
        37.000
  20989706.140   110301673.513 7        51.500    20989711.920    85949361.035 8
        40.500
  20735163.962   108964035.733 7        52.000    20735171.222    84907044.477 9
        43.750
  24148820.400   126902907.479 5        40.250    24148826.140    98885388.970 6
        20.000
  23500439.344   123495648.425 6        42.500    23500443.124    96230375.614 7
        26.500
  21857240.716   114860593.976 7        50.250    21857248.896    89501765.305 8
        38.250
 18  2 21  8 30  0.0000000  0  8G02G05G06G07G09G16G23G30
  21811888.656   114622231.298 7        47.500    21811891.196    89316022.220 8
        36.750
  22597644.350   118751419.630 6        46.250    22597649.450    92533572.813 7
        32.500
  22017969.154   115705180.418 6        47.000    22017977.694    90159876.810 8
        37.250
  20982372.642   110263134.438 7        52.000    20982377.922    85919330.600 9
        41.250
  20745104.202   109016272.966 8        52.500    20745111.482    84947748.819 9
        43.750
  24151024.340   126914487.410 5        40.000    24151029.720    98894412.250 6
        20.750
  23516568.224   123580404.234 6        43.750    23516571.424    96296419.082 7
        26.500
  21840994.316   114775217.378 7        48.500    21841002.016    89435238.110 8
        38.000
 18  2 21  8 30 30.0000000  0  8G02G05G06G07G09G16G23G30
  21813348.556   114629900.236 7        48.000    21813350.616    89321998.010 8
        36.500
  22580722.010   118662493.108 7        48.000    22580727.890    92464279.423 7
        33.000
  22034125.694   115790087.353 6        45.750    22034133.774    90226038.017 8
        36.250
  20975135.382   110225102.420 7        51.500    20975140.642    85889695.273 8
        40.750
  20755102.642   109068814.850 8        53.750    20755110.002    84988690.540 9
        43.250
  24153344.820   126926683.443 5        40.500    24153350.200    98903915.650 6
        19.250
  23532717.884   123665273.821 6        42.750    23532721.864    96362551.191 7
        26.750
  21824817.176   114690207.977 7        49.750    21824825.476    89368997.039 8
        38.000
 18  2 21  8 31  0.0000000  0  8G02G05G06G07G09G16G23G30
  21814913.316   114638126.190 6        46.250    21814916.396    89328407.830 8
        36.750
  22563839.630   118573776.210 7        47.250    22563845.330    92395149.390 7
        32.000
  22050355.694   115875375.879 6        47.000    22050364.374    90292496.564 8
        36.750
  20967994.722   110187578.474 7        51.250    20968000.362    85860455.834 8
        41.000
  20765158.862   109121660.206 8        52.500    20765166.022    85029868.732 9
        43.500
  24155782.680   126939495.180 5        39.500    24155787.860    98913898.808 6
        20.250
  23548890.324   123750256.260 6        42.750    23548893.244    96428771.245 6
        25.500
  21808710.876   114605567.961 7        49.500    21808719.276    89303043.817 8
        38.500
 18  2 21  8 31 30.0000000  0  8G02G05G06G07G09G16G23G30
  21816584.796   114646908.718 6        47.000    21816587.616    89335251.344 8
        36.000
  22546997.690   118485270.343 7        49.000    22547003.410    92326183.780 8
        33.500
  22066657.854   115961043.105 6        45.500    22066666.454    90359250.213 8
        36.000
  20960951.122   110150563.241 8        52.750    20960956.122    85831612.804 8
        40.750
  20775272.262   109174807.654 8        53.500    20775279.482    85071282.330 9
        43.500
  24158338.040   126952922.970 5        40.750    24158342.940    98924362.031 6
        19.750
  23565082.944   123835350.550 6        42.750    23565086.244    96495078.443 7
        26.500
  21792674.796   114521299.253 7        50.000    21792682.596    89237379.919 8
        38.250
 18  2 21  8 32  0.0000000  0  8G02G05G06G07G09G16G23G30
  21818361.656   114656247.397 6        47.000    21818364.596    89342528.224 8
        36.750
  22530196.190   118396977.875 7        47.500    22530201.570    92257384.456 7
        33.000
  22083031.234   116047086.410 6        46.750    22083039.474    90426296.891 8
        36.000
  20954004.282   110114057.724 7        52.000    20954009.262    85803166.965 8
        41.000
  20785443.302   109228256.099 8        53.500    20785450.422    85112930.457 9
        43.500
  24161010.200   126966966.157 5        40.500    24161015.520    98935304.737 6
        20.500
  23581297.004   123920555.814 6        42.750    23581300.724    96561472.112 6
        26.000
  21776710.236   114437404.091 7        49.500    21776718.616    89172007.109 8
        38.750
 18  2 21  8 32 30.0000000  0  8G02G05G06G07G09G16G23G30
  21820244.476   114666142.009 7        47.750    21820247.196    89350238.307 8
        36.000
  22513435.810   118308900.698 7        48.750    22513441.050    92188752.910 7
        32.000
  22099475.474   116133502.948 6        45.250    22099484.994    90493634.421 8
        35.750
  20947154.582   110078062.836 8        52.250    20947159.902    85775119.000 8
        40.500
  20795671.022   109282004.229 8        54.000    20795678.542    85154812.120 9
        43.000
  24163799.800   126981624.605 5        40.000    24163805.180    98946726.845 6
        19.500
  23597532.424   124005870.813 6        42.750    23597534.944    96627951.303 6
        25.500
  21760817.076   114353884.580 7        50.500    21760825.096    89106927.011 8
        38.000
 18  2 21  8 33  0.0000000  0  8G02G05G06G07G09G16G23G30
  21822233.376   114676592.643 7        48.000    21822236.416    89358381.646 8
        36.000
  22496716.350   118221040.259 7        48.750    22496721.810    92120290.237 8
        33.500
  22115991.334   116220290.456 6        46.750    22115999.454    90561260.984 8
        36.500
  20940402.442   110042579.441 7        51.750    20940407.802    85747469.616 8
        40.750
  20805956.162   109336051.257 8        53.000    20805963.082    85196926.669 9
        43.000
  24166706.720   126996898.376 5        40.250    24166711.680    98958628.514 6
        19.250
  23613787.224   124091295.158 6        43.000    23613791.384    96694515.683 6
        24.500
  21744995.636   114270743.224 7        49.750    21745003.556    89042141.584 8
        38.000
 18  2 21  8 33 30.0000000  0  8G02G05G06G07G09G16G23G30
  21824327.476   114687598.500 7        47.750    21824330.636    89366957.616 8
        36.000
  22480039.172   118133398.885 7        48.500    22480043.732    92051998.271 7
        33.000
  22132576.354   116307445.568 6        46.500    22132584.554    90629174.055 8
        36.000
  20933747.182   110007607.621 7        51.500    20933752.922    85720218.851 8
        41.000
  20816297.622   109390395.471 8        52.500    20816304.382    85239272.804 9
        43.250
  24169729.840   127012786.689 5        41.000    24169735.260    98971009.028 6
        20.000
  23630064.244   124176827.590 6        43.250    23630066.884    96761164.323 6
        25.250
  21729246.616   114187981.676 7        50.500    21729254.896    88977652.123 8
        38.750
 18  2 21  8 34  0.0000000  0  8G02G05G06G07G09G16G23G30
  21826527.736   114699159.131 7        48.750    21826530.796    89375965.888 8
        36.500
  22463403.572   118045978.451 7        48.500    22463408.192    91983878.461 8
        33.500
  22149230.794   116394965.735 6        46.000    22149239.834    90697371.524 8
        35.500
  20927189.962   109973148.451 7        51.000    20927195.382    85693367.560 8
        41.000
  20826695.262   109445035.758 8        52.750    20826702.342    85281849.643 9
        43.000
  24172869.800   127029289.361 5        39.500    24172875.120    98983868.275 6
        19.250
  23646360.424   124262467.447 6        44.000    23646364.784    96827896.620 7
        27.000
  21713570.516   114105602.024 7        51.500    21713578.336    88913460.240 8
        39.250
 18  2 21  8 34 30.0000000  0  8G02G05G06G07G09G16G23G30
  21828833.276   114711274.135 7        48.500    21828836.156    89385406.142 8
        36.500
  22446809.972   117958780.462 7        48.000    22446815.312    91915931.982 8
        33.500
  22165954.394   116482848.197 6        46.250    22165962.294    90765851.336 8
        36.000
  20920730.582   109939202.725 7        51.500    20920735.682    85666916.357 8
        41.000
  20837148.882   109499971.032 8        52.750    20837156.102    85324656.352 9
        42.750
  24176126.540   127046406.344 5        40.000    24176132.560    98997206.124 6
        19.000
  23662678.024   124348213.535 6        44.000    23662680.904    96894711.731 6
        24.500
  21697967.296   114023606.544 7        51.250    21697975.076    88849567.679 8
        39.250
 18  2 21  8 35  0.0000000  0  8G02G05G06G07G09G16G23G30
  21831244.116   114723943.211 7        48.750    21831246.916    89395278.141 8
        36.000
  22430259.772   117871807.560 7        49.000    22430265.172    91848160.892 8
        33.500
  22182745.694   116571090.354 6        44.750    22182754.994    90834611.397 8
        35.000
  20914368.702   109905771.258 7        51.750    20914373.562    85640865.868 8
        40.500
  20847658.742   109555200.199 8        52.250    20847665.822    85367692.052 9
        42.500
  24179501.700   127064136.742 5        40.250    24179506.080    99011022.012 6
        20.500
  23679014.384   124434065.320 6        43.500    23679018.284    96961609.177 6
        25.250
  21682437.316   113941997.420 7        51.000    21682445.556    88785976.202 8
        39.500
 18  2 21  8 35 30.0000000  0  8G02G05G06G07G09G16G23G30
  21833760.116   114737165.978 7        49.250    21833763.256    89405581.582 8
        36.750
  22413752.332   117785061.694 7        49.250    22413757.852    91780566.718 7
        33.000
  22199606.632   116659689.348 6        47.000    22199615.072    90903649.519 8
        35.500
  20908104.822   109872854.809 7        51.250    20908109.982    85615216.687 8
        40.750
  20858224.482   109610722.105 7        52.000    20858231.402    85410955.858 9
        42.750
  24182992.840   127082480.617 5        40.250    24182997.360    99025315.954 6
        19.500
  23695372.142   124520021.717 6        43.250    23695374.902    97028588.150 7
        26.500
  21666981.696   113860776.761 7        51.500    21666989.556    88722687.412 8
        39.500
 18  2 21  8 36  0.0000000  0  8G02G05G06G07G09G16G23G30
  21836381.196   114750941.460 7        49.000    21836384.456    89416315.713 8
        36.000
  22397289.072   117698543.757 7        50.750    22397293.632    91713150.154 8
        34.000
  22216532.952   116748642.082 6        45.500    22216540.992    90972963.280 8
        35.000
  20901939.222   109840453.538 7        50.500    20901944.382    85589968.959 8
        40.750
  20868845.122   109666535.109 7        51.250    20868852.082    85454446.505 9
        42.750
  24186599.660   127101437.430 5        39.500    24186604.540    99040087.478 6
        19.500
  23711748.302   124606081.699 6        43.000    23711752.202    97095647.817 7
        26.750
  21651599.956   113779946.196 7        51.500    21651608.296    88659702.589 8
        39.750
 18  2 21  8 36 30.0000000  0  8G02G05G06G07G09G16G23G30
  21839108.036   114765269.953 7        48.500    21839111.396    89427480.769 8
        35.750
  22380868.972   117612256.852 7        49.500    22380873.752    91645913.599 8
        33.750
  22233527.212   116837946.402 6        46.750    22233536.172    91042551.015 8
        35.250
  20895871.582   109808568.873 7        50.000    20895876.822    85565123.768 8
        40.500
  20879521.522   109722638.714 7        51.000    20879528.502    85498163.589 9
        42.750
  24190322.900   127121006.512 4        38.500    24190328.640    99055336.078 6
        19.000
  23728144.822   124692244.892 6        42.250    23728148.962    97162787.935 6
        25.000
  21636293.276   113699508.506 7        51.750    21636301.556    88597023.892 8
        40.000
 18  2 21  8 37  0.0000000  0  8G02G05G06G07G09G16G23G30
  21841940.216   114780150.547 7        48.250    21841942.636    89439076.029 8
        36.250
  22364493.232   117526202.538 7        50.000    22364498.052    91578858.295 8
        34.000
  22250587.752   116927599.183 6        45.000    22250595.672    91112410.288 8
        35.000
  20889902.442   109777201.122 7        50.750    20889907.722    85540681.375 8
        40.500
  20890252.282   109779031.382 7        51.750    20890259.942    85542105.922 9
        42.000
  24194162.920   127141187.233 5        39.500    24194168.580    99071061.356 6
        19.250
  23744560.802   124778509.999 6        42.500    23744563.522    97230007.456 7
        26.500
  21621061.596   113619465.385 7        51.750    21621069.696    88534652.670 8
        40.000
 18  2 21  8 37 30.0000000  0  8G02G05G06G07G09G16G23G30
  21844876.916   114795582.408 7        49.000    21844879.276    89451100.847 8
        36.000
  22348162.192   117440382.585 7        49.000    22348167.592    91511985.609 8
        34.250
  22267713.592   117017597.538 6        46.500    22267721.952    91182538.849 8
        34.500
  20884032.022   109746350.837 7        50.750    20884037.142    85516642.196 8
        40.500
  20901038.202   109835711.845 7        50.750    20901045.222    85586272.504 9
        42.000
  24198119.820   127161979.440 4        38.250    24198125.560    99087263.060 5
        17.750
  23760995.122   124864876.228 5        40.750    23761000.042    97297305.779 6
        25.500
  21605905.356   113539818.733 8        52.750    21605913.416    88472590.360 8
        40.000
 18  2 21  8 38  0.0000000  0  8G02G05G06G07G09G16G23G30
  21847917.896   114811565.496 7        48.750    21847920.916    89463555.189 8
        36.500
  22331875.872   117354799.164 7        49.750    22331881.752    91445297.250 8
        34.750
  22284905.152   117107938.968 6        46.250    22284914.172    91252934.734 8
        35.500
  20878259.522   109716018.759 7        51.000    20878264.982    85493006.817 8
        41.000
  20911878.782   109892679.260 7        51.250    20911886.242    85630662.685 9
        43.000
  24202192.140   127183382.630 4        38.500    24202199.100    99103940.790 6
        18.250
  23777449.762   124951342.939 6        43.000    23777453.002    97364682.384 6
        25.500
  21590825.016   113460571.011 7        52.000    21590832.616    88410838.921 8
        39.250
 18  2 21  8 38 30.0000000  0  8G02G05G06G07G09G16G23G30
  21851064.016   114828099.083 7        48.750    21851066.956    89476438.498 8
        35.750
  22315635.332   117269454.469 7        49.500    22315641.492    91378794.886 8
        34.750
  22302161.212   117198620.517 6        45.500    22302170.212    91323595.655 8
        35.500
  20872586.562   109686205.642 7        51.000    20872591.622    85469775.831 8
        40.500
  20922773.822   109949932.270 7        51.500    20922781.362    85675275.404 9
        42.500
  24206381.700   127205396.202 5        39.500    24206388.300    99121094.215 6
        19.250
  23793922.362   125037909.102 6        42.250    23793926.702    97432136.520 7
        26.500
  21575820.778   113381724.073 8        53.000    21575828.758    88349399.781 8
        40.000
 18  2 21  8 39  0.0000000  0  8G02G05G06G07G09G16G23G30
  21854315.016   114845182.289 7        48.250    21854317.916    89489750.064 8
        36.000
  22299440.892   117184350.210 7        49.250    22299446.552    91312479.899 8
        34.500
  22319481.292   117289639.252 6        45.250    22319490.512    91394519.324 8
        35.000
  20867012.202   109656911.644 7        51.250    20867017.302    85446949.359 8
        40.500
  20933722.842   110007469.684 7        51.250    20933730.082    85720109.747 9
        42.750
  24210686.800   127228019.439 4        37.500    24210693.620    99138722.732 6
        19.250
  23810414.222   125124574.033 6        43.000    23810418.422    97499667.576 6
        25.000
  21560893.398   113303279.864 8        52.250    21560901.218    88288274.440 8
        39.500
 18  2 21  8 39 30.0000000  0  8G02G05G06G07G09G16G23G30
  21857670.156   114862814.728 7        48.000    21857673.676    89503489.612 8
        36.000
  22283291.812   117099488.684 7        49.000    22283297.472    91246354.028 8
        34.500
  22336865.652   117380992.447 6        44.000    22336875.332    91465703.573 8
        34.750
  20861536.482   109628137.574 7        50.750    20861541.702    85424528.010 8
        41.000
  20944725.822   110065290.359 7        51.750    20944733.302    85765164.814 9
        42.000
  24215107.240   127251252.022 4        37.500    24215112.780    99156825.992 5
        16.750
  23826924.442   125211336.789 6        42.750    23826928.002    97567274.885 6
        25.750
  21546042.998   113225240.449 8        52.500    21546050.638    88227464.545 8
        40.250
 18  2 21  8 40  0.0000000  0  8G02G05G06G07G09G16G23G30
  21861129.996   114880995.813 7        48.500    21861132.916    89517656.671 8
        35.750
  22267190.212   117014871.622 7        48.500    22267195.432    91180418.678 8
        34.750
  22354312.692   117472677.311 6        45.000    22354320.852    91537146.289 8
        34.750
  20856160.162   109599884.236 7        50.500    20856165.222    85402512.438 8
        41.000
  20955782.402   110123393.197 7        51.500    20955789.362    85810439.746 9
        42.500
  24219645.280   127275093.062 5        39.750    24219650.560    99175403.432 6
        19.750
  23843454.322   125298196.329 6        43.750    23843457.642    97634957.601 6
        25.750
  21531269.838   113147607.894 8        52.500    21531278.138    88166971.678 8
        40.000
 18  2 21  8 40 30.0000000  0  8G02G05G06G07G09G16G23G30
  21864694.016   114899724.694 7        48.000    21864697.736    89532250.588 8
        36.000
  22251134.592   116930500.777 7        48.500    22251140.492    91114675.158 8
        34.750
  22371822.092   117564690.841 6        45.000    22371831.532    91608845.092 8
        35.000
  20850882.682   109572151.517 7        51.000    20850888.082    85380902.535 8
        40.750
  20966892.562   110181776.833 7        51.500    20966899.542    85855933.482 9
        42.500
  24224298.140   127299541.846 4        38.500    24224303.820    99194454.402 6
        20.500
  23860000.722   125385151.995 6        42.250    23860004.362    97702715.208 6
        22.500
  21516574.678   113070383.979 8        52.250    21516582.278    88106797.239 8
        40.000
 18  2 21  8 41  0.0000000  0  8G02G05G06G07G09G16G23G30
  21868362.256   114919000.592 7        48.250    21868365.356    89547270.754 8
        36.000
  22235126.792   116846378.852 7        48.000    22235132.592    91049125.613 8
        34.500
  22389394.232   117657030.238 6        46.250    22389403.072    91680797.830 8
        35.000
  20845704.662   109544940.207 7        51.500    20845709.942    85359698.926 9
        41.250
  20978055.702   110240440.176 8        52.500    20978062.962    85901645.178 9
        42.500
  24229065.600   127324597.309 4        38.500    24229070.220    99213978.106 6
        19.750
  23876566.602   125472202.969 6        42.500    23876570.422    97770547.117 6
        24.000
  21501957.638   112993570.805 7        52.000    21501965.918    88046942.871 8
        40.500
 18  2 21  8 41 30.0000000  0  8G02G05G06G07G09G16G23G30
  21872133.936   114938822.935 7        48.000    21872137.716    89562716.726 8
        36.500
  22219166.432   116762506.904 7        48.500    22219172.132    90983770.854 8
        35.000
  22407027.012   117749692.948 6        45.250    22407035.212    91753002.498 8
        34.250
  20840625.922   109518251.122 7        51.000    20840631.422    85338902.244 8
        40.750
  20989272.020   110299382.296 7        52.000    20989279.380    85947574.093 9
        42.250
  24233949.120   127350259.578 4        37.500    24233953.220    99233974.678 6
        19.250
  23893149.422   125559348.693 5        41.250    23893152.582    97838452.827 6
        22.500
  21487418.878   112917170.519 8        52.500    21487427.198    87987410.220 8
        40.250
 18  2 21  8 42  0.0000000  0  8G02G05G06G07G09G16G23G30
  21876009.956   114959190.665 7        48.250    21876013.556    89578587.661 8
        36.000
  22203254.412   116678887.261 7        49.000    22203259.852    90918612.689 8
        35.250
  22424721.692   117842675.559 6        46.000    22424730.252    91825456.448 8
        35.000
  20835646.302   109492084.101 8        52.250    20835651.442    85318512.366 8
        41.000
  21000541.120   110358601.511 8        52.750    21000548.180    85993718.924 9
        41.750
  24238947.940   127376527.501 4        37.500    24238952.700    99254443.168 6
        18.250
  23909749.942   125646587.776 5        40.500    23909754.042    97906431.307 6
        23.000
  21472959.538   112841184.571 8        52.500    21472967.198    87928200.444 8
        40.500
 18  2 21  8 42 30.0000000  0  8G02G05G06G07G09G16G23G30
  21879989.496   114980103.422 7        47.500    21879993.196    89594883.292 8
        36.000
  22187390.832   116595522.724 7        48.750    22187395.972    90853653.319 8
        35.500
  22442476.172   117935975.521 6        44.750    22442484.112    91898157.676 8
        34.500
  20830766.462   109466439.925 7        51.500    20830771.482    85298529.903 8
        40.750
  21011862.780   110418097.005 7        51.500    21011870.080    86040079.036 9
        42.000
  24244061.160   127403399.798 3        36.500    24244066.420    99275382.594 6
        18.250
  23926369.082   125733919.563 5        41.000    23926372.482    97974481.980 6
        25.250
  21458578.878   112765615.188 7        52.000    21458586.738    87869315.225 8
        40.000
 18  2 21  8 43  0.0000000  0  8G02G05G06G07G09G16G23G30
  21884072.676   115001560.205 7        47.750    21884076.356    89611602.851 8
        35.750
  22171575.414   116512414.241 7        48.000    22171580.634    90788893.466 8
        35.000
  22460290.072   118029590.003 6        45.000    22460298.032    91971103.993 8
        34.500
  20825986.242   109441319.134 7        51.500    20825991.522    85278955.272 8
        40.750
  21023236.880   110477867.602 8        52.500    21023243.220    86086653.522 9
        42.250
  24249289.320   127430876.589 3        35.750    24249293.940    99296793.072 5
        16.250
  23943005.402   125821343.416 5        40.500    23943009.722    98042604.424 6
        22.750
  21444277.998   112690464.326 8        52.250    21444285.918    87810756.122 8
        40.250
 18  2 21  8 43 30.0000000  0  8G02G05G06G07G09G16G23G30
  21888259.734   115023560.600 7        48.500    21888262.774    89628746.006 8
        36.000
  22155809.734   116429564.713 7        48.500    22155815.114    90724335.392 8
        35.750
  22478163.532   118123516.181 6        45.500    22478172.492    92044293.186 8
        34.500
  20821305.602   109416722.360 7        51.500    20821310.922    85259788.966 8
        41.000
  21034662.840   110537912.258 8        52.500    21034670.280    86133441.556 9
        41.750
  24254633.000   127458956.227 4        37.250    24254637.440    99318673.281 5
        17.250
  23959659.682   125908858.593 5        42.000    23959662.562    98110798.015 6
        22.500
  21430057.798   112615734.046 7        52.000    21430065.198    87752524.751 8
        40.500
 18  2 21  8 44  0.0000000  0  8G02G05G06G07G09G16G23G30
  21892549.194   115046103.171 7        47.500    21892552.374    89646311.637 8
        35.750
  22140094.194   116346975.482 7        49.250    22140099.294    90659980.154 8
        36.000
  22496095.810   118217751.109 6        45.000    22496103.950    92117722.949 8
        34.000
  20816724.722   109392649.479 7        52.000    20816729.782    85241030.891 9
        41.500
  21046140.500   110598229.626 8        52.500    21046147.680    86180442.093 9
        42.000
  24260090.460   127487638.358 3        36.000    24260097.060    99341022.928 5
        17.750
  23976328.642   125996464.044 5        40.750    23976333.022    98179061.941 6
        22.250
  21415917.118   112541426.055 8        52.500    21415924.798    87694622.433 8
        40.500
 18  2 21  8 44 30.0000000  0  8G02G05G06G07G09G16G23G30
  21896941.534   115069187.385 7        48.500    21896945.054    89664299.322 8
        36.000
  22124427.534   116264648.733 7        47.250    22124433.014    90595829.430 8
        35.250
  22514086.450   118312291.840 6        45.250    22514094.710    92191391.051 8
        34.000
  20812243.482   109369100.911 7        51.000    20812248.862    85222681.368 8
        40.500
  21057670.320   110658818.603 7        51.750    21057677.860    86227654.262 9
        41.500
  24265663.920   127516921.830 4        38.000    24265668.920    99363841.201 6
        18.500
  23993017.460   126084158.909 5        40.500    23993021.320    98247395.586 6
        22.750
  21401857.298   112467542.280 7        51.750    21401865.058    87637050.662 8
        40.500
 18  2 21  8 45  0.0000000  0  8G02G05G06G07G09G16G23G30
  21901437.354   115092812.325 7        48.000    21901440.754    89682708.341 8
        36.000
  22108811.134   116182586.467 7        49.000    22108816.754    90531884.807 8
        35.750
  22532134.450   118407135.393 6        45.500    22532143.630    92265295.083 8
        34.000
  20807862.442   109346077.140 8        53.000    20807867.562    85204740.775 9
        41.250
  21069251.360   110719677.915 7        51.500    21069258.840    86275077.093 9
        41.750
  24271350.900   127546805.856 4        37.750    24271355.900    99387127.474 6
        18.500
  24009722.600   126171942.380 6        43.250    24009726.760    98315798.247 6
        22.000
  21387878.738   112394084.446 7        51.500    21387886.798    87579810.810 8
        40.500
 18  2 21  8 45 30.0000000  0  8G02G05G06G07G09G16G23G30
  21906035.594   115116977.075 7        47.250    21906039.574    89701538.006 8
        35.250
  22093245.674   116100790.860 7        48.500    22093251.394    90468147.977 8
        35.000
  22550240.070   118502279.093 6        45.500    22550248.470    92339432.992 8
        33.750
  20803581.222   109323578.720 8        52.500    20803586.442    85187209.545 9
        41.250
  21080883.780   110780806.642 8        52.750    21080891.480    86322709.855 9
        42.000
  24277150.720   127577289.528 4        37.500    24277157.420    99410880.938 6
        19.250
  24026443.780   126259813.977 5        41.000    24026447.860    98384269.583 6
        25.000
  21373981.918   112321054.737 8        52.500    21373989.418    87522904.551 8
        40.250
 18  2 21  8 46  0.0000000  0  8G02G05G06G07G09G16G23G30
  21910736.614   115141680.516 7        47.500    21910739.654    89720787.443 8
        35.000
  22077731.854   116019263.748 7        48.500    22077737.974    90404620.372 8
        34.750
  22568401.890   118597719.817 6        45.500    22568410.570    92413802.351 8
        34.250
  20799399.562   109301605.233 8        53.000    20799404.542    85170087.356 8
        40.500
  21092567.620   110842203.363 8        53.750    21092574.840    86370551.455 9
        41.750
  24283066.080   127608371.573 4        39.000    24283072.160    99435100.672 6
        19.500
  24043182.200   126347772.682 5        42.000    24043185.500    98452808.793 6
        23.250
  21360166.698   112248454.659 7        51.500    21360174.558    87466333.070 8
        40.750
 18  2 21  8 46 30.0000000  0  8G02G05G06G07G09G16G23G30
  21915540.454   115166921.859 7        48.000    21915543.054    89740456.016 8
        35.500
  22062268.674   115938006.882 7        48.750    22062275.014    90341303.355 8
        35.250
  22586619.590   118693454.603 6        45.250    22586628.190    92488400.851 8
        34.500
  20795318.222   109280157.344 8        52.500    20795323.302    85153374.723 8
        41.000
  21104301.880   110903866.903 8        52.500    21104309.360    86418600.959 9
        42.000
  24289095.078   127640051.305 5        39.250    24289100.098    99459786.169 6
        18.500
  24059936.060   126435817.835 5        41.250    24059939.120    98521415.362 6
        22.500
  21346433.058   112176286.117 8        52.250    21346440.898    87410097.859 8
        40.750
 18  2 21  8 47  0.0000000  0  8G02G05G06G07G09G16G23G30
  21920445.894   115192700.454 7        48.250    21920448.994    89760543.229 8
        35.000
  22046858.734   115857022.526 7        49.250    22046864.354    90278198.659 8
        36.000
  22604892.770   118789481.114 6        44.500    22604901.870    92563226.656 8
        33.750
  20791337.002   109259235.868 8        52.250    20791341.762    85137072.283 8
        41.000
  21116086.480   110965796.692 8        52.250    21116093.700    86466857.929 9
        41.500
  24295236.678   127672328.059 4        38.500    24295242.158    99484936.876 5
        17.750
  24076706.540   126523948.337 5        41.500    24076711.280    98590088.440 6
        22.500
  21332782.518   112104551.469 7        51.500    21332790.778    87354200.737 9
        41.250
 18  2 21  8 47 30.0000000  0  8G02G05G06G07G09G16G23G30
  21925453.034   115219014.595 7        48.000    21925455.994    89781047.756 8
        35.500
  22031500.574   115776313.400 7        49.500    22031505.314    90215308.433 8
        36.000
  22623220.670   118885795.646 6        45.000    22623229.550    92638276.896 8
        33.500
  20787455.822   109238840.293 8        52.500    20787460.962    85121179.614 9
        41.250
  21127921.740   111027990.778 8        53.000    21127929.240    86515320.841 9
        42.250
  24301491.918   127705200.544 4        37.500    24301497.558    99510551.771 6
        18.250
  24093493.780   126612163.241 5        42.000    24093497.280    98658827.299 6
        22.750
  21319214.638   112033251.700 8        53.000    21319223.258    87298642.483 9
        41.500
 18  2 21  8 48  0.0000000  0  8G02G05G06G07G09G16G23G30
  21930562.394   115245863.906 7        47.500    21930565.234    89801969.289 8
        35.250
  22016194.934   115695881.336 7        50.000    22016199.914    90152634.092 8
        35.750
  22641603.190   118982395.904 6        45.500    22641611.950    92713549.806 8
        33.500
  20783674.882   109218971.545 7        51.750    20783679.862    85105697.485 8
        40.750
  21139807.060   111090448.685 8        52.500    21139814.700    86563989.321 9
        42.500
  24307859.998   127738667.348 3        37.000    24307865.578    99536629.757 5
        17.250
  24110297.000   126700462.548 6        42.500    24110300.740    98727631.893 6
        23.250
  21305729.798   111962389.317 7        52.000    21305738.038    87243425.044 9
        41.250
 18  2 21  8 48 30.0000000  0  8G02G05G06G07G09G16G23G30
  21935773.554   115273247.536 7        48.000    21935776.434    89823307.164 8
        35.250
  22000941.674   115615727.691 7        48.750    22000947.274    90090176.692 8
        36.500
  22660039.290   119079279.023 6        44.500    22660048.570    92789043.094 8
        33.250
  20779994.662   109199629.764 7        51.750    20779999.702    85090625.970 8
        41.000
  21151742.260   111153169.235 8        52.250    21151749.560    86612862.463 9
        41.250
  24314341.778   127772727.739 3        36.000    24314346.818    99563170.299 5
        17.250
  24127114.880   126788845.163 5        41.750    24127119.560    98796501.396 6
        22.000
  21292328.818   111891966.072 7        52.000    21292337.378    87188549.803 9
        42.000
 18  2 21  8 49  0.0000000  0  8G02G05G06G07G09G16G23G30
  21941085.834   115301163.769 7        48.000    21941088.774    89845060.056 8
        35.750
  21985742.634   115535854.972 7        50.500    21985748.174    90027938.200 8
        36.750
  22678528.510   119176441.442 6        43.750    22678536.910    92864754.039 7
        32.250
  20776413.502   109180814.462 8        53.000    20776418.862    85075964.695 8
        41.000
  21163727.380   111216150.730 7        52.000    21163734.680    86661938.947 9
        41.500
  24320936.418   127807380.121 4        38.500    24320941.778    99590172.126 6
        19.000
  24143949.560   126877310.010 6        43.250    24143952.920    98865435.028 6
        21.500
  21279011.940   111821983.207 8        53.000    21279020.020    87134017.706 8
        41.000
 18  2 21  8 49 30.0000000  0  8G02G05G06G07G09G16G23G30
  21946499.494   115329612.040 7        47.500    21946501.914    89867227.528 8
        35.000
  21970596.534   115456264.617 7        48.000    21970602.454    89965919.744 8
        36.250
  22697070.850   119273880.759 6        45.000    22697080.410    92940680.724 7
        32.750
  20772933.542   109162526.481 7        51.000    20772938.902    85061714.329 8
        40.750
  21175762.080   111279392.521 8        52.500    21175769.280    86711218.249 9
        41.750
  24327642.858   127842623.907 3        36.750    24327648.918    99617634.829 6
        19.250
  24160799.500   126965856.824 6        43.000    24160803.820    98934432.488 6
        22.750
  21265778.700   111752442.878 8        53.250    21265786.460    87079830.445 9
        41.250
 18  2 21  8 50  0.0000000  0  8G02G05G06G07G09G16G23G30
  21952013.814   115358590.820 7        48.000    21952016.734    89889808.375 8
        36.000
  21955505.334   115376959.757 7        48.000    21955511.334    89904123.770 8
        36.000
  22715664.810   119371593.753 6        45.250    22715674.270    93016820.701 7
        32.500
  20769554.022   109144765.657 7        52.000    20769558.862    85047874.730 8
        40.750
  21187845.600   111342893.266 7        51.750    21187852.680    86760699.343 9
        41.500
  24334461.918   127878458.070 4        37.250    24334467.498    99645557.521 6
        19.500
  24177664.380   127054483.872 6        43.250    24177668.720    99003492.468 6
        23.000
  21252630.220   111683346.740 8        53.250    21252638.220    87025989.302 8
        41.000
 18  2 21  8 50 30.0000000  0  8G02G05G06G07G09G16G23G30
  21957629.414   115388099.179 7        48.000    21957631.634    89912801.893 8
        36.000
  21940468.914   115297941.964 7        49.000    21940474.754    89842551.474 8
        36.000
  22734310.570   119469577.728 6        45.000    22734319.330    93093171.801 7
        32.250
  20766274.402   109127532.246 8        52.250    20766279.302    85034446.122 8
        40.750
  21199978.680   111406651.938 7        51.500    21199985.820    86810381.420 9
        42.000
  24341392.478   127914880.900 3        37.000    24341398.858    99673938.918 6
        19.250
  24194545.760   127143191.264 6        42.750    24194548.440    99072615.059 6
        24.000
  21239566.080   111614696.583 7        51.750    21239573.760    86972495.680 9
        41.500
 18  2 21  8 51  0.0000000  0  8G02G05G06G07G09G16G23G30
  21963344.754   115418136.166 6        46.750    21963347.914    89936207.327 8
        36.000
  21925487.534   115219213.070 7        49.250    21925492.634    89781204.281 8
        36.500
  22753007.290   119567829.597 6        44.500    22753016.790    93169731.683 7
        33.000
  20763095.282   109110826.517 7        51.000    20763100.582    85021428.673 9
        41.500
  21212160.580   111470667.401 7        51.750    21212167.420    86860263.594 8
        41.000
  24348435.558   127951891.434 3        36.750    24348441.618    99702778.252 5
        17.750
  24211440.740   127231978.142 6        42.250    24211445.620    99141799.591 6
        21.750
  21226587.760   111546494.097 8        52.750    21226595.840    86919350.894 9
        41.750
 18  2 21  8 51 30.0000000  0  8G02G05G06G07G09G16G23G30
  21969160.934   115448700.240 6        46.750    21969163.934    89960023.469 8
        35.750
  21910561.434   115140775.178 7        49.250    21910566.854    89720083.852 8
        36.500
  22771754.730   119666346.427 6        44.500    22771763.770    93246497.991 7
        32.500
  20760016.762   109094648.399 7        51.500    20760021.842    85008822.348 8
        40.500
  21224390.620   111534938.429 7        51.750    21224398.020    86910344.903 9
        41.750
  24355590.378   127989488.832 4        37.500    24355595.198    99732074.910 6
        18.500
  24228350.720   127320843.522 5        41.500    24228355.160    99211045.268 6
        22.750
  21213694.420   111478740.956 8        52.750    21213702.880    86866556.239 9
        42.000
 18  2 21  8 52  0.0000000  0  8G02G05G06G07G09G16G23G30
  21975077.674   115479790.533 6        46.750    21975080.314    89984249.644 8
        35.000
  21895690.874   115062630.152 7        49.000    21895695.874    89659191.612 8
        36.500
  22790551.888   119765125.234 6        45.250    22790559.708    93323468.464 7
        32.750
  20757038.862   109078997.994 7        51.750    20757043.642    84996627.235 9
        41.250
  21236669.120   111599463.930 7        51.500    21236676.920    86960624.499 8
        41.000
  24362855.958   128027671.565 3        37.000    24362861.698    99761827.664 6
        18.500
  24245276.780   127409786.705 5        42.000    24245280.720    99280351.595 6
        23.750
  21200887.420   111411438.858 8        53.000    21200895.800    86814113.061 9
        41.750
 18  2 21  8 52 30.0000000  0  8G02G05G06G07G09G16G23G30
  21981093.434   115511405.917 6        47.000    21981096.754    90008885.008 8
        35.500
  21880876.596   114984780.472 7        50.000    21880881.216    89598529.526 8
        36.000
  22809397.628   119864163.380 6        45.250    22809408.088    93400641.010 7
        32.750
  20754161.102   109063875.526 8        52.250    20754165.982    84984843.498 8
        41.000
  21248996.520   111664243.041 7        51.250    21249003.860    87011101.712 8
        40.750
  24370233.718   128066437.849 4        38.250    24370238.978    99792035.125 6
        19.000
  24262216.920   127498807.161 5        41.750    24262220.800    99349718.121 6
        26.000
  21188166.740   111344589.799 8        53.250    21188175.000    86762022.887 9
        41.750
 18  2 21  8 53  0.0000000  0  8G02G05G06G07G09G16G23G30
  21987209.674   115543544.952 6        46.250    21987212.554    90033928.412 8
        35.250
  21866118.796   114907228.262 7        49.500    21866123.836    89538099.238 8
        36.250
  22828293.628   119963457.517 6        45.750    22828301.708    93478013.017 7
        33.000
  20751383.822   109049280.882 8        52.500    20751388.842    84973471.046 8
        40.500
  21261371.480   111729274.307 7        51.250    21261378.820    87061775.412 8
        40.500
  24377721.118   128105786.743 4        38.000    24377726.738    99822696.584 6
        18.250
  24279171.840   127587903.733 6        42.250    24279176.100    99419143.952 6
        24.250
  21175532.080   111278195.040 8        53.000    21175540.200    86710286.720 9
        41.750
 18  2 21  8 53 30.0000000  0  8G02G05G06G07G09G16G23G30
  21993424.714   115576206.421 6        46.000    21993427.674    90059378.902 8
        36.000
  21851417.876   114829975.756 7        49.500    21851423.316    89477902.476 8
        36.500
  22847236.608   120063004.973 6        45.750    22847245.368    93555582.453 8
        33.750
  20748706.922   109035214.279 7        52.000    20748711.942    84962510.057 8
        40.750
  21273794.340   111794556.840 7        50.250    21273801.320    87112644.910 8
        40.000
  24385319.518   128145716.875 4        37.750    24385325.258    99853810.957 5
        17.750
  24296139.778   127677076.041 5        41.500    24296144.918    99488628.808 6
        23.000
  21162984.000   111212256.500 8        52.500    21162992.420    86658906.043 9
        41.500
 18  2 21  8 54  0.0000000  0  8G02G05G06G07G09G16G23G30
  21999739.854   115609389.056 7        47.750    21999742.074    90085235.515 8
        35.500
  21836774.516   114753024.172 7        49.250    21836780.296    89417940.209 8
        36.000
  22866227.568   120162802.563 6        46.500    22866237.088    93633346.740 8
        33.500
  20746130.502   109021675.639 8        52.500    20746135.642    84951960.467 8
        40.750
  21286264.618   111860089.269 7        51.750    21286272.338    87163709.130 8
        40.250
  24393029.238   128186227.231 4        38.000    24393034.418    99885377.468 6
        18.250
  24313124.238   127766323.062 5        41.750    24313127.978    99558171.921 6
        22.000
  21150523.440   111146775.597 8        53.500    21150531.900    86607881.971 9
        41.500
 18  2 21  8 54 30.0000000  0  8G02G05G06G07G09G16G23G30
  22006152.574   115643091.924 6        47.000    22006155.734    90111497.476 8
        36.000
  21822189.176   114676375.836 7        50.500    21822194.216    89358214.239 8
        36.500
  22885266.208   120262847.416 6        45.500    22885273.808    93711303.750 7
        32.000
  20743654.942   109008664.983 8        53.000    20743659.942    84941822.296 8
        40.500
  21298782.658   111925870.676 8        52.250    21298789.538    87214967.355 8
        40.000
  24400848.158   128227316.411 4        37.750    24400853.178    99917394.968 6
        19.000
  24330121.058   127855644.267 5        42.000    24330125.118    99627772.751 6
        22.750
  21138150.780   111081754.100 8        52.250    21138158.520    86557215.876 9
        42.000
 18  2 21  8 55  0.0000000  0  8G02G05G06G07G09G16G23G30
  22012664.614   115677313.149 6        46.500    22012668.014    90138163.363 8
        35.250
  21807661.256   114600032.843 7        50.750    21807666.336    89298726.188 8
        37.000
  22904349.968   120363136.570 6        45.500    22904358.688    93789451.116 7
        32.500
  20741279.082   108996182.012 8        53.000    20741284.762    84932095.311 8
        41.000
  21311347.358   111991899.797 7        51.000    21311354.538    87266418.612 8
        40.250
  24408776.878   128268982.497 4        37.750    24408781.478    99949862.038 6
        19.000
  24347131.998   127945038.666 5        41.250    24347135.898    99697430.685 6
        21.000
  21125864.940   111017193.519 8        52.500    21125872.980    86506908.940 9
        42.000
 18  2 21  8 55 30.0000000  0  8G02G05G06G07G09G16G23G30
  22019275.314   115712051.858 6        46.000    22019278.274    90165232.462 8
        35.250
  21793192.276   114523997.598 7        50.750    21793197.276    89239477.946 8
        36.500
  22923480.548   120463667.010 6        45.000    22923489.728    93867786.492 7
        32.750
  20739004.302   108984226.950 8        52.500    20739009.622    84922779.679 9
        41.250
  21323959.658   112058175.629 7        51.750    21323966.638    87318062.111 8
        40.250
  24416813.978   128311224.340 4        37.250    24416820.578    99982777.700 6
        18.500
  24364156.998   128034505.734 5        41.250    24364161.558    99767145.200 6
        22.500
  21113667.580   110953095.526 8        53.000    21113675.860    86456962.454 9
        42.000
 18  2 21  8 56  0.0000000  0  8G02G05G06G07G09G16G23G30
  22025984.554   115747306.498 7        47.250    22025987.034    90192703.598 8
        35.000
  21778782.556   114448272.427 7        51.250    21778787.856    89180471.316 8
        36.750
  22942655.928   120564435.991 6        44.750    22942662.948    93946307.746 7
        31.250
  20736829.902   108972799.739 8        52.750    20736834.722    84913875.361 9
        41.500
  21336618.298   112124697.165 8        52.500    21336625.678    87369897.058 8
        40.500
  24424962.038   128354040.330 4        38.250    24424967.818   100016140.803 6
        18.500
  24381196.478   128124044.604 5        40.750    24381200.198    99836915.687 6
        21.750
  21101558.520   110889461.808 8        53.250    21101566.840    86407377.745 9
        41.500
 18  2 21  8 56 30.0000000  0  8G02G05G06G07G09G16G23G30
  22032790.674   115783075.743 6        46.750    22032793.474    90220575.714 8
        34.500
  21764431.216   114372859.168 7        50.750    21764437.176    89121707.740 8
        37.000
  22961876.688   120665440.447 6        45.000    22961886.328    94025012.509 7
        32.500
  20734755.722   108961900.659 8        52.750    20734760.782    84905382.569 8
        40.500
  21349323.398   112191463.276 8        52.250    21349330.478    87421922.583 8
        40.500
  24433220.258   128397429.435 4        38.750    24433224.618   100049950.456 6
        19.500
  24398247.258   128213654.722 4        38.000    24398252.698    99906741.698 6
        21.500
  21089537.980   110826293.930 7        51.750    21089545.900    86358156.022 9
        41.750
 18  2 21  8 57  0.0000000  0  8G02G05G06G07G09G16G23G30
  22039695.354   115819358.132 7        48.000    22039698.014    90248847.685 8
        35.500
  21750140.636   114297759.629 7        51.000    21750145.756    89063188.632 8
        37.000
  22981141.588   120766677.284 6        44.500    22981150.708    94103898.272 7
        31.750
  20732781.882   108951529.092 8        53.500    20732787.082    84897300.826 8
        41.000
  21362074.718   112258472.735 8        52.750    21362082.038    87474137.735 8
        41.000
  24441584.498   128441389.948 4        38.000    24441590.278   100084205.358 6
        18.250
  24415313.778   128303335.260 5        39.750    24415318.218    99976622.563 6
        22.750
  21077606.680   110763593.290 8        52.500    21077614.540    86309298.378 9
        41.750
 18  2 21  8 57 30.0000000  0  8G02G05G06G07G09G16G23G30
  22046696.874   115856152.237 7        48.000    22046699.574    90277518.409 8
        35.750
  21735910.096   114222976.158 7        51.500    21735915.296    89004915.794 8
        37.500
  23000448.668   120868143.763 6        44.000    23000457.408    94182963.048 7
        30.000
  20730908.622   108941685.131 8        53.000    20730913.862    84889630.212 9
        41.250
  21374872.638   112325724.674 8        52.500    21374879.678    87526541.830 9
        41.250
  24450058.218   128485920.404 4        37.750    24450063.478   100118904.415 6
        18.500
  24432392.698   128393085.541 5        39.750    24432397.058   100046557.805 6
        21.250
  21065764.100   110701361.673 7        52.000    21065772.100    86260806.211 9
        42.000
 18  2 21  8 58  0.0000000  0  9G02G05G06G07G09G13G16G23G30
  22053795.134   115893456.862 7        47.750    22053798.334    90306586.949 8
        35.250
  21721739.816   114148510.135 7        51.500    21721744.856    88946890.322 8
        37.000
  23019800.608   120969836.695 6        44.000    23019810.888    94262204.230 7
        31.500
  20729136.002   108932368.437 8        53.000    20729141.102    84882370.456 9
        41.250
  21387716.498   112393217.696 8        52.500    21387723.718    87579133.780 8
        41.000
  24695664.756   129776593.146 6        42.750

  24458640.098   128531018.892 5        39.250    24458645.858   100154046.031 5
        17.750
  24449484.958   128482904.875 5        40.000    24449489.198   100116546.839 6
        19.750
  21054011.720   110639600.342 8        52.500    21054019.480    86212680.503 9
        42.000
 18  2 21  8 58 30.0000000  0  9G02G05G06G07G09G13G16G23G30
  22060991.314   115931270.865 7        48.250    22060994.974    90336052.408 8
        35.000
  21707630.036   114074364.020 7        51.000    21707635.356    88889114.131 8
        37.000
  23039194.788   121071753.504 6        44.000    23039204.388    94341619.877 7
        30.750
  20727463.522   108923579.585 8        53.000    20727468.702    84875521.993 9
        41.500
  21400605.638   112460951.233 7        52.000    21400612.498    87631913.149 9
        41.500
  24676807.716   129677507.187 5        39.750

  24467329.838   128576684.864 4        38.500    24467335.958   100189629.893 6
        19.000
  24466589.638   128572792.633 5        40.500    24466595.158   100186589.172 6
        22.500
  21042348.800   110578311.263 8        53.000    21042356.480    86164922.783 9
        41.500
 18  2 21  8 59  0.0000000  0  9G02G05G06G07G09G13G16G23G30
  22068283.634   115969592.383 7        47.250    22068286.454    90365913.319 8
        34.750
  21693581.576   114000540.291 7        51.500    21693586.596    88831589.145 8
        37.000
  23058630.888   121173890.994 6        44.250    23058639.008    94421207.503 7
        30.500
  20725891.322   108915317.957 8        53.500    20725896.842    84869084.367 9
        41.250
  21413539.818   112528923.853 7        52.000    21413547.398    87684878.803 8
        40.500
  24657969.016   129578505.243 5        39.750

  24476127.578   128622916.264 4        38.750    24476133.618   100225654.291 5
        17.750
  24483707.798   128662748.172 5        40.000    24483712.438   100256684.289 6
        19.500
  21030775.800   110517495.657 8        53.500    21030783.680    86117534.001 9
        42.250
 18  2 21  8 59 30.0000000  0  9G02G05G06G07G09G13G16G23G30
  22075672.094   116008419.919 6        47.000    22075675.374    90396168.530 8
        33.750
  21679594.676   113927041.389 7        50.250    21679600.356    88774317.280 8
        37.000
  23078109.108   121276246.081 6        43.750    23078119.128    94500964.670 7
        31.250
  20724419.322   108907583.228 8        53.250    20724424.882    84863057.306 9
        41.500
  21426519.738   112597134.526 7        51.500    21426527.278    87738029.958 8
        40.500
  24639146.176   129479588.187 5        39.250

  24485033.758   128669711.236 5        39.750    24485038.938   100262117.907 5
        17.750
  24500838.498   128752770.821 5        41.500    24500842.918   100326831.834 6
        20.000
  21019293.360   110457154.988 8        52.750    21019301.000    86070515.302 9
        42.500
                            4  1
RINEX FILE SPLICE; other post-header comments skipped       COMMENT
 18  2 21  9  0  0.0000000  0  9G02G05G06G07G09G13G16G23G30
  22083156.874   116047751.774 6        47.000    22083160.194    90426816.708 8
        35.000
  21665670.676   113853868.686 7        50.500    21665675.916    88717299.601 8
        36.750
  23097626.686   121378815.742 6        43.250    23097635.266    94580889.010 7
        29.250
  20723047.822   108900375.108 8        53.000    20723053.022    84857440.598 8
        41.000
  21439545.318   112665581.928 7        51.500    21439552.478    87791365.588 8
        39.750
  24620338.376   129380756.504 3        36.500

  24494044.178   128717067.942 4        38.750    24494050.138   100299019.216 6
        19.250
  24517982.878   128842859.216 6        42.500    24517987.498   100397030.489 6
        24.000
  21007901.760   110397290.599 8        52.750    21007909.480    86023867.720 9
        42.250
 18  2 21  9  0 30.0000000  0  9G02G05G06G07G09G13G16G23G30
  22090737.114   116087586.805 6        46.250    22090739.914    90457856.984 8
        35.250
  21651809.336   113781023.689 7        51.000    21651814.156    88660537.276 8
        36.750
  23117185.986   121481596.963 6        44.000    23117195.346    94660978.257 7
        30.000
  20721776.522   108893693.622 8        53.500    20721781.922    84852234.245 9
        41.500
  21452615.218   112734265.147 7        52.000    21452622.478    87844884.961 8
        40.000
  24601548.976   129282011.342 5        39.500

  24503162.978   128764985.055 4        38.000    24503167.858   100336357.198 5
        17.250
  24535137.358   128933013.201 5        40.500    24535142.678   100467280.227 6
        19.500
  20996600.780   110337903.984 8        53.500    20996608.380    85977592.432 9
        42.000
 18  2 21  9  1  0.0000000  0  9G02G05G06G07G09G13G16G23G30
  22098413.054   116127922.884 6        46.750    22098415.794    90489287.686 8
        34.750
  21638010.396   113708509.050 7        52.000    21638015.116    88604032.350 8
        38.000
  23136784.046   121584586.690 6        43.750    23136793.766    94741229.914 7
        30.250
  20720605.122   108887538.139 8        53.750    20720610.202    84847437.765 9
        41.250
  21465729.698   112803182.824 7        51.750    21465737.178    87898587.027 8
        40.500
  24582773.418   129183352.804 4        37.250

  24512386.818   128813461.184 3        37.000    24512392.618   100374130.747 5
        16.750
  24552305.958   129023231.873 5        40.500    24552309.318   100537580.457 6
        19.000
  20985390.842   110278996.411 8        53.250    20985398.502    85931690.427 9
        42.500
 18  2 21  9  1 30.0000000  0  9G02G05G06G07G09G13G16G23G30
  22106183.494   116168758.947 6        45.750    22106186.654    90521107.969 8
        35.000
  21624274.456   113636326.968 8        52.500    21624279.056    88547786.568 8
        37.500
  23156421.726   121687782.294 6        45.500    23156429.826    94821642.039 7
        30.000
  20719533.882   108881909.077 8        53.250    20719539.242    84843051.482 9
        41.750
  21478889.158   112872334.356 7        51.000    21478895.738    87952471.325 8
        40.000
  24564016.718   129084782.485 4        38.500

  24521718.118   128862494.041 3        36.250    24521723.798   100412338.152 5
        17.250
  24569486.858   129113514.867 6        42.500    24569491.298   100607930.823 6
        23.250
  20974272.642   110220569.707 8        53.000    20974280.342    85886163.123 9
        42.500
 18  2 21  9  2  0.0000000  0  9G02G05G06G07G09G13G16G23G30
  22114049.494   116210093.477 6        45.000    22114052.654    90553316.675 8
        34.750
  21610602.256   113564479.744 7        51.250    21610607.156    88491801.714 8
        37.750
  23176097.326   121791180.598 6        43.500    23176107.426    94902212.076 7
        29.500
  20718562.742   108876805.536 8        53.500    20718567.902    84839074.699 8
        41.000
  21492092.278   112941718.403 7        51.000    21492100.038    88006536.805 8
        40.000
  24545276.078   128986300.822 4        37.250

  24531155.878   128912082.132 4        38.000    24531160.418   100450978.178 5
        17.750
  24586678.196   129203861.129 4        39.000    24586684.156   100678330.346 6
        20.500
  20963246.282   110162625.035 8        52.750    20963254.142    85841011.430 9
        42.000
 18  2 21  9  2 30.0000000  0  9G02G05G06G07G09G13G16G23G30
  22122009.574   116251924.603 6        46.000    22122012.274    90585912.347 8
        34.500
  21596994.256   113492969.172 7        51.000    21596999.316    88436079.201 8
        37.500
  23195811.846   121894778.452 6        44.500    23195820.706    94982937.631 7
        29.500
  20717691.802   108872227.446 8        53.750    20717696.762    84835507.358 9
        41.750
  21505339.538   113011333.831 7        51.250    21505347.178    88060782.565 8
        39.500
  24526552.898   128887908.407 4        38.500    24526559.638   100432136.089 6
        19.500
  24540696.138   128962223.983 4        38.000    24540702.518   100490049.756 6
        18.500
  24603883.836   129294269.994 5        42.000    24603886.556   100748778.724 5
        16.750
  20952311.802   110105163.710 8        53.250    20952319.562    85796236.372 9
        43.000
 18  2 21  9  3  0.0000000  0  8G02G05G06G07G09G13G23G30
  22130064.354   116294250.957 6        46.250    22130067.134    90618893.906 8
        34.500
  21583450.418   113421797.423 7        51.500    21583455.418    88380620.695 8
        37.750
  23215563.326   121998573.243 6        43.500    23215572.106    95063816.613 7
        29.750
  20716920.262   108868174.708 8        53.000    20716925.862    84832349.378 9
        41.500
  21518630.718   113081179.816 7        50.000    21518638.378    88115207.985 8
        39.000
  24507846.258   128789606.378 4        38.500    24507852.158   100355537.176 5
        17.750
  24621099.476   129384740.496 5        41.500    24621103.616   100819275.356 6
        22.000
  20941469.682   110048187.378 8        53.250    20941477.082    85751839.232 9
        42.250
 18  2 21  9  3 30.0000000  0  8G02G05G06G07G09G13G23G30
  22138212.774   116337070.652 6        47.000    22138215.634    90652259.873 8
        34.500
  21569972.338   113350966.263 7        52.000    21569977.398    88325427.573 8
        38.000
  23235352.006   122102561.674 6        44.250    23235360.526    95144846.549 7
        29.500
  20716249.062   108864646.677 8        53.000    20716254.122    84829600.267 9
        41.250
  21531965.458   113151255.038 7        50.500    21531973.638    88169812.051 8
        39.250
  24489157.538   128691395.155 4        38.250    24489163.338   100279008.970 6
        20.000
  24638325.656   129475272.342 3        36.000    24638332.376   100889819.431 6
        20.500
  20930719.982   109991697.134 8        53.750    20930727.502    85707820.865 9
        42.500
 18  2 21  9  4  0.0000000  0  8G02G05G06G07G09G13G23G30
  22146454.514   116380382.048 6        45.250    22146457.294    90686008.982 8
        34.750
  21556557.958   113280477.779 7        50.750    21556563.978    88270501.488 8
        37.500
  23255176.446   122206741.028 6        44.000    23255185.146    95226025.216 7
        29.250
  20715677.402   108861643.458 8        52.250    20715682.742    84827260.091 9
        41.500
  21545344.358   113221558.726 7        51.750    21545351.618    88224594.117 8
        39.500
  24470485.718   128593275.689 4        38.250    24470492.438   100202552.315 6
        20.500
  24655566.496   129565865.057 6        42.250    24655571.516   100960411.001 6
        21.000
  20920062.782   109935694.573 8        52.750    20920070.822    85664182.508 9
        42.750
 18  2 21  9  4 30.0000000  0  7G02G05G06G07G09G13G30
  22154789.214   116424184.016 7        47.250    22154792.194    90720140.367 8
        34.500
  21543210.398   113210334.438 7        51.250    21543216.058    88215844.347 8
        38.000
  23275037.346   122311108.655 6        45.000    23275046.226    95307350.594 7
        30.000
  20715205.582   108859164.492 8        52.750    20715211.382    84825328.421 9
        42.000
  21558766.038   113292090.094 7        51.500    21558773.878    88279553.601 8
        39.750
  24451832.198   128495249.080 4        39.000    24451838.438   100126167.954 6
        19.750
  20909499.062   109880181.346 8        53.750    20909506.722    85620925.447 9
        42.750
 18  2 21  9  5  0.0000000  0  7G02G05G06G07G09G13G30
  22163218.234   116468474.795 7        47.250    22163221.094    90754652.640 8
        34.500
  21529928.558   113140538.594 7        51.000    21529933.698    88161457.977 8
        37.500
  23294932.966   122415661.600 6        44.000    23294941.726    95388820.366 7
        29.500
  20714833.822   108857209.924 8        53.250    20714839.522    84823805.381 8
        40.750
  21572230.598   113362848.096 7        50.750    21572238.438    88334689.704 8
        39.750
  24433195.678   128397316.622 5        39.750    24433202.198   100049857.018 6
        20.750
  20899028.482   109825158.754 8        54.000    20899036.582    85578050.709 9
        43.250
 18  2 21  9  5 30.0000000  0  7G02G05G06G07G09G13G30
  22171739.114   116513252.246 6        47.000    22171741.814    90789544.137 8
        34.500
  21516713.658   113071092.302 7        50.750    21516718.798    88107343.984 8
        37.750
  23314863.726   122520396.407 6        45.500    23314872.246    95470431.877 7
        31.000
  20714561.342   108855778.760 8        52.250    20714566.662    84822690.184 8
        41.000
  21585737.996   113433831.270 7        51.000    21585745.836    88390001.246 8
        39.000
  24414578.238   128299478.314 4        38.000    24414584.678    99973619.451 6
        21.750
  20888651.422   109770627.682 8        53.000    20888659.802    85535558.966 9
        43.000
 18  2 21  9  6  0.0000000  0  7G02G05G06G07G09G13G30
  22180351.834   116558514.904 7        47.750    22180354.754    90824813.727 8
        34.500
  21503565.198   113001997.333 7        51.000    21503570.458    88053503.750 8
        37.750
  23334827.946   122625310.268 6        43.000    23334837.626    95552182.852 7
        29.000
  20714388.562   108854870.697 8        53.000    20714394.202    84821982.607 9
        41.500
  21599288.556   113505038.696 7        50.500    21599296.256    88445487.534 8
        39.500
  24395977.598   128201734.901 5        39.750    24395984.418    99897455.808 6
        19.750
  20878368.342   109716589.537 8        53.500    20878376.122    85493451.319 9
        43.000
 18  2 21  9  6 30.0000000  0  7G02G05G06G07G09G13G30
  22189057.232   116604260.671 6        47.000    22189060.352    90860459.744 8
        34.500
  21490484.318   112933255.468 7        51.000    21490489.218    87999938.668 8
        38.000
  23354826.346   122730399.714 6        45.000    23354833.786    95634070.711 7
        29.000
  20714315.222   108854485.083 8        52.250    20714320.642    84821682.112 8
        40.750
  21612881.396   113576468.890 7        51.500    21612889.056    88501147.413 8
        39.250
  24377396.238   128104086.904 5        39.250    24377402.058    99821366.474 6
        20.000
  20868179.302   109663045.148 8        53.500    20868187.062    85451728.428 9
        42.500
 18  2 21  9  7  0.0000000  0  7G02G05G06G07G09G13G30
  22197853.712   116650487.597 7        47.500    22197856.772    90896480.707 8
        34.500
  21477470.658   112864868.273 7        51.250    21477475.698    87946649.945 8
        38.250
  23374856.306   122835661.934 6        43.500    23374866.186    95716093.167 7
        28.750
  20714341.082   108854621.320 8        53.000    20714346.562    84821788.266 9
        41.250
  21626516.176   113648120.870 7        50.750    21626523.876    88556980.084 8
        38.750
  24358832.298   128006535.366 5        40.000    24358838.678    99745352.332 6
        19.000
  20858084.082   109609995.836 8        52.500    20858092.462    85410391.304 9
        43.000
 18  2 21  9  7 30.0000000  0  7G02G05G06G07G09G13G30
  22206741.492   116697194.155 6        46.250    22206745.032    90932875.389 8
        33.250
  21464524.738   112796837.745 8        52.250    21464529.718    87893639.142 8
        38.000
  23394920.684   122941094.026 6        45.250    23394927.764    95798248.038 7
        28.500
  20714466.442   108855279.043 8        52.500    20714471.802    84822300.777 9
        41.250
  21640193.336   113719993.767 7        50.000    21640200.876    88612984.934 8
        39.250
  24340287.578   127909081.007 5        41.000    24340294.818    99669413.888 6
        20.750
  20848083.922   109557442.980 8        53.000    20848092.062    85369441.033 9
        43.000
 18  2 21  9  8  0.0000000  0  7G02G05G06G07G09G13G30
  22215720.492   116744378.698 6        47.000    22215723.332    90969642.530 8
        34.250
  21451647.718   112729167.418 7        52.000    21451652.478    87840909.025 8
        38.250
  23415013.544   123046693.194 6        42.500    23415023.884    95880533.038 7
        28.000
  20714690.842   108856458.351 8        54.000    20714696.262    84823219.719 8
        41.000
  21653912.176   113792086.589 7        50.750    21653919.636    88669161.137 8
        39.250
  24321761.658   127811724.682 5        39.250    24321766.798    99593551.793 6
        19.250
  20838178.102   109505387.865 8        53.250    20838186.142    85328878.603 9
        42.500
 18  2 21  9  8 30.0000000  0  7G02G05G06G07G09G13G30
  22224789.912   116792039.148 6        46.500    22224793.392    91006780.504 8
        34.000
  21438838.978   112661858.472 7        51.500    21438844.278    87788460.494 8
        38.000
  23435141.664   123152455.906 6        44.500    23435149.024    95962945.533 7
        29.250
  20715013.942   108858157.754 8        53.000    20715019.362    84824543.927 9
        41.250
  21667672.556   113864397.987 7        49.500    21667679.976    88725507.665 8
        38.250
  24303253.658   127714466.893 5        40.500    24303260.138    99517766.518 6
        21.250
  20828367.242   109453831.361 8        53.250    20828375.282    85288704.712 9
        42.750
 18  2 21  9  9  0.0000000  0  7G02G05G06G07G09G13G30
  22233950.172   116840173.578 6        46.500    22233952.812    91044287.830 8
        33.500
  21426099.718   112594912.818 7        52.000    21426104.878    87736295.043 8
        38.250
  23455296.464   123258379.617 6        42.500    23455306.284    96045483.398 7
        27.000
  20715436.442   108860377.197 8        52.500    20715442.382    84826273.359 8
        40.750
  21681474.116   113936927.067 7        49.500    21681481.936    88782023.812 8
        38.500
  24284765.138   127617308.389 5        40.250    24284770.538    99442058.594 6
        19.750
  20818651.262   109402774.800 8        53.000    20818659.262    85248920.385 9
        43.000
 18  2 21  9  9 30.0000000  0  7G02G05G06G07G09G13G30
  22243199.752   116888779.970 6        46.500    22243202.612    91082162.896 8
        33.500
  21413430.018   112528332.233 7        52.000    21413435.478    87684414.072 8
        39.000
  23475484.264   123364460.824 6        43.500    23475493.904    96128144.076 7
        29.750
  20715957.642   108863115.937 8        52.750    20715963.082    84828407.443 9
        41.250
  21695317.296   114009672.586 7        48.750    21695324.696    88838708.606 8
        38.750
  24266295.940   127520250.012 5        40.750    24266301.200    99366428.745 6
        21.500
  20809030.942   109352219.117 8        53.500    20809038.942    85209526.345 9
        43.000
 18  2 21  9 10  0.0000000  0  7G02G05G06G07G09G13G30
  22252538.812   116937857.724 6        45.500    22252541.792    91120405.258 8
        33.750
  21400829.818   112462119.695 7        51.750    21400835.538    87632819.885 8
        38.750
  23495699.984   123470697.919 6        43.000    23495708.124    96210926.130 7
        28.500
  20716577.562   108866374.553 8        52.750    20716583.122    84830946.624 9
        41.500
  21709201.676   114082634.563 7        49.750    21709208.696    88895562.067 8
        38.750
  24247845.660   127423293.155 5        41.500    24247851.300    99290877.996 6
        21.500
  20799506.242   109302166.528 8        52.750    20799514.282    85170524.334 9
        43.000
 18  2 21  9 10 30.0000000  0  7G02G05G06G07G09G13G30
  22261966.672   116987403.644 6        45.500    22261970.172    91159012.415 8
        33.500
  21388300.438   112396276.652 8        52.750    21388306.018    87581513.617 8
        38.750
  23515945.504   123577086.827 6        42.500    23515955.044    96293826.598 7
        28.500
  20717296.482   108870151.287 8        52.500    20717301.922    84833889.533 8
        41.000
  21723126.416   114155811.095 7        49.000    21723134.376    88952582.725 8
        39.000
  24229413.600   127326438.179 4        38.500    24229420.620    99215406.640 6
        20.250
  20790077.382   109252617.293 8        52.750    20790085.342    85131914.536 9
        42.750
 18  2 21  9 11  0.0000000  0  7G02G05G06G07G09G13G30
  22271483.892   117037415.525 6        46.250    22271487.132    91197982.673 8
        33.500
  21375841.578   112330804.838 7        51.500    21375846.858    87530496.627 8
        38.750
  23536218.444   123683624.082 6        42.250    23536227.264    96376842.545 7
        29.000
  20718113.482   108874444.953 8        53.750    20718118.722    84837235.249 8
        40.750
  21737092.396   114229200.513 7        48.750    21737100.236    89009769.265 8
        38.500
  24211002.800   127229685.110 5        39.750    24211009.120    99140014.723 6
        22.750
  20780744.162   109203571.842 8        53.000    20780752.162    85093697.303 9
        43.000
 18  2 21  9 11 30.0000000  0  7G02G05G06G07G09G13G30
  22281088.952   117087892.689 6        46.000    22281092.532    91237315.502 7
        32.750
  21363454.038   112265707.222 8        52.250    21363459.258    87479771.216 8
        38.500
  23556519.344   123790307.755 6        42.500    23556528.604    96459972.690 7
        26.250
  20719028.962   108879256.337 8        52.750    20719033.962    84840984.400 8
        40.750
  21751098.176   114302803.029 7        49.750    21751105.776    89067121.845 8
        38.500
  24192610.820   127133036.182 5        39.250    24192617.600    99064703.946 6
        21.250
  20771507.762   109155032.538 8        53.250    20771515.482    85055874.481 9
        43.000
 18  2 21  9 12  0.0000000  0  7G02G05G06G07G09G13G30
  22290783.012   117138832.596 6        46.000    22290786.032    91277008.907 8
        33.750
  21351137.478   112200985.311 7        51.750    21351142.998    87429338.559 8
        38.500
  23576848.684   123897134.686 6        43.000    23576858.924    96543214.376 7
        29.250
  20720042.862   108884584.399 8        53.000    20720048.002    84845136.141 9
        41.500
  21765144.676   114376617.267 7        49.250    21765152.176    89124639.423 8
        38.750
  24174239.180   127036491.385 4        38.750    24174245.640    98989474.367 6
        21.500
  20762367.422   109107000.079 8        53.000    20762375.462    85018446.595 9
        43.250
 18  2 21  9 12 30.0000000  0  7G02G05G06G07G09G13G30
  22300564.572   117190233.217 6        45.750    22300567.652    91317061.305 8
        33.500
  21338893.378   112136641.372 7        51.500    21338898.898    87379200.428 8
        38.500
  23597203.464   124004101.684 5        42.000    23597211.704    96626565.247 7
        26.250
  20721154.962   108890428.947 8        53.250    20721160.022    84849690.332 8
        40.500
  21779231.116   114450642.109 7        48.000    21779238.636    89182321.092 8
        39.000
  24155886.800   126940051.483 4        38.500    24155893.460    98914326.456 6
        20.750
  20753323.782   109059475.377 7        51.750    20753331.482    84981414.356 9
        43.000
 18  2 21  9 13  0.0000000  0  7G02G05G06G07G09G13G30
  22310432.792   117242092.766 6        45.250    22310436.812    91357471.283 8
        33.250
  21326721.498   112072677.285 7        51.250    21326727.078    87329358.289 8
        38.000
  23617584.584   124111206.062 6        42.500    23617595.164    96710023.153 7
        29.250
  20722365.122   108896788.686 8        53.000    20722370.702    84854645.966 8
        41.000
  21793357.276   114524876.671 7        49.500    21793365.256    89240166.193 8
        38.500
  24137555.240   126843717.245 5        40.500    24137561.760    98839260.887 6
        22.500
  20744376.802   109012459.702 8        53.000    20744385.202    84944778.769 9
        43.500
 18  2 21  9 13 30.0000000  0  7G02G05G06G07G09G13G30
  22320388.812   117294409.474 6        45.750    22320391.532    91398237.486 8
        34.250
  21314622.158   112009094.914 7        52.000    21314627.418    87279813.588 8
        38.000
  23637991.584   124218444.806 5        41.500    23638001.664    96793585.754 7
        28.250
  20723673.602   108903663.197 8        53.500    20723678.782    84860002.732 8
        40.750
  21807524.196   114599320.050 7        49.000    21807531.776    89298174.004 8
        38.000
  24119243.580   126747489.545 5        40.000    24119250.300    98764278.372 6
        21.500
  20735526.962   108965954.167 8        54.250    20735535.102    84908540.690 9
        43.000
 18  2 21  9 14  0.0000000  0  7G02G05G06G07G09G13G30
  22330431.072   117347181.951 6        46.500    22330434.132    91439358.839 8
        33.500
  21302596.058   111945897.395 7        51.500    21302601.798    87230568.774 8
        38.750
  23658423.584   124325815.547 6        42.750    23658432.604    96877251.196 7
        26.750
  20725079.682   108911052.418 8        53.000    20725085.242    84865760.557 8
        41.000
  21821729.356   114673971.707 7        50.500    21821737.356    89356344.106 8
        38.000
  24100952.480   126651370.127 5        39.750    24100958.320    98689380.153 6
        19.250
  20726774.842   108919960.129 8        53.750    20726782.942    84872701.186 9
        43.500
 18  2 21  9 14 30.0000000  0  7G02G05G06G07G09G13G30
  22340559.192   117400406.406 6        46.000    22340562.712    91480832.381 8
        33.500
  21290643.478   111883085.217 7        51.000    21290648.478    87181624.226 8
        38.750
  23678880.304   124433313.861 6        42.500    23678890.364    96961016.095 7
        28.250
  20726583.122   108918954.265 8        53.500    20726588.602    84871917.842 9
        41.250
  21835974.476   114748829.327 7        49.750    21835982.356    89414674.705 8
        38.000
  24082682.700   126555358.204 5        40.000    24082688.620    98614565.778 6
        22.500
  20718119.562   108874477.406 8        53.500    20718127.362    84837260.103 9
        43.750
 18  2 21  9 15  0.0000000  0  7G02G05G06G07G09G13G30
  22350773.592   117454082.166 6        45.500    22350776.192    91522657.585 7
        32.500
  21278764.540   111820661.397 7        51.500    21278769.820    87132982.284 8
        38.500
  23699360.502   124540937.985 5        42.000    23699369.142    97044878.968 7
        28.000
  20728184.742   108927369.217 8        53.750    20728189.462    84878474.947 9
        41.250
  21850258.396   114823892.913 7        50.500    21850266.156    89473165.784 8
        38.000
  24064432.460   126459455.352 5        41.250    24064438.060    98539836.363 6
        20.750
  20709562.162   108829507.907 8        54.000    20709570.262    84802218.941 9
        43.750
 18  2 21  9 15 30.0000000  0  7G02G05G06G07G09G13G30
  22361072.912   117508206.614 6        45.500    22361075.992    91564832.418 7
        32.500
  21266960.080   111758627.566 7        51.500    21266964.800    87084644.237 8
        38.250
  23719863.862   124648684.109 5        40.500    23719873.722    97128836.963 7
        27.000
  20729883.462   108936295.601 8        53.750    20729888.702    84885430.563 9
        41.250
  21864581.596   114899160.831 7        49.000    21864589.316    89531816.100 8
        37.750
  24046204.520   126363662.012 5        41.250    24046209.120    98465192.265 6
        22.000
  20701102.582   108785051.991 8        53.500    20701110.922    84767577.968 9
        43.500
 18  2 21  9 16  0.0000000  0  7G02G05G06G07G09G13G30
  22371457.352   117562777.451 6        45.000    22371461.072    91607355.089 8
        33.500
  21255229.960   111696985.882 7        51.750    21255235.080    87036611.755 8
        38.250
  23740390.122   124756549.705 5        42.000    23740398.902    97212888.012 7
        27.500
  20731679.222   108945733.272 8        53.750    20731684.342    84892784.596 8
        41.000
  21878943.436   114974632.331 7        49.750    21878951.236    89590625.043 8
        37.250
  24027994.660   126267978.513 5        40.000    24028002.340    98390633.764 6
        21.500
  20692741.022   108741110.788 8        52.750    20692749.102    84733338.079 9
        43.250
 18  2 21  9 16 30.0000000  0  7G02G05G06G07G09G13G30
  22381926.552   117617793.200 6        44.500    22381929.612    91650224.455 7
        32.500
  21243574.960   111635738.360 7        51.750    21243579.880    86988886.417 8
        38.500
  23760938.002   124864532.157 5        40.500    23760947.422    97297030.138 7
        26.250
  20733572.602   108955681.960 8        53.750    20733577.542    84900536.817 8
        41.000
  21893343.574   115050306.829 7        48.500    21893351.014    89649592.157 8
        38.250
  24009809.200   126172406.780 5        41.500    24009813.500    98316162.337 6
        22.250
  20684477.304   108697685.689 8        54.000    20684485.524    84699500.344 9
        43.500
 18  2 21  9 17  0.0000000  0  7G02G05G06G07G09G13G30
  22392479.692   117673251.127 6        45.000    22392483.532    91693438.378 7
        32.250
  21231995.640   111574886.783 8        52.500    21231999.880    86941469.608 8
        38.750
  23781508.602   124972627.748 5        42.000    23781517.962    97381260.419 7
        28.000
  20735562.402   108966139.560 8        53.500    20735567.662    84908685.598 9
        41.250
  21907782.394   115126182.575 7        49.000    21907790.034    89708716.097 8
        38.250
  23991643.060   126076946.743 5        41.000    23991649.080    98241777.959 6
        21.500
  20676312.024   108654776.774 8        53.000    20676320.144    84666064.830 9
        43.250
 18  2 21  9 17 30.0000000  0  7G02G05G06G07G09G13G30
  22403117.512   117729150.163 6        44.500    22403120.752    91736996.000 7
        33.000
  21220491.580   111514433.764 8        52.250    21220496.040    86894363.356 8
        39.000
  23802098.742   125080834.470 6        42.250    23802108.082    97465577.298 6
        25.500
  20737649.362   108977106.569 8        53.750    20737654.462    84917231.322 8
        41.000
  21922259.274   115202259.479 7        48.750    21922266.854    89767996.791 8
        37.500
  23973499.262   125981599.939 5        40.500    23973504.442    98167481.795 6
        21.500
  20668245.344   108612385.906 8        53.500    20668253.284    84633032.989 9
        43.500
 18  2 21  9 18  0.0000000  0  7G02G05G06G07G09G13G30
  22413837.772   117785486.937 6        44.750    22413841.352    91780894.729 7
        32.500
  21209063.640   111454380.464 8        52.500    21209068.440    86847568.575 8
        39.250
  23822711.102   125189148.479 6        42.750    23822721.122    97549977.761 7
        27.250
  20739833.282   108988581.233 8        53.750    20739838.182    84926172.619 8
        41.000
  21936774.574   115278535.657 7        49.250    21936781.894    89827432.745 8
        37.500
  23955376.082   125886366.213 5        40.750    23955382.262    98093273.764 6
        21.000
  20660277.404   108570512.959 8        53.500    20660284.904    84600404.722 9
        43.500
 18  2 21  9 18 30.0000000  0  7G02G05G06G07G09G13G30
  22424641.152   117842260.277 6        44.500    22424644.212    91825133.650 7
        32.250
  21197712.560   111394729.492 8        52.250    21197717.720    86801087.296 8
        39.000
  23843341.362   125297567.443 5        41.250    23843351.822    97634460.005 6
        25.750
  20742113.142   109000563.334 8        53.500    20742118.622    84935509.323 9
        41.250
  21951327.334   115355010.740 7        48.500    21951335.074    89887023.707 8
        38.000
  23937276.002   125791246.897 5        41.000    23937281.782    98019154.874 6
        22.500
  20652408.244   108529159.542 8        53.000    20652415.844    84568181.281 9
        43.500
 18  2 21  9 19  0.0000000  0  7G02G05G06G07G09G13G30
  22435527.212   117899467.629 6        45.500    22435531.172    91869710.768 8
        33.250
  21186438.180   111335482.806 7        52.000    21186443.280    86754921.049 8
        38.750
  23863992.302   125406088.269 5        41.250    23864002.742    97719021.630 6
        26.000
  20744489.882   109013051.748 8        53.000    20744494.722    84945240.547 9
        41.250
  21965917.374   115431683.679 7        47.750    21965925.854    89946768.837 8
        36.750
  23919197.422   125696242.551 5        41.250    23919204.042    97945125.591 6
        22.000
  20644637.584   108488326.235 8        54.000    20644645.604    84536363.127 9
        44.000
 18  2 21  9 19 30.0000000  0  7G02G05G06G07G09G13G30
  22446496.212   117957106.762 6        44.500    22446499.552    91914624.308 7
        31.750
  21175241.060   111276642.403 7        52.000    21175246.200    86709071.384 8
        39.250
  23884663.162   125514707.984 5        40.750    23884672.942    97803660.306 7
        27.000
  20746962.522   109026045.895 8        53.000    20746967.562    84955365.857 8
        41.000
  21980545.534   115508553.389 7        48.000    21980553.414    90006667.284 8
        37.000
  23901140.502   125601354.233 5        41.250    23901147.002    97871186.681 6
        21.500
  20636966.404   108448013.833 8        53.000    20636974.084    84504950.866 9
        43.500
 18  2 21  9 20  0.0000000  0  7G02G05G06G07G09G13G30
  22457546.032   118015175.369 6        44.500    22457549.512    91959872.550 8
        33.500
  21164121.680   111218209.745 7        51.250    21164126.860    86663539.449 8
        38.750
  23905350.382   125623423.580 5        41.250    23905359.842    97888373.673 6
        25.750
  20749531.162   109039544.864 8        52.250    20749536.362    84965884.533 9
        41.750
  21995210.374   115585618.860 7        47.250    21995218.134    90066718.280 8
        37.000
  23883106.542   125506582.709 6        42.500    23883112.702    97797338.789 6
        24.250
  20629394.324   108408223.046 8        53.500    20629402.184    84473945.066 9
        43.750
 18  2 21  9 20 30.0000000  0  7G02G05G06G07G09G13G30
  22468678.012   118073671.768 6        44.750    22468681.872    92005454.096 7
        32.750
  21153080.280   111160187.275 7        51.500    21153085.420    86618327.124 8
        39.250
  23926056.622   125732232.387 5        40.500    23926065.602    97973159.740 7
        26.500
  20752195.822   109053547.503 7        52.000    20752200.682    84976795.677 9
        41.500
  22009912.354   115662879.358 6        47.000    22009919.814    90126921.243 8
        37.000
  23865093.682   125411928.763 5        41.000    23865100.562    97723582.506 6
        22.000
  20621921.944   108368954.938 8        53.500    20621929.964    84443346.537 9
        43.500
 18  2 21  9 21  0.0000000  0  7G02G05G06G07G09G13G30
  22479890.052   118132593.257 6        44.000    22479893.332    92051366.924 7
        33.000
  21142117.760   111102577.317 7        51.250    21142122.880    86573436.250 8
        38.750
  23946779.042   125841131.228 5        40.750    23946789.042    98058015.908 7
        26.500
  20754955.962   109068052.872 8        52.500    20754961.022    84988098.560 8
        40.750
  22024651.674   115740333.691 7        48.000    22024659.494    90187275.240 8
        37.000
  23847104.722   125317392.777 5        42.000    23847110.882    97649918.126 6
        22.500
  20614549.124   108330210.019 8        53.500    20614556.784    84413155.690 9
        43.500
 18  2 21  9 21 30.0000000  0  7G02G05G06G07G09G13G30
  22491182.730   118191937.195 6        44.750    22491186.510    92097608.960 7
        31.500
  21131233.340   111045380.489 7        51.000    21131238.900    86528867.297 8
        39.000
  23967518.562   125950116.428 5        41.000    23967527.922    98142939.392 7
        26.750
  20757811.882   109083059.559 7        51.750    20757816.562    84999792.074 9
        41.250
  22039427.174   115817980.109 7        48.000    22039434.654    90247778.909 8
        36.750
  23829137.182   125222975.032 5        40.500    23829143.562    97576345.900 6
        22.500
  20607275.844   108291988.291 8        54.250    20607283.404    84383372.530 9
        43.750
 18  2 21  9 22  0.0000000  0  7G02G05G06G07G09G13G30
  22502555.370   118251702.138 6        44.250    22502559.550    92144179.031 7
        32.250
  21120428.220   110988599.904 7        51.250    21120433.920    86484622.686 8
        39.000
  23988274.080   126059186.187 5        41.500    23988283.200    98227928.767 7
        26.500
  20760762.802   109098567.531 8        53.000    20760767.822    85011876.208 8
        40.500
  22054239.754   115895818.806 7        50.000    22054246.874    90308432.427 8
        37.000
  23811193.082   125128677.225 5        40.500    23811199.222    97502867.129 6
        22.500
  20600102.324   108254291.522 8        54.000    20600110.304    84353998.433 9
        43.250
 18  2 21  9 22 30.0000000  0  7G02G05G06G07G09G13G30
  22514007.790   118311885.508 6        45.000    22514011.570    92191075.145 7
        31.250
  21109703.060   110932237.347 7        51.750    21109708.200    86440703.810 8
        39.000
  24009044.180   126168337.252 5        39.500    24009054.260    98312981.494 7
        26.750
  20763808.782   109114575.562 8        52.500    20763813.842    85024350.001 8
        40.750
  22069087.774   115973848.463 7        48.500    22069095.314    90369234.738 8
        37.250
  23793271.802   125034499.950 5        39.500    23793277.662    97429482.258 6
        22.500
  20593028.884   108217120.153 8        54.000    20593036.864    84325033.735 9
        43.500
 18  2 21  9 23  0.0000000  0  7G02G05G06G07G09G13G30
  22525540.330   118372485.568 6        45.500    22525543.710    92238295.944 7
        32.250
  21099057.620   110876295.316 7        52.000    21099063.000    86397112.619 8
        39.250
  24029830.700   126277567.129 5        40.250    24029840.680    98398095.616 7
        27.000
  20766950.362   109131083.197 7        52.000    20766955.382    85037213.083 8
        41.000
  22083972.794   116052068.549 7        48.500    22083980.334    90430185.424 8
        37.000
  23775373.682   124940444.274 5        39.750    23775379.502    97356192.139 6
        24.000
  20586055.764   108180475.290 8        53.750    20586063.624    84296479.303 9
        43.750
 18  2 21  9 23 30.0000000  0  7G02G05G06G07G09G13G30
  22537151.050   118433499.475 6        45.500    22537154.590    92285839.214 7
        32.250
  21088492.240   110820774.739 8        52.750    21088497.480    86353849.826 8
        39.500
  24050630.340   126386872.468 5        40.500    24050639.540    98483268.544 6
        25.000
  20770186.302   109148088.849 8        52.500    20770191.222    85050464.240 8
        40.750
  22098893.954   116130477.701 7        49.250    22098901.394    90491283.438 8
        36.750
  23757498.742   124846510.838 5        39.750    23757504.462    97282997.297 6
        22.750
  20579182.444   108144357.153 8        54.000    20579190.264    84268335.298 9
        43.500
 18  2 21  9 24  0.0000000  0  7G02G05G06G07G09G13G30
  22548839.710   118494925.004 6        45.500    22548843.130    92333703.224 7
        31.500
  21078007.860   110765678.139 7        52.000    21078013.020    86310917.412 8
        39.750
  24071444.700   126496250.427 5        41.000    24071453.900    98568498.047 6
        25.000
  20773516.902   109165591.580 7        52.000    20773521.782    85064102.730 8
        40.500
  22113850.254   116209074.975 7        50.000    22113857.654    90552528.047 8
        37.250
  23739646.642   124752699.771 5        39.750    23739653.002    97209897.813 6
        24.000
  20572409.804   108108766.442 8        53.500    20572417.424    84240602.281 9
        43.500
 18  2 21  9 24 30.0000000  0  7G02G05G06G07G09G13G30
  22560606.630   118556759.979 6        44.000    22560609.810    92381886.292 7
        31.250
  21067604.320   110711007.306 8        52.500    21067609.760    86268316.751 8
        39.500
  24092272.180   126605697.939 6        43.000    24092281.960    98653781.788 7
        26.500
  20776941.802   109183590.458 8        52.750    20776947.162    85078127.801 8
        41.000
  22128842.474   116287859.373 7        49.500    22128849.874    90613918.465 8
        37.500
  23721819.142   124659012.634 5        40.250    23721824.882    97136894.855 6
        22.500
  20565737.704   108073703.684 8        54.250    20565745.344    84213280.657 9
        44.000
 18  2 21  9 25  0.0000000  0  7G02G05G06G07G09G13G30
  22572450.930   118619001.844 6        46.500    22572454.610    92430386.426 7
        32.250
  21057282.100   110656764.276 8        52.500    21057287.660    86226049.465 8
        39.500
  24113111.780   126715212.431 6        42.250    24113121.160    98739117.666 6
        25.250
  20780461.322   109202084.685 8        52.500    20780466.662    85092538.885 9
        41.250
  22143870.374   116366830.112 7        49.000    22143877.154    90675454.077 8
        36.500
  23704014.902   124565450.062 5        42.000    23704020.102    97063988.992 6
        22.500
  20559165.964   108039169.693 8        55.000    20559173.444    84186371.056 9
        44.000
 18  2 21  9 25 30.0000000  0  7G02G05G06G07G09G13G30
  22584372.710   118681648.543 6        45.000    22584376.070    92479202.009 7
        32.500
  21047041.680   110602951.430 7        51.750    21047047.220    86184117.379 8
        40.250
  24133963.980   126824790.883 6        42.250    24133973.300    98824503.445 6
        25.000
  20784074.422   109221073.259 8        53.250    20784079.902    85107335.171 9
        41.250
  22158933.774   116445986.320 7        49.500    22158940.714    90737134.208 8
        37.500
  23686233.882   124472012.783 6        42.500    23686239.982    96991180.733 6
        22.750
  20552695.084   108005165.097 8        54.250    20552702.904    84159873.970 9
        44.250
 18  2 21  9 26  0.0000000  0  7G02G05G06G07G09G13G30
  22596369.450   118744697.342 6        45.250    22596373.150    92528330.915 7
        32.250
  21036883.960   110549569.837 7        51.750    21036889.380    86142521.328 8
        39.250
  24154826.740   126934430.253 5        41.750    24154838.240    98909936.654 6
        24.250
  20787782.062   109240554.695 8        53.250    20787787.322    85122515.502 8
        41.000
  22174031.774   116525326.675 7        50.250    22174038.554    90798957.837 8
        36.750
  23668478.144   124378701.272 6        44.000    23668483.144    96918470.483 6
        22.750
  20546325.324   107971690.145 8        54.000    20546333.204    84133789.592 9
        44.000
 18  2 21  9 26 30.0000000  0  7G02G05G06G07G09G13G30
  22608443.970   118808146.322 6        45.500    22608447.450    92577771.650 7
        32.250
  21026807.960   110496621.715 8        52.250    21026813.640    86101263.054 8
        39.250
  24175702.980   127044127.758 6        42.500    24175711.540    98995415.163 6
        24.000
  20791582.562   109260528.081 8        52.500    20791587.822    85138079.184 8
        41.000
  22189164.012   116604850.543 7        48.500    22189171.072    90860924.473 8
        37.000
  23650744.684   124285516.663 6        42.750    23650750.644    96845859.108 6
        22.750
  20540055.904   107938745.658 8        54.250    20540063.944    84108118.569 9
        44.000
 18  2 21  9 27  0.0000000  0  7G02G05G06G07G09G13G30
  22620593.390   118871992.641 6        45.750    22620596.930    92627521.993 7
        31.500
  21016815.000   110444108.719 8        53.000    21016820.460    86060343.842 8
        39.500
  24196586.940   127153880.427 5        40.000    24196598.240    99080936.676 6
        25.000
  20795477.062   109280992.501 8        53.000    20795482.282    85154025.482 8
        41.000
  22204331.812   116684556.848 7        50.000    22204338.792    90923033.259 8
        36.500
  23633037.324   124192459.405 5        41.250    23633042.524    96773347.014 6
        24.250
  20533887.784   107906332.050 8        53.500    20533895.604    84082861.218 9
        44.250
 18  2 21  9 27 30.0000000  0  7G02G05G06G07G09G13G30
  22632818.450   118936234.330 6        45.500    22632821.710    92677580.410 7
        31.500
  21006905.320   110392033.185 7        52.000    21006910.520    86019765.502 8
        39.750
  24217482.980   127263685.767 5        41.500    24217492.660    99166499.156 6
        23.250
  20799464.502   109301946.994 8        52.500    20799469.662    85170353.661 8
        41.000
  22219533.832   116764444.988 7        49.250    22219540.912    90985283.733 8
        36.000
  23615353.044   124099530.606 5        41.500    23615358.104    96700934.973 6
        24.500
  20527821.024   107874450.097 8        54.250    20527828.804    84058018.136 9
        43.750
 18  2 21  9 28  0.0000000  0  7G02G05G06G07G09G13G30
  22645117.910   119000868.431 6        44.750    22645120.790    92727944.603 7
        31.250
  20997079.480   110340396.376 7        52.000    20997084.580    85979529.028 8
        39.250
  24238387.540   127373540.295 5        39.250    24238398.540    99252100.132 6
        26.000
  20803545.202   109323390.200 8        52.500    20803550.442    85187062.651 8
        41.000
  22234770.652   116844513.609 7        48.500    22234777.912    91047674.826 8
        36.500
  23597693.444   124006730.949 6        42.250    23597699.324    96628623.570 6
        23.250
  20521855.284   107843099.961 8        53.250    20521863.064    84033589.459 9
        44.250
 18  2 21  9 28 30.0000000  0  7G02G05G06G07G09G13G30
  22657491.970   119065893.268 6        44.750    22657494.850    92778613.246 7
        31.000
  20987337.140   110289200.983 8        53.000    20987342.660    85939636.515 8
        39.500
  24259302.340   127483441.684 6        43.500    24259310.940    99337737.375 6
        25.750
  20807717.942   109345320.972 8        52.500    20807723.142    85204151.557 8
        40.750
  22250041.132   116924762.021 7        48.500    22250048.492    91110206.031 8
        36.000
  23580059.384   123914061.018 5        40.500    23580064.964    96556413.257 6
        22.500
  20515990.584   107812282.315 8        53.750    20515998.344    84009575.717 9
        44.750
 18  2 21  9 29  0.0000000  0  7G02G05G06G07G09G13G30
  22669938.990   119131306.100 6        45.750    22669942.650    92829584.251 7
        31.250
  20977679.242   110238448.967 8        52.750    20977684.702    85900089.490 8
        39.500
  24280223.460   127593386.748 4        39.000    24280232.720    99423408.970 6
        23.500
  20811984.262   109367738.220 7        52.000    20811989.222    85221619.559 8
        40.750
  22265346.052   117005189.361 7        47.750    22265353.372    91172876.665 8
        35.500
  23562449.344   123821521.741 5        41.250    23562455.244    96484304.754 6
        24.000
  20510227.824   107781997.716 8        54.000    20510235.644    83985977.326 9
        44.500
 18  2 21  9 29 30.0000000  0  7G02G05G06G07G09G13G30
  22682460.150   119197104.110 6        44.500    22682463.750    92880855.395 7
        30.250
  20968106.482   110188141.695 8        52.750    20968111.722    85860889.020 8
        39.750
  24301154.298   127703372.798 6        43.250    24301164.498    99509112.188 7
        29.500
  20816342.542   109390641.007 7        51.750    20816347.642    85239465.879 8
        40.750
  22280684.392   117085794.498 6        47.000    22280692.552    91235685.832 8
        35.250
  23544864.604   123729113.870 5        40.250    23544870.504    96412298.650 6
        23.500
  20504566.224   107752246.404 8        53.250    20504574.004    83962794.483 9
        44.000
 18  2 21  9 30  0.0000000  0  7G02G05G06G07G09G13G30
  22695054.030   119263285.146 6        45.500    22695058.030    92932424.964 7
        31.500
  20958618.222   110138280.962 8        52.500    20958623.462    85822036.499 8
        40.500
  24322089.778   127813396.701 4        38.750    24322098.458    99594845.107 6
        21.000
  20820793.182   109414028.114 8        52.500    20820798.322    85257689.593 9
        41.250
  22296056.552   117166576.661 6        46.750    22296064.632    91298632.946 8
        35.750
  23527305.264   123636838.406 5        41.000    23527311.564    96340395.686 6
        24.500
  20499006.304   107723028.930 8        54.250    20499014.464    83940027.630 9
        44.000
 18  2 21  9 30 30.0000000  0  7G02G05G06G07G09G13G30
  22707720.650   119329846.923 6        45.500    22707724.030    92984291.241 7
        31.000
  20949215.222   110088868.962 8        53.250    20949221.082    85783533.638 8
        40.500
  24343034.838   127923456.061 6        43.000    24343044.718    99680605.570 7
        28.750
  20825335.342   109437898.261 8        52.500    20825340.662    85276289.703 8
        40.750
  22311462.652   117247534.962 6        46.500    22311470.512    91361717.301 8
        35.250
  23509771.264   123544695.616 5        41.250    23509776.924    96268596.144 6
        23.250
  20493548.224   107694345.735 8        53.500    20493556.204    83917677.093 9
        44.500
 18  2 21  9 31  0.0000000  0  7G02G05G06G07G09G13G30
  22720458.750   119396786.692 6        45.500    22720462.610    93036452.071 7
        30.500
  20939898.142   110039906.696 8        52.250    20939903.582    85745381.227 8
        39.750
  24363982.238   128033547.318 4        37.500    24363994.478    99766390.858 6
        23.000
  20829969.402   109462249.972 7        51.500    20829974.602    85295265.060 8
        41.000
  22326902.012   117328668.120 6        46.750    22326909.172    91424937.917 8
        34.750
  23492262.664   123452686.548 5        41.500    23492267.664    96196900.783 6
        24.250
  20488191.464   107666196.806 8        52.500    20488199.204    83895742.869 9
        43.750
 18  2 21  9 31 30.0000000  0  7G02G05G06G07G09G13G30
  22733268.470   119464102.073 6        44.500    22733272.550    93088905.575 7
        31.250
  20930666.922   109991397.019 7        51.750    20930672.522    85707581.485 8
        40.000
  24384940.358   128143668.362 6        42.750    24384946.838    99852199.456 6
        23.500
  20834694.402   109487082.619 8        52.500    20834699.942    85314615.164 8
        41.000
  22342374.432   117409975.713 7        47.750    22342381.972    91488294.456 8
        35.000
  23474779.584   123360812.545 6        42.500    23474785.544    96125310.671 6
        25.250
  20482936.944   107638583.061 8        53.750    20482944.784    83874225.661 9
        44.000
 18  2 21  9 32  0.0000000  0  7G02G05G06G07G09G13G30
  22746148.850   119531790.705 6        45.250    22746152.890    93141649.907 7
        31.500
  20921522.162   109943341.467 8        52.500    20921527.682    85670135.602 8
        40.250
  24405898.318   128253815.924 5        39.500    24405909.838    99938028.624 6
        25.000
  20839511.622   109512394.664 7        52.000    20839517.022    85334338.832 9
        41.250
  22357879.672   117491456.635 7        48.500    22357887.732    91551786.053 8
        35.000
  23457321.884   123269073.672 5        41.750    23457328.484    96053825.862 6
        26.000
  20477783.984   107611504.625 8        53.500    20477791.824    83853125.581 9
        44.750
 18  2 21  9 32 30.0000000  0  7G02G05G06G07G09G13G30
  22759099.990   119599849.850 6        43.750    22759103.310    93194682.967 7
        30.500
  20912464.442   109895741.469 8        52.250    20912469.622    85633044.680 8
        39.250
  24426864.738   128363987.527 6        43.750    24426873.098   100023876.491 6
        21.500
  20844419.162   109538185.374 8        52.250    20844424.622    85354435.481 8
        40.500
  22373418.032   117573110.109 7        48.750    22373426.052    91615412.113 8
        35.000
  23439890.364   123177471.128 5        41.750    23439896.304    95982447.261 6
        24.750
  20472733.244   107584961.975 8        54.750    20472740.664    83832442.994 9
        44.500
 18  2 21  9 33  0.0000000  0  7G02G05G06G07G09G13G30
  22772122.250   119668277.316 6        44.500    22772126.110    93248003.022 7
        31.500
  20903493.602   109848599.397 8        52.750    20903499.402    85596310.608 8
        39.500
  24447831.778   128474179.984 4        38.250    24447842.038   100109740.783 6
        21.250
  20849417.782   109564452.905 8        53.000    20849422.842    85374903.658 9
        41.250
  22388988.652   117654935.087 7        49.500    22388996.812    91679171.823 8
        34.750
  23422485.704   123086005.538 5        41.500    23422491.164    95911175.368 6
        25.250
  20467784.424   107558955.251 8        54.500    20467792.444    83812178.017 9
        44.250
 18  2 21  9 33 30.0000000  0  7G02G05G06G07G09G13G30
  22785213.008   119737070.602 6        43.250    22785216.408    93301608.139 7
        31.500
  20894610.122   109801916.904 7        52.000    20894615.942    85559934.632 8
        40.000
  24468806.218   128584390.835 5        41.500    24468816.098   100195619.247 6
        23.750
  20854507.062   109591196.598 8        53.000    20854512.262    85395742.889 8
        40.750
  22404591.592   117736930.887 7        49.750    22404599.872    91743064.624 8
        35.250
  23405106.224   122994677.762 5        41.250    23405112.084    95840010.886 6
        25.000
  20462937.304   107533484.969 8        54.250    20462944.984    83792331.044 9
        44.500
 18  2 21  9 34  0.0000000  0  7G02G05G06G07G09G13G30
  22798372.888   119806226.669 6        44.500    22798376.008    93355495.949 7
        30.000
  20885814.402   109755695.404 7        52.000    20885820.022    85523917.880 8
        40.000
  24489779.518   128694616.765 4        38.250    24489788.838   100281509.594 6
        19.750
  20859686.342   109618414.374 8        52.500    20859691.562    85416951.552 9
        41.250
  22420227.452   117819096.202 7        48.750    22420235.132    91807089.516 8
        35.500
  23387753.324   122903488.138 6        42.750    23387759.384    95768954.064 6
        24.500
  20458192.344   107508551.024 8        54.000    20458200.424    83772901.995 9
        44.250
 18  2 21  9 34 30.0000000  0  7G02G05G06G07G09G13G30
  22811600.808   119875743.261 6        42.750    22811604.808    93409664.699 7
        31.000
  20877107.362   109709937.488 8        52.250    20877112.482    85488262.355 8
        39.750
  24510759.438   128804855.438 5        41.000    24510768.958   100367409.742 6
        22.000
  20864955.982   109646106.017 8        52.500    20864961.382    85438529.447 9
        41.500
  22435894.872   117901430.576 7        49.250    22435902.272    91871246.140 8
        34.500
  23370426.706   122812438.019 6        42.500    23370433.266    95698005.924 6
        25.250
  20453549.744   107484154.117 8        53.000    20453557.424    83753891.427 9
        44.250
 18  2 21  9 35  0.0000000  0  8G02G05G06G07G09G13G28G30
  22824897.908   119945617.883 6        44.000    22824901.788    93464112.401 7
        30.250
  20868488.022   109664644.150 8        52.500    20868493.522    85452968.847 8
        40.250
  24531737.758   128915103.809 5        40.250    24531747.158   100453317.556 6
        19.500
  20870315.322   109674269.352 8        53.000    20870320.602    85460474.895 9
        41.500
  22451594.772   117983932.912 7        49.250    22451602.472    91935533.646 8
        34.500
  23353127.826   122721528.273 6        43.000    23353133.626    95627167.206 6
        24.000
  24280402.900   127594368.501 5        40.500    24280410.660    99424180.871 6
        19.000
  20449009.504   107460294.246 8        54.250    20449017.604    83735299.313 9
        44.250
 18  2 21  9 35 30.0000000  0  8G02G05G06G07G09G13G28G30
  22838262.468   120015847.590 6        44.000    22838265.188    93518836.816 7
        30.250
  20859957.822   109619817.450 8        52.500    20859963.162    85418038.953 8
        40.500
  24552718.718   129025358.923 4        39.000    24552730.038   100539230.535 6
        21.000
  20875764.242   109702903.428 8        53.000    20875769.382    85482787.160 8
        40.750
  22467326.352   118066602.219 7        49.250    22467332.972    91999951.263 8
        34.750
  23335854.726   122630759.107 6        44.000    23335860.406    95556437.953 7
        27.000
  24261957.780   127497436.390 5        40.750    24261962.320    99348649.187 5
        16.250
  20444571.244   107436971.536 8        53.750    20444579.304    83717125.776 9
        44.500
 18  2 21  9 36  0.0000000  0  8G02G05G06G07G09G13G28G30
  22851693.608   120086430.563 6        43.250    22851697.588    93573836.487 7
        29.250
  20851516.722   109575459.614 8        53.000    20851521.882    85383474.391 8
        40.000
  24573701.918   129135618.668 6        42.250    24573710.178   100625147.155 6
        21.000
  20881302.382   109732007.262 8        52.250    20881307.662    85505465.464 8
        40.750
  22483089.492   118149438.152 7        48.500    22483097.092    92064498.719 8
        34.000
  23318608.926   122540131.793 6        43.750    23318614.686    95485819.291 7
        26.500
  24243524.260   127400567.704 5        41.750    24243530.200    99273167.269 6
        20.750
  20440235.644   107414186.790 8        54.250    20440243.784    83699371.426 9
        44.750
 18  2 21  9 36 30.0000000  0  7G02G05G07G09G13G28G30
  22865192.108   120157363.930 6        42.500    22865195.348    93629109.218 7
        31.000
  20843165.702   109531571.993 8        53.000    20843170.422    85349276.249 8
        40.500
  20886929.622   109761579.270 8        52.500    20886934.682    85528508.581 8
        40.750
  22498883.790   118232439.498 7        48.500    22498891.150    92129175.062 8
        34.750
  23301390.066   122449647.158 6        44.500    23301395.866    95415311.787 6
        25.500
  24225102.760   127303765.397 5        39.750    24225110.460    99197736.902 6
        18.250
  20436002.224   107391939.769 8        53.500    20436010.124    83682036.082 9
        44.250
 18  2 21  9 37  0.0000000  0  7G02G05G07G09G13G28G30
  22878756.148   120228644.984 6        43.000    22878759.668    93684652.858 7
        28.500
  20834903.862   109488156.543 8        53.000    20834908.902    85315446.035 8
        40.500
  20892646.082   109791618.385 8        52.500    20892651.342    85551915.673 8
        40.500
  22514710.250   118315605.542 7        49.000    22514717.350    92193979.745 8
        34.000
  23284199.066   122359306.167 6        42.750    23284204.906    95344916.214 6
        25.500
  24206695.620   127207031.805 5        39.750    24206700.280    99122365.128 6
        19.000
  20431870.944   107370230.907 8        54.250    20431878.944    83665120.088 9
        44.250
 18  2 21  9 37 30.0000000  0  7G02G05G07G09G13G28G30
  22892386.188   120300270.867 6        43.250    22892390.788    93740465.196 7
        30.750
  20826732.022   109445214.059 8        52.500    20826737.342    85281984.348 8
        40.750
  20898450.902   109822122.828 8        52.250    20898456.222    85575685.365 8
        40.500
  22530567.190   118398935.057 7        49.000    22530575.090    92258911.794 8
        34.250
  23267034.566   122269108.930 6        42.500    23267040.926    95274632.700 7
        26.250
  24188302.300   127110370.417 5        41.750    24188307.500    99047044.623 6
        21.000
  20427842.324   107349059.890 8        54.250    20427849.944    83648623.192 9
        44.250
 18  2 21  9 38  0.0000000  0  7G02G05G07G09G13G28G30
  22906081.688   120372239.041 6        43.000    22906085.468    93796544.257 7
        31.000
  20818651.042   109402747.009 8        53.000    20818656.042    85248893.138 8
        40.500
  20904344.062   109853091.286 8        53.000    20904349.022    85599816.629 8
        40.750
  22546454.890   118482427.124 7        48.500    22546462.950    92323970.520 8
        34.500
  23249898.386   122179056.359 6        43.500    23249904.686    95204461.892 6
        25.500
  24169919.660   127013783.651 3        36.750    24169926.180    98971782.157 5
        14.750
  20423916.244   107328426.871 8        54.500    20423923.924    83632545.511 9
        44.250
 18  2 21  9 38 30.0000000  0  7G02G05G07G09G13G28G30
  22919841.308   120444547.073 5        41.750    22919845.408    93852888.117 7
        30.250
  20810660.582   109360757.286 8        53.750    20810666.002    85216173.874 8
        41.000
  20910325.302   109884522.646 8        52.750    20910330.242    85624308.608 8
        40.500
  22562373.770   118566081.019 7        47.750    22562381.450    92389155.341 7
        33.000
  23232789.886   122089149.412 6        42.500    23232795.786    95134404.551 6
        26.000
  24151556.900   126917274.633 6        43.250    24151562.460    98896580.423 6
        22.500
  20420092.164   107308332.117 8        53.500    20420100.004    83616887.259 9
        44.750
 18  2 21  9 39  0.0000000  0  7G02G05G07G09G13G28G30
  22933665.408   120517191.984 6        43.000    22933669.148    93909494.533 7
        30.250
  20802761.082   109319245.956 8        53.250    20802766.622    85183827.379 8
        40.750
  20916394.142   109916415.023 8        52.250    20916399.182    85649159.802 8
        40.500
  22578323.570   118649895.832 7        47.500    22578331.470    92454465.550 8
        34.250
  23215708.806   121999388.745 6        42.500    23215714.526    95064461.187 7
        26.250
  24133204.260   126820845.873 4        38.000    24133213.060    98821441.266 5
        17.250
  20416370.664   107288775.500 8        54.250    20416378.264    83601648.341 9
        44.500
 18  2 21  9 39 30.0000000  0  7G02G05G07G09G13G28G30
  22947552.848   120590171.276 5        41.250    22947557.068    93966361.475 7
        30.000
  20794952.982   109278214.815 8        52.500    20794958.482    85151855.055 8
        41.000
  20922550.502   109948767.609 7        51.750    20922555.642    85674369.592 8
        40.750
  22594303.530   118733870.574 7        48.500    22594311.510    92519900.375 8
        34.000
  23198656.266   121909775.382 5        42.000    23198662.126    94994632.600 6
        26.000
  24114872.200   126724500.954 5        40.750    24114877.440    98746367.227 5
        17.750
  20412751.344   107269757.333 8        53.750    20412759.544    83586828.992 9
        44.750
 18  2 21  9 40  0.0000000  0  7G02G05G07G09G13G28G30
  22961503.188   120663482.224 5        42.000    22961506.448    94023486.819 7
        29.500
  20787237.182   109237665.945 8        53.250    20787242.482    85120258.535 8
        40.750
  20928794.342   109981579.126 8        52.250    20928799.942    85699936.997 8
        40.500
  22610313.610   118818004.466 7        48.750    22610321.090    92585459.222 8
        34.500
  23181631.346   121820310.009 6        43.000    23181637.946    94924919.351 6
        26.000
  24096554.840   126628242.477 5        40.000    24096562.820    98671360.747 6
        20.750
  20409235.044   107251277.541 8        53.750    20409243.044    83572429.152 9
        44.500
 18  2 21  9 40 30.0000000  0  7G02G05G07G09G13G28G30
  22975517.108   120737122.494 6        43.250    22975520.508    94080868.858 7
        30.000
  20779612.742   109197601.008 8        53.250    20779618.102    85089039.091 8
        40.500
  20935125.282   110014847.783 7        51.250    20935130.462    85725860.622 8
        41.000
  22626353.910   118902296.864 7        47.750    22626361.570    92651141.581 8
        34.000
  23164634.706   121730993.348 5        42.000    23164641.166    94855321.971 6
        25.250
  24078254.040   126532073.547 4        38.750    24078260.940    98596424.019 5
        17.750
  20405820.844   107233336.416 8        54.500    20405829.004    83558449.056 9
        44.250
 18  2 21  9 41  0.0000000  0  7G02G05G07G09G13G28G30
  22989592.228   120811089.260 6        44.250    22989596.848    94138505.235 7
        30.500
  20772081.022   109158021.066 8        53.000    20772086.442    85058197.578 8
        40.500
  20941542.622   110048571.986 7        51.750    20941547.902    85752139.216 8
        40.500
  22642424.410   118986746.745 7        47.250    22642432.090    92716946.638 8
        34.000
  23147666.906   121641826.418 6        43.750    23147672.546    94785841.271 6
        25.500
  24059971.860   126435996.569 4        37.750    24059976.900    98521558.735 6
        18.250
  20402509.524   107215933.780 8        54.500    20402517.364    83544888.561 9
        44.500
 18  2 21  9 41 30.0000000  0  7G02G05G07G09G13G28G30
  23003729.588   120885379.667 6        44.500    23003733.128    94196393.830 7
        31.000
  20764641.962   109118928.237 8        52.500    20764647.582    85027735.639 8
        41.000
  20948046.622   110082750.459 8        53.250    20948052.102    85778771.781 8
        41.000
  22658524.450   119071353.205 6        47.000    22658531.930    92782873.721 8
        34.500
  23130727.066   121552810.032 6        42.500    23130733.386    94716477.874 6
        26.000
  24041707.540   126340014.510 4        39.000    24041714.120    98446767.655 6
        21.750
  20399300.424   107199069.622 8        55.000    20399308.244    83531747.667 9
        44.750
 18  2 21  9 42  0.0000000  0  7G02G05G07G09G13G28G30
  23017927.168   120959991.383 6        43.000    23017931.268    94254532.817 7
        29.250
  20757295.622   109080324.244 8        52.250    20757301.342    84997654.596 8
        41.000
  20954636.842   110117382.191 8        52.500    20954642.442    85805757.542 8
        40.250
  22674654.510   119156115.522 6        46.750    22674661.950    92848922.256 8
        34.000
  23113816.446   121463944.597 6        43.000    23113822.626    94647232.118 6
        24.500
  24023460.720   126244130.497 4        38.500    24023466.300    98372052.852 5
        17.750
  20396193.464   107182744.001 8        53.750    20396201.724    83519026.397 9
        44.500
 18  2 21  9 42 30.0000000  0  7G02G05G07G09G13G28G30
  23032187.168   121034921.413 6        47.000    23032190.748    94312919.790 7
        32.500
  20750042.922   109042210.195 8        52.500    20750048.162    84967955.341 8
        40.500
  20961312.862   110152465.039 7        52.000    20961318.322    85833094.818 8
        39.750
  22690813.070   119241032.612 6        46.000    22690821.070    92915091.373 8
        34.000
  23096934.946   121375231.319 6        43.500    23096941.086    94578104.904 6
        25.000
  24005233.160   126148347.617 4        38.250    24005240.920    98297416.821 6
        21.500
  20393189.484   107166956.713 8        54.250    20393197.084    83506724.610 9
        44.750
 18  2 21  9 43  0.0000000  0  7G02G05G07G09G13G28G30
  23046504.808   121110167.270 6        44.750    23046508.628    94371552.902 7
        29.250
  20742883.762   109004588.489 8        52.250    20742889.102    84938639.716 8
        41.000
  20968074.482   110187998.369 8        52.750    20968079.742    85860783.103 8
        40.500
  22707002.210   119326104.035 6        45.750    22707009.690    92981380.756 8
        34.250
  23080083.228   121286671.147 6        43.500    23080088.408    94509096.998 7
        26.500
  23987027.000   126052668.640 4        39.000    23987033.760    98222861.942 6
        20.750
  20390287.824   107151708.108 8        54.500    20390295.584    83494842.585 9
        44.500
 18  2 21  9 43 30.0000000  0  7G02G05G07G09G13G28G30
  23060884.108   121185726.140 6        45.250    23060886.328    94430429.910 7
        29.250
  20735818.922   108967460.158 8        52.500    20735823.702    84909708.545 8
        41.000
  20974921.962   110223980.286 8        52.500    20974927.182    85888820.960 8
        40.000
  22723219.890   119411328.668 6        46.000    22723227.710    93047789.531 8
        34.000
  23063259.868   121198264.453 6        44.250    23063265.708    94440208.680 7
        26.500
  23968839.022   125957096.492 4        37.750    23968845.802    98148390.073 6
        19.250
  20387488.304   107136997.855 8        55.000    20387496.024    83483380.046 9
        44.750
 18  2 21  9 44  0.0000000  0  7G02G05G07G09G13G28G30
  23075321.328   121261594.611 6        44.500    23075326.008    94489548.172 7
        30.500
  20728847.262   108930826.476 8        52.250    20728852.702    84881162.812 8
        40.750
  20981853.882   110260409.030 8        53.000    20981859.322    85917206.982 8
        40.750
  22739466.650   119496705.230 7        47.250    22739473.910    93114316.687 8
        34.250
  23046465.708   121110011.836 6        44.000    23046471.608    94371440.438 7
        26.750
  23950673.742   125861633.589 4        38.750    23950680.482    98074003.563 6
        19.750
  20384791.446   107122825.369 8        55.000    20384799.486    83472336.548 9
        44.500
 18  2 21  9 44 30.0000000  0  7G02G05G07G09G13G28G30
  23089815.806   121337770.983 6        43.750    23089819.926    94548906.306 7
        27.750
  20721970.922   108894689.607 8        52.500    20721975.882    84853004.205 8
        40.750
  20988871.020   110297283.485 8        52.500    20988876.440    85945940.289 8
        40.000
  22755742.050   119582233.473 6        47.000    22755749.750    93180962.038 8
        33.750
  23029701.408   121021914.162 6        44.500    23029707.048    94302792.918 7
        27.250
  23932530.142   125766283.398 5        40.000    23932535.082    97999704.609 6
        20.250
  20382196.826   107109191.137 8        55.000    20382205.086    83461712.472 9
        44.250
 18  2 21  9 45  0.0000000  0  7G02G05G07G09G13G28G30
  23104371.486   121414251.986 6        44.750    23104374.266    94608501.895 7
        29.250
  20715188.882   108859050.842 8        52.500    20715193.882    84825233.726 8
        41.000
  20995972.300   110334602.145 8        53.250    20995977.600    85975019.755 8
        40.500
  22772046.270   119667912.520 6        46.000    22772054.670    93247724.899 8
        33.750
  23012966.848   120933972.943 6        44.500    23012972.788    94234267.313 7
        28.500
  23914407.462   125671048.829 5        41.750    23914414.002    97925496.033 6
        24.500
  20379705.006   107096095.053 8        54.750    20379712.686    83451507.731 9
        44.500
 18  2 21  9 45 30.0000000  0  7G02G05G07G09G13G28G30
  23118981.166   121491035.180 5        41.250    23118986.726    94668332.873 7
        29.000
  20708502.122   108823912.001 8        52.750    20708507.382    84797852.807 8
        41.000
  21003158.020   110372363.351 8        53.500    21003163.960    86004444.067 8
        40.750
  22788378.848   119753741.246 7        47.500    22788386.828    93314604.391 8
        34.250
  22996261.948   120846188.619 6        45.000    22996267.488    94165863.952 7
        27.250
  23896305.702   125575932.618 5        39.250    23896311.882    97851379.491 5
        17.250
  20377314.986   107083536.630 8        55.500    20377323.086    83441721.944 9
        44.500
 18  2 21  9 46  0.0000000  0  7G02G05G07G09G13G28G30
  23133651.066   121568117.806 6        43.500    23133653.366    94728397.206 7
        28.750
  20701910.602   108789274.728 8        53.000    20701916.022    84770862.712 8
        40.250
  21010427.880   110410565.888 8        53.500    21010433.380    86034212.259 8
        40.250
  22804739.968   119839719.338 7        47.250    22804747.688    93381600.275 8
        33.250
  22979587.248   120758562.203 6        45.500    22979593.008    94097583.661 7
        27.000
  23878229.782   125480937.875 5        40.750    23878235.702    97777357.622 6
        21.500
  20375027.666   107071516.269 8        54.500    20375035.986    83432355.430 9
        44.500
 18  2 21  9 46 30.0000000  0  7G02G05G07G09G13G28G30
  23148374.906   121645497.084 5        41.500    23148378.406    94788692.745 7
        28.000
  20695415.062   108755140.379 8        52.500    20695420.762    84744264.518 9
        41.250
  21017781.520   110449208.247 8        53.250    21017787.320    86064323.192 8
        40.500
  22821129.468   119925845.736 6        47.000    22821136.928    93448711.725 8
        33.500
  22962942.588   120671094.242 6        45.500    22962948.568    94029426.818 7
        27.250
  23860176.282   125386067.769 5        41.500    23860183.322    97703432.927 6
        22.000
  20372842.366   107060033.552 8        54.750    20372851.086    83423407.856 9
        44.750
 18  2 21  9 47  0.0000000  0  7G02G05G07G09G13G28G30
  23163156.146   121723170.126 6        42.250    23163160.946    94849217.095 7
        29.250
  20689015.422   108721510.134 7        52.000    20689020.782    84718059.126 8
        40.500
  21025218.160   110488288.700 8        52.750    21025223.640    86094775.485 8
        40.750
  22837546.488   120012119.343 7        47.500    22837554.868    93515937.875 7
        32.750
  22946328.408   120583785.483 6        45.500    22946333.668    93961394.023 7
        27.750
  23842148.142   125291324.826 5        40.250    23842152.922    97629607.307 6
        20.750
  20370759.666   107049087.980 8        54.250    20370767.886    83414878.837 9
        44.500
 18  2 21  9 47 30.0000000  0  7G02G05G07G09G13G28G30
  23177992.006   121801134.106 5        40.500    23177995.126    94909968.228 7
        27.750
  20682712.244   108688385.585 8        52.750    20682717.684    84692247.791 8
        40.750
  21032737.860   110527805.676 8        53.250    21032743.420    86125567.934 8
        40.250
  22853992.028   120098539.607 7        47.250    22853999.308    93583278.293 7
        33.000
  22929744.688   120496636.939 6        46.000    22929749.528    93893486.087 7
        27.500
  23824142.422   125196712.177 4        38.250    23824149.502    97555883.126 6
        22.500
  20368779.006   107038679.652 8        55.000    20368786.986    83406768.457 9
        44.500
 18  2 21  9 48  0.0000000  0  7G02G05G07G09G13G28G30
  23192882.506   121879386.765 5        40.750    23192886.466    94970944.252 7
        26.250
  20676505.384   108655768.678 7        51.750    20676510.704    84666832.016 8
        40.000
  21040340.780   110567758.082 8        52.750    21040346.400    86156699.671 8
        40.500
  22870464.988   120185105.885 7        47.500    22870472.668    93650732.507 7
        33.000
  22913191.488   120409649.373 6        46.000    22913196.548    93825703.574 7
        27.500
  23806164.222   125102232.812 5        40.000    23806171.902    97482262.995 6
        21.500
  20366900.406   107028808.515 8        54.750    20366908.366    83399076.658 9
        44.500
 18  2 21  9 48 30.0000000  0  7G02G05G07G09G13G28G30
  23207828.886   121957924.902 5        41.250    23207832.166    95032142.768 7
        29.250
  20670395.504   108623660.661 7        51.500    20670401.044    84641812.775 9
        41.250
  21048025.700   110608143.760 8        53.500    21048031.040    86188169.018 8
        40.750
  22886965.568   120271816.897 6        46.500    22886973.368    93718299.497 7
        33.000
  22896668.388   120322823.717 6        45.750    22896674.268    93758047.225 7
        28.000
  23788211.662   125007889.275 5        40.750    23788217.202    97408748.518 6
        22.000
  20365124.346   107019473.853 8        54.000    20365132.086    83391802.887 9
        44.750
 18  2 21  9 49  0.0000000  0  7G02G05G07G09G13G28G30
  23222826.526   122036745.736 4        38.500    23222830.946    95093561.524 6
        25.000
  20664382.524   108592062.903 7        51.500    20664388.164    84617191.139 8
        40.750
  21055793.040   110648961.586 8        54.000    21055798.360    86219975.108 8
        40.500
  22903493.348   120358671.982 6        44.750    22903501.728    93785978.745 7
        32.750
  22880177.468   120236160.735 6        45.000    22880182.688    93690517.623 7
        27.500
  23770285.282   124913684.746 5        41.000    23770291.262    97335342.467 6
        24.500
  20363449.886   107010675.552 8        55.000    20363457.906    83384947.071 9
        44.250
 18  2 21  9 49 30.0000000  0  7G02G05G07G09G13G28G30
  23237879.266   122115846.493 5        41.000    23237883.626    95155198.461 7
        27.250
  20658467.024   108560977.003 7        51.000    20658472.584    84592968.360 8
        40.750
  21063642.220   110690209.581 8        53.500    21063647.820    86252116.390 8
        40.250
  22920048.768   120445670.526 6        45.500    22920056.728    93853769.777 7
        32.750
  22863716.628   120149661.238 6        44.750    22863722.268    93623115.436 7
        28.250
  23752384.602   124819622.196 4        38.250    23752392.242    97262046.961 6
        21.250
  20361877.886   107002413.473 8        54.750    20361885.906    83378509.080 9
        45.250
 18  2 21  9 50  0.0000000  0  7G02G05G07G09G13G28G30
  23252983.906   122195224.418 5        41.250    23252989.046    95217051.330 7
        27.500
  20652649.524   108530404.400 8        52.250    20652654.824    84569145.557 8
        40.750
  21071573.280   110731886.526 8        53.750    21071578.340    86284591.920 8
        40.250
  22936631.288   120532811.600 6        45.500    22936638.548    93921671.866 7
        32.750
  22847288.368   120063326.087 6        46.000    22847293.788    93555841.304 7
        28.500
  23734513.202   124725704.305 4        37.750    23734519.562    97188864.258 6
        21.750
  20360407.566   106994687.265 8        54.500    20360415.406    83372488.660 9
        44.250
 18  2 21  9 50 30.0000000  0  7G02G05G07G09G13G28G30
  23268141.566   122274876.862 5        41.500    23268146.166    95279118.130 7
        27.250
  20646929.884   108500346.346 8        52.250    20646935.324    84545723.698 9
        41.500
  21079585.580   110773990.748 8        54.000    21079590.720    86317400.404 8
        40.000
  22953240.168   120620094.205 6        44.500    22953248.048    93989684.248 7
        32.250
  22830890.068   119977155.750 6        43.250    22830896.228    93488695.601 7
        29.000
  23716670.202   124631934.508 5        39.750    23716675.002    97115796.962 6
        22.000
  20359039.166   106987496.448 8        54.250    20359046.986    83366885.430 9
        44.500
 18  2 21  9 51  0.0000000  0  7G02G05G07G09G13G28G30
  23283351.286   122354800.972 5        41.250    23283355.246    95341396.627 7
        28.500
  20641308.124   108470804.431 7        51.500    20641313.404    84522704.024 9
        41.500
  21087678.480   110816520.720 8        53.000    21087684.340    86350540.632 8
        40.000
  22969877.028   120707517.718 6        45.250    22969884.268    94057806.430 7
        32.000
  22814524.468   119891151.340 6        44.000    22814530.108    93421679.202 7
        29.500
  23698853.662   124538315.139 3        36.500    23698860.502    97042846.878 6
        20.250
  20357772.566   106980840.829 8        54.500    20357780.826    83361699.232 9
        44.250
 18  2 21  9 51 30.0000000  0  7G02G05G07G09G13G28G30
  23298611.186   122434993.633 5        41.250    23298615.586    95403884.362 7
        27.500
  20635784.724   108441779.593 7        51.750    20635790.284    84500087.270 8
        41.000
  21095852.560   110859474.641 8        53.750    21095858.000    86384011.204 8
        39.750
  22986539.448   120795081.224 6        45.000    22986546.888    94126037.698 7
        30.750
  22798189.748   119805313.628 6        44.000    22798195.568    93354792.686 7
        28.750
  23681067.884   124444849.397 5        39.250    23681075.184    96970016.485 6
        22.250
  20356607.686   106974719.956 8        54.250    20356615.786    83356929.723 9
        44.750
 18  2 21  9 52  0.0000000  0  8G02G05G07G09G13G20G28G30
  23313922.166   122515452.207 6        42.750    23313926.606    95466579.317 7
        26.750
  20630360.424   108413273.529 8        52.500    20630365.904    84477874.749 9
        41.500
  21104106.760   110902851.141 8        53.250    21104112.040    86417811.070 8
        39.500
  23003228.768   120882783.995 6        44.500    23003236.468    94194377.491 7
        31.000
  22781886.950   119719643.693 6        44.500    22781892.790    93288036.893 7
        28.750
  24442101.698   128444107.923 5        40.500    24442106.638   100086320.206 6
        19.000
  23663311.184   124351540.075 4        38.000    23663317.884    96897307.955 6
        21.250
  20355545.066   106969133.527 8        54.250    20355552.726    83352576.657 9
        44.500
 18  2 21  9 52 30.0000000  0  8G02G05G07G09G13G20G28G30
  23329282.726   122596173.695 6        42.500    23329287.586    95529479.117 7
        27.000
  20625034.624   108385287.494 7        51.750    20625040.204    84456067.444 9
        41.500
  21112441.100   110946648.260 8        53.250    21112446.460    86451938.680 8
        40.000
  23019944.608   120970625.153 6        44.250    23019952.528    94262825.103 7
        30.750
  22765616.830   119634141.993 6        43.500    22765622.630    93221412.206 7
        28.000
  24421819.738   128337531.999 4        37.250    24421825.598   100003274.034 5
        17.750
  23645586.684   124258390.412 5        41.000    23645593.244    96824723.905 6
        23.000
  20354583.326   106964081.055 8        54.250    20354590.946    83348639.678 9
        44.500
 18  2 21  9 53  0.0000000  0  8G02G05G07G09G13G20G28G30
  23344694.126   122677155.589 6        44.250    23344698.126    95592581.855 7
        27.500
  20619808.484   108357823.275 7        51.250    20619813.524    84434666.756 9
        41.750
  21120855.220   110990864.898 8        53.500    21120860.400    86486393.193 8
        39.500
  23036686.528   121058604.074 6        44.000    23036694.148    94331380.066 7
        30.250
  22749378.790   119548809.637 6        43.750    22749385.090    93154919.485 7
        28.500
  24401567.278   128231093.331 5        40.750    24401573.158    99920334.841 6
        21.250
  23627890.624   124165403.224 4        38.250    23627898.344    96752266.392 6
        22.750
  20353723.506   106959562.332 8        54.750    20353731.326    83345118.593 9
        45.000
 18  2 21  9 53 30.0000000  0  8G02G05G07G09G13G20G28G30
  23360152.566   122758394.922 6        42.500    23360157.306    95655885.179 7
        26.500
  20614681.604   108330881.704 8        52.250    20614687.264    84413673.322 9
        41.750
  21129348.960   111035499.083 8        54.250    21129354.480    86521173.088 8
        39.500
  23053454.388   121146719.699 6        43.750    23053462.348    94400041.537 7
        30.250
  22733172.790   119463647.284 6        43.250    22733178.530    93088559.222 7
        29.250
  24381335.978   128124793.880 2        34.750    24381342.958    99837504.090 5
        16.250
  23610226.124   124072581.152 4        37.750    23610232.604    96679937.542 6
        20.000
  20352965.206   106955576.700 8        53.000    20352973.166    83342012.898 9
        45.000
 18  2 21  9 54  0.0000000  0  8G02G05G07G09G13G20G28G30
  23375661.466   122839888.961 6        45.500    23375664.926    95719386.952 7
        28.250
  20609654.424   108304464.615 8        53.000    20609659.384    84393088.573 9
        41.750
  21137921.580   111080549.280 8        53.000    21137926.880    86556277.129 8
        40.250
  23070247.768   121234971.414 6        45.250    23070255.288    94468809.074 7
        31.000
  22716999.570   119378655.853 6        45.500    22717005.430    93022332.158 7
        29.750
  24361137.658   128018636.044 5        39.500    24361142.018    99754783.704 6
        19.000
  23592597.184   123979927.614 5        42.000    23592603.124    96607740.054 6
        22.500
  20352308.126   106952123.847 8        54.750    20352316.206    83339322.367 9
        44.750
 18  2 21  9 54 30.0000000  0  8G02G05G07G09G13G20G28G30
  23391216.404   122921634.679 6        44.000    23391220.044    95783084.900 7
        27.000
  20604727.764   108278572.921 8        53.250    20604733.004    84372913.227 9
        41.500
  21146572.900   111126013.506 8        53.000    21146578.540    86591703.791 8
        39.750
  23087067.086   121323358.252 6        43.750    23087074.986    94537681.894 7
        30.000
  22700858.590   119293835.986 6        45.000    22700864.550    92956238.775 7
        28.500
  24340963.238   127912622.154 4        37.500    24340969.638    99672175.466 6
        18.500
  23574997.404   123887444.736 5        41.000    23575003.764    96535675.564 6
        21.750
  20351752.366   106949203.188 8        54.250    20351760.146    83337046.523 9
        44.750
 18  2 21  9 55  0.0000000  0  8G02G05G07G09G13G20G28G30
  23406820.124   123003629.410 6        44.250    23406824.104    95846976.835 7
        27.750
  20599900.864   108253207.834 8        53.250    20599906.144    84353148.221 9
        42.000
  21155303.400   111171890.454 8        53.250    21155308.520    86627452.048 8
        39.000
  23103912.766   121411879.561 6        45.500    23103919.986    94606659.507 7
        30.500
  22684751.450   119209188.779 6        46.500    22684756.390    92890279.931 7
        28.750
  24320817.298   127806754.399 4        37.750    24320822.978    99589681.215 5
        17.250
  23557432.004   123795135.924 5        41.500    23557437.084    96463746.678 6
        22.000
  20351297.846   106946814.378 8        53.750    20351305.606    83335185.118 9
        44.500
 18  2 21  9 55 30.0000000  0  8G02G05G07G09G13G20G28G30
  23422470.224   123085869.882 6        45.750    23422473.264    95911060.289 7
        28.500
  20595174.524   108228370.503 8        52.500    20595179.944    84333794.450 9
        41.750
  21164111.540   111218178.362 8        53.500    21164117.140    86663520.537 8
        39.500
  23120783.006   121500534.377 6        45.500    23120790.766    94675741.142 7
        30.250
  22668675.690   119124714.940 6        45.500    22668681.610    92824456.163 7
        29.750
  24300699.558   127701035.377 4        38.250    24300704.238    99507302.667 6
        19.500
  23539897.504   123703004.334 4        39.000    23539905.884    96391955.856 6
        21.500
  20350944.206   106944956.702 8        54.250    20350951.986    83333737.576 9
        44.500
 18  2 21  9 56  0.0000000  0  8G02G05G07G09G13G20G28G30
  23438165.684   123168353.450 6        43.750    23438169.804    95975333.142 7
        26.750
  20590548.804   108204062.745 8        52.750    20590554.344    84314853.336 9
        41.250
  21172997.880   111264875.764 8        53.000    21173003.160    86699908.114 8
        40.000
  23137678.446   121589322.184 6        46.250    23137687.166    94744926.406 7
        30.500
  22652634.730   119040415.542 6        47.000    22652639.690    92758768.337 7
        30.000
  24280609.880   127595467.426 3        37.000    24280616.580    99425041.992 5
        17.750
  23522402.424   123611052.352 6        42.250    23522407.724    96320305.055 6
        22.750
  20350691.566   106943629.981 8        54.000    20350699.646    83332703.772 9
        44.750
 18  2 21  9 56 30.0000000  0  8G02G05G07G09G13G20G28G30
  23453908.364   123251077.638 6        46.000    23453911.064    96039793.507 7
        27.250
  20586024.084   108180285.428 8        52.500    20586029.564    84296325.552 9
        42.000
  21181961.680   111311980.667 8        53.000    21181967.080    86736613.223 8
        39.250
  23154599.446   121678242.017 6        45.500    23154606.906    94814214.546 7
        30.250
  22636626.790   118956291.242 6        46.750    22636631.850    92693216.948 7
        29.000
  24260550.860   127490052.731 4        38.000    24260555.800    99342900.660 6
        18.250
  23504938.064   123519283.021 5        40.000    23504944.244    96248796.547 6
        22.250
  20350540.026   106942833.470 8        54.500    20350547.926    83332083.110 9
        44.500
 18  2 21  9 57  0.0000000  0  8G02G05G07G09G13G20G28G30
  23469694.124   123334039.240 6        43.500    23469698.764    96104438.901 7
        26.500
  20581601.004   108157040.126 8        53.000    20581606.504    84278212.323 9
        41.500
  21191002.940   111359491.568 8        54.250    21191008.000    86773634.679 8
        39.750
  23171545.706   121767293.046 6        44.750    23171553.946    94883604.916 7
        30.750
  22620651.330   118872342.642 6        45.500    22620656.910    92627802.465 7
        29.000
  24240520.660   127384793.328 4        38.500    24240525.800    99260880.323 6
        19.250
  23487510.964   123427699.545 5        40.750    23487516.664    96177432.871 6
        22.500
  20350489.486   106942566.630 8        54.250    20350497.386    83331875.187 9
        45.000
 18  2 21  9 57 30.0000000  0  8G02G05G07G09G13G20G28G30
  23485527.144   123417235.198 6        44.250    23485530.824    96169266.845 7
        28.750
  20577278.744   108134327.311 8        52.750    20577284.064    84260514.026 9
        42.000
  21200120.480   111407406.582 8        52.750    21200125.900    86810971.053 8
        39.000
  23188516.026   121856474.396 6        44.500    23188523.786    94953096.833 7
        30.500
  22604710.150   118788570.682 6        46.000    22604715.850    92562525.615 7
        29.500
  24220520.260   127279692.093 4        37.500    24220526.200    99178983.317 6
        19.750
  23470119.324   123336305.001 5        41.000    23470125.204    96106216.361 6
        22.750
  20350539.166   106942828.772 8        54.500    20350547.046    83332079.452 9
        45.250
 18  2 21  9 58  0.0000000  0  8G02G05G07G09G13G20G28G30
  23501402.224   123500662.830 6        42.750    23501405.364    96234275.373 6
        24.250
  20573058.104   108112148.659 8        53.000    20573063.984    84243231.950 9
        41.500
  21209315.260   111455724.101 8        53.750    21209320.460    86848621.061 8
        39.750
  23205511.906   121945785.423 6        44.250    23205519.726    95022689.795 7
        31.000
  22588802.150   118704976.247 6        45.500    22588808.090    92497387.109 7
        30.250
  24200551.420   127174751.394 5        40.250    24200555.920    99097211.348 6
        20.250
  23452762.784   123245101.921 5        39.250    23452768.664    96035149.076 6
        21.750
  20350689.846   106943619.505 8        54.000    20350697.726    83332695.603 9
        45.250
 18  2 21  9 58 30.0000000  0  8G02G05G07G09G13G20G28G30
  23517321.104   123584319.269 5        42.000    23517326.484    96299462.138 6
        26.000
  20568939.464   108090505.449 7        52.000    20568944.864    84226367.108 9
        42.000
  21218586.060   111504442.644 8        52.750    21218591.240    86886583.571 8
        39.000
  23222531.406   122035225.433 6        44.750    23222540.026    95092383.254 7
        31.750
  22572928.550   118621560.439 6        44.750    22572934.390    92432387.786 7
        30.250
  24180611.960   127069973.373 4        38.500    24180618.640    99015566.128 6
        19.500
  23435445.924   123154093.060 6        42.500    23435450.864    95964233.102 6
        23.250
  20350940.426   106944938.214 8        53.500    20350948.346    83333723.169 9
        44.500
 18  2 21  9 59  0.0000000  0  8G02G05G07G09G13G20G28G30
  23533283.584   123668201.764 5        41.000    23533287.664    96364825.068 6
        25.500
  20564922.924   108069398.594 7        52.000    20564928.364    84209920.204 9
        42.000
  21227932.900   111553560.748 8        53.000    21227938.000    86924857.414 8
        39.000
  23239575.726   122124793.388 6        43.500    23239584.466    95162176.422 7
        31.500
  22557089.590   118538324.056 6        45.000    22557095.470    92367528.275 7
        30.250
  24160705.120   126965359.997 5        39.750    24160710.740    98934049.284 6
        20.500
  23418162.884   123063281.451 4        39.000    23418171.204    95893470.925 6
        22.250
  20351292.066   106946784.159 8        53.750    20351299.846    83335161.577 9
        44.500
 18  2 21  9 59 30.0000000  0  8G02G05G07G09G13G20G28G30
  23549288.104   123752307.387 6        42.250    23549292.664    96430361.860 6
        25.250
  20561008.744   108048829.481 8        52.750    20561014.264    84193892.318 9
        41.250
  21237355.340   111603076.083 8        52.750    21237360.740    86963440.784 8
        39.500
  23256644.386   122214488.782 6        44.000    23256652.206    95232068.872 7
        31.250
  22541284.490   118455267.719 6        45.000    22541290.010    92302809.067 7
        30.250
  24140829.420   126860914.753 5        40.250    24140835.200    98852663.353 6
        20.750
  23400921.504   122972670.062 5        41.500    23400925.784    95822864.670 6
        21.500
  20351743.526   106949156.878 8        53.250    20351751.346    83337010.445 9
        44.250
                            4  1
RINEX FILE SPLICE; other post-header comments skipped       COMMENT
 18  2 21 10  0  0.0000000  0  8G02G05G07G09G13G20G28G30
  23565335.064   123836633.318 5        41.750    23565338.604    96496070.320 6
        25.500
  20557197.204   108028799.049 8        53.250    20557202.564    84178284.181 9
        41.750
  21246852.860   111652987.294 8        52.750    21246858.460    87002332.632 8
        38.750
  23273736.646   122304310.760 6        44.250    23273744.766    95302059.998 7
        30.500
  22525514.110   118372392.386 6        45.250    22525519.610    92238230.894 7
        30.500
  24120986.080   126756639.368 5        40.250    24120992.600    98771409.843 6
        21.500
  23383716.346   122882261.988 5        39.750    23383723.026    95752416.832 6
        22.500
  20352294.786   106952055.737 8        54.500    20352302.686    83339269.284 9
        44.500
 18  2 21 10  0 30.0000000  0  8G02G05G07G09G13G20G28G30
  23581423.684   123921176.391 6        43.750    23581428.644    96561947.999 7
        27.000
  20553488.344   108009308.598 8        53.000    20553493.704    84163096.814 9
        41.500
  21256426.000   111703292.526 8        53.000    21256430.980    87041531.511 8
        38.250
  23290853.606   122394258.430 6        44.500    23290861.666    95372149.026 7
        31.500
  22509777.330   118289699.003 6        45.000    22509783.470    92173794.506 7
        29.500
  24101176.520   126652536.199 4        39.000    24101181.040    98690290.484 6
        19.000
  23366551.066   122792059.691 5        41.250    23366558.346    95682129.416 6
        24.000
  20352946.806   106955479.855 8        54.000    20352954.606    83341937.422 9
        44.750
 18  2 21 10  1  0.0000000  0  8G02G05G07G09G13G20G28G30
  23597553.124   124005934.033 5        41.000    23597556.484    96627992.833 6
        25.250
  20549882.264   107990359.363 8        53.000    20549887.864    84148331.167 9
        41.750
  21266073.640   111753990.171 8        53.000    21266078.760    87081036.161 8
        38.750
  23307993.706   122484331.269 6        45.000    23308001.666    95442335.614 7
        31.500
  22494076.430   118207188.264 6        44.000    22494081.950    92109500.436 7
        29.750
  24081400.360   126548607.820 5        41.250    24081406.120    98609307.343 6
        22.000
  23349426.446   122702066.643 5        42.000    23349429.906    95612004.969 6
        21.500
  20353697.946   106959428.872 8        55.000    20353706.086    83345014.580 9
        45.000
 18  2 21 10  1 30.0000000  0  8G02G05G07G09G13G20G28G30
  23613722.084   124090903.041 5        41.750    23613725.064    96694202.429 6
        25.000
  20546379.624   107971951.949 8        53.500    20546385.004    84133987.723 9
        41.500
  21275795.200   111805078.365 8        53.250    21275800.220    87120845.143 8
        38.500
  23325157.686   122574528.209 6        45.000    23325165.386    95512618.909 7
        30.500
  22478410.432   118124861.155 6        44.500    22478415.452    92045349.450 7
        31.000
  24061655.220   126444856.503 4        37.750    24061661.520    98528462.254 6
        18.500
  23332342.206   122612285.103 6        42.500    23332348.106    95542045.393 6
        22.750
  20354549.306   106963901.798 8        55.000    20354557.426    83348499.981 9
        45.000
 18  2 21 10  2  0.0000000  0  8G02G05G07G09G13G20G28G30
  23629930.324   124176080.883 5        41.750    23629935.844    96760574.655 7
        27.000
  20542980.264   107954087.758 8        53.000    20542985.484    84120067.576 9
        42.000
  21285591.138   111856555.373 8        52.750    21285595.778    87160957.091 8
        38.750
  23342344.806   122664848.624 6        46.000    23342353.146    95582998.396 7
        30.750
  22462779.312   118042718.681 6        45.250    22462785.192    91981342.348 7
        30.000
  24041948.440   126341284.726 5        41.500    24041952.740    98447756.911 6
        23.000
  23315298.066   122522718.245 6        43.000    23315304.426    95472253.087 6
        24.000
  20355500.006   106968898.086 8        53.500    20355508.066    83352393.182 9
        44.750
 18  2 21 10  2 30.0000000  0  8G02G05G07G09G13G20G28G30
  23646178.924   124261464.484 5        41.500    23646181.844    96827107.306 6
        23.500
  20539684.064   107936767.581 8        53.500    20539689.924    84106571.326 9
        41.500
  21295460.538   111908419.730 8        53.250    21295465.238    87201370.861 8
        39.000
  23359555.786   122755291.784 6        46.000    23359564.126    95653473.548 7
        30.250
  22447182.992   117960761.395 6        45.000    22447188.252    91917479.544 7
        30.000
  24022271.800   126237894.856 3        37.000    24022278.560    98367193.463 6
        20.250
  23298295.086   122433368.902 5        42.000    23298299.846    95402630.258 6
        20.750
  20356550.766   106974416.964 8        55.000    20356558.246    83356693.615 9
        45.000
 18  2 21 10  3  0.0000000  0  8G02G05G07G09G13G20G28G30
  23662464.804   124347050.756 5        40.750    23662469.004    96893797.844 6
        26.000
  20536492.084   107919992.714 8        53.000    20536497.384    84093499.997 9
        42.000
  21305403.318   111960669.329 8        53.000    21305408.258    87242084.826 8
        38.750
  23376789.726   122845856.703 6        46.000    23376797.986    95724043.557 7
        30.500
  22431622.152   117878990.156 6        44.250    22431627.532    91853761.685 7
        30.250
  24002634.580   126134689.375 5        41.500    24002639.280    98286773.573 6
        21.500
  23281333.826   122344240.056 6        43.250    23281341.206    95333179.229 6
        23.500
  20357699.966   106980457.522 8        54.500    20357707.406    83361400.539 9
        45.000
 18  2 21 10  3 30.0000000  0  8G02G05G07G09G13G20G28G30
  23678790.624   124432836.638 5        42.000    23678795.404    96960643.943 7
        27.750
  20533403.624   107903763.972 8        53.000    20533409.424    84080854.218 9
        41.500
  21315418.798   112013302.621 8        52.500    21315423.858    87283097.771 8
        38.500
  23394046.504   122936542.758 6        45.500    23394055.204    95794707.950 7
        30.500
  22416097.412   117797406.080 6        45.000    22416103.052    91790189.698 7
        31.000
  23983029.322   126031670.706 4        37.500    23983034.462    98206499.352 6
        20.000
  23264417.086   122255334.557 6        44.500    23264423.646    95263902.274 6
        23.750
  20358948.646   106987019.167 8        54.500    20358956.386    83366513.509 9
        44.750
 18  2 21 10  4  0.0000000  0  8G02G05G07G09G13G20G28G30
  23695150.822   124518819.799 5        40.000    23695154.102    97027643.710 6
        24.750
  20530419.744   107888082.547 8        52.500    20530425.464    84068634.911 9
        42.000
  21325507.198   112066317.991 8        52.250    21325512.598    87324408.441 8
        38.750
  23411326.564   123027349.256 6        45.500    23411335.704    95865466.226 7
        30.500
  22400607.732   117716010.029 6        45.000    22400614.092    91726764.214 7
        31.000
  23963462.162   125928841.299 5        40.000    23963467.842    98126372.503 6
        20.500
  23247540.706   122166655.368 6        43.250    23247544.806    95194801.616 6
        21.000
  20360296.206   106994101.218 8        55.500    20360304.006    83372031.984 9
        44.500
 18  2 21 10  4 30.0000000  0  8G02G05G07G09G13G20G28G30
  23711551.502   124604997.025 5        42.000    23711555.542    97094794.792 7
        27.500
  20527539.964   107872949.427 8        52.250    20527545.744    84056842.870 9
        41.500
  21335668.038   112119713.550 8        52.500    21335673.718    87366015.349 8
        38.500
  23428629.584   123118275.450 6        46.000    23428638.184    95936317.732 7
        30.000
  22385155.432   117634802.720 6        45.500    22385160.432    91663485.819 7
        30.500
  23943931.862   125826203.491 5        39.250    23943935.802    98046395.010 6
        21.500
  23230710.286   122078205.141 6        44.000    23230716.306    95125879.400 6
        25.250
  20361742.586   107001702.824 8        54.500    20361750.546    83377955.322 9
        44.500
 18  2 21 10  5  0.0000000  0  8G02G05G07G09G13G20G28G30
  23727985.482   124691365.430 4        38.250    23727990.442    97162094.735 6
        25.000
  20524764.604   107858365.529 7        51.500    20524770.304    84045478.787 9
        42.000
  21345900.758   112173487.156 8        52.500    21345905.998    87407916.852 8
        39.000
  23445954.264   123209320.272 6        45.000    23445963.424    96007261.702 7
        29.750
  22369737.912   117553784.934 6        46.500    22369743.712    91600355.095 7
        31.000
  23924435.362   125723759.717 4        37.500    23924441.462    97966568.695 6
        19.250
  23213921.906   121989986.972 5        41.000    23213927.066    95057137.988 6
        22.000
  20363287.786   107009822.923 8        54.500    20363295.366    83384282.663 9
        44.250
 18  2 21 10  5 30.0000000  0  8G02G05G07G09G13G20G28G30
  23744458.242   124777922.347 5        41.750    23744461.082    97229541.668 7
        26.500
  20522094.164   107844331.985 8        52.500    20522099.704    84034543.550 9
        42.000
  21356205.378   112227637.687 8        53.000    21356210.398    87450112.070 8
        38.500
  23463302.924   123300483.471 6        46.250    23463310.724    96078297.899 7
        29.500
  22354356.932   117472958.067 6        46.500    22354362.412    91537373.130 7
        30.500
  23904981.122   125621512.873 5        41.750    23904985.062    97886895.848 6
        22.000
  23197179.866   121902003.747 5        41.500    23197183.946    94988579.678 6
        22.000
  20364931.466   107018461.184 8        54.000    20364939.706    83391013.778 9
        44.500
 18  2 21 10  6  0.0000000  0  8G02G05G07G09G13G20G28G30
  23760962.742   124864664.550 4        37.500    23760968.382    97297132.902 6
        23.750
  20519528.744   107830849.222 8        52.750    20519534.364    84024037.493 9
        42.000
  21366581.138   112282162.753 8        53.250    21366586.338    87492599.121 8
        39.250
  23480672.084   123391763.642 6        45.500    23480681.464    96149425.256 7
        29.250
  22339012.432   117392322.015 6        46.000    22339018.152    91474539.841 7
        31.250
  23885558.682   125519464.816 3        37.000    23885566.382    97807377.849 6
        19.500
  23180482.506   121814258.005 6        43.250    23180490.866    94920206.354 7
        27.000
  20366673.766   107027616.087 8        55.000    20366681.906    83398147.469 9
        44.500
 18  2 21 10  6 30.0000000  0  8G02G05G07G09G13G20G28G30
  23777505.482   124951589.458 5        39.500    23777508.322    97364866.524 6
        24.250
  20517067.944   107817918.829 8        53.250    20517073.444    84013961.860 9
        41.750
  21377028.118   112337061.278 7        52.000    21377033.518    87535377.189 8
        38.500
  23498065.504   123483160.753 6        44.500    23498074.024    96220643.729 7
        29.750
  22323704.432   117311878.342 6        46.500    22323710.692    91411856.476 7
        31.250
  23866180.982   125417618.400 6        42.750    23866183.062    97728017.069 6
        21.000
  23163829.826   121726753.099 6        42.500    23163837.746    94852020.809 6
        22.500
  20368514.166   107037287.549 8        54.000    20368522.426    83405683.681 9
        44.500
 18  2 21 10  7  0.0000000  0  8G02G05G07G09G13G20G28G30
  23794080.042   125038693.623 5        39.500    23794084.642    97432739.867 6
        22.500
  20514712.404   107805540.911 8        52.750    20514718.084    84004316.721 9
        41.500
  21387545.338   112392331.127 7        52.000    21387551.018    87578444.591 8
        38.000
  23515480.344   123574673.678 6        44.250    23515488.984    96291952.424 7
        29.750
  22308433.512   117231628.169 6        46.000    22308439.232    91349323.878 7
        31.500
  23846836.002   125315976.253 4        38.000    23846844.382    97648815.343 6
        21.500
  23147226.046   121639491.706 6        44.500    23147230.286    94784024.912 6
        23.500
  20370452.786   107047474.361 8        54.500    20370460.366    83413621.447 9
        44.250
 18  2 21 10  7 30.0000000  0  8G02G05G07G09G13G20G28G30
  23810689.622   125125974.339 5        40.000    23810693.882    97500750.731 6
        26.000
  20512462.544   107793716.729 8        53.750    20512468.124    83995103.064 9
        42.000
  21398133.298   112447970.226 8        52.250    21398138.638    87621799.717 8
        38.500
  23532915.924   123666301.488 6        44.000    23532923.804    96363350.695 7
        29.500
  22293199.452   117151571.903 6        46.250    22293205.052    91286942.392 7
        31.500
  23827536.822   125214539.969 6        43.000    23827539.982    97569774.218 6
        22.000
  23130667.026   121552476.261 6        43.000    23130674.346    94716220.719 6
        26.000
  20372489.186   107058175.429 8        54.500    20372496.606    83421959.949 9
        44.500
 18  2 21 10  8  0.0000000  0  8G02G05G07G09G13G20G28G30
  23827330.942   125213428.663 4        37.750    23827335.982    97568896.881 6
        22.750
  20510318.064   107782447.148 8        53.000    20510323.704    83986321.577 9
        42.000
  21408791.118   112503977.080 7        52.000    21408796.258    87665441.407 8
        38.000
  23550373.184   123758043.471 6        44.250    23550382.244    96434837.910 7
        29.000
  22278002.372   117071710.551 6        46.250    22278007.672    91224712.784 7
        31.500
  23808270.522   125113312.549 5        40.000    23808275.842    97490895.580 6
        19.500
  23114155.326   121465709.890 6        43.250    23114160.826    94648610.621 6
        22.500
  20374623.066   107069389.903 8        55.250    20374630.446    83430698.499 9
        44.250
 18  2 21 10  8 30.0000000  0  8G02G05G07G09G13G20G28G30
  23844005.642   125301054.157 4        37.750    23844009.622    97637176.454 6
        23.000
  20508279.004   107771732.893 8        53.500    20508284.704    83977972.798 9
        42.000
  21419518.698   112560349.764 7        52.000    21419524.018    87709368.172 8
        38.500
  23567853.124   123849898.977 6        44.500    23567861.484    96506413.561 7
        28.750
  22262842.572   116992044.673 6        45.250    22262847.792    91162635.482 7
        31.750
  23789049.642   125012296.516 5        41.500    23789055.602    97412181.923 6
        22.500
  23097691.686   121379195.332 6        42.500    23097696.646    94581196.681 6
        22.500
  20376854.806   107081116.975 8        54.000    20376862.286    83439836.476 9
        44.500
 18  2 21 10  9  0.0000000  0  8G02G05G07G09G13G20G28G30
  23860712.502   125388847.281 4        38.500    23860717.722    97705586.586 6
        21.750
  20506345.904   107761574.783 8        52.250    20506351.744    83970057.382 9
        42.750
  21430314.918   112617086.611 8        52.500    21430320.398    87753578.689 8
        38.250
  23585354.564   123941867.374 6        45.500    23585362.844    96578077.224 7
        29.250
  22247719.652   116912575.662 6        45.000    22247725.392    91100711.580 7
        31.500
  23769867.222   124911494.699 5        40.500    23769871.862    97333634.991 6
        21.500
  23081277.988   121292935.601 6        43.750    23081283.128    94513981.370 6
        25.750
  20379183.826   107093355.861 8        54.250    20379191.146    83449373.266 9
        44.500
 18  2 21 10  9 30.0000000  0  8G02G05G07G09G13G20G28G30
  23877449.982   125476805.295 5        39.250    23877455.082    97774125.223 6
        22.250
  20504519.024   107751973.862 8        52.250    20504524.444    83962576.147 9
        42.000
  21441180.398   112674186.134 7        52.000    21441186.238    87798071.814 8
        38.500
  23602876.564   124033947.805 6        44.250    23602885.204    96649828.144 7
        28.250
  22232634.192   116833304.332 6        45.250    22232640.712    91038941.723 7
        32.000
  23750726.522   124810909.127 5        39.250    23750731.022    97255256.666 6
        21.250
  23064911.888   121206933.519 6        44.000    23064915.308    94446966.763 6
        22.750
  20381609.986   107106105.478 8        54.500    20381617.766    83459308.029 9
        44.250
 18  2 21 10 10  0.0000000  0  8G02G05G07G09G13G20G28G30
  23894220.382   125564925.818 5        40.750    23894223.502    97842790.506 6
        24.500
  20502798.364   107742931.029 8        53.000    20502803.924    83955529.771 9
        42.500
  21452115.078   112731646.347 8        52.250    21452119.958    87842846.000 8
        38.250
  23620420.244   124126139.806 6        43.500    23620427.964    96721666.010 7
        27.500
  22217588.052   116754231.564 6        45.000    22217593.312    90977326.589 7
        32.000
  23731627.422   124710542.576 5        41.000    23731633.862    97177048.962 6
        22.500
  23048596.468   121121191.982 6        43.250    23048601.008    94380155.231 6
        24.500
  20384132.986   107119365.128 8        54.500    20384140.266    83469640.224 9
        44.250
 18  2 21 10 10 30.0000000  0  8G02G05G07G09G13G20G28G30
  23911017.282   125653204.954 5        40.250    23911023.542    97911579.336 6
        23.750
  20501183.324   107734446.272 8        52.500    20501189.384    83948918.264 9
        42.000
  21463117.618   112789464.717 8        52.500    21463122.618    87887899.265 8
        37.500
  23637984.324   124218441.942 6        43.250    23637992.944    96793589.676 7
        27.250
  22202578.472   116675357.817 6        46.500    22202584.612    90915866.536 7
        32.250
  23712569.982   124610396.769 4        37.750    23712574.702    97099013.311 6
        19.500
  23032329.188   121035713.607 6        43.000    23032336.948    94313548.746 6
        25.000
  20386752.704   107133133.210 8        54.500    20386760.624    83480368.598 9
        44.000
 18  2 21 10 11  0.0000000  0  8G02G05G07G09G13G20G28G30
  23927847.642   125741640.101 5        42.000    23927852.082    97980489.777 6
        25.000
  20499675.704   107726520.756 8        53.750    20499681.344    83942742.539 9
        42.000
  21474187.838   112847639.791 7        51.750    21474193.038    87933230.488 8
        38.000
  23655570.424   124310853.793 6        43.750    23655579.004    96865598.855 7
        29.000
  22187608.012   116596684.363 6        47.000    22187613.512    90854562.556 7
        32.500
  23693556.262   124510474.808 5        39.750    23693561.482    97021152.028 6
        24.250
  23016113.988   120950501.367 6        42.750    23016119.868    94247149.657 6
        23.000
  20389469.764   107147409.037 8        54.500    20389477.564    83491492.604 9
        44.000
 18  2 21 10 11 30.0000000  0  8G02G05G07G09G13G20G28G30
  23944705.662   125830228.483 5        42.000    23944709.302    98049519.618 6
        23.000
  20498274.004   107719155.588 8        52.750    20498279.804    83937003.431 9
        42.750
  21485325.978   112906170.116 7        51.500    21485331.458    87978838.517 8
        38.000
  23673176.004   124403374.794 6        43.750    23673184.624    96937693.080 7
        28.500
  22172674.774   116518212.227 7        47.250    22172680.554    90793415.443 7
        31.750
  23674584.324   124410779.336 4        39.000    23674589.524    96943467.296 6
        22.250
  22999950.768   120865557.981 6        44.250    22999957.088    94180960.034 6
        25.250
  20392282.584   107162191.820 8        54.500    20392290.724    83503011.658 9
        44.000
 18  2 21 10 12  0.0000000  0  8G02G05G07G09G13G20G28G30
  23961592.142   125918967.150 6        42.500    23961595.762    98118666.574 6
        24.000
  20496979.384   107712351.449 8        53.000    20496985.044    83931701.498 9
        42.000
  21496531.438   112965054.181 7        52.000    21496536.978    88024722.195 8
        37.000
  23690802.962   124496004.171 6        44.000    23690812.062    97009871.761 7
        28.750
  22157780.394   116439942.057 7        48.000    22157786.554    90732425.707 7
        31.750
  23655656.324   124311312.600 5        40.500    23655661.724    96865960.716 6
        22.000
  22983837.088   120780886.093 6        42.500    22983844.948    94114981.997 7
        27.500
  20395192.064   107177480.510 8        54.250    20395200.124    83514924.914 9
        44.750
 18  2 21 10 12 30.0000000  0  8G02G05G07G09G13G20G28G30
  23978506.982   126007853.161 5        41.750    23978511.622    98187928.331 6
        25.000
  20495791.304   107706108.312 8        52.500    20495796.344    83926836.710 9
        42.250
  21507803.278   113024289.779 7        51.750    21507808.978    88070879.796 8
        37.500
  23708450.662   124588740.980 6        43.500    23708459.582    97082134.146 7
        29.000
  22142924.814   116361874.827 7        47.500    22142930.634    90671594.107 7
        32.250
  23636772.084   124212077.064 5        39.500    23636778.324    96788634.343 6
        22.250
  22967777.428   120696488.702 6        44.250    22967782.008    94049217.831 6
        25.000
  20398197.484   107193273.849 8        54.500    20398205.564    83527231.408 9
        44.000
 18  2 21 10 13  0.0000000  0  8G02G05G07G09G13G20G28G30
  23995447.840   126096883.899 5        40.750    23995452.220    98257302.874 6
        25.500
  20494710.424   107700427.267 8        53.000    20494715.744    83922409.915 9
        42.250
  21519141.858   113083874.766 7        52.000    21519147.598    88117309.638 8
        38.250
  23726118.262   124681584.501 6        42.750    23726126.962    97154479.712 7
        28.750
  22128107.974   116284011.184 7        48.500    22128113.694    90610921.143 7
        32.000
  23617933.404   124113075.515 5        40.500    23617938.044    96711490.299 6
        21.750
  22951770.408   120612368.483 6        44.750    22951776.128    93983669.660 6
        24.750
  20401298.684   107209570.857 8        54.500    20401306.344    83539930.378 9
        44.250
 18  2 21 10 13 30.0000000  0  8G02G05G07G09G13G20G28G30
  24012416.920   126186056.199 5        40.500    24012422.300    98326787.732 6
        24.250
  20493736.304   107695309.409 8        52.500    20493741.584    83918421.966 9
        42.500
  21530546.618   113143807.715 7        51.000    21530552.238    88164010.625 8
        38.000
  23743806.282   124774534.394 6        43.000    23743814.922    97226908.136 7
        27.250
  22113329.994   116206352.475 7        48.250    22113335.954    90550407.878 7
        32.500
  23599138.704   124014310.460 5        39.250    23599144.084    96634530.526 6
        22.500
  22935815.888   120528528.596 6        44.250    22935822.108    93918339.937 6
        26.000
  20404495.484   107226370.827 8        54.500    20404503.184    83553021.253 9
        43.750
 18  2 21 10 14  0.0000000  0  8G02G05G07G09G13G20G28G30
  24029413.020   126275367.203 5        39.500    24029416.820    98396380.667 6
        23.750
  20492869.784   107690754.730 8        53.500    20492875.424    83914872.855 9
        42.250
  21542017.418   113204086.656 7        50.750    21542023.458    88210981.213 8
        38.000
  23761513.382   124867589.600 5        42.000    23761521.362    97299418.615 7
        26.750
  22098591.694   116128899.514 7        48.750    22098597.294    90490054.929 7
        32.500
  23580390.924   123915784.184 5        41.000    23580395.164    96557756.841 6
        23.000
  22919915.128   120444971.530 6        45.000    22919919.568    93853230.555 6
        25.750
  20407787.964   107243672.393 8        54.500    20407795.964    83566502.989 9
        44.000
 18  2 21 10 14 30.0000000  0  8G02G05G07G09G13G20G28G30
  24046433.800   126364813.889 5        39.750    24046438.520    98466079.263 6
        22.750
  20492110.104   107686764.106 7        52.000    20492115.444    83911763.270 9
        42.000
  21553553.598   113264709.722 7        50.750    21553559.578    88258219.956 8
        38.000
  23779240.942   124960749.290 6        42.250    23779249.922    97372010.519 7
        28.000
  22083891.874   116051653.354 7        48.500    22083897.354    90429863.126 7
        32.750
  23561686.084   123817499.192 5        39.500    23561692.344    96481171.152 6
        22.750
  22904069.288   120361699.909 6        44.250    22904075.408    93788343.627 7
        26.500
  20411175.444   107261474.414 8        54.500    20411183.144    83580374.691 9
        44.000
 18  2 21 10 15  0.0000000  0  8G02G05G07G09G13G20G28G30
  24063480.900   126454393.076 4        39.000    24063483.920    98535881.195 6
        22.250
  20491458.044   107683337.946 8        52.500    20491463.764    83909093.537 9
        42.750
  21565155.038   113325675.396 7        51.000    21565160.478    88305725.643 8
        37.500
  23796988.922   125054012.701 6        43.500    23796996.902    97444683.268 7
        27.750
  22069231.814   115974614.410 7        48.250    22069237.354    90369832.789 7
        33.000
  23543029.804   123719458.150 5        40.500    23543035.824    96404775.541 6
        22.500
  22888277.548   120278716.698 6        44.250    22888283.448    93723681.412 6
        25.750
  20414658.204   107279775.745 8        55.000    20414665.864    83594635.461 9
        44.000
 18  2 21 10 15 30.0000000  0  8G02G05G07G09G13G20G28G30
  24080551.000   126544102.699 4        38.250    24080556.200    98605784.708 6
        22.750
  20490913.744   107680477.365 7        51.750    20490919.004    83906864.501 9
        41.750
  21576821.138   113386981.638 7        50.000    21576826.818    88353496.729 8
        37.500
  23814756.302   125147379.562 6        43.750    23814764.802    97517436.583 7
        28.500
  22054611.014   115897783.947 7        48.000    22054617.174    90309964.910 8
        33.250
  23524420.864   123621663.945 5        41.250    23524425.124    96328572.278 6
        22.000
  22872542.148   120196024.661 6        45.250    22872546.308    93659246.087 7
        26.500
  20418235.504   107298575.737 8        54.500    20418243.644    83609284.807 9
        44.500
 18  2 21 10 16  0.0000000  0  8G02G05G07G09G13G20G28G30
  24097647.180   126633938.957 4        38.750    24097650.520    98675786.936 6
        24.000
  20490477.004   107678182.386 7        51.500    20490482.744    83905076.203 9
        42.500
  21588552.056   113448626.549 7        50.500    21588557.176    88401531.708 8
        37.750
  23832542.522   125240848.671 6        42.500    23832550.982    97590269.620 7
        28.000
  22040030.914   115821162.719 7        48.000    22040036.054    90250260.069 7
        32.500
  23505857.964   123524118.481 5        39.750    23505863.844    96252562.861 6
        22.000
  22856862.388   120113626.577 6        46.250    22856868.928    93595039.833 7
        27.500
  20421907.904   107317872.760 8        54.000    20421915.484    83624321.441 9
        44.000
 18  2 21 10 16 30.0000000  0  8G02G05G07G09G13G20G28G30
  24114765.740   126723899.068 3        36.250    24114769.160    98745885.671 6
        20.500
  20490148.164   107676453.574 7        51.500    20490153.844    83903729.071 9
        42.500
  21600346.836   113510608.368 7        50.750    21600352.436    88449829.223 8
        37.000
  23850348.582   125334419.307 6        43.500    23850357.522    97663181.714 7
        28.500
  22025490.074   115744751.875 7        47.500    22025495.294    90190719.162 7
        31.750
  23487344.464   123426824.414 5        41.000    23487349.444    96176749.275 6
        25.000
  22841238.408   120031524.998 6        44.250    22841244.548    93531064.632 6
        26.000
  20425674.484   107337665.783 8        53.750    20425681.784    83639744.575 9
        44.250
 18  2 21 10 17  0.0000000  0  8G02G05G07G09G13G20G28G30
  24131906.560   126813980.518 4        39.000    24131911.700    98816078.919 6
        22.250
  20489926.744   107675291.549 7        51.000    20489932.544    83902823.580 9
        43.000
  21612205.016   113572925.243 7        49.250    21612210.336    88498387.811 8
        37.250
  23868173.482   125428090.953 6        43.750    23868182.242    97736172.551 7
        27.250
  22010990.294   115668552.088 7        48.750    22010995.674    90131342.700 7
        32.000
  23468878.144   123329784.303 5        40.500    23468882.684    96101133.644 6
        22.000
  22825672.208   119949722.951 6        45.250    22825677.968    93467322.824 7
        27.250
  20429534.964   107357953.862 8        54.500    20429542.844    83655553.466 9
        44.000
 18  2 21 10 17 30.0000000  0  8G02G05G07G09G13G20G28G30
  24149072.600   126904180.191 3        36.750    24149077.220    98886364.335 6
        21.250
  20489813.844   107674696.624 7        52.000    20489819.064    83902359.998 9
        42.750
  21624127.316   113635575.400 7        50.250    21624132.556    88547206.109 8
        37.500
  23886017.722   125521862.859 6        42.750    23886027.622    97809241.526 7
        27.750
  21996530.114   115592564.516 7        49.000    21996535.754    90072131.622 8
        33.250
  23450459.824   123233000.993 5        40.000    23450466.124    96025718.039 6
        23.500
  22810163.348   119868223.108 6        45.000    22810169.588    93403816.518 7
        27.000
  20433489.624   107378735.756 8        54.250    20433497.144    83671747.156 9
        43.750
 18  2 21 10 18  0.0000000  0  8G02G05G07G09G13G20G28G30
  24166257.680   126994495.083 4        39.000    24166262.280    98956739.465 6
        21.000
  20489808.724   107674669.455 7        51.000    20489814.264    83902338.826 9
        42.750
  21636112.336   113698557.148 7        50.500    21636117.736    88596282.787 8
        37.500
  23903881.642   125615734.110 6        42.500    23903890.202    97882387.871 7
        26.500
  21982110.754   115516789.687 7        49.500    21982116.154    90013086.303 7
        32.750
  23432092.904   123136476.843 5        41.500    23432098.064    95950504.475 6
        22.250
  22794712.288   119787027.920 6        45.000    22794717.808    93340547.571 7
        28.500
  20437538.084   107400010.171 8        54.500    20437546.084    83688324.618 9
        43.750
 18  2 21 10 18 30.0000000  0  8G02G05G07G09G13G20G28G30
  24183465.720   127084922.312 4        38.000    24183470.400    99027202.185 6
        22.500
  20489911.464   107675210.509 7        52.000    20489917.124    83902760.422 9
        43.000
  21648159.916   113761868.401 7        50.750    21648165.756    88645616.235 8
        37.500
  23921763.922   125709704.149 5        42.000    23921772.662    97955611.232 7
        28.500
  21967731.734   115441228.880 7        49.000    21967737.694    89954207.760 7
        32.750
  23413774.104   123040214.471 5        40.250    23413779.324    95875494.797 6
        23.250
  22779319.710   119706140.464 6        44.500    22779325.250    93277518.416 7
        26.250
  20441680.004   107421776.013 8        54.500    20441687.964    83705285.018 9
        44.000
 18  2 21 10 19  0.0000000  0  8G02G05G07G09G13G20G28G30
  24200694.700   127175458.932 4        37.500    24200699.400    99097750.144 6
        22.500
  20490122.964   107676320.530 7        51.500    20490128.244    83903625.363 9
        42.500
  21660270.276   113825507.477 7        50.000    21660275.496    88695205.109 8
        37.750
  23939664.642   125803772.251 5        42.000    23939672.782    98028910.944 7
        27.000
  21953394.074   115365882.841 7        49.250    21953399.834    89895496.581 8
        33.250
  23395506.484   122944216.450 5        41.500    23395511.384    95800691.169 6
        22.250
  22763986.250   119625563.366 6        45.500    22763992.670    93214731.109 7
        28.500
  20445915.464   107444032.107 8        55.000    20445922.924    83722627.417 9
        44.000
 18  2 21 10 19 30.0000000  0  8G02G05G07G09G13G20G28G30
  24217943.280   127266102.075 4        37.500    24217947.400    99168381.105 6
        21.750
  20490442.244   107677999.705 7        50.500    20490448.344    83904933.799 9
        42.500
  21672442.356   113889472.447 7        49.250    21672447.336    88745047.931 8
        37.750
  23957582.802   125897937.581 5        40.750    23957591.302    98102286.502 7
        27.250
  21939097.394   115290752.908 7        49.500    21939102.394    89836953.774 8
        33.750
  23377289.566   122848485.327 5        41.250    23377295.146    95726095.507 6
        24.500
  22748712.010   119545299.244 6        45.750    22748718.630    93152187.677 7
        28.500
  20450243.684   107466777.273 8        54.500    20450251.444    83740350.922 9
        44.250
 18  2 21 10 20  0.0000000  0  8G02G05G07G09G13G20G28G30
  24235212.880   127356848.760 4        39.000    24235216.580    99239092.813 6
        23.000
  20490870.404   107680248.104 7        50.000    20490875.764    83906685.786 9
        42.500
  21684676.056   113953761.366 7        49.500    21684681.396    88795143.188 8
        37.500
  23975520.662   125992199.538 6        42.750    23975530.082    98175737.242 7
        29.500
  21924841.774   115215839.508 7        49.250    21924847.074    89778579.708 8
        34.000
  23359123.006   122753023.316 5        40.250    23359129.526    95651709.533 6
        24.000
  22733498.770   119465351.037 6        46.000    22733504.910    93089890.403 7
        29.250
  20454664.864   107490010.228 8        55.000    20454672.244    83758454.518 9
        44.250
 18  2 21 10 20 30.0000000  0  8G02G05G07G09G13G20G28G30
  24252499.180   127447696.265 3        36.500    24252505.860    99309882.977 6
        22.000
  20491406.484   107683066.235 7        50.500    20491412.404    83908881.728 9
        43.000
  21696971.016   114018372.503 7        49.250    21696976.516    88845489.504 8
        36.500
  23993474.860   126086557.042 5        41.500    23993484.700    98249262.566 6
        24.500
  21910627.854   115141143.730 7        49.250    21910632.974    89720375.204 8
        33.250
  23341009.526   122657833.079 5        42.000    23341014.746    95577535.332 6
        24.000
  22718345.370   119385720.901 6        45.750    22718352.210    93027840.994 7
        29.250
  20459178.104   107513729.556 8        54.750    20459186.084    83776937.107 9
        44.000
 18  2 21 10 21  0.0000000  0  8G02G05G07G09G13G20G28G30
  24269806.740   127538641.664 5        39.250    24269810.420    99380749.452 6
        21.000
  20492051.184   107686454.858 7        51.000    20492057.104    83911522.203 9
        42.500
  21709327.236   114083304.115 7        50.250    21709332.656    88896085.557 8
        37.500
  24011450.620   126181009.878 6        43.000    24011459.780    98322862.088 7
        29.000
  21896454.554   115066666.587 7        48.500    21896460.354    89662341.073 8
        33.750
  23322947.286   122562917.466 5        42.000    23322953.426    95503575.151 6
        25.500
  22703253.730   119306412.095 6        45.000    22703260.470    92966041.975 7
        28.500
  20463784.344   107537934.363 8        54.750    20463791.764    83795797.997 9
        44.000
 18  2 21 10 21 30.0000000  0  9G02G05G07G09G13G15G20G28G30
  24287129.678   127629681.580 4        37.500    24287135.178    99451689.716 6
        21.500
  20492804.804   107690413.613 7        51.000    20492810.304    83914606.933 9
        42.500
  21721743.656   114148554.156 7        51.000    21721749.896    88946929.735 8
        37.500
  24029441.620   126275556.784 5        40.750    24029449.840    98396534.971 6
        24.250
  21882323.876   114992408.737 7        49.000    21882329.776    89604477.819 7
        33.000
  24530362.878   128907923.082 5        40.250    24530371.918   100447747.263 6
        21.000
  23304938.406   122468278.820 6        42.500    23304944.386    95429830.756 6
        24.500
  22688223.090   119227426.726 6        46.000    22688229.170    92904494.979 7
        28.250
  20468482.224   107562622.940 8        55.500    20468490.464    83815035.843 9
        44.000
 18  2 21 10 22  0.0000000  0  9G02G05G07G09G13G15G20G28G30
  24304472.998   127720813.814 5        40.500    24304478.478    99522701.660 6
        24.500
  20493666.784   107694943.327 7        51.750    20493672.164    83918136.585 9
        42.750
  21734221.216   114214121.092 7        51.000    21734226.176    88998020.829 8
        37.250
  24047451.780   126370197.594 6        43.750    24047459.940    98470280.986 7
        28.500
  21868235.316   114918371.604 7        47.500    21868240.696    89546786.557 8
        33.500
  24511219.238   128807304.019 6        46.000    24511222.818   100369344.794 6
        22.500
  23286982.166   122373920.076 6        43.000    23286988.066    95356304.486 6
        25.750
  22673255.250   119148768.034 6        44.750    22673261.210    92843202.549 7
        29.250
  20473272.204   107587794.502 8        54.500    20473280.304    83834650.046 9
        43.750
 18  2 21 10 22 30.0000000  0  9G02G05G07G09G13G15G20G28G30
  24321831.638   127812035.281 5        39.500    24321835.238    99593783.339 6
        21.000
  20494637.584   107700044.374 8        52.500    20494643.104    83922111.412 9
        42.500
  21746757.776   114280002.917 7        51.250    21746763.016    89049357.304 8
        38.000
  24065478.260   126464931.412 5        40.250    24065487.820    98544099.440 6
        25.250
  21854188.616   114844555.989 7        48.000    21854194.836    89489267.906 8
        33.500
  24492080.458   128706746.908 5        40.000    24492090.058   100290988.598 6
        23.750
  23269080.286   122279843.330 6        43.000    23269085.246    95282997.952 6
        24.500
  22658349.610   119070438.527 6        45.000    22658355.210    92782166.596 7
        28.500
  20478153.644   107613447.735 8        54.250    20478161.744    83854639.574 9
        44.000
 18  2 21 10 23  0.0000000  0  9G02G05G07G09G13G15G20G28G30
  24339206.658   127903343.096 5        39.500    24339212.358    99664932.182 6
        23.250
  20495717.004   107705716.959 7        52.000    20495722.444    83926531.604 9
        42.250
  21759354.256   114346197.732 7        50.500    21759359.776    89100937.671 8
        37.000
  24083524.440   126559757.415 6        42.500    24083531.020    98617989.837 7
        27.000
  21840184.416   114770962.651 7        48.250    21840190.116    89431922.452 8
        33.250
  24472959.958   128606252.113 6        45.000    24472965.438   100212681.146 6
        22.750
  23251232.286   122186051.460 6        43.750    23251238.486    95209913.426 6
        23.750
  22643506.970   118992440.831 6        45.250    22643512.070    92721389.208 7
        28.000
  20483127.044   107639581.147 8        54.500    20483135.024    83875003.264 9
        43.250
 18  2 21 10 23 30.0000000  0  9G02G05G07G09G13G15G20G28G30
  24356598.718   127994733.770 5        40.750    24356603.138    99736145.657 6
        22.500
  20496904.744   107711960.890 7        51.750    20496910.684    83931397.002 9
        42.250
  21772010.236   114412703.630 8        52.250    21772015.096    89152760.424 8
        37.000
  24101584.400   126654674.778 4        38.250    24101594.280    98691951.287 6
        26.000
  21826222.576   114697592.498 7        48.500    21826228.056    89374750.920 8
        34.250
  24453845.698   128505820.711 5        40.250    24453853.498   100134422.716 6
        22.000
  23233438.866   122092546.522 6        43.000    23233444.446    95137052.418 6
        24.000
  22628728.430   118914777.516 6        46.250    22628734.270    92660872.364 7
        29.500
  20488190.724   107666193.280 8        53.250    20488198.644    83895739.982 9
        43.250
 18  2 21 10 24  0.0000000  0  9G02G05G07G09G13G15G20G28G30
  24374004.578   128086205.356 5        40.500    24374008.798    99807422.135 6
        21.500
  20498202.324   107718777.225 8        52.750    20498207.904    83936708.422 9
        42.250
  21784724.716   114479519.094 7        50.750    21784729.996    89204824.422 8
        37.000
  24119665.800   126749683.081 5        41.500    24119672.680    98765983.712 7
        26.250
  21812303.276   114624446.897 7        49.250    21812308.556    89317754.350 8
        34.000
  24434749.878   128405453.608 6        46.000    24434755.838   100056214.805 7
        27.500
  23215701.086   121999331.442 6        42.250    23215705.866    95064417.311 6
        24.500
  22614013.930   118837451.550 6        47.000    22614018.890    92600618.416 7
        28.500
  20493345.944   107693283.274 8        53.250    20493354.044    83916849.067 9
        43.250
 18  2 21 10 24 30.0000000  0  8G05G07G09G13G15G20G28G30
  20499608.564   107726165.794 8        52.500    20499614.024    83942465.737 9
        42.000
  21797497.536   114546641.956 7        49.750    21797503.536    89257127.936 8
        37.000
  24137761.740   126844781.529 5        40.000    24137771.540    98840086.252 7
        27.500
  21798426.676   114551526.540 7        49.250    21798432.236    89260933.287 8
        34.000
  24415659.598   128305152.425 5        40.000    24415665.518    99978057.845 6
        18.250
  23198018.226   121906409.070 6        42.750    23198022.766    94992010.282 6
        22.750
  22599363.550   118760465.357 6        45.750    22599369.570    92540629.225 7
        28.500
  20498591.684   107720849.496 8        53.250    20498599.384    83938329.235 9
        43.500
 18  2 21 10 25  0.0000000  0  8G05G07G09G13G15G20G28G30
  20501123.184   107734126.524 8        52.500    20501128.804    83948668.891 9
        42.250
  21810328.896   114614070.622 7        50.750    21810334.456    89309669.736 8
        37.000
  24155876.520   126939969.305 6        42.500    24155884.780    98914258.506 7
        28.000
  21784593.716   114478832.665 7        48.500    21784599.256    89204288.715 8
        33.500
  24396589.538   128204917.700 6        45.750    24396594.878    99899953.026 7
        28.000
  23180392.026   121813781.951 5        42.000    23180397.486    94919833.333 6
        23.250
  22584778.850   118683821.363 6        46.000    22584783.770    92480906.664 7
        29.000
  20503927.744   107748890.827 8        53.500    20503935.964    83960179.611 9
        43.500
 18  2 21 10 25 30.0000000  0  8G05G07G09G13G15G20G28G30
  20502747.004   107742659.414 8        52.750    20502752.704    83955317.896 9
        43.000
  21823217.936   114681802.876 7        50.750    21823223.816    89362448.099 8
        36.500
  24174006.300   127035245.442 5        40.250    24174014.680    98988499.568 6
        25.000
  21770803.876   114406365.537 7        48.250    21770809.296    89147820.831 8
        34.250
  24377525.118   128104750.329 6        42.750    24377533.578    99821900.559 6
        22.250
  23162822.106   121721451.803 5        42.000    23162827.386    94847887.761 6
        25.000
  22570259.110   118607522.053 6        45.500    22570265.650    92421452.715 7
        28.500
  20509354.024   107777405.380 8        54.500    20509362.064    83982398.747 9
        43.000
 18  2 21 10 26  0.0000000  0  8G05G07G09G13G15G20G28G30
  20504479.464   107751764.785 8        52.750    20504485.484    83962412.976 9
        42.250
  21836164.636   114749837.125 7        50.500    21836170.396    89415461.781 8
        36.750
  24192154.320   127130609.330 5        42.000    24192163.020    99062809.056 7
        28.500
  21757056.796   114334126.522 7        49.000    21757062.956    89091530.681 8
        34.250
  24358479.238   128004651.323 6        44.500    24358483.358    99743901.323 6
        22.500
  23145309.246   121629421.707 5        42.000    23145314.146    94776176.016 6
        25.500
  22555805.710   118531570.214 6        46.500    22555811.650    92362269.488 7
        29.000
  20514869.984   107806392.148 8        53.500    20514878.144    84004985.833 9
        44.000
 18  2 21 10 26 30.0000000  0  8G05G07G09G13G15G20G28G30
  20506321.084   107761442.805 8        53.500    20506326.784    83969954.284 9
        42.250
  21849167.776   114818171.197 7        50.000    21849173.056    89468709.097 8
        36.000
  24210317.280   127226060.260 5        40.250    24210326.040    99137186.293 6
        25.500
  21743353.736   114262116.156 7        48.250    21743359.436    89035418.714 8
        33.250
  24339443.218   127904621.828 6        43.500    24339450.658    99665956.275 6
        26.000
  23127854.046   121537694.088 5        41.750    23127858.266    94704699.968 6
        24.000
  22541419.530   118455968.099 6        46.000    22541425.030    92303358.797 7
        29.500
  20520475.264   107835849.489 8        54.000    20520483.004    84027939.603 9
        43.250
 18  2 21 10 27  0.0000000  0  8G05G07G09G13G15G20G28G30
  20508271.964   107771694.074 7        51.750    20508277.604    83977942.277 9
        43.000
  21862227.356   114886803.673 7        49.000    21862233.936    89522188.933 8
        35.750
  24228498.000   127321597.624 6        42.500    24228506.520    99211630.993 7
        27.500
  21729694.776   114190335.850 7        49.000    21729700.256    88979486.021 8
        34.500
  24320421.478   127804663.002 5        42.000    24320427.658    99588066.367 6
        21.000
  23110456.746   121446271.916 5        41.000    23110462.306    94633461.944 6
        24.500
  22527099.450   118380718.798 6        44.500    22527105.670    92244723.004 7
        28.250
  20526170.424   107865776.416 8        54.000    20526178.164    84051259.278 9
        43.500
 18  2 21 10 27 30.0000000  0  8G05G07G09G13G15G20G28G30
  20510331.584   107782517.752 7        50.750    20510337.544    83986376.308 9
        43.000
  21875345.196   114955732.310 7        48.500    21875350.316    89575899.543 8
        36.500
  24246692.960   127417220.541 5        40.250    24246703.160    99286142.189 6
        24.250
  21716079.096   114118786.348 7        49.500    21716084.516    88923733.168 8
        34.500
  24301413.898   127704776.063 6        45.000    24301419.358    99510232.300 6
        23.000
  23093118.126   121355157.573 5        40.500    23093124.486    94562463.749 6
        25.750
  22512847.650   118305824.484 6        45.000    22512853.710    92186363.833 7
        29.000
  20531954.684   107896171.192 8        53.750    20531962.224    84074943.513 9
        43.500
 18  2 21 10 28  0.0000000  0  8G05G07G09G13G15G20G28G30
  20512500.684   107793914.605 7        51.500    20512506.404    83995256.969 9
        42.750
  21888517.534   115024955.652 7        48.500    21888523.434    89629839.791 8
        36.250
  24264906.860   127512928.248 6        43.000    24264913.320    99360719.653 6
        24.750
  21702507.896   114047468.620 7        49.750    21702513.476    88868160.924 8
        34.000
  24282418.000   127604961.646 4        39.000    24282427.060    99432454.960 6
        22.500
  23075839.028   121264353.587 5        42.000    23075844.328    94491707.400 6
        25.250
  22498664.370   118231287.865 6        45.500    22498669.750    92128283.379 7
        30.000
  20537827.204   107927032.499 8        54.250    20537835.144    84098991.281 9
        43.750
 18  2 21 10 28 30.0000000  0  8G05G07G09G13G15G20G28G30
  20514778.724   107805884.438 8        52.500    20514783.664    84004584.101 9
        42.000
  21901746.074   115094471.571 7        48.750    21901751.974    89684008.023 8
        35.500
  24283134.120   127608720.332 5        40.000    24283143.280    99435362.688 6
        24.500
  21688980.736   113976383.831 7        49.500    21688986.756    88812770.186 8
        34.500
  24263440.760   127505221.168 6        46.250    24263444.100    99354735.055 6
        24.000
  23058618.668   121173862.577 5        40.250    23058624.128    94421194.931 6
        24.500
  22484549.290   118157111.620 6        46.000    22484554.770    92070483.727 7
        29.250
  20543788.464   107958359.085 8        53.750    20543796.344    84123401.603 9
        43.250
 18  2 21 10 29  0.0000000  0  8G05G07G09G13G15G20G28G30
  20517165.224   107818427.367 8        53.500    20517170.924    84014357.806 9
        43.000
  21915029.474   115164278.256 7        49.000    21915035.334    89738402.822 8
        35.500
  24301380.558   127704595.981 6        42.750    24301388.818    99510070.900 7
        26.250
  21675498.556   113905533.057 7        49.000    21675504.576    88757561.795 8
        35.000
  24244472.780   127405555.686 5        40.500    24244480.380    99277073.704 6
        22.250
  23041459.088   121083687.199 5        40.750    23041464.588    94350928.423 6
        25.000
  22470502.832   118083298.318 6        46.000    22470508.872    92012966.896 7
        29.750
  20549837.784   107990149.577 8        53.500    20549845.724    84148173.413 9
        43.250
 18  2 21 10 29 30.0000000  0  8G05G07G09G13G15G20G28G30
  20519661.004   107831543.321 8        52.500    20519666.564    84024578.021 9
        42.750
  21928368.414   115234373.986 7        49.750    21928374.394    89793022.837 8
        35.500
  24319638.538   127800554.348 4        38.250    24319647.198    99584843.639 6
        21.750
  21662060.596   113834916.905 7        49.250    21662066.196    88702536.238 8
        35.500
  24225523.860   127305966.267 6        45.500    24225529.620    99199471.571 7
        28.000
  23024359.888   120993829.553 5        41.750    23024365.608    94280909.503 6
        25.000
  22456525.572   118009850.200 6        43.500    22456531.752    91955734.623 7
        30.250
  20555975.484   108022402.312 8        53.750    20555983.324    84173305.417 9
        43.500
 18  2 21 10 30  0.0000000  0  8G05G07G09G13G15G20G28G30
  20522265.904   107845232.964 8        53.250    20522271.824    84035245.272 9
        42.500
  21941762.174   115304757.220 7        50.000    21941767.934    89847866.900 8
        35.500
  24337916.778   127896594.819 6        42.250    24337925.798    99659680.253 7
        27.750
  21648667.736   113764536.698 7        49.750    21648673.216    88647694.517 8
        35.000
  24206584.700   127206454.061 5        42.000    24206592.240    99121929.595 6
        22.500
  23007321.628   120904292.669 5        42.000    23007326.728    94211140.508 7
        26.250
  22442619.072   117936770.119 6        45.250    22442624.712    91898789.128 7
        30.250
  20562200.804   108055116.004 8        54.500    20562208.484    84198796.593 9
        43.750
 18  2 21 10 30 30.0000000  0  8G05G07G09G13G15G20G28G30
  20524980.004   107859495.086 7        52.000    20524985.604    84046358.611 9
        42.500
  21955210.154   115375425.768 7        50.750    21955215.274    89902933.291 8
        35.500
  24356205.958   127992716.641 3        35.250    24356214.558    99734580.329 6
        18.250
  21635319.916   113694393.441 7        48.500    21635325.596    88593037.439 8
        35.500
  24187665.100   127107019.555 6        46.500    24187671.980    99044448.176 7
        28.500
  22990344.308   120815078.875 5        41.500    22990350.228    94141623.266 6
        26.000
  22428783.432   117864060.495 6        44.000    22428788.912    91842132.323 7
        30.000
  20568513.444   108088289.088 8        54.250    20568521.324    84224645.747 9
        43.500
 18  2 21 10 31  0.0000000  0  8G05G07G09G13G15G20G28G30
  20527803.124   107874329.930 8        52.500    20527808.604    84057918.212 9
        42.500
  21968711.794   115446377.764 7        50.250    21968717.314    89958220.541 8
        36.000
  24374514.518   128088919.101 6        42.750    24374522.898    99809543.212 6
        26.000
  21622017.136   113624487.780 7        50.000    21622022.616    88538565.498 8
        35.000
  24168756.380   127007664.538 6        42.500    24168764.240    98967028.727 6
        21.750
  22973429.328   120726191.090 5        41.250    22973434.508    94072360.062 6
        25.500
  22415017.112   117791723.749 6        44.750    22415022.952    91785766.065 7
        29.750
  20574913.184   108121920.248 8        54.250    20574920.984    84250851.842 9
        44.000
 18  2 21 10 31 30.0000000  0  8G05G07G09G13G15G20G28G30
  20530734.744   107889737.549 8        52.250    20530740.604    84069924.143 9
        42.500
  21982267.074   115517611.260 7        51.250    21982272.374    90013727.146 8
        36.500
  24392834.778   128185201.538 3        36.750    24392845.598    99884568.337 6
        22.500
  21608760.256   113554820.737 7        49.250    21608765.536    88484279.494 8
        34.500
  24149866.680   126908389.850 6        43.750    24149871.980    98889671.823 6
        25.500
  22956577.028   120637631.714 6        42.250    22956582.868    94003352.780 6
        24.250
  22401324.832   117719762.339 6        44.250    22401330.412    91729692.267 7
        30.000
  20581399.944   108156007.945 8        54.250    20581407.844    84277413.671 9
        43.250
 18  2 21 10 32  0.0000000  0  8G05G07G09G13G15G20G28G30
  20533775.924   107905717.978 8        53.000    20533781.364    84082376.421 9
        42.500
  21995876.054   115589124.746 8        52.250    21995881.334    90069451.916 8
        36.500
  24411173.938   128281563.147 6        43.250    24411181.138    99959655.271 6
        22.500
  21595548.736   113485393.289 7        49.250    21595553.896    88430180.188 8
        35.500
  24130989.720   126809196.862 5        41.250    24130997.580    98812378.592 6
        23.750
  22939788.608   120549403.018 6        42.250    22939793.768    93934603.159 6
        25.250
  22387702.252   117648178.898 6        45.000    22387707.672    91673912.997 7
        31.000
  20587973.064   108190550.633 8        54.500    20587980.964    84304330.047 9
        43.750
 18  2 21 10 32 30.0000000  0  8G05G07G09G13G15G20G28G30
  20536925.744   107922270.898 8        53.250    20536931.404    84095274.790 9
        42.500
  22009537.514   115660916.227 8        52.500    22009543.254    90125393.321 8
        37.000
  24429524.998   128378003.114 5        40.000    24429535.578   100034803.239 6
        25.750
  21582382.678   113416206.530 7        49.500    21582388.158    88376268.434 8
        34.750
  24112130.780   126710086.189 6        43.500    24112134.680    98735149.576 6
        24.000
  22923062.248   120461507.595 5        42.000    22923067.548    93866113.225 6
        25.750
  22374152.432   117576975.624 6        45.000    22374158.332    91618429.961 7
        29.500
  20594632.544   108225546.820 8        53.500    20594640.884    84331599.800 9
        43.750
 18  2 21 10 33  0.0000000  0  8G05G07G09G13G15G20G28G30
  20540184.524   107939396.728 8        52.500    20540190.284    84108619.588 9
        43.000
  22023251.354   115732983.746 8        52.750    22023256.934    90181549.814 8
        36.500
  24447891.818   128474521.057 6        42.750    24447901.338   100110011.840 6
        24.750
  21569262.698   113347261.576 7        48.000    21569268.398    88322545.096 8
        35.750
  24093285.120   126611059.394 6        42.250    24093291.520    98657985.762 6
        24.000
  22906400.508   120373948.351 6        42.250    22906405.468    93797885.257 7
        26.250
  22360676.152   117506155.122 6        45.500    22360681.692    91563245.206 7
        31.000
  20601378.224   108260995.116 8        54.000    20601386.264    84359221.843 9
        43.500
 18  2 21 10 33 30.0000000  0  8G05G07G09G13G15G20G28G30
  20543552.604   107957094.794 7        52.000    20543558.324    84122410.283 9
        42.500
  22037017.754   115805325.623 8        52.500    22037023.014    90237920.095 8
        36.000
  24466274.318   128571115.995 6        42.500    24466282.058   100185280.646 6
        23.000
  21556189.318   113278559.295 7        47.500    21556194.798    88269010.854 8
        35.250
  24074458.580   126512117.226 6        42.750    24074464.860    98580888.073 6
        25.500
  22889802.968   120286727.595 5        41.500    22889807.968    93729921.053 6
        25.000
  22347272.832   117435719.958 6        44.000    22347277.832    91508360.693 7
        30.500
  20608209.544   108296894.069 8        54.250    20608217.504    84387195.056 9
        43.000
 18  2 21 10 34  0.0000000  0  8G05G07G09G13G15G20G28G30
  20547029.344   107975364.634 7        51.750    20547035.084    84136646.508 9
        42.750
  22050835.594   115877939.822 8        52.500    22050841.154    90294502.582 8
        36.500
  24484668.758   128667787.089 5        41.250    24484678.738   100260608.656 6
        25.250
  21543162.038   113210100.445 6        47.000    21543167.678    88215666.306 8
        35.000
  24055645.180   126413260.760 5        41.500    24055651.440    98503857.028 6
        22.500
  22873270.348   120199847.973 5        41.250    22873275.988    93662222.649 7
        27.000
  22333942.472   117365672.067 6        44.750    22333947.692    91453777.945 7
        30.250
  20615126.364   108333241.730 8        54.000    20615134.424    84415517.903 9
        43.500
 18  2 21 10 34 30.0000000  0  8G05G07G09G13G15G20G28G30
  20550614.764   107994206.711 7        51.750    20550620.204    84151328.635 9
        42.250
  22064705.614   115950824.820 7        51.750    22064710.714    90351296.070 8
        36.750
  24503080.258   128764533.866 6        44.000    24503089.118   100335995.673 6
        25.500
  21530181.418   113141886.595 7        47.500    21530187.138    88162512.663 8
        36.000
  24036851.360   126314491.531 6        43.000    24036857.540    98426894.027 7
        26.250
  22856802.948   120113312.234 6        42.250    22856808.488    93594792.224 7
        26.250
  22320687.072   117296014.554 6        45.000    22320692.492    91399499.394 7
        30.500
  20622128.144   108370037.115 8        54.250    20622135.944    84444189.624 9
        43.500
 18  2 21 10 35  0.0000000  0  8G05G07G09G13G15G20G28G30
  20554309.224   108013620.378 7        51.250    20554314.784    84166456.158 9
        42.250
  22078625.774   116023978.616 7        51.500    22078631.294    90408299.016 8
        36.000
  24521504.618   128861355.650 5        40.500    24521512.298   100411441.132 6
        20.750
  21517247.378   113073918.103 7        47.750    21517252.858    88109550.204 8
        36.000
  24018072.100   126215810.259 6        42.500    24018079.280    98349999.575 7
        26.250
  22840401.388   120027122.705 5        42.000    22840406.568    93527631.554 6
        25.750
  22307506.592   117226749.190 6        46.750    22307512.012    91345526.429 7
        30.750
  20629214.924   108407278.351 8        54.500    20629222.624    84473208.762 9
        43.750
 18  2 21 10 35 30.0000000  0  7G05G07G13G15G20G28G30
  20558112.304   108033605.777 8        53.000    20558117.984    84182029.184 9
        42.250
  22092597.314   116097399.431 7        50.750    22092602.774    90465510.016 8
        35.000
  21504360.318   113006196.576 7        47.500    21504366.118    88056780.187 8
        35.750
  23999310.540   126117218.390 5        42.000    23999316.540    98273174.756 6
        24.500
  22824066.788   119941282.058 6        42.500    22824072.208    93460742.755 7
        26.750
  22294400.932   117157878.865 6        44.750    22294406.172    91291861.267 7
        30.500
  20636386.444   108444964.165 8        54.250    20636394.384    84502574.328 9
        43.000
 18  2 21 10 36  0.0000000  0  7G05G07G13G15G20G28G30
  20562023.924   108054162.131 7        52.000    20562029.964    84198047.113 9
        42.250
  22106618.854   116171085.585 7        50.750    22106624.814    90522927.780 8
        34.750
  21491520.198   112938722.373 7        48.750    21491526.258    88004202.896 8
        35.750
  23980566.842   126018716.988 6        42.750    23980574.882    98196420.456 7
        27.500
  22807799.028   119855792.537 6        43.250    22807804.388    93394127.568 7
        28.000
  22281370.512   117089405.506 6        46.250    22281376.152    91238505.428 7
        30.750
  20643642.184   108483092.722 8        54.500    20643649.904    84532284.891 9
        43.250
 18  2 21 10 36 30.0000000  0  7G05G07G13G15G20G28G30
  20566044.584   108075289.512 8        52.500    20566050.344    84214510.002 9
        42.500
  22120691.314   116245035.248 7        50.750    22120696.994    90580550.868 8
        35.250
  21478727.898   112871497.077 7        49.000    21478733.318    87951819.561 8
        36.000
  23961839.382   125920307.352 6        43.000    23961846.302    98119737.676 6
        25.000
  22791597.928   119770657.292 6        42.750    22791603.608    93327788.418 7
        28.000
  22268416.312   117021332.163 6        46.500    22268422.152    91185461.297 7
        30.250
  20650981.844   108521662.932 8        54.250    20650989.644    84562339.592 9
        43.250
 18  2 21 10 37  0.0000000  0  7G05G07G13G15G20G28G30
  20570173.284   108096987.354 7        52.000    20570178.664    84231417.395 9
        42.750
  22134813.234   116319245.971 7        50.750    22134818.754    90638377.384 8
        34.750
  21465982.738   112804521.227 7        48.500    21465988.398    87899630.601 8
        36.250
  23943132.122   125821990.282 6        45.250    23943137.062    98043126.945 7
        26.250
  22775465.510   119685878.461 6        43.500    22775470.150    93261727.010 7
        27.000
  22255538.692   116953660.656 6        46.250    22255545.212    91132730.296 7
        31.500
  20658405.084   108560672.647 8        53.750    20658412.924    84592736.771 9
        43.250
 18  2 21 10 37 30.0000000  0  7G05G07G13G15G20G28G30
  20574411.004   108119255.364 8        53.000    20574416.644    84248769.085 9
        42.000
  22148984.754   116393716.645 7        51.250    22148990.014    90696406.456 8
        35.000
  21453285.578   112737796.126 7        49.500    21453291.018    87847637.014 8
        36.250
  23924438.962   125723767.040 6        42.750    23924446.162    97966589.382 7
        27.000
  22759400.630   119601458.555 6        44.000    22759405.610    93195945.279 7
        27.750
  22242738.752   116886393.672 6        46.250    22242744.492    91080314.501 7
        30.000
  20665911.484   108600120.564 8        54.500    20665919.824    84623475.408 9
        43.750
 18  2 21 10 38  0.0000000  0  7G05G07G13G15G20G28G30
  20578756.824   108142093.076 8        53.000    20578762.484    84266564.684 9
        42.000
  22163204.994   116468445.186 7        50.500    22163210.534    90754636.474 8
        35.000
  21440636.418   112671322.497 7        50.750    21440641.058    87795839.389 8
        36.750
  23905766.782   125625638.787 6        42.500    23905771.782    97890125.836 6
        24.750
  22743405.430   119517400.182 6        44.500    22743410.030    93130445.273 7
        28.500
  22230015.532   116819532.981 6        47.000    22230020.452    91028215.277 7
        31.500
  20673501.524   108640005.069 8        54.000    20673509.524    84654554.233 9
        43.750
 18  2 21 10 38 30.0000000  0  7G05G07G13G15G20G28G30
  20583210.984   108165500.089 8        52.750    20583216.444    84284803.909 9
        42.000
  22177474.054   116543430.112 7        50.500    22177479.414    90813066.264 8
        35.500
  21428034.598   112605101.588 7        50.500    21428039.918    87744238.679 8
        37.250
  23887109.622   125527606.592 5        39.750    23887117.562    97813737.065 6
        22.750
  22727478.230   119433705.794 6        43.500    22727483.690    93065228.842 7
        27.750
  22217370.792   116753081.373 6        47.000    22217375.812    90976434.820 7
        31.750
  20681173.964   108680324.489 8        54.000    20681181.664    84685971.962 9
        44.000
 18  2 21 10 39  0.0000000  0  7G05G07G13G15G20G28G30
  20587773.444   108189476.299 8        52.750    20587779.124    84303486.661 9
        42.500
  22191791.532   116618669.513 7        50.250    22191797.192    90871694.342 8
        34.750
  21415481.378   112539134.450 7        49.000    21415486.818    87692835.716 8
        36.250
  23868476.542   125429671.746 6        44.250    23868482.702    97737424.251 7
        28.750
  22711621.670   119350378.097 6        44.250    22711626.310    93000298.184 7
        29.000
  22204803.012   116687040.854 6        47.000    22204808.832    90924974.681 7
        32.000
  20688928.982   108721077.376 8        54.750    20688936.682    84717727.454 9
        43.000
 18  2 21 10 39 30.0000000  0  7G05G07G13G15G20G28G30
  20592444.024   108214021.437 7        52.000    20592449.664    84322612.735 9
        42.250
  22206157.252   116694161.195 7        49.250    22206162.892    90930519.015 8
        35.000
  21402976.358   112473422.055 7        49.750    21402981.938    87641631.258 8
        36.500
  23849856.382   125331835.477 5        40.750    23849862.502    97661188.204 6
        23.750
  22695834.950   119267419.598 6        44.250    22695839.430    92935655.208 7
        28.500
  22192314.472   116621413.861 6        47.000    22192320.772    90873836.797 7
        33.000
  20696766.282   108762262.132 8        53.750    20696773.762    84749819.462 9
        43.000
 18  2 21 10 40  0.0000000  0  7G05G07G13G15G20G28G30
  20597222.964   108239134.878 7        52.000    20597228.964    84342181.634 9
        42.250
  22220570.492   116769903.611 7        50.750    22220575.992    90989539.034 8
        34.500
  21390520.478   112407965.307 7        49.000    21390526.198    87590625.998 8
        36.250
  23831259.342   125234099.040 6        43.500    23831265.522    97585029.956 7
        27.500
  22680119.370   119184832.937 6        44.500    22680124.430    92871301.978 7
        27.500
  22179905.534   116556202.699 7        47.750    22179910.914    90823022.915 7
        32.500
  20704685.582   108803877.189 8        54.500    20704693.022    84782246.769 9
        43.250
 18  2 21 10 40 30.0000000  0  7G05G07G13G15G20G28G30
  20602110.084   108264816.239 7        51.250    20602115.864    84362193.074 9
        42.000
  22235031.272   116845894.585 7        50.500    22235036.632    91048752.776 8
        35.000
  21378113.358   112342765.220 7        49.000    21378119.478    87539820.742 8
        36.000
  23812678.642   125136463.521 5        42.000    23812685.762    97508950.353 6
        25.500
  22664475.150   119102620.474 6        45.250    22664479.990    92807240.339 7
        28.000
  22167575.334   116491409.620 6        46.500    22167580.914    90772534.820 7
        32.250
  20712686.082   108845920.757 8        53.500    20712693.762    84815007.987 9
        43.000
 18  2 21 10 41  0.0000000  0  7G05G07G13G15G20G28G30
  20607105.024   108291064.795 7        52.000    20607110.904    84382646.487 9
        41.750
  22249538.752   116922132.748 7        50.000    22249544.232    91108159.077 8
        35.000
  21365755.558   112277822.695 7        48.250    21365760.798    87489216.179 8
        36.250
  23794120.202   125038930.108 6        45.000    23794125.442    97432950.305 7
        27.500
  22648902.130   119020784.732 6        45.750    22648906.830    92743472.236 7
        28.750
  22155325.934   116427036.938 6        46.500    22155331.334    90722374.312 7
        31.250
  20720768.002   108888391.342 8        54.000    20720775.682    84848101.944 9
        43.250
 18  2 21 10 41 30.0000000  0  7G05G07G13G15G20G28G30
  20612207.784   108317880.455 7        51.000    20612213.864    84403541.789 9
        42.000
  22264093.772   116998616.489 7        49.750    22264099.312    91167756.814 8
        35.250
  21353446.578   112213139.444 7        47.250    21353451.818    87438813.650 8
        36.250
  23775577.842   124941500.063 5        41.250    23775586.102    97357030.796 7
        26.500
  22633401.050   118939328.569 6        44.250    22633406.190    92679999.923 7
        27.750
  22143156.434   116363086.980 6        46.500    22143163.054    90672543.204 7
        32.500
  20728930.542   108931287.468 8        53.250    20728938.382    84881527.494 9
        43.000
 18  2 21 10 42  0.0000000  0  7G05G07G13G15G20G28G30
  20617418.664   108345262.240 7        51.000    20617424.384    84424878.243 9
        42.500
  22278694.452   117075343.638 7        49.750    22278699.372    91227544.162 8
        35.250
  21341186.938   112148715.933 7        47.500    21341192.338    87388613.516 8
        36.250
  23757059.142   124844174.431 6        45.000    23757064.702    97281192.696 7
        27.000
  22617973.570   118858254.160 6        45.000    22617979.030    92616825.045 7
        28.000
  22131068.054   116299561.898 6        46.000    22131073.794    90623043.161 7
        31.500
  20737174.422   108974607.232 8        54.250    20737182.002    84915283.142 9
        43.500
 18  2 21 10 42 30.0000000  0  7G05G07G13G15G20G28G30
  20622736.644   108373209.777 7        51.250    20622742.084    84446655.524 9
        41.750
  22293340.772   117152312.280 7        50.250    22293346.452    91287519.741 8
        35.250
  21328977.038   112084552.743 7        47.500    21328982.598    87338616.219 8
        36.000
  23738557.862   124746954.504 6        45.500    23738565.442    97205436.890 7
        27.500
  22602618.790   118777563.650 6        45.500    22602623.570    92553949.342 7
        28.000
  22119060.934   116236463.411 6        44.500    22119066.814    90573875.524 7
        32.250
  20745497.842   109018348.808 8        54.250    20745505.902    84949367.482 9
        43.000
 18  2 21 10 43  0.0000000  0  7G05G07G13G15G20G28G30
  20628162.504   108401722.129 7        51.250    20628168.224    84468872.932 9
        41.750
  22308033.252   117229521.029 7        48.750    22308038.512    91347682.360 8
        35.000
  21316817.118   112020651.457 7        47.750    21316822.478    87288823.015 8
        36.500
  23720078.362   124649841.430 6        45.000    23720084.162    97129764.427 7
        26.750
  22587337.150   118697259.656 6        44.500    22587342.190    92491374.819 7
        28.250
  22107135.374   116173794.330 6        46.750    22107141.254    90525042.495 7
        32.750
  20753901.742   109062510.880 8        53.000    20753909.562    84983779.478 9
        43.000
 18  2 21 10 43 30.0000000  0  7G05G07G13G15G20G28G30
  20633695.784   108430799.033 7        51.500    20633701.524    84491530.248 9
        42.000
  22322770.792   117306967.747 7        50.500    22322775.752    91408030.452 8
        34.500
  21304707.398   111957013.222 7        48.000    21304713.278    87239234.786 8
        36.750
  23701617.722   124552836.308 6        44.000    23701624.502    97054176.005 7
        27.000
  22572129.550   118617345.315 6        45.500    22572135.450    92429103.926 7
        27.750
  22095291.774   116111556.691 6        45.500    22095297.734    90476545.666 7
        33.000
  20762385.082   109107091.616 8        53.500    20762393.042    85018517.706 9
        42.750
 18  2 21 10 44  0.0000000  0  7G05G07G13G15G20G28G30
  20639336.364   108460440.639 7        52.000    20639341.484    84514627.597 9
        42.000
  22337553.572   117384651.171 7        48.000    22337558.692    91468562.953 8
        34.250
  21292647.998   111893639.262 7        48.750    21292652.838    87189852.488 8
        36.500
  23683180.584   124455940.680 6        45.250    23683187.204    96978672.969 7
        28.250
  22556997.350   118537823.369 6        46.000    22557002.690    92367138.787 7
        27.750
  22083531.254   116049752.783 6        46.250    22083536.454    90428386.796 7
        33.000
  20770947.882   109152089.786 8        53.250    20770955.622    85053581.211 9
        43.000
 18  2 21 10 44 30.0000000  0  7G05G07G13G15G20G28G30
  20645084.364   108490645.177 7        50.500    20645089.464    84538163.591 9
        42.750
  22352381.092   117462569.229 7        48.500    22352385.872    91529278.317 8
        34.500
  21280638.920   111830530.112 7        48.000    21280643.900    87140676.524 8
        36.750
  23664762.224   124359155.662 6        44.500    23664768.324    96903256.079 7
        26.250
  22541939.530   118458695.297 6        45.750    22541944.570    92305480.555 7
        29.250
  22071852.914   115988384.592 6        45.000    22071858.754    90380567.448 7
        32.750
  20779590.082   109197503.298 8        52.750    20779597.842    85088968.359 9
        42.500
 18  2 21 10 45  0.0000000  0  7G05G07G13G15G20G28G30
  20650938.844   108521412.193 7        51.250    20650944.384    84562137.875 9
        41.750
  22367251.872   117540719.763 7        48.250    22367257.992    91590174.800 8
        34.750
  21268679.860   111767686.641 7        49.250    21268684.960    87091707.592 8
        37.000
  23646366.104   124262482.187 6        44.750    23646372.044    96827926.103 7
        27.000
  22526957.670   118379963.586 6        46.250    22526962.470    92244131.184 7
        28.500
  22060258.534   115927454.124 6        46.250    22060263.814    90333089.168 8
        33.500
  20788310.462   109243330.321 8        53.750    20788318.282    85124677.719 9
        42.750
 18  2 21 10 45 30.0000000  0  7G05G07G13G15G20G28G30
  20656900.604   108552741.401 8        52.250    20656906.464    84586550.236 9
        42.000
  22382167.692   117619101.331 7        47.500    22382173.252    91651251.332 8
        33.750
  21256771.880   111705110.348 7        49.000    21256776.680    87042946.838 8
        37.000
  23627991.304   124165921.759 6        46.750    23627997.524    96752684.231 6
        25.500
  22512051.030   118301631.412 6        44.500    22512056.830    92183093.141 7
        29.250
  22048747.274   115866963.474 6        47.000    22048753.094    90285953.629 8
        33.750
  20797109.502   109289569.436 8        52.500    20797117.522    85160708.190 9
        43.000
 18  2 21 10 46  0.0000000  0  7G05G07G13G15G20G28G30
  20662969.144   108584631.888 7        51.750    20662974.724    84611399.956 9
        41.750
  22397126.772   117697711.937 7        48.250    22397132.992    91712506.334 8
        34.500
  21244915.220   111642801.931 7        48.000    21244920.420    86994394.835 8
        37.250
  23609638.224   124069475.487 6        45.250    23609644.504    96677531.330 6
        26.000
  22497221.410   118223700.952 6        45.250    22497227.270    92122368.129 7
        28.750
  22037320.574   115806914.770 6        45.250    22037326.174    90239162.451 8
        34.000
  20805986.702   109336218.935 8        53.000    20805994.522    85197058.435 9
        43.000
 18  2 21 10 46 30.0000000  0  7G05G07G13G15G20G28G30
  20669144.424   108617082.878 7        51.250    20669149.944    84636686.432 9
        41.500
  22412129.052   117776550.315 6        47.000    22412135.272    91773938.810 8
        33.500
  21233109.180   111580762.562 7        50.000    21233114.540    86946052.474 8
        37.250
  23591306.704   123973144.735 6        46.000    23591312.504    96602468.370 7
        27.500
  22482468.692   118146174.799 6        45.250    22482473.652    92061958.148 7
        27.500
  22025978.814   115747310.326 7        47.750    22025983.934    90192717.451 8
        34.000
  20814941.182   109383277.147 7        52.000    20814949.662    85233727.171 9
        42.500
 18  2 21 10 47  0.0000000  0  7G05G07G13G15G20G28G30
  20675426.384   108650093.978 7        51.500    20675432.144    84662409.352 9
        41.500
  22427175.072   117855614.505 7        49.000    22427180.952    91835547.240 8
        34.250
  21221354.900   111518993.590 7        50.000    21221360.400    86897920.820 8
        37.500
  23572997.924   123876930.850 6        44.500    23573004.604    96527496.584 7
        27.000
  22467793.372   118069055.248 6        45.250    22467798.672    92001864.993 7
        28.500
  22014720.634   115688152.342 6        46.500    22014726.114    90146620.333 8
        33.250
  20823973.762   109430742.516 8        53.250    20823982.042    85270713.157 9
        42.500
 18  2 21 10 47 30.0000000  0  7G05G07G13G15G20G28G30
  20681814.564   108683664.251 7        52.000    20681820.004    84688567.992 9
        42.000
  22442262.472   117934902.538 7        48.000    22442268.612    91897330.119 8
        33.250
  21209652.120   111457495.746 7        49.750    21209657.700    86850000.426 8
        37.000
  23554711.424   123780834.954 6        45.500    23554717.304    96452616.652 7
        27.500
  22453195.692   117992344.949 6        45.250    22453201.012    91942090.726 7
        28.250
  22003548.534   115629442.534 6        46.250    22003554.234    90100872.467 8
        33.250
  20833083.462   109478613.162 8        52.500    20833091.442    85308014.961 9
        42.750
 18  2 21 10 48  0.0000000  0  7G05G07G13G15G20G28G30
  20688309.122   108717793.039 7        51.750    20688314.782    84715161.843 9
        42.000
  22457393.312   118014412.969 7        49.500    22457398.432    91959286.254 8
        33.750
  21198001.840   111396270.250 7        51.000    21198006.860    86802292.260 8
        37.500
  23536447.644   123684858.432 6        45.500    23536454.244    96377829.786 7
        27.750
  22438676.752   117916046.503 6        45.500    22438681.772    91882637.419 7
        28.750
  21992461.474   115571183.333 6        45.500    21992467.514    90055475.707 8
        34.000
  20842269.442   109526887.615 8        52.500    20842277.382    85345631.404 9
        43.000
 18  2 21 10 48 30.0000000  0  7G05G07G13G15G20G28G30
  20694909.822   108752479.918 8        52.250    20694915.262    84742190.567 9
        42.000
  22472565.452   118094144.159 7        49.000    22472571.192    92021414.456 8
        33.750
  21186403.160   111335318.634 7        50.750    21186408.220    86754797.498 8
        37.000
  23518207.664   123589002.901 7        47.250    23518213.784    96303137.175 7
        29.000
  22424236.552   117840162.548 6        45.500    22424241.752    91823507.078 7
        29.250
  21981461.694   115513377.052 6        46.250    21981467.174    90010431.872 8
        33.500
  20851532.562   109575564.344 8        53.000    20851540.962    85383561.314 9
        42.500
 18  2 21 10 49  0.0000000  0  7G05G07G13G15G20G28G30
  20701616.482   108787723.570 7        52.000    20701621.842    84769653.145 9
        42.250
  22487779.530   118174094.069 7        49.250    22487785.150    92083713.038 8
        33.500
  21174856.160   111274641.104 7        50.500    21174861.440    86707516.314 8
        37.750
  23499989.844   123493269.150 6        45.500    23499994.884    96228539.472 7
        26.500
  22409875.812   117764695.144 6        46.000    22409880.772    91764701.319 7
        29.250
  21970547.934   115456025.050 6        46.250    21970553.774    89965742.013 8
        34.000
  20860871.422   109624641.268 8        53.500    20860879.262    85421803.065 9
        42.750
 18  2 21 10 49 30.0000000  0  7G05G07G13G15G20G28G30
  20708428.742   108823522.863 8        52.250    20708434.602    84797548.680 9
        42.000
  22503035.150   118254260.710 7        49.750    22503039.710    92146180.551 7
        33.000
  21163362.300   111214238.817 7        51.000    21163367.400    86660449.605 8
        36.500
  23481795.584   123397658.278 6        45.750    23481801.644    96154037.522 7
        28.250
  22395593.692   117689646.406 6        45.250    22395599.072    91706221.791 7
        29.250
  21959721.074   115399129.123 7        47.500    21959726.674    89921407.557 8
        33.500
  20870286.182   109674116.360 8        53.250    20870294.542    85460355.070 9
        42.750
 18  2 21 10 50  0.0000000  0  7G05G07G13G15G20G28G30
  20715347.042   108859877.348 8        52.750    20715352.302    84825876.836 9
        41.750
  22518330.330   118334642.644 7        48.250    22518336.750    92208815.814 7
        32.500
  21151920.860   111154112.935 7        50.250    21151925.740    86613598.266 8
        37.500
  23463625.124   123302171.627 6        46.000    23463630.984    96079632.367 7
        28.500
  22381392.632   117615019.125 6        45.000    22381397.812    91648070.673 7
        28.500
  21948981.634   115342691.792 6        47.000    21948987.034    89877430.418 8
        34.000
  20879776.522   109723988.233 8        52.500    20879784.822    85499216.268 9
        42.750
 18  2 21 10 50 30.0000000  0  7G05G07G13G15G20G28G30
  20722370.002   108896785.772 8        52.500    20722375.942    84854636.640 9
        41.250
  22533668.130   118415238.085 7        49.000    22533673.190    92271617.413 8
        33.500
  21140531.840   111094264.290 7        50.500    21140536.720    86566962.952 8
        37.000
  23445478.884   123206810.288 6        45.500    23445483.784    96005324.850 7
        28.500
  22367272.772   117540815.420 6        45.000    22367277.592    91590249.631 7
        28.500
  21938329.274   115286714.734 6        46.500    21938334.854    89833811.956 8
        33.500
  20889341.882   109774254.910 8        53.000    20889350.622    85538385.089 9
        42.250
 18  2 21 10 51  0.0000000  0  7G05G07G13G15G20G28G30
  20729498.942   108934247.832 8        52.500    20729504.562    84883827.848 9
        41.750
  22549044.770   118496045.228 7        48.750    22549050.910    92334584.026 7
        32.250
  21129195.900   111034694.206 7        50.500    21129200.920    86520544.709 8
        37.250
  23427355.764   123111575.939 6        45.250    23427361.944    95931116.258 7
        28.250
  22353233.172   117467037.886 6        45.500    22353238.372    91532760.647 7
        29.500
  21927765.174   115231199.845 7        47.500    21927770.894    89790553.616 8
        33.500
  20898982.242   109824914.808 8        53.000    20898990.642    85577860.334 9
        42.750
 18  2 21 10 51 30.0000000  0  7G05G07G13G15G20G28G30
  20736732.862   108972262.278 7        52.000    20736738.562    84913449.482 9
        42.000
  22564461.670   118577062.506 7        47.250    22564467.870    92397714.336 7
        33.000
  21117913.580   110975403.653 7        50.500    21117918.360    86474344.283 8
        37.500
  23409258.164   123016469.666 6        45.750    23409263.324    95857007.517 7
        28.750
  22339275.752   117393689.096 6        45.250    22339279.972    91475605.761 7
        29.750
  21917289.714   115176149.226 7        47.750    21917295.354    89747657.050 8
        34.250
  20908697.042   109875966.389 8        52.250    20908705.262    85617640.771 9
        42.500
 18  2 21 10 52  0.0000000  0  7G05G07G13G15G20G28G30
  20744071.842   109010827.625 8        53.000    20744077.202    84943500.387 9
        42.000
  22579919.010   118658287.800 7        49.500    22579924.370    92461006.765 8
        33.500
  21106684.120   110916393.680 7        50.750    21106689.220    86428362.492 8
        38.000
  23391184.404   122921492.880 6        45.500    23391190.244    95782999.646 7
        28.500
  22325399.972   117320771.212 6        45.500    22325404.772    91418786.636 7
        30.000
  21906902.674   115121564.503 7        48.000    21906907.974    89705123.518 8
        34.500
  20918486.242   109927407.587 8        52.750    20918494.062    85657724.815 9
        43.000
 18  2 21 10 52 30.0000000  0  7G05G07G13G15G20G28G30
  20751515.042   109049942.948 8        52.750    20751520.502    84973979.847 8
        41.000
  22595414.430   118739719.036 7        47.500    22595420.110    92524459.662 7
        32.250
  21095508.480   110857664.839 7        50.750    21095513.840    86382599.764 8
        38.500
  23373135.526   122826646.437 6        45.000    23373141.546    95709093.351 7
        28.000
  22311606.092   117248286.303 6        45.000    22311610.872    91362304.906 7
        29.750
  21896604.194   115067447.356 6        46.750    21896609.914    89662954.331 8
        34.500
  20928348.842   109979236.194 8        52.500    20928356.922    85698110.732 9
        42.250
 18  2 21 10 53  0.0000000  0  8G05G07G13G15G20G21G28G30
  20759062.982   109089607.630 8        52.500    20759068.382    85004887.377 9
        41.250
  22610949.530   118821355.369 7        47.750    22610955.370    92588072.358 7
        32.500
  21084386.580   110799218.736 7        51.000    21084392.200    86337057.346 8
        37.750
  23355111.906   122731931.943 6        44.750    23355118.106    95635289.880 7
        28.750
  22297896.412   117176237.024 6        45.500    22297901.072    91306162.633 7
        29.250
  25478990.992   133893006.556 4        38.250    25478996.692   104332210.327 6
        18.250
  21886395.614   115013800.192 7        47.500    21886401.414    89621151.364 8
        34.250
  20938284.782   110031451.015 8        52.500    20938292.902    85738797.591 9
        42.500
 18  2 21 10 53 30.0000000  0  8G05G07G13G15G20G21G28G30
  20766715.382   109129821.200 8        53.250    20766721.082    85036222.612 9
        41.500
  22626522.810   118903194.903 7        48.750    22626528.490    92651843.405 7
        32.500
  21073318.540   110741056.810 7        50.000    21073323.900    86291736.377 8
        37.500
  23337113.826   122637350.994 6        44.250    23337119.766    95561590.473 7
        29.000
  22284268.692   117104625.710 6        45.500    22284273.972    91250361.613 7
        29.750
  25473663.492   133865008.870 4        39.000    25473668.472   104310393.936 5
        17.750
  21876276.196   114960625.061 7        48.250    21876282.476    89579716.207 8
        33.750
  20948294.142   110084050.602 8        53.000    20948302.362    85779784.274 9
        42.250
 18  2 21 10 54  0.0000000  0  8G05G07G13G15G20G21G28G30
  20774472.062   109170582.306 8        53.000    20774477.782    85067984.497 9
        41.500
  22642134.570   118985235.776 6        46.500    22642140.630    92715771.331 7
        33.000
  21062304.720   110683179.552 7        50.000    21062310.260    86246637.221 8
        37.750
  23319140.586   122542904.891 6        44.000    23319146.586    95487996.114 7
        29.250
  22270725.152   117033455.558 6        45.000    22270729.952    91194904.348 7
        30.000
  25468418.692   133837446.054 5        39.750    25468423.152   104288916.415 5
        17.750
  21866247.436   114907923.379 7        47.750    21866253.436    89538649.974 8
        34.250
  20958376.402   110137032.902 7        52.000    20958384.642    85821069.165 9
        41.750
 18  2 21 10 54 30.0000000  0  8G05G07G13G15G20G21G28G30
  20782332.362   109211889.720 7        52.000    20782338.102    85100172.075 9
        41.500
  22657784.630   119067476.235 6        46.750    22657790.610    92779854.773 7
        33.000
  21051345.800   110625587.997 7        50.000    21051350.960    86201760.697 8
        37.750
  23301194.486   122448594.695 6        44.250    23301200.666    95414507.675 7
        28.250
  22257266.652   116962728.183 6        45.000    22257272.172    91139792.122 7
        31.000
  25463256.672   133810318.993 4        38.750    25463260.812   104267778.398 5
        16.750
  21856309.556   114855696.998 6        47.000    21856315.256    89497954.105 8
        34.250
  20968531.022   110190396.103 7        51.750    20968539.062    85862650.878 9
        42.000
 18  2 21 10 55  0.0000000  0  8G05G07G13G15G20G21G28G30
  20790296.762   109253743.268 8        52.500    20790302.502    85132785.218 9
        41.250
  22673471.910   119149914.609 7        48.500    22673477.750    92844092.471 7
        32.500
  21040440.700   110568283.533 7        50.750    21040446.020    86157107.868 8
        37.500
  23283274.426   122354421.890 6        44.500    23283279.686    95341126.290 7
        27.500
  22243891.972   116892446.109 6        44.250    22243897.912    91085026.873 7
        30.750
  25458177.392   133783628.190 4        38.250    25458181.452   104246980.388 6
        19.000
  21846461.936   114803948.112 7        47.250    21846467.856    89457630.312 8
        34.250
  20978757.762   110244138.610 7        52.000    20978765.802    85904528.141 9
        42.250
 18  2 21 10 55 30.0000000  0  8G05G07G13G15G20G21G28G30
  20798365.122   109296140.955 8        52.500    20798371.182    85165822.366 9
        41.250
  22689197.170   119232549.534 7        47.500    22689203.490    92908483.310 7
        32.250
  21029591.020   110511267.646 7        50.000    21029595.820    86112679.915 8
        37.750
  23265379.746   122260387.914 6        45.000    23265386.626    95267853.085 7
        28.750
  22230602.772   116822611.633 6        44.750    22230608.112    91030610.417 7
        30.000
  25453180.472   133757374.437 3        37.000    25453186.472   104226522.919 6
        18.250
  21836705.576   114752678.638 7        47.750    21836711.296    89417680.089 8
        34.000
  20989056.800   110298258.772 7        52.000    20989064.660    85946699.688 9
        42.000
 18  2 21 10 56  0.0000000  0  8G05G07G13G15G20G21G28G30
  20806536.482   109339082.159 8        52.250    20806542.442    85199283.022 9
        41.250
  22704959.230   119315379.290 6        46.500    22704964.910    92973025.969 8
        33.250
  21018796.400   110454540.773 7        50.750    21018801.400    86068477.165 8
        37.750
  23247512.546   122166493.912 6        45.250    23247518.546    95194688.957 7
        30.000
  22217399.652   116753227.171 6        44.500    22217404.712    90976544.607 7
        29.500
  25448267.192   133731558.376 2        34.000    25448273.632   104206406.459 5
        16.250
  21827040.816   114701890.042 7        48.000    21827046.496    89378104.570 8
        34.000
  20999427.100   110352754.672 8        52.250    20999434.780    85989164.016 9
        42.000
 18  2 21 10 56 30.0000000  0  8G05G07G13G15G20G21G28G30
  20814811.262   109382565.741 8        53.000    20814816.982    85233166.316 8
        41.000
  22720757.950   119398402.237 6        47.000    22720763.350    93037719.145 7
        32.000
  21008057.080   110398104.280 7        49.750    21008062.300    86024500.673 8
        38.250
  23229671.506   122072741.510 6        44.500    23229677.886    95121635.161 7
        29.250
  22204281.652   116684294.990 6        44.500    22204287.792    90922831.237 7
        31.000
  25443437.912   133706170.028 2        34.500    25443445.592   104186626.254 5
        17.250
  21817468.236   114651584.378 7        48.250    21817473.536    89338905.368 8
        34.250
  21009868.540   110407624.689 8        52.500    21009877.000    86031919.861 9
        41.500
 18  2 21 10 57  0.0000000  0  8G05G07G13G15G20G21G28G30
  20823188.542   109426589.493 8        53.000    20823194.622    85267470.529 9
        41.750
  22736592.890   119481616.076 6        46.500    22736599.250    93102561.089 7
        32.000
  20997372.780   110341958.830 7        50.250    20997378.000    85980750.971 8
        37.250
  23211858.846   121979131.692 6        45.750    23211864.766    95048692.471 7
        29.000
  22191251.452   116615817.211 6        45.000    22191257.072    90869471.925 7
        31.000
  25438693.292   133681230.907 3        37.000    25438700.292   104167193.195 5
        17.750
  21807987.396   114601762.648 7        48.500    21807992.876    89300083.255 8
        34.250
  21020380.760   110462866.618 8        52.500    21020388.580    86074965.505 9
        42.000
 18  2 21 10 57 30.0000000  0  8G05G07G13G15G20G21G28G30
  20831668.542   109471153.177 8        53.000    20831674.402    85302195.463 9
        41.250
  22752464.070   119565019.608 6        46.750    22752469.990    93167550.828 7
        31.750
  20986743.980   110286105.798 7        50.000    20986749.120    85937229.145 8
        38.250
  23194072.246   121885665.787 6        44.500    23194079.466    94975861.917 7
        29.750
  22178307.514   116547796.353 6        45.250    22178312.674    90816468.679 7
        31.000
  25434032.292   133656731.167 5        39.250    25434037.892   104148102.517 6
        20.000
  21798598.676   114552427.104 7        48.500    21798604.636    89261639.996 8
        34.250
  21030963.280   110518478.984 7        52.000    21030971.460    86118299.804 9
        42.000
 18  2 21 10 58  0.0000000  0  8G05G07G13G15G20G21G28G30
  20840251.442   109516255.977 8        53.000    20840257.602    85337340.483 9
        41.500
  22768370.810   119648611.085 6        46.500    22768376.730    93232687.023 7
        32.500
  20976171.442   110230546.229 7        50.500    20976176.382    85893935.976 8
        37.750
  23176314.466   121792345.369 6        46.000    23176320.126    94903144.733 7
        30.750
  22165450.634   116480234.942 6        43.750    22165455.934    90763823.438 7
        31.000
  25429453.472   133632671.313 5        40.250    25429458.412   104129354.565 6
        18.500
  21789303.516   114503579.331 7        47.500    21789309.356    89223576.803 8
        35.250
  21041616.260   110574459.915 8        52.750    21041624.160    86161921.307 9
        42.000
 18  2 21 10 58 30.0000000  0  8G05G07G13G15G20G21G28G30
  20848936.742   109561896.278 8        53.000    20848942.262    85372904.342 8
        41.000
  22784313.608   119732388.878 6        46.750    22784319.108    93297968.379 7
        32.250
  20965655.382   110175281.362 7        50.750    20965659.862    85850872.451 8
        37.750
  23158583.726   121699171.832 6        46.000    23158589.986    94830541.998 7
        30.000
  22152681.954   116413135.149 6        43.750    22152687.534    90711537.899 7
        31.500
  25424959.292   133609051.452 5        40.000    25424962.472   104110949.474 6
        19.750
  21780101.336   114455221.320 7        48.250    21780106.436    89185895.250 8
        34.500
  21052339.080   110630807.756 8        53.000    21052347.100    86205828.709 9
        41.500
 18  2 21 10 59  0.0000000  0  8G05G07G13G15G20G21G28G30
  20857723.722   109608072.493 8        53.250    20857729.702    85408885.787 9
        41.250
  22800291.308   119816350.892 7        48.000    22800296.428    93363393.307 7
        31.750
  20955194.982   110120311.644 7        51.000    20955200.762    85808038.905 8
        38.750
  23140882.186   121606146.159 6        46.250    23140887.766    94758054.483 7
        30.000
  22140001.954   116346498.435 6        45.250    22140006.754    90659613.183 7
        31.000
  25420548.312   133585872.842 5        39.500    25420551.972   104092888.184 6
        19.000
  21770992.536   114407354.017 7        47.750    21770998.516    89148596.071 8
        34.500
  21063131.120   110687520.196 8        52.250    21063139.340    86250020.204 9
        41.500
 18  2 21 10 59 30.0000000  0  8G05G07G13G15G20G21G28G30
  20866612.382   109654783.689 8        52.750    20866618.082    85445284.103 9
        41.500
  22816302.828   119900495.826 7        47.250    22816309.428    93428960.782 7
        32.250
  20944790.902   110065638.715 7        50.750    20944796.462    85765436.629 8
        38.500
  23123208.026   121513270.265 6        45.500    23123214.286    94685683.683 7
        30.000
  22127409.474   116280328.085 6        45.000    22127415.054    90608051.878 7
        32.250
  25416221.712   133563135.409 5        39.250    25416225.252   104075170.705 6
        18.250
  21761977.416   114359979.475 7        48.500    21761982.976    89111680.868 8
        34.750
  21073992.340   110744596.029 7        52.000    21074000.020    86294494.868 9
        42.000
                            4  1
RINEX FILE SPLICE; other post-header comments skipped       COMMENT
 18  2 21 11  0  0.0000000  0  8G05G07G13G15G20G21G28G30
  20875603.262   109702028.835 8        53.500    20875608.822    85482098.495 9
        41.500
  22832350.068   119984822.145 7        48.250    22832355.488    93494669.557 7
        32.250
  20934443.722   110011263.786 7        51.250    20934448.882    85723066.554 8
        38.500
  23105562.906   121420545.262 6        45.500    23105569.206    94613430.456 7
        30.000
  22114906.794   116214626.239 6        44.500    22114912.614    90556855.644 7
        31.500
  25411979.332   133540840.490 5        40.000    25411982.452   104057798.035 5
        16.750
  21753056.636   114313099.848 7        48.750    21753062.256    89075151.301 8
        35.000
  21084921.940   110802033.402 7        52.000    21084930.000    86339251.253 9
        41.750
 18  2 21 11  0 30.0000000  0  8G05G07G13G15G20G21G28G30
  20884694.842   109749806.417 8        53.250    20884700.602    85519327.765 9
        41.500
  22848431.408   120069327.761 7        48.250    22848437.068    93560518.066 7
        32.250
  20924153.082   109957187.348 7        51.500    20924158.442    85680929.070 8
        38.250
  23087947.326   121327972.268 6        46.000    23087953.026    94541295.686 7
        30.750
  22102493.754   116149394.796 6        45.500    22102499.974    90506025.952 7
        30.500
  25407819.872   133518988.216 4        37.750    25407824.312   104040770.239 5
        17.750
  21744229.796   114266716.085 7        48.250    21744235.416    89039008.122 8
        34.500
  21095920.340   110859830.250 8        52.500    21095928.240    86384287.750 8
        41.000
 18  2 21 11  1  0.0000000  0  8G05G07G13G15G20G21G28G30
  20893887.782   109798115.159 8        53.500    20893893.502    85556970.915 8
        40.500
  22864545.708   120154011.435 7        47.500    22864551.428    93626505.327 7
        31.750
  20913919.802   109903410.591 7        51.000    20913924.862    85639025.106 8
        38.750
  23070360.168   121235553.136 6        45.000    23070366.928    94469280.801 7
        29.750
  22090170.394   116084636.177 6        44.500    22090176.194    90455564.705 7
        32.000
  25403745.212   133497578.986 3        36.750    25403752.012   104024087.782 6
        18.500
  21735498.016   114220830.062 7        47.750    21735503.416    89003252.803 8
        35.000
  21106986.860   110917984.884 7        51.500    21106994.700    86429603.042 9
        41.500
 18  2 21 11  1 30.0000000  0  8G05G07G13G15G20G21G28G30
  20903181.322   109846954.295 8        53.000    20903187.802    85595027.359 8
        41.000
  22880694.048   120238871.945 6        46.750    22880699.568    93692630.372 7
        31.250
  20903743.642   109849935.453 7        51.000    20903748.942    85597356.167 8
        38.250
  23052803.128   121143289.320 6        45.750    23052808.568    94397386.935 7
        30.250
  22077938.014   116020352.844 6        45.000    22077943.514    90405473.800 7
        32.250
  25399756.212   133476613.095 4        38.000    25399761.812   104007750.750 6
        18.500
  21726861.596   114175443.482 7        49.000    21726867.016    88967886.659 8
        34.500
  21118121.180   110976495.949 7        51.750    21118129.020    86475196.082 8
        40.750
 18  2 21 11  2  0.0000000  0  8G05G07G13G15G20G21G28G30
  20912575.662   109896321.924 8        52.500    20912581.502    85633495.623 8
        40.750
  22896875.428   120323907.016 7        47.250    22896881.408    93758891.438 7
        31.750
  20893625.142   109796762.114 7        51.000    20893630.442    85555922.402 8
        38.250
  23035275.528   121051181.893 6        45.000    23035281.188    94325614.942 7
        30.250
  22065796.414   115956546.532 6        45.000    22065801.914    90355754.604 7
        32.500
  25395850.632   133456090.946 4        37.500    25395856.692   103991759.451 5
        17.750
  21718319.996   114130557.630 7        48.750    21718325.136    88932910.684 8
        34.750
  21129322.980   111035361.091 7        51.500    21129330.680    86521065.011 8
        41.000
 18  2 21 11  2 30.0000000  0  8G05G07G13G15G20G21G28G30
  20922070.702   109946217.096 8        53.500    20922076.522    85672374.952 8
        41.000
  22913090.328   120409115.317 6        47.000    22913096.488    93825287.486 7
        31.500
  20883564.602   109743892.074 7        50.750    20883569.762    85514724.977 8
        38.000
  23017777.728   120959232.370 6        45.250    23017784.928    94253965.986 7
        31.000
  22053745.514   115893219.232 6        44.750    22053750.714    90306408.662 7
        32.500
  25392029.912   133436013.684 4        38.500    25392035.732   103976114.803 6
        19.000
  21709874.016   114086174.329 7        48.750    21709879.556    88898326.317 8
        34.750
  21140591.520   111094578.835 7        51.500    21140599.560    86567208.695 9
        41.500
 18  2 21 11  3  0.0000000  0  8G05G07G13G15G20G21G28G30
  20931665.502   109996638.297 8        52.500    20931671.762    85711664.185 8
        40.750
  22929337.288   120494494.903 6        47.000    22929343.348    93891817.002 7
        31.250
  20873560.842   109691326.036 7        51.000    20873566.662    85473764.419 8
        38.000
  23000310.688   120867441.872 6        45.500    23000317.228    94182440.935 7
        31.000
  22041786.454   115830373.803 6        44.750    22041791.734    90257438.214 7
        32.750
  25388293.632   133416380.916 4        38.500    25388299.992   103960816.558 5
        17.750
  21701524.316   114042294.864 7        49.750    21701529.276    88864134.529 8
        35.000
  21151927.040   111154147.027 7        51.750    21151934.900    86613625.456 8
        40.750
 18  2 21 11  3 30.0000000  0  8G05G07G13G15G20G21G28G30
  20941360.002   110047584.008 8        53.000    20941365.802    85751362.117 8
        40.750
  22945616.488   120580044.255 6        45.500    22945623.348    93958478.801 7
        30.500
  20863616.382   109639065.486 7        51.000    20863621.762    85433041.913 8
        38.250
  22982874.388   120775812.388 6        45.500    22982880.208    94111041.378 7
        30.750
  22029919.374   115768012.717 6        45.250    22029924.414    90208845.163 7
        32.000
  25384642.992   133397192.998 4        39.000    25384648.292   103945864.950 6
        18.500
  21693270.176   113998920.660 7        49.000    21693275.876    88830336.462 8
        34.500
  21163328.840   111214064.121 7        51.250    21163336.580    86660314.095 8
        40.750
 18  2 21 11  4  0.0000000  0  8G05G07G13G15G20G21G28G30
  20951154.442   110099052.524 8        53.000    20951159.562    85791467.434 8
        41.000
  22961928.568   120665761.632 6        46.250    22961934.188    94025271.519 7
        30.500
  20853729.882   109587111.404 7        51.000    20853735.382    85392558.215 8
        38.750
  22965468.368   120684345.001 6        45.250    22965474.488    94039768.096 7
        31.250
  22018145.494   115706137.365 6        45.500    22018150.414    90160630.615 7
        33.000
  25381075.392   133378450.506 4        38.250    25381081.232   103931260.393 6
        18.500
  21685112.956   113956053.463 7        49.500    21685117.856    88796933.467 8
        35.500
  21174796.820   111274328.206 7        52.000    21174804.680    86707273.107 8
        41.000
 18  2 21 11  4 30.0000000  0  8G05G07G13G15G20G21G28G30
  20961047.702   110151042.903 8        52.500    20961053.202    85831979.394 8
        40.750
  22978271.928   120751645.665 6        45.500    22978277.928    94092194.117 7
        31.500
  20843902.142   109535464.779 7        51.000    20843907.042    85352314.087 8
        38.000
  22948094.108   120593041.122 6        46.000    22948100.228    93968622.228 7
        31.250
  22006463.434   115644750.243 6        45.500    22006468.754    90112796.494 7
        32.500
  25377594.632   133360154.233 3        37.000    25377599.012   103917003.546 5
        16.750
  21677051.696   113913694.726 7        49.500    21677057.436    88763926.688 8
        34.750
  21186330.400   111334937.683 8        52.250    21186338.840    86754501.257 9
        41.500
 18  2 21 11  5  0.0000000  0  8G05G07G13G15G20G21G28G30
  20971040.322   110203553.358 8        53.250    20971045.702    85872896.604 8
        40.750
  22994645.728   120837694.545 6        45.500    22994652.168    94159245.177 7
        31.000
  20834132.562   109484126.564 7        51.750    20834137.882    85312310.287 8
        39.250
  22930750.988   120501902.193 6        45.500    22930757.428    93897604.912 7
        32.000
  21994875.194   115583853.591 6        45.000    21994880.594    90065344.561 7
        32.500
  25374197.952   133342303.719 4        38.000    25374202.072   103903094.075 5
        16.750
  21669088.856   113871845.647 7        49.750    21669093.616    88731317.037 8
        35.250
  21197929.140   111395890.469 7        51.250    21197937.600    86801996.924 9
        41.500
 18  2 21 11  5 30.0000000  0  8G05G07G13G15G20G21G28G30
  20981131.542   110256583.232 8        52.750    20981137.582    85914218.557 8
        41.000
  23011051.948   120923906.928 6        44.500    23011058.608    94226423.620 7
        30.250
  20824422.002   109433098.196 7        50.750    20824427.922    85272547.929 8
        39.500
  22913439.268   120410929.576 6        45.250    22913445.648    93826717.176 7
        31.500
  21983380.154   115523449.510 6        45.250    21983385.814    90018276.452 7
        32.750
  25370885.512   133324900.129 4        37.750    25370889.932   103889532.842 5
        17.250
  21661222.176   113830507.930 7        49.250    21661227.336    88699105.839 8
        35.000
  21209593.560   111457184.964 7        51.750    21209601.600    86849758.852 9
        41.250
 18  2 21 11  6  0.0000000  0  8G05G07G13G15G20G21G28G30
  20991321.140   110310130.402 8        53.000    20991326.980    85955943.599 8
        40.000
  23027488.268   121010281.077 6        46.250    23027494.828    94293728.105 7
        29.000
  20814770.862   109382380.349 7        51.500    20814776.542    85233027.530 8
        39.750
  22896159.988   120320124.523 6        45.500    22896165.468    93755960.013 7
        31.500
  21971980.094   115463539.583 6        45.250    21971985.554    89971593.403 7
        32.500
  25367658.612   133307943.209 4        37.500    25367663.632   103876319.615 5
        16.250
  21653453.436   113789682.676 7        49.750    21653459.056    88667293.973 8
        35.000
  21221321.880   111518819.041 7        52.000    21221329.480    86897785.391 9
        41.500
 18  2 21 11  6 30.0000000  0  8G05G07G13G15G20G21G28G30
  21001609.140   110364192.998 7        52.000    21001615.040    85998070.263 8
        40.750
  23043956.248   121096815.281 6        45.500    23043961.448    94361157.309 7
        30.500
  20805178.922   109331974.306 7        51.250    20805184.802    85193750.099 8
        39.000
  22878912.168   120229488.850 6        45.250    22878918.188    93685334.828 7
        31.500
  21960674.174   115404126.283 6        45.750    21960679.314    89925297.317 7
        32.750
  25364517.392   133291433.606 5        40.000    25364522.392   103863455.004 5
        17.750
  21645782.516   113749371.349 7        50.250    21645787.696    88635882.568 8
        35.500
  21233114.820   111580791.044 7        51.500    21233122.700    86946075.249 9
        41.250
