     2.11           OBSERVATION DATA    G (GPS)             RINEX VERSION / TYPE
teqc  2016Nov7                          20180403 09:56:50UTCPGM / RUN BY / DATE
FEGA                                                        MARKER NAME
18646M001                                                   MARKER NUMBER
Automatic           EXAGONE                                 OBSERVER / AGENCY
1294-10719          TPS NET-G5          5.1                 REC # / TYPE / VERS
383-0981            TPSCR.G3        TPSH                    ANT # / TYPE
  4203470.8670   245064.8420  4774998.3550                  APPROX POSITION XYZ
        0.0000        0.0000        0.0000                  ANTENNA: DELTA H/E/N
     1     1                                                WAVELENGTH FACT L1/2
     9    C1    L1    D1    P2    L2    D2    P1    S1    S2# / TYPES OF OBSERV
    30.0000                                                 INTERVAL
    18                                                      LEAP SECONDS
Linux 2.4.21-27.ELsmp|Opteron|gcc|Linux x86_64|=+           COMMENT
teqc  2016Nov7                          20180403 09:56:50UTCCOMMENT
     2.11           OBSERVATION DATA    M (MIXED)           COMMENT
teqc  2016Nov7                          20180403 09:56:48UTCCOMMENT
teqc  2016Nov7      IGN-RGP             20180221 09:07:46UTCCOMMENT
teqc_2016 edited: GLONASS # 25 - 30 excluded                COMMENT
GN-RINEX 1.3        Geo++ Teria         21-FEB-18 08:00     COMMENT
Forced Modulo Decimation to 30 seconds                      COMMENT
teqc_2016 edited: all GLONASS satellites excluded           COMMENT
teqc_2016 edited: all SBAS satellites excluded              COMMENT
teqc_2016 edited: all Galileo satellites excluded           COMMENT
  2018     2    21     8     0    0.0000000     GPS         TIME OF FIRST OBS
                                                            END OF HEADER
 18  2 21  8  0  0.0000000  0 10G09G06G07G02G23G30G05G29G26G03
  20322187.788 9  69045096.527 9     -1112.512    20322191.440 8  79021689.85818
      -866.892    20322187.419          54.750          49.500
  21293121.098 8  74147366.635 8     -1985.379    21293125.556 7  82997478.980 7
     -1547.049    21293120.792          50.250          43.750
  21659369.953 9  76072028.627 9      2157.531    21659371.080 7  80302903.011 7
      1681.193    21659369.668          51.750          41.750
  22011949.993 8  77924837.186 8       774.398    22011948.746 7  81746633.602 7
       603.427    22011949.226          47.500          38.750
  22637932.376 8  81214404.790 8     -2598.235    22637931.578 6  84309935.345 6
     -2024.599    22637931.752          46.000          34.000
  23009333.734 8  83166094.222 8      3370.065    23009337.652 6  85830805.607 6
      2626.025    23009332.744          45.000          33.500
  23768564.828 8  87155913.297 8      3214.129    23768566.015 5  88939697.35115
      2504.516    23768564.774          44.500          28.000
  25044284.179 7  98054156.946 7       791.960    25044281.238 3  94163558.530 3
       617.112    25044282.527          41.750          18.000
  25195682.419 6  94655480.632 6     -1107.962    25195688.793 3  94783472.378 3
      -863.347    25195682.032          37.500          18.000
  25421564.989 7  95842462.795 7     -3499.202    25421569.914 4  99902758.24714
     -2726.651    25421564.608          41.500          21.750
 18  2 21  8  0 30.0000000  0 10G09G06G07G02G23G30G05G29G26G03
  20328574.690 9  69078659.748 9     -1125.124    20328578.194 8  79047843.01118
      -876.720    20328574.315          55.500          50.000
  21304504.550 8  74207187.952 8     -2002.819    21304509.185 7  83044092.995 7
     -1560.638    21304504.598          49.750          43.500
  21647093.362 9  76007515.787 9      2143.256    21647094.741 7  80252633.262 7
      1670.070    21647093.068          52.000          41.500
  22007579.583 8  77901870.305 8       756.629    22007578.261 7  81728737.329 7
       589.581    22007578.686          48.250          39.000
  22652782.298 8  81292441.045 8     -2604.247    22652781.729 6  84370742.796 6
     -2029.284    22652781.890          48.250          34.000
  22990115.682 7  83065104.987 7      3362.508    22990120.632 6  85752112.734 6
      2620.136    22990114.864          44.000          33.500
  23750225.609 7  87059540.349 7      3210.651    23750227.033 5  88864601.54115
      2501.806    23750225.042          43.500          27.000
  25039813.578 6  98030674.609 6       773.603    25039820.593 3  94145260.474 3
       602.808    25039812.277          37.250          17.500
  25202057.739 6  94688982.483 6     -1125.565    25202064.743 4  94809623.625 4
      -877.064    25202060.728          37.250          23.250
  25441546.645 7  95947470.964 7     -3501.359    25441553.246 4  99984582.75614
     -2728.332    25441546.675          39.000          21.250
 18  2 21  8  1  0.0000000  0 10G09G06G07G02G23G30G05G29G26G03
  20335033.670 9  69112602.093 9     -1137.813    20335037.247 8  79074291.58718
      -886.607    20335033.394          55.500          49.250
  21315988.029 8  74267533.653 8     -2020.272    21315992.792 7  83091115.613 7
     -1574.238    21315987.756          50.250          43.750
  21634898.378 9  75943432.037 9      2128.858    21634900.017 7  80202697.871 7
      1658.850    21634898.093          51.250          41.250
  22003311.156 8  77879441.011 8       738.584    22003310.139 7  81711259.953 7
       575.520    22003310.508          47.500          38.500
  22667666.517 8  81370658.227 8     -2610.301    22667666.169 6  84431691.225 6
     -2034.001    22667665.600          47.000          34.000
  22970941.217 8  82964344.638 8      3354.685    22970946.431 6  85673598.202 6
      2614.040    22970941.160          45.250          33.000
  23731906.872 7  86963275.959 7      3206.935    23731907.876 5  88789590.31715
      2498.911    23731906.512          42.500          26.750
  25035453.771 7  98007748.869 7       754.877    25035451.586 4  94127396.402 4
       588.216    25035453.156          43.250          21.000
  25208533.580 6  94723018.990 6     -1143.554    25208541.093 4  94836146.596 4
      -891.081    25208533.430          33.750          20.750
  25461540.562 6  96052546.976 6     -3503.689    25461546.441 3 100066460.17213
     -2730.147    25461541.261          36.250          15.500
 18  2 21  8  1 30.0000000  0 10G09G06G07G02G23G30G05G29G26G03
  20341564.481 9  69146921.990 9     -1150.310    20341568.102 8  79101034.35518
      -896.346    20341564.226          56.250          49.750
  21327570.573 9  74328401.410 9     -2037.700    21327575.379 7  83138545.028 7
     -1587.819    21327570.411          51.750          43.250
  21622785.413 9  75879778.650 9      2114.593    21622787.284 7  80153097.841 7
      1647.735    21622785.104          50.750          41.000
  21999145.471 8  77857549.650 8       720.669    21999144.397 7  81694201.739 7
       561.561    21999144.487          48.750          38.750
  22682584.756 8  81449054.701 8     -2616.245    22682584.394 6  84492779.372 6
     -2038.632    22682584.175          47.000          33.750
  22951810.921 8  82863815.147 8      3347.132    22951816.113 6  85595263.570 6
      2608.155    22951810.513          45.500          33.500
  23713609.603 8  86867121.113 8      3203.261    23713610.841 5  88714664.46715
      2496.048    23713609.561          45.500          27.500
  25031193.999 7  97985379.991 7       736.416    25031201.092 3  94109965.900 3
       573.831    25031194.083          38.500          17.750
  25215113.581 6  94757588.741 6     -1161.251    25215118.723 2  94863084.002 2
      -904.871    25215113.242          37.500          14.250
  25481548.432 6  96157689.223 6     -3505.893    25481554.623 2 100148389.16912
     -2731.865    25481547.113          32.500          11.000
 18  2 21  8  2  0.0000000  0 10G09G06G07G02G23G30G05G29G26G03
  20348166.966 9  69181618.246 9     -1162.807    20348170.660 8  79128070.39418
      -906.083    20348166.663          55.000          49.500
  21339252.250 8  74389789.192 8     -2054.898    21339257.164 7  83186379.657 7
     -1601.219    21339252.091          49.750          43.250
  21610754.943 9  75816557.576 9      2100.186    21610756.810 7  80103834.676 7
      1636.509    21610754.712          52.000          41.250
  21995082.230 8  77836197.255 8       702.812    21995081.325 7  81677563.503 7
       547.646    21995081.493          45.500          38.500
  22697537.412 8  81527629.448 8     -2622.060    22697536.572 6  84554006.434 6
     -2043.164    22697536.330          45.750          34.000
  22932725.135 7  82763518.981 7      3339.309    22932730.327 6  85517110.749 6
      2602.059    22932724.736          44.250          33.250
  23695332.959 8  86771078.000 8      3199.668    23695334.641 5  88639825.67415
      2493.247    23695332.959          45.000          28.500
  25027046.820 7  97963568.907 7       717.694    25027050.040 4  94092970.410 4
       559.242    25027047.123          43.250          24.500
  25221793.239 6  94792690.485 6     -1178.674    25221798.755 3  94890436.047 3
      -918.448    25221792.348          37.000          14.750
  25501569.712 6  96262896.767 6     -3507.849    25501576.982 1 100230368.903 1
     -2733.389    25501570.755          34.250           6.000
 18  2 21  8  2 30.0000000  0 10G09G06G07G02G23G30G05G29G26G03
  20354840.838 9  69216689.176 9     -1175.316    20354844.372 8  79155398.38418
      -915.831    20354840.523          54.500          49.750
  21351032.520 8  74451694.532 8     -2072.142    21351037.316 7  83234617.576 7
     -1614.657    21351032.328          48.250          43.000
  21598806.912 9  75753769.594 9      2085.683    21598808.642 7  80054908.978 7
      1625.207    21598806.705          50.750          41.500
  21991121.873 8  77815384.264 8       684.688    21991120.404 7  81661345.584 7
       533.523    21991121.079          48.000          39.000
  22712522.988 8  81606380.804 8     -2627.987    22712522.673 6  84615371.106 6
     -2047.782    22712522.316          48.000          33.500
  22913684.257 8  82663458.079 8      3331.429    22913689.567 6  85439141.240 6
      2595.919    22913684.063          45.750          33.750
  23677077.964 8  86675146.409 8      3195.806    23677079.853 5  88565073.80515
      2490.238    23677077.589          45.000          29.000
  25022999.859 6  97942315.342 6       699.230    25022996.018 2  94076409.058 2
       544.855    25022999.061          38.250          14.250
  25228574.244 6  94828322.891 6     -1197.081    25228579.683 3  94918201.536 3
      -932.790    25228573.771          35.500          15.250
  25521602.146 6  96368167.905 6     -3510.264    25521609.144 3 100312398.258 3
     -2735.271    25521602.099          36.250          15.500
 18  2 21  8  3  0.0000000  0 10G09G06G07G02G23G30G05G29G26G03
  20361586.123 9  69252135.509 9     -1187.758    20361589.586 8  79183018.89818
      -925.525    20361585.698          55.000          49.750
  21362911.244 9  74514117.302 9     -2089.292    21362916.032 7  83283258.699 7
     -1628.020    21362911.121          51.750          43.250
  21586942.098 9  75691418.525 9      2071.067    21586943.513 7  80006323.729 7
      1613.818    21586941.762          51.000          41.750
  21987264.333 8  77795113.530 8       666.698    21987263.059 7  81645550.206 7
       519.505    21987263.517          48.500          38.750
  22727542.764 8  81685309.206 8     -2633.857    22727541.885 6  84676873.743 6
     -2052.356    22727542.011          45.000          33.500
  22894689.153 8  82563636.793 8      3323.458    22894694.279 6  85361358.461 6
      2589.708    22894688.889          45.750          34.000
  23658844.806 8  86579330.846 8      3191.994    23658846.727 5  88490412.34215
      2487.268    23658844.494          44.500          29.500
  25019064.729 7  97921622.327 7       680.533    25019069.469 4  94060284.631 4
       530.285    25019064.267          42.750          21.000
  25235454.847 6  94864486.574 6     -1214.871    25235460.426 3  94946381.008 3
      -946.653    25235454.799          34.750          15.000
  25541647.254 6  96473503.637 6     -3512.331    25541653.798 3 100394477.928 3
     -2736.881    25541646.861          38.250          18.500
 18  2 21  8  3 30.0000000  0 10G09G06G07G02G23G30G05G29G26G03
  20368402.049 9  69287954.091 9     -1200.197    20368405.661 8  79210929.47518
      -935.219    20368401.764          55.250          49.250
  21374887.719 9  74577053.522 9     -2106.400    21374892.345 7  83332299.908 7
     -1641.351    21374887.503          51.250          43.500
  21575160.260 9  75629504.118 9      2056.523    21575161.546 7  79958078.729 7
      1602.485    21575160.030          52.250          42.000
  21983509.951 8  77775383.847 8       648.619    21983508.833 7  81630176.427 7
       505.418    21983509.297          47.750          38.750
  22742595.469 8  81764411.602 8     -2639.625    22742595.169 6  84738511.962 6
     -2056.851    22742595.118          46.250          33.250
  22875739.523 8  82464055.594 8      3315.379    22875744.521 6  85283762.747 6
      2583.412    22875739.172          47.000          34.000
  23640633.739 8  86483630.549 8      3188.065    23640634.869 5  88415840.70315
      2484.206    23640633.577          45.250          29.250
  25015230.596 7  97901488.128 7       661.784    25015228.854 4  94044595.761 4
       515.675    25015228.411          38.500          23.750
  25242437.286 6  94901178.448 6     -1231.815    25242442.710 3  94974972.090 3
      -959.856    25242436.915          35.750          14.500
  25561704.655 7  96578900.869 7     -3514.336    25561710.960 3 100476605.527 3
     -2738.444    25561704.053          41.000          20.000
 18  2 21  8  4  0.0000000  0 10G09G06G07G02G23G30G05G29G26G03
  20375288.578 9  69324143.303 9     -1212.434    20375292.227 8  79239128.85418
      -944.754    20375288.356          54.500          49.250
  21386961.231 8  74640500.738 8     -2123.325    21386965.941 7  83381739.294 7
     -1654.539    21386961.084          48.750          43.500
  21563461.774 9  75568027.729 9      2041.995    21563462.979 7  79910175.048 7
      1591.165    21563461.474          51.750          41.750
  21979858.640 8  77756195.668 8       630.642    21979857.330 7  81615224.597 7
       491.409    21979857.654          48.500          39.000
  22757681.034 8  81843686.556 8     -2645.270    22757680.363 6  84800284.631 6
     -2061.249    22757680.354          45.500          33.250
  22856835.816 8  82364716.511 8      3307.316    22856840.858 6  85206355.708 6
      2577.130    22856835.135          46.000          34.250
  23622444.503 8  86388045.646 8      3184.228    23622445.315 5  88341358.96515
      2481.217    23622444.716          45.250          28.750
  25011508.544 7  97881913.630 7       643.267    25011513.386 2  94029342.632 2
       501.247    25011507.693          41.500          10.250
  25249520.102 7  94938397.077 7     -1249.309    25249523.550 3  95003973.622 3
      -973.487    25249520.501          38.500          15.250
  25581772.322 7  96684358.198 7     -3516.044    25581777.694 4 100558779.99214
     -2739.774    25581772.184          39.500          21.000
 18  2 21  8  4 30.0000000  0 10G09G06G07G02G23G30G05G29G26G03
  20382245.385 9  69360700.671 9     -1224.816    20382248.968 8  79267615.10818
      -954.402    20382245.109          55.250          49.750
  21399131.492 9  74704455.550 9     -2140.384    21399136.045 7  83431574.211 7
     -1667.832    21399131.288          51.250          43.000
  21551846.621 9  75506989.657 9      2027.137    21551847.805 7  79862612.913 7
      1579.587    21551846.216          52.500          42.000
  21976310.201 8  77737548.268 8       612.404    21976309.026 7  81600694.156 7
       477.198    21976309.389          47.500          39.000
  22772798.941 8  81923131.479 8     -2651.153    22772798.060 6  84862189.739 6
     -2065.833    22772798.213          46.000          33.000
  22837978.570 8  82265620.642 8      3298.975    22837983.181 6  85129138.192 6
      2570.630    22837978.277          46.250          34.000
  23604277.557 8  86292576.931 8      3180.203    23604278.315 5  88266967.75615
      2478.080    23604277.161          46.000          28.500
  25007886.706 6  97862897.174 6       624.485    25007893.622 3  94014524.856 3
       486.612    25007886.050          37.250          20.250
  25256702.701 7  94976139.920 7     -1266.875    25256707.395 3  95033383.647 3
      -987.175    25256701.151          40.500          15.000
  25601851.026 6  96789873.323 6     -3518.391    25601857.433 3 100640999.487 3
     -2741.604    25601851.629          38.250          20.250
 18  2 21  8  5  0.0000000  0 10G09G06G07G02G23G30G05G29G26G03
  20389272.272 9  69397628.579 9     -1237.083    20389276.109 8  79296390.09818
      -963.961    20389272.077          54.750          49.250
  21411398.345 8  74768919.485 8     -2157.317    21411403.106 7  83481805.846 7
     -1681.026    21411398.390          50.000          43.000
  21540315.842 9  75446394.864 9      2012.438    21540317.086 7  79815396.188 7
      1568.134    21540315.485          50.500          42.000
  21972865.310 8  77719445.820 8       594.325    21972864.354 7  81586588.348 7
       463.111    21972864.470          47.250          39.000
  22787949.457 8  82002748.624 8     -2656.757    22787948.968 6  84924229.068 6
     -2070.200    22787949.046          46.750          33.000
  22819168.623 8  82166773.978 8      3290.756    22819173.276 6  85052114.852 6
      2564.225    22819167.838          47.250          34.000
  23586133.383 8  86197230.290 8      3176.240    23586134.336 5  88192671.66715
      2474.992    23586133.056          45.250          27.750
  25004378.124 7  97844443.448 7       605.820    25004372.164 3  94000145.029 3
       472.068    25004377.363          41.000          17.500
  25263985.457 7  95014409.428 7     -1284.335    25263991.824 3  95063204.020 3
     -1000.780    25263983.565          41.250          16.000
  25621941.960 6  96895448.775 6     -3520.055    25621947.299 3 100723265.901 3
     -2742.900    25621942.065          36.750          16.500
 18  2 21  8  5 30.0000000  0 10G09G06G07G02G30G23G05G29G26G03
  20396369.504 9  69434923.305 9     -1249.202    20396372.961 8  79325450.91818
      -973.404    20396369.126          55.500          49.500
  21423761.394 9  74833887.908 9     -2173.927    21423766.265 7  83532430.582 7
     -1693.969    21423761.475          51.500          42.750
  21528868.824 9  75386242.650 9      1997.757    21528870.416 7  79768524.348 7
      1556.694    21528868.665          52.000          41.500
  21969524.033 8  77701887.171 8       576.332    21969522.951 7  81572906.281 7
       449.090    21969523.143          48.000          38.750
  22800406.217 8  82068176.491 8      3282.510    22800410.690 6  84975285.686 6
      2557.800    22800405.633          46.750          34.250
  22803132.272 8  82082534.343 8     -2662.275    22803131.900 6  84986399.742 6
     -2074.500    22803131.463          47.500          32.750
  23568012.137 8  86102004.926 8      3172.277    23568014.181 5  88118470.08215
      2471.904    23568012.398          45.250          27.750
  25000970.021 6  97826550.218 6       587.136    25000977.857 3  93986202.417 3
       457.509    25000968.791          36.500          16.250
  25271367.354 7  95053201.827 7     -1301.613    25271372.901 3  95093431.865 3
     -1014.244    25271367.282          42.000          19.750
  25642041.779 6  97001081.007 6     -3521.873    25642047.802 3 100805576.622 3
     -2744.316    25642041.875          33.750          14.750
 18  2 21  8  6  0.0000000  0 10G09G06G07G02G30G23G05G29G26G03
  20403536.334 9  69472585.241 9     -1261.618    20403539.826 8  79354797.87318
      -983.079    20403535.953          56.000          49.250
  21436220.675 9  74899360.284 9     -2190.951    21436225.187 7  83583448.012 7
     -1707.234    21436220.378          51.750          43.250
  21517506.948 9  75326536.252 9      1982.636    21517508.630 7  79721999.890 7
      1544.911    21517506.825          51.500          41.500
  21966286.418 8  77684874.529 8       557.904    21966285.372 7  81559649.667 7
       434.730    21966285.840          48.000          39.000
  22781692.270 8  81969832.155 8      3273.776    22781696.758 6  84898653.784 6
      2550.994    22781691.112          46.500          34.750
  22818346.964 8  82162489.068 8     -2668.064    22818346.290 6  85048702.116 6
     -2079.011    22818346.502          45.750          32.750
  23549915.375 8  86006903.271 8      3167.868    23549917.341 5  88044364.92515
      2468.469    23549914.655          45.250          28.250
  24997675.736 7  97809219.957 7       568.210    24997668.085 3  93972698.229 3
       442.761    24997676.558          41.000          16.000
  25278848.474 7  95092517.516 7     -1319.303    25278853.907 3  95124067.454 3
     -1028.028    25278848.864          40.250          19.000
  25662156.309 6  97106770.599 6     -3524.002    25662161.333 2 100887932.011 2
     -2745.976    25662155.709          35.000          10.750
 18  2 21  8  6 30.0000000  0 10G09G06G07G02G30G23G05G29G26G03
  20410773.042 9  69510615.591 9     -1273.687    20410776.771 8  79384431.90318
      -992.484    20410772.796          54.250          49.250
  21448775.435 9  74965336.917 9     -2207.535    21448780.144 7  83634858.360 7
     -1720.157    21448775.249          50.750          42.750
  21506230.878 8  75267279.468 8      1967.762    21506232.389 7  79675825.784 7
      1533.321    21506230.569          49.500          41.500
  21963153.725 8  77668410.728 8       539.742    21963152.529 7  81546820.727 7
       420.578    21963152.850          48.750          38.750
  22763027.140 8  81871745.773 8      3265.300    22763031.610 6  84822222.883 6
      2544.390    22763026.118          45.750          35.250
  22833594.459 7  82242614.156 7     -2673.567    22833594.223 6  85111137.217 6
     -2083.299    22833593.917          43.250          32.500
  23531842.464 8  85911928.853 8      3163.791    23531844.425 5  87970358.91515
      2465.291    23531842.288          45.250          30.000
  24994482.035 5  97792455.158 5       549.361    24994486.286 1  93959634.659 1
       428.074    24994480.866          32.250           5.750
  25286430.391 7  95132357.655 7     -1336.593    25286436.009 3  95155111.681 3
     -1041.501    25286429.275          39.250          19.250
  25682278.523 6  97212518.993 6     -3525.873    25682281.110 2 100970333.246 2
     -2747.433    25682275.315          33.000           9.250
 18  2 21  8  7  0.0000000  0 10G09G06G07G02G30G23G05G29G26G03
  20418079.805 9  69549012.450 9     -1285.962    20418083.466 8  79414351.53018
     -1002.048    20418079.422          54.500          49.750
  21461425.720 9  75031814.937 9     -2224.270    21461430.622 7  83686659.396 7
     -1733.197    21461425.678          50.500          42.750
  21495040.357 9  75208473.296 9      1952.732    21495041.892 7  79630002.805 7
      1521.609    21495040.105          52.000          42.000
  21960125.183 8  77652496.295 8       521.334    21960124.163 7  81534419.860 7
       406.234    21960124.448          46.250          38.750
  22744411.042 8  81773919.054 8      3256.570    22744415.383 6  84745994.318 6
      2537.587    22744410.205          47.250          35.500
  22848873.652 8  82322907.580 8     -2679.255    22848873.439 6  85173703.504 6
     -2087.731    22848872.845          46.750          32.500
  23513794.209 8  85817082.938 8      3159.351    23513796.263 5  87896453.02815
      2461.832    23513794.023          45.250          30.750
  24991403.334 7  97776255.873 7       530.445    24991407.337 3  93947011.905 3
       413.334    24991402.915          40.250          18.750
  25294111.166 7  95172720.274 7     -1354.203    25294116.245 3  95186563.056 3
     -1055.223    25294110.872          40.500          19.500
  25702412.392 6  97318324.396 6     -3527.710    25702419.108 1 101052778.911 1
     -2748.865    25702413.612          33.250           6.250
 18  2 21  8  7 30.0000000  0 10G09G06G07G02G30G23G05G29G26G03
  20425455.704 9  69587772.459 9     -1298.054    20425459.320 8  79444554.13018
     -1011.471    20425455.312          53.750          49.000
  21474170.698 8  75098790.045 8     -2240.769    21474175.510 7  83738847.777 7
     -1746.054    21474170.578          48.750          42.500
  21483935.637 9  75150117.191 9      1937.707    21483937.190 7  79584530.514 7
      1509.902    21483935.511          51.500          42.000
  21957201.013 8  77637128.983 8       503.030    21957199.706 7  81522445.328 7
       391.971    21957200.279          48.500          39.000
  22725844.184 8  81676352.285 8      3247.826    22725849.095 6  84669968.288 6
      2530.773    22725843.528          46.500          35.000
  22864184.451 8  82403366.076 8     -2684.760    22864184.122 6  85236398.420 6
     -2092.021    22864183.705          47.250          32.750
  23495769.949 8  85722365.091 8      3155.083    23495771.175 5  87822646.93015
      2458.506    23495770.267          46.500          30.750
  24988423.676 5  97760619.680 5       511.854
                                        29.750
  25301890.163 7  95213601.911 7     -1371.367    25301895.325 4  95218418.827 4
     -1068.598    25301890.142          39.000          20.750
  25722556.533 5  97424183.663 5     -3529.822    25722563.836 1 101135266.493 1
     -2750.511    25722557.207          31.500           4.750
 18  2 21  8  8  0.0000000  0 10G09G07G06G02G30G23G05G29G26G03
  20432900.477 9  69626895.666 9     -1310.121    20432904.210 8  79475039.73918
     -1020.874    20432900.238          56.000          49.000
  21472917.341 9  75092214.012 9      1922.475    21472918.651 7  79539411.141 7
      1498.032    21472917.020          53.000          42.250
  21487010.149 9  75166261.297 9     -2257.324    21487014.901 7  83791422.767 7
     -1758.954    21487009.946          50.500          42.750
  21954381.321 8  77622311.542 8       484.761    21954380.065 7  81510899.262 7
       377.736    21954380.365          48.500          38.750
  22707328.220 8  81579049.123 8      3238.990    22707332.939 6  84594147.690 6
      2523.888    22707327.230          47.250          34.750
  22879526.801 8  82483989.629 8     -2690.202    22879526.241 6  85299221.950 6
     -2096.261    22879525.857          46.000          32.500
  23477770.506 8  85627778.406 8      3150.736    23477771.327 5  87748943.02815
      2455.119    23477770.254          45.500          30.250
  24985559.912 7  97745549.200 7       492.819    24985563.878 3  93923057.458 3
       384.015    24985559.789          42.000          16.250
  25309768.379 6  95255002.544 6     -1388.789    25309774.336 4  95250679.053 4
     -1082.174    25309766.880          37.750          20.500
  25742711.688 5  97530097.161 5     -3531.827    25742708.843 1 101217784.45511
     -2752.073                          31.500           1.250
 18  2 21  8  8 30.0000000  0 10G09G07G06G02G30G23G05G29G26G03
  20440414.257 9  69666380.658 9     -1322.219    20440417.938 8  79505807.26118
     -1030.300    20440413.909          55.000          49.250
  21461985.286 9  75034765.110 9      1907.347    21461986.536 7  79494645.750 7
      1486.244    21461984.938          51.250          42.250
  21499943.562 9  75234226.311 9     -2273.744    21499948.284 7  83844382.511 7
     -1771.748    21499943.517          51.500          42.750
  21951666.299 8  77608044.028 8       466.390    21951665.321 7  81499781.711 7
       363.421    21951665.519          48.250          39.250
  22688862.608 8  81482011.728 8      3230.153    22688867.141 6  84518534.170 6
      2517.002    22688861.844          46.500          35.000
  22894899.943 8  82564777.056 8     -2695.707    22894899.358 5  85362173.174 5
     -2100.551    22894899.403          47.000          32.250
  23459796.065 8  85533324.120 8      3146.172    23459796.980 5  87675342.30215
      2451.562    23459795.558          44.500          29.500
  24982796.302 6  97731044.008 6       474.063    24982801.557 3  93911754.796 3
       369.400    24982796.218          34.750          18.750
  25317744.729 6  95296920.656 6     -1406.053    25317750.671 3  95283342.482 3
     -1095.626    25317745.308          37.750          19.500
  25762874.136 5  97636065.419 5     -3532.154
                                        29.500
 18  2 21  8  9  0.0000000  0 10G09G07G06G02G30G23G05G29G26G03
  20447996.419 9  69706225.289 9     -1334.167    20448000.139 8  79536855.02018
     -1039.610    20447996.080          54.000          49.250
  21451139.664 9  74977770.921 9      1892.156    21451140.935 7  79450234.674 7
      1474.408    21451139.352          51.750          42.750
  21512970.249 8  75302681.896 8     -2289.965    21512974.832 7  83897724.513 7
     -1784.388    21512969.982          49.250          42.500
  21949055.877 8  77594326.193 8       448.093    21949054.699 7  81489092.479 7
       349.163    21949055.280          48.250          39.250
  22670447.851 8  81385241.569 8      3221.190    22670452.048 6  84443128.872 6
      2510.018    22670447.014          46.500          35.250
  22910304.086 8  82645726.195 8     -2700.981    22910303.744 5  85425250.413 5
     -2104.661    22910303.645          44.750          32.250
  23441846.711 8  85439002.976 8      3141.791    23441848.081 5  87601845.31315
      2448.149    23441847.299          44.500          28.750
  24980145.243 6  97717103.510 6       455.190    24980142.314 2  93900892.058 2
       354.693    24980142.491          38.000           8.500
  25325819.567 6  95339353.948 6     -1422.981    25325826.678 3  95316407.323 3
     -1108.816    25325818.626          36.750          18.750
  25783049.644 5  97742082.919 5     -3534.799
                                        27.500
 18  2 21  8  9 30.0000000  0  9G09G07G06G02G30G23G05G29G26
  20455646.882 9  69746428.754 9     -1346.055    20455650.675 8  79568182.39018
     -1048.874    20455646.660          55.250          49.500
  21440380.931 9  74921233.413 9      1876.972    21440382.391 7  79406179.463 7
      1462.576    21440380.463          51.500          42.750
  21526090.015 8  75371626.290 8     -2306.231    21526094.569 7  83951447.400 7
     -1797.063    21526089.778          49.750          42.500
  21946550.220 8  77581159.079 8       429.708    21946549.279 7  81478832.386 7
       334.837    21946549.408          48.750          39.250
  22652084.204 8  81288741.520 8      3212.128    22652089.253 6  84367934.047 6
      2502.957    22652084.070          47.000          35.750
  22925738.843 8  82726836.409 8     -2706.296    22925738.457 5  85488453.162 5
     -2108.802    22925738.166          45.750          32.000
  23423923.649 7  85344816.426 7      3137.324    23423925.289 5  87528453.19915
      2444.668    23423923.346          42.750          28.500
  24977600.902 7  97703729.138 7       436.441    24977604.038 2  93890470.307 2
       340.084    24977600.425          39.750          12.250
  25333992.479 6  95382301.492 6     -1440.015    25333997.614 3  95349872.915 3
     -1122.090    25333992.170          36.500          18.750
 18  2 21  8 10  0.0000000  0  9G09G07G06G02G30G23G05G29G26
  20463365.660 9  69786991.390 9     -1357.946    20463369.434 8  79599789.63218
     -1058.140    20463365.477          55.250          48.750
  21429709.531 9  74865155.742 9      1861.595    21429711.033 7  79362482.572 7
      1450.593    21429709.300          52.750          42.500
  21539302.414 9  75441058.754 9     -2322.480    21539307.331 7  84005550.596 7
     -1809.724    21539302.282          50.500          42.500
  21944149.863 8  77568544.753 8       411.348    21944148.808 7  81469003.034 7
       320.531    21944149.138          47.750          39.000
  22633773.091 8  81192515.464 8      3203.036    22633778.005 6  84292952.737 6
      2495.872    22633772.557          46.750          36.250
  22941204.138 8  82808107.790 8     -2711.626    22941203.895 5  85551781.479 5
     -2112.955    22941203.547          45.750          32.250
  23406027.364 7  85250767.948 7      3132.664    23406028.869 5  87455168.68115
      2441.037    23406027.475          44.000          29.500
  24975160.771 6  97690922.240 6       417.507    24975167.540 3  93880490.929 3
       325.330    24975159.902          36.250          17.500
  25342262.749 6  95425763.483 6     -1457.224    25342269.278 3  95383739.305 3
     -1135.499    25342261.729          36.500          19.000
 18  2 21  8 10 30.0000000  0  9G09G07G06G02G30G23G05G29G26
  20471152.274 9  69827909.427 9     -1369.840    20471155.899 8  79631673.81218
     -1067.408    20471151.854          55.000          49.750
  21419125.430 9  74809536.612 9      1846.315    21419126.947 7  79319142.998 7
      1438.687    21419125.232          52.000          42.500
  21552607.030 8  75510974.460 8     -2338.453    21552611.826 7  84060030.331 7
     -1822.171    21552606.790          49.500          42.500
  21941854.298 8  77556481.235 8       392.939    21941853.240 7  81459602.885 7
       306.186    21941853.357          49.250          39.250
  22615513.686 8  81096563.210 8      3193.835    22615518.998 6  84218184.776 6
      2488.702    22615513.551          47.000          36.250
  22956699.750 8  82889536.899 8     -2716.939    22956699.439 5  85615232.712 5
     -2117.095    22956699.295          46.000          32.250
  23388156.784 8  85156856.543 8      3128.075    23388158.280 5  87381990.97115
      2437.461    23388157.006          45.750          30.500
  24972832.490 6  97678680.351 6       398.618    24972832.922 2  93870951.937 2
       310.612    24972832.313          36.750          13.500
  25350630.244 6  95469735.834 6     -1474.125    25350636.336 3  95418003.475 3
     -1148.669    25350629.887          37.500          18.250
 18  2 21  8 11  0.0000000  0  9G09G07G06G02G30G23G05G29G26
  20479006.771 9  69869185.861 9     -1381.895    20479010.521 8  79663837.26218
     -1076.802    20479006.567          55.500          49.250
  21408629.609 9  74754381.796 9      1830.730    21408631.393 7  79276165.229 7
      1426.543    21408629.390          51.750          42.250
  21566003.825 8  75581375.380 8     -2354.775    21566008.664 7  84114888.135 7
     -1834.890    21566003.702          50.000          42.250
  21939664.308 8  77544973.429 8       374.328    21939663.214 7  81450635.753 7
       291.684    21939663.577          47.250          39.750
  22597308.336 8  81000891.409 8      3184.335    22597312.929 6  84143635.351 6
      2481.300    22597307.739          46.750          36.500
  22972225.912 8  82971126.909 8     -2722.400    22972225.516 5  85678809.326 5
     -2121.351    22972225.465          46.250          32.250
  23370313.410 8  85063088.490 8      3123.188    23370315.448 5  87308924.97615
      2433.653    23370313.557          46.750          31.500
  24970613.561 7  97667008.217 7       379.567    24970609.358 2  93861856.595 2
       295.767    24970613.456          39.750          12.750
  25359096.122 6  95514221.520 6     -1491.474    25359101.380 3  95452667.600 3
     -1162.187    25359095.424          37.500          17.250
 18  2 21  8 11 30.0000000  0  9G09G07G06G02G30G23G05G29G26
  20486928.714 9  69910815.642 9     -1393.629    20486932.462 8  79696276.04618
     -1085.945    20486928.406          54.750          49.250
  21398221.816 9  74699688.990 9      1815.357    21398223.603 7  79233547.471 7
      1414.563    21398221.549          50.750          42.000
  21579491.878 9  75652255.407 9     -2370.735    21579496.692 7  84170119.290 7
     -1847.326    21579491.752          51.250          42.000
  21937579.845 8  77534017.922 8       355.968    21937578.595 7  81442098.987 7
       277.377    21937578.961          49.000          39.500
  22579155.669 8  80905498.569 8      3175.009    22579160.528 6  84069303.281 6
      2474.033    22579154.997          47.500          36.250
  22987781.576 8  83052872.668 8     -2727.566    22987781.234 5  85742507.301 5
     -2125.376    22987780.752          46.250          32.000
  23352496.963 8  84969461.533 8      3118.427    23352498.672 5  87235968.91315
      2429.943    23352496.882          45.000          31.250
  24968497.290 6  97655902.389 6       360.818    24968502.485 3  93853202.643 3
       281.157    24968497.374          34.250          14.500
  25367659.178 7  95559215.128 7     -1508.268    25367664.910 3  95487727.518 3
     -1175.274    25367658.605          39.750          17.500
 18  2 21  8 12  0.0000000  0  9G09G07G06G02G30G23G05G29G26
  20494917.734 9  69952797.964 9     -1405.324    20494921.457 8  79728989.53418
     -1095.058    20494917.434          55.000          49.250
  21387902.504 9  74645460.035 9      1799.846    21387904.249 7  79191291.160 7
      1402.477    21387902.252          52.000          42.500
  21593070.884 9  75723612.626 9     -2386.542    21593075.621 7  84225722.274 7
     -1859.643    21593070.614          50.500          41.750
  21935600.034 8  77523615.469 8       337.524    21935599.021 7  81433993.177 7
       263.006    21935599.387          49.000          39.250
  22561056.682 8  80810387.487 8      3165.653    22561060.937 6  83995190.773 6
      2466.743    22561055.870          46.750          36.250
  23003366.910 8  83134773.825 8     -2732.722    23003366.374 5  85806326.359 5
     -2129.394    23003366.086          45.750          31.750
  23334707.353 8  84875977.216 8      3113.723    23334708.444 5  87163124.01915
      2426.278    23334707.476          46.250          31.250
  24966493.105 6  97645363.130 6       341.881    24966496.385 3  93844990.373 3
       266.401    24966492.173          37.750          14.500
  25376316.195 7  95604715.704 7     -1525.235    25376322.685 3  95523182.464 3
     -1188.495    25376316.749          39.750          19.250
 18  2 21  8 12 30.0000000  0  9G09G07G06G02G30G23G05G29G26
  20502973.700 9  69995133.151 9     -1417.084    20502977.600 8  79761977.98718
     -1104.222    20502973.574          54.500          48.750
  21377672.275 9  74591698.017 9      1784.310    21377673.526 7  79149398.686 7
      1390.372    21377671.928          51.500          42.750
  21606740.335 8  75795446.265 8     -2402.378    21606745.138 7  84281696.479 7
     -1871.983    21606740.290          50.250          42.250
  21933726.187 8  77513768.201 8       318.977    21933725.033 7  81426319.971 7
       248.554    21933725.525          47.250          39.250
  22543011.752 8  80715562.115 8      3155.939    22543016.243 6  83921300.888 6
      2459.173    22543011.050          47.500          36.000
  23018981.667 8  83216830.464 8     -2737.810    23018981.292 5  85870266.593 5
     -2133.358    23018981.109          45.500          31.500
  23316945.460 8  84782639.361 8      3108.792    23316946.824 5  87090393.24015
      2422.436    23316945.657          44.500          30.500
  24964597.440 7  97635392.766 7       322.827    24964597.991 3  93837221.237 3
       251.553    24964596.963          40.750          17.250
  25385072.419 7  95650723.229 7     -1542.094    25385077.486 3  95559032.443 3
     -1201.631    25385071.837          39.500          18.500
 18  2 21  8 13  0.0000000  0  9G09G07G06G02G30G23G05G29G26
  20511096.843 9  70037819.830 9     -1428.713    20511100.507 8  79795240.32418
     -1113.283    20511096.516          54.750          48.750
  21367530.776 9  74538403.659 9      1768.673    21367532.125 7  79107870.617 7
      1378.187    21367530.515          52.000          43.500
  21620500.458 9  75867753.858 9     -2418.178    21620504.901 7  84338040.008 7
     -1884.295    21620500.209          51.250          42.000
  21931958.044 8  77504476.618 8       300.449    21931957.073 7  81419079.771 7
       234.116    21931957.460          47.500          39.000
  22525021.899 8  80621024.598 8      3146.452    22525026.722 6  83847635.312 6
      2451.781    22525021.131          46.750          36.250
  23034626.120 8  83299041.306 8     -2742.839    23034625.437 5  85934326.969 5
     -2137.277    23034625.512          46.500          31.250
  23299211.800 8  84689449.093 8      3103.969    23299213.200 5  87017777.45515
      2418.677    23299212.166          46.250          30.500
  24962806.519 6  97625990.703 6       304.030    24962803.985 3  93829894.834 3
       236.907    24962806.084          37.750          16.500
  25393923.704 6  95697236.113 6     -1558.746    25393926.567 3  95595276.294 3
     -1214.608    25393922.472          38.000          17.250
 18  2 21  8 13 30.0000000  0  9G09G07G06G02G30G23G05G29G26
  20519286.615 9  70080857.246 9     -1440.372    20519290.300 8  79828775.96318
     -1122.368    20519286.286          54.750          49.000
  21357478.762 9  74485579.495 9      1752.969    21357479.901 7  79066708.933 7
      1365.950    21357478.375          52.000          43.000
  21634349.643 9  75940533.569 9     -2433.875    21634354.341 7  84394751.466 7
     -1896.526    21634349.479          50.500          41.750
  21930295.929 8  77495741.413 8       281.858    21930294.709 7  81412273.106 7
       219.629    21930295.069          49.000          39.250
  22507087.487 8  80526777.825 8      3136.667    22507092.142 6  83774196.290 6
      2444.156    22507086.869          46.750          37.000
  23050299.549 8  83381405.831 8     -2747.985    23050298.937 5  85998507.110 5
     -2141.287    23050298.937          45.250          31.250
  23281506.654 8  84596407.382 8      3098.910    23281508.012 5  86945277.42715
      2414.735    23281507.152          46.000          30.250
  24961123.514 6  97617157.666 6       284.990    24961128.179 2  93823011.920 2
       222.070    24961122.141          33.500          11.000
  25402870.252 7  95744253.284 7     -1575.580    25402874.896 2  95631913.073 2
     -1227.724    25402869.592          40.750          14.250
 18  2 21  8 14  0.0000000  0  9G09G07G06G02G30G23G05G29G26
  20527543.319 9  70124245.749 9     -1452.093    20527546.917 8  79862585.17618
     -1131.501    20527542.879          54.000          49.000
  21347516.509 9  74433228.175 9      1737.103    21347517.792 7  79025915.701 7
      1353.587    21347516.197          52.250          43.250
  21648288.755 8  76013784.540 8     -2449.456    21648293.629 7  84451830.123 7
     -1908.667    21648288.572          47.500          41.250
  21928739.985 8  77487564.636 8       263.175    21928739.038 7  81405901.585 7
       205.071    21928739.047          48.250          39.250
  22489208.953 8  80432825.681 8      3126.788    22489213.860 6  83700986.847 6
      2436.458    22489208.422          49.000          37.250
  23066002.321 8  83463924.491 8     -2753.184    23066001.302 5  86062807.346 5
     -2145.339    23066001.649          45.000          31.250
  23263830.756 8  84503519.231 8      3093.676    23263831.458 5  86872897.06015
      2410.657    23263830.822          45.250          30.500
  24959554.361 7  97608895.455 7       266.001    24959557.188 2  93816573.873 2
       207.274    24959554.241          39.250          12.250
  25411914.016 7  95791774.877 7     -1592.381    25411917.191 3  95668942.879 3
     -1240.816    25411913.338          41.750          15.250
 18  2 21  8 14 30.0000000  0  9G09G07G06G02G30G23G05G29G26
  20535865.501 9  70167979.479 9     -1463.605    20535869.168 8  79896663.40218
     -1140.471    20535865.129          55.000          49.000
  21337643.669 9  74381346.315 9      1721.507    21337645.006 7  78985488.291 7
      1341.434    21337643.324          52.500          43.000
  21662316.233 9  76087499.881 9     -2464.967    21662321.308 7  84509270.664 7
     -1920.754    21662316.035          50.500          41.750
  21927289.409 8  77479942.308 8       244.732    21927288.399 7  81399962.094 7
       190.700    21927288.645          48.500          39.250
  22471386.183 8  80339165.901 8      3117.104    22471391.034 6  83628005.220 6
      2428.912    22471385.503          48.250          37.750
  23081733.298 8  83546591.405 8     -2758.127    23081732.917 5  86127223.097 5
     -2149.190    23081732.782          46.500          31.250
  23246183.449 8  84410781.768 8      3088.587    23246184.762 5  86800634.10115
      2406.691    23246183.413          45.000          30.750
  24958089.497 7  97601199.742 7       247.108    24958091.964 3  93810577.247 3
       192.552    24958089.215          40.750          18.500
  25421051.420 7  95839794.541 7     -1608.903    25421056.808 2  95706360.802 2
     -1253.690    25421051.417          42.250          14.000
 18  2 21  8 15  0.0000000  0  9G09G07G06G02G30G23G05G29G26
  20544253.397 9  70212059.043 9     -1475.120    20544257.217 8  79931011.10718
     -1149.444    20544253.131          53.750          48.750
  21327860.823 9  74329937.066 9      1705.736    21327862.127 7  78945429.146 7
      1329.145    21327860.329          50.750          43.250
  21676431.984 8  76161678.820 8     -2480.233    21676437.129 7  84567072.409 7
     -1932.649    21676431.760          50.000          41.500
  21925944.900 8  77472876.354 8       226.308    21925943.764 7  81394456.154 7
       176.344    21925944.211          48.750          39.500
  22453619.532 8  80245802.654 8      3107.170    22453624.319 6  83555254.663 6
      2421.172    22453618.881          48.000          37.500
  23097492.617 8  83629407.312 8     -2763.007    23097492.410 5  86191754.948 5
     -2152.992    23097492.137          46.250          31.000
  23228565.222 8  84318198.072 8      3083.612    23228567.108 5  86728490.96515
      2402.815    23228565.087          46.250          31.000
  24956733.821 7  97594072.099 7       228.189    24956735.697 4  93805023.189 4
       177.810    24956733.899          40.250          20.750
  25430284.219 7  95888312.677 7     -1625.557    25430288.760 2  95744167.254 2
     -1266.668    25430283.031          40.750          12.500
 18  2 21  8 15 30.0000000  0  9G09G07G06G02G30G23G05G29G26
  20552707.203 9  70256483.310 9     -1486.462    20552710.908 8  79965627.40718
     -1158.282    20552706.870          55.000          48.500
  21318167.972 9  74279002.071 9      1690.019    21318169.546 7  78905739.545 7
      1316.898    21318167.745          51.250          42.750
  21690635.623 8  76236319.150 8     -2495.519    21690640.624 7  84625233.676 7
     -1944.560    21690635.486          49.500          41.000
  21924706.320 8  77466367.463 8       207.779    21924705.216 7  81389384.282 7
       161.905    21924705.549          48.750          39.500
  22435910.132 8  80152738.396 8      3097.201    22435914.383 6  83482737.091 6
      2413.404    22435909.340          47.500          37.250
  23113279.933 8  83712371.471 8     -2767.800    23113279.517 5  86256402.328 5
     -2156.727    23113279.508          46.000          31.000
  23210976.518 8  84225769.745 8      3078.396    23210977.957 5  86656468.93815
      2398.750    23210976.629          46.250          31.000
  24955485.074 6  97587512.793 6       209.236    24955485.827 3  93799912.009 3
       163.041    24955483.851          38.000          18.250
  25439610.933 6  95937327.814 6     -1641.989    25439615.771 2  95782360.858 2
     -1279.472    25439610.849          36.000          13.000
 18  2 21  8 16  0.0000000  0  9G09G07G06G02G30G23G05G29G26
  20561226.039 9  70301250.027 9     -1498.070    20561229.652 8  80000510.55918
     -1167.327    20561225.704          55.750          49.000
  21308565.677 9  74228541.750 9      1674.010    21308567.179 7  78866419.826 7
      1304.423    21308565.425          52.750          42.750
  21704926.427 9  76311417.408 9     -2510.979    21704931.545 7  84683751.735 7
     -1956.607    21704926.484          50.500          41.250
  21923573.644 8  77460414.866 8       189.111    21923572.382 7  81384745.893 7
       147.359    21923572.855          48.500          39.500
  22418257.722 8  80059974.425 8      3087.041    22418261.895 6  83410453.501 6
      2405.486    22418256.961          46.750          37.250
  23129095.293 8  83795481.767 8     -2772.828    23129095.296 5  86321163.573 5
     -2160.645    23129095.367          46.750          30.750
  23193417.593 8  84133496.559 8      3073.056    23193419.203 5  86584567.77415
      2394.589    23193417.497          45.500          31.250
  24954341.960 6  97581520.964 6       190.198    24954341.936 3  93795243.116 3
       148.206    24954342.214          36.500          15.000
  25449032.747 7  95986837.271 7     -1658.738    25449035.976 3  95820939.578 3
     -1292.524    25449032.322          39.000          15.000
 18  2 21  8 16 30.0000000  0  9G09G07G06G02G30G23G05G29G26
  20569809.715 9  70346357.194 9     -1509.342    20569813.319 8  80035658.99018
     -1176.111    20569809.289          55.500          49.000
  21299053.754 9  74178556.221 9      1658.172    21299055.310 7  78827470.077 7
      1292.082    21299053.490          52.250          43.000
  21719304.036 9  76386970.418 9     -2526.122    21719308.706 7  84742624.146 7
     -1968.407    21719303.874          50.750          41.500
  21922546.474 8  77455018.035 8       170.517    21922545.485 7  81380540.562 7
       132.870    21922545.676          48.000          39.500
  22400662.678 8  79967512.308 8      3076.981    22400666.986 6  83338405.122 6
      2397.648    22400662.003          48.750          37.250
  23144938.508 8  83878736.057 8     -2777.585    23144937.702 5  86386037.019 5
     -2164.352    23144938.299          44.500          30.750
  23175888.644 8  84041380.364 8      3067.786    23175889.930 5  86512788.94015
      2390.483    23175888.383          45.000          31.250
  24953310.254 6  97576095.820 6       171.452    24953311.834 2  93791015.695 2
       133.599    24953309.510          36.250          12.750
  25458547.545 6  96036838.636 6     -1674.883    25458553.247 3  95859901.657 3
     -1305.104    25458547.692          37.500          16.250
 18  2 21  8 17  0.0000000  0  9G09G07G06G02G30G05G23G29G26
  20578458.230 9  70391805.622 9     -1520.739    20578461.929 8  80071073.34218
     -1184.992    20578457.897          55.000          48.750
  21289632.980 9  74129049.047 9      1642.149    21289634.377 7  78788893.067 7
      1279.597    21289632.728          52.000          42.750
  21733767.628 8  76462977.822 8     -2541.252    21733772.364 7  84801850.663 7
     -1980.196    21733767.466          49.000          41.500
  21921626.015 8  77450179.428 8       151.860    21921624.672 7  81376770.211 7
       118.333    21921625.164          48.750          39.500
  22383126.189 8  79875356.431 8      3066.616    22383130.431 6  83266595.377 6
      2389.571    22383125.476          48.500          38.000
  23158390.001 8  83949425.017 8      3062.439    23158391.251 5  86441135.43415
      2386.316    23158390.322          46.500          31.500
  23160808.847 8  83962135.391 8     -2782.488    23160808.298 5  86451023.505 5
     -2168.173    23160808.460          46.250          30.500
  24952386.344 6  97571239.146 6       152.269    24952388.359 3  93787231.206 3
       118.651    24952386.944          37.500          14.750
  25468156.022 6  96087332.496 6     -1691.563    25468160.933 2  95899247.452 2
     -1318.101    25468154.134          33.000          12.250
 18  2 21  8 17 30.0000000  0  9G09G07G06G02G30G05G23G29G26
  20587171.868 9  70437595.885 9     -1532.037    20587175.517 8  80106754.05918
     -1193.795    20587171.593          54.750          48.750
  21280303.738 9  74080023.260 9      1626.149    21280305.042 7  78750691.166 7
      1267.129    21280303.343          52.000          43.250
  21748317.626 8  76539438.931 8     -2556.241    21748322.579 7  84861430.711 7
     -1991.876    21748317.485          49.750          41.000
  21920811.782 8  77445900.750 8       133.297    21920810.454 7  81373436.167 7
       103.868    21920810.798          49.000          39.500
  22365648.589 8  79783510.837 8      3056.318    22365653.020 7  83195027.408 7
      2381.547    22365647.737          48.000          38.500
  23140922.944 8  83857634.416 8      3056.979    23140924.269 5  86369610.29315
      2382.062    23140923.097          46.750          31.500
  23176707.012 8  84045680.279 8     -2787.077    23176706.160 5  86516123.398 5
     -2171.748    23176706.109          45.750          30.500
  24951572.258 7  97566952.997 7       133.388    24951573.445 3  93783891.362 3
       103.939    24951573.439          40.000          17.500
  25477857.840 5  96138318.694 5     -1707.700    25477864.903 2  95938976.917 2
     -1330.675    25477856.623          32.000          13.000
 18  2 21  8 18  0.0000000  0  9G09G07G06G02G30G05G23G29G26
  20595949.648 9  70483723.681 9     -1543.185    20595953.353 8  80142697.78518
     -1202.482    20595949.423          55.000          48.250
  21271065.535 9  74031477.012 9      1610.282    21271066.911 7  78712862.928 7
      1254.765    21271065.217          52.000          43.250
  21762953.071 8  76616348.125 8     -2571.019    21762957.850 7  84921359.903 7
     -2003.392    21762952.831          49.250          40.750
  21920103.387 8  77442179.452 8       114.837    21920102.248 7  81370536.448 7
        89.484    21920102.629          48.750          39.500
  22348229.756 8  79691974.788 8      3046.030    22348234.382 7  83123700.641 7
      2373.530    22348228.842          47.500          38.500
  23123486.775 8  83766006.202 8      3051.563    23123488.028 5  86298211.70015
      2377.841    23123486.607          46.500          31.750
  23192631.684 8  84129366.963 8     -2791.890    23192631.459 5  86581333.772 5
     -2175.499    23192631.315          45.250          30.250
  24950865.548 7  97563234.040 7       114.651    24950866.984 4  93780993.422 4
        89.338    24950864.745          40.750          21.500
  25487653.331 6  96189792.643 6     -1723.844    25487660.304 2  95979086.420 2
     -1343.255    25487652.177          33.000          14.250
 18  2 21  8 18 30.0000000  0  9G09G07G06G02G30G05G23G29G26
  20604791.550 9  70530189.093 9     -1554.573    20604795.366 8  80178904.59418
     -1211.356    20604791.358          53.750          48.500
  21261919.134 9  73983412.914 9      1594.014    21261920.507 7  78675410.392 7
      1242.089    21261918.759          50.500          43.000
  21777673.076 8  76693704.342 8     -2586.042    21777678.235 7  84981637.410 7
     -2015.098    21777673.145          48.750          40.500
  21919501.494 8  77439017.329 8        96.021    21919500.523 7  81368072.448 7
        74.822    21919500.876          48.750          39.250
  22330870.247 8  79600751.926 8      3035.471    22330874.996 6  83052617.925 6
      2365.302    22330869.501          48.750          38.250
  23106081.865 8  83674544.357 8      3045.859    23106083.226 5  86226942.74015
      2373.397    23106082.051          45.500          31.750
  23208583.926 8  84213195.684 8     -2796.709    23208583.536 5  86646654.831 5
     -2179.253    23208583.575          45.250          30.000
  24950265.442 7  97560083.596 7        95.560    24950268.551 4  93778538.534 4
        74.463    24950265.292          41.250          20.750
  25497541.649 6  96241754.024 6     -1739.974    25497547.345 3  96019575.706 3
     -1355.824    25497540.714          33.250          15.000
 18  2 21  8 19  0.0000000  0  9G09G07G06G02G30G05G23G29G26
  20613697.709 9  70576990.639 9     -1565.689    20613701.462 8  80215373.32318
     -1220.018    20613697.385          53.750          48.500
  21252864.727 9  73935831.936 9      1577.930    21252866.331 7  78638334.316 7
      1229.556    21252864.664          51.750          43.750
  21792478.164 8  76771504.724 8     -2600.831    21792483.399 7  85042260.998 7
     -2026.621    21792478.008          47.500          40.500
  21919006.318 8  77436414.093 8        77.447    21919005.241 7  81366043.944 7
        60.349    21919005.655          47.000          39.250
  22313571.110 8  79509844.275 8      3024.894    22313576.030 7  82981780.831 7
      2357.060    22313570.487          47.750          38.500
  23088709.144 8  83583249.710 8      3040.368    23088711.027 5  86155804.06915
      2369.118    23088709.015          46.500          32.000
  23224562.882 8  84297164.972 8     -2801.348    23224562.342 5  86712085.428 5
     -2182.869    23224562.429          45.500          30.000
  24949773.875 6  97557501.241 6        76.642    24949775.994 4  93776526.276 4
        59.721    24949773.230          38.250          21.000
  25507521.953 6  96294200.819 6     -1756.481    25507528.072 3  96060443.261 3
     -1368.686    25507522.235          36.500          17.500
 18  2 21  8 19 30.0000000  0  9G09G07G06G02G30G05G23G29G26
  20622667.568 9  70624127.770 9     -1576.891    20622671.397 8  80252103.54918
     -1228.746    20622667.352          54.250          48.500
  21243903.007 9  73888736.041 9      1561.721    21243904.221 7  78601636.226 7
      1216.925    21243902.605          52.500          43.500
  21807367.552 8  76849747.566 8     -2615.477    21807372.903 7  85103229.374 7
     -2038.034    21807367.285          49.000          40.500
  21918617.523 8  77434370.683 8        58.711    21918616.492 7  81364451.672 7
        45.749    21918616.716          47.750          39.500
  22296332.759 8  79419254.851 8      3014.256    22296337.010 7  82911191.691 7
      2348.771    22296332.087          49.500          38.750
  23071368.507 8  83492124.995 8      3034.557    23071370.384 5  86084797.81915
      2364.590    23071368.390          47.500          32.000
  23240568.519 8  84381274.650 8     -2806.157    23240568.013 5  86777625.414 5
     -2186.616    23240567.962          46.250          30.250
  24949391.598 7  97555487.346 7        57.553    24949393.882 4  93774957.022 4
        44.846    24949390.965          40.000          21.500
  25517594.041 7  96347131.938 7     -1772.653    25517601.521 3  96101688.295 3
     -1381.289    25517593.825          38.500          18.000
 18  2 21  8 20  0.0000000  0  9G09G07G06G02G30G05G23G29G26
  20631700.798 9  70671597.850 9     -1587.837    20631704.668 8  80289093.21618
     -1237.276    20631700.516          54.500          48.250
  21235033.113 9  73842124.955 9      1545.621    21235034.534 7  78565315.911 7
      1204.380    21235032.871          52.250          43.750
  21822340.284 8  76928428.983 8     -2629.967    21822345.387 7  85164539.509 7
     -2049.325    21822339.972          48.750          40.750
  21918334.989 8  77432885.856 8        40.187    21918333.868 7  81363294.656 7
        31.314    21918334.210          49.000          39.250
  22279155.137 8  79328984.584 8      3003.635    22279159.166 7  82840851.225 7
      2340.495    22279154.435          49.500          38.750
  23054060.172 8  83401170.480 8      3028.981    23054062.475 6  86013924.19416
      2360.245    23054060.460          46.750          32.500
  23256600.050 7  84465522.259 7     -2810.447    23256599.957 5  86843272.883 5
     -2189.958    23256599.696          44.250          30.000
  24949115.708 7  97554040.479 7        38.645    24949118.337 4  93773829.570 4
        30.113    24949115.027          40.500          21.250
  25527757.347 6  96400544.379 6     -1788.668    25527763.841 3  96143308.366 3
     -1393.768    25527758.340          38.250          19.250
 18  2 21  8 20 30.0000000  0  9G09G07G06G02G30G05G23G29G26
  20640797.328 9  70719400.253 9     -1599.010    20640801.109 8  80326341.83318
     -1245.982    20640797.077          54.750          47.750
  21226255.736 9  73796000.514 9      1529.287    21226257.229 7  78529374.796 7
      1191.652    21226255.616          52.000          43.250
  21837396.035 8  77007546.908 8     -2644.572    21837401.120 7  85226189.780 7
     -2060.706    21837395.990          49.250          41.000
  21918159.047 8  77431960.342 8        21.453    21918157.719 7  81362573.471 7
        16.716    21918158.142          48.000          39.250
  22262038.256 8  79239036.257 8      2992.853    22262042.708 7  82770761.635 7
      2332.093    22262037.656          49.000          39.000
  23036785.261 8  83310388.491 8      3023.083    23036786.389 6  85943184.99416
      2355.649    23036784.932          47.500          32.500
  23272658.043 8  84549907.133 8     -2815.193    23272658.022 5  86909027.302 5
     -2193.657    23272657.423          45.000          29.750
  24948947.749 6  97553161.182 6        19.552    24948950.975 4  93773144.384 4
        15.236    24948946.475          38.250          20.500
  25538013.997 7  96454436.779 7     -1804.332    25538020.388 3  96185302.443 3
     -1405.973    25538013.610          39.500          17.250
 18  2 21  8 21  0.0000000  0  9G09G07G06G02G30G05G23G29G26
  20649957.037 9  70767535.088 9     -1610.089    20649960.959 8  80363849.48918
     -1254.615    20649956.776          55.000          47.750
  21217571.561 9  73750364.946 9      1512.984    21217572.955 7  78493814.621 7
      1178.949    21217571.366          52.250          43.500
  21852534.388 8  77087100.187 8     -2659.047    21852539.602 7  85288179.297 7
     -2071.984    21852534.472          49.500          40.500
  21918089.375 8  77431595.518 8         2.744    21918088.308 7  81362289.181 7
         2.138    21918088.581          48.750          39.500
  22244983.213 8  79149413.517 8      2981.927    22244987.955 7  82700925.754 7
      2323.579    22244982.841          48.500          38.750
  23019543.472 8  83219781.987 8      3017.230    23019545.004 6  85872582.52616
      2351.088    23019543.313          47.500          32.500
  23288742.001 8  84634429.454 8     -2819.774    23288742.139 5  86974888.841 5
     -2197.226    23288741.315          46.250          29.500
  24948887.209 6  97552850.291 6         0.921    24948891.715 3  93772902.140 3
         0.718    24948887.236          36.250          19.750
  25548360.785 7  96508808.944 7     -1820.456    25548366.490 3  96227670.342 3
     -1418.537    25548360.380          39.250          18.500
 18  2 21  8 21 30.0000000  0  9G09G07G06G02G30G05G23G29G26
  20659180.173 9  70816002.508 9     -1620.992    20659183.942 8  80401616.30718
     -1263.111    20659179.855          54.500          48.500
  21208981.002 9  73705221.138 9      1496.690    21208982.489 7  78458637.638 7
      1166.252    21208980.783          52.500          43.500
  21867755.778 8  77167087.727 8     -2673.386    21867760.394 7  85350507.215 7
     -2083.158    21867755.523          48.500          40.250
  21918126.796 8  77431792.795 8       -15.873    21918125.986 7  81362442.895 7
       -12.368    21918126.028          48.500          39.250
  22227991.309 8  79060120.058 8      2971.015    22227996.052 7  82631346.464 7
      2315.076    22227990.673          47.750          39.000
  23002335.567 8  83129353.949 8      3011.418    23002336.946 6  85802119.12616
      2346.560    23002335.295          46.250          32.500
  23304852.575 7  84719089.919 7     -2824.218    23304851.829 5  87040858.000 5
     -2200.689    23304852.323          43.000          29.250
  24948937.601 7  97553109.060 7       -18.022    24948940.053 3  93773103.812 3
       -14.043    24948936.735          38.750          18.750
  25558798.608 7  96563660.349 7     -1836.228    25558805.281 3  96270411.626 3
     -1430.827    25558797.247          40.250          18.250
 18  2 21  8 22  0.0000000  0  9G09G07G06G02G30G05G23G29G26
  20668465.813 9  70864798.263 9     -1631.998    20668469.467 8  80439638.96418
     -1271.687    20668465.519          54.000          48.250
  21200483.792 9  73660566.992 9      1480.272    21200484.992 7  78423842.210 7
      1153.459    21200483.475          51.750          44.250
  21883058.045 8  77247503.786 8     -2687.691    21883063.154 7  85413169.070 7
     -2094.305    21883057.934          49.250          39.500
  21918271.044 8  77432549.512 8       -34.536    21918269.895 7  81363032.534 7
       -26.912    21918270.162          48.000          39.000
  22211061.837 8  78971155.049 8      2959.977    22211066.699 7  82562023.109 7
      2306.476    22211061.174          48.500          38.750
  22985161.624 8  83039103.993 8      3005.346    22985162.547 6  85731794.49116
      2341.828    22985161.597          47.750          33.000
  23320988.233 8  84803884.209 8     -2828.720    23320987.894 5  87106931.448 5
     -2204.198    23320987.414          44.500          29.000
  24949095.115 7  97553934.512 7       -36.906    24949098.239 3  93773747.021 3
       -28.758    24949094.009          39.000          19.250
  25569326.591 7  96618986.150 7     -1852.033    25569334.202 3  96313522.569 3
     -1443.142    25569326.770          39.000          17.250
 18  2 21  8 22 30.0000000  0  9G09G07G06G02G30G05G23G29G26
  20677813.902 9  70913922.937 9     -1642.849    20677817.581 8  80477917.92018
     -1280.142    20677813.552          54.500          48.500
  21192080.157 9  73616405.544 9      1463.997    21192081.425 7  78389430.680 7
      1140.777    21192079.830          53.500          43.750
  21898442.057 8  77328347.771 8     -2701.769    21898447.294 7  85476164.345 7
     -2105.274    21898442.156          47.750          39.500
  21918521.841 8  77433867.545 8       -53.212    21918520.873 7  81364059.571 7
       -41.464    21918520.936          47.250          39.250
  22194195.900 8  78882522.637 8      2948.919    22194200.379 7  82492958.918 7
      2297.859    22194195.216          50.000          39.250
  22968021.877 8  82949034.820 8      2999.402    22968022.912 6  85661610.72616
      2337.196    22968021.886          47.000          33.000
  23337150.077 7  84888813.403 7     -2833.107    23337148.995 5  87173110.021 5
     -2207.616    23337149.523          44.000          29.000
  24949358.830 6  97555328.159 6       -55.936    24949363.153 3  93774832.960 3
       -43.587    24949358.866          38.250          19.250
  25579944.781 6  96674786.424 6     -1867.877    25579950.135 2  96357003.382 2
     -1455.488    25579944.331          37.250          13.750
 18  2 21  8 23  0.0000000  0  9G09G07G06G02G30G05G23G29G26
  20687224.070 9  70963373.487 9     -1653.882    20687227.739 8  80516450.81118
     -1288.739    20687223.698          54.000          48.000
  21183770.000 9  73572735.751 9      1447.386    21183771.382 7  78355402.281 7
      1127.833    21183769.832          51.250          44.000
  21913907.076 8  77409615.221 8     -2715.998    21913912.166 7  85539489.608 7
     -2116.362    21913906.854          49.500          39.750
  21918879.014 8  77435745.057 8       -72.006    21918878.030 7  81365522.556 7
       -56.108    21918878.255          48.750          39.250
  22177393.180 8  78794223.248 8      2937.626    22177397.590 7  82424154.226 7
      2289.059    22177392.506          49.750          39.750
  22950916.733 8  82859146.557 8      2993.134    22950917.644 6  85591567.92116
      2332.312    22950916.325          47.250          32.750
  23353336.675 8  84973874.285 8     -2837.667    23353336.562 5  87239391.186 5
     -2211.169    23353336.274          45.750          29.000
  24949732.609 7  97557287.518 7       -74.825    24949735.187 3  93776359.700 3
       -58.305    24949732.935          38.500          19.250
  25590653.226 6  96731057.492 6     -1883.718    25590659.360 1  96400868.063 1
     -1467.832    25590653.322          37.250           6.250
 18  2 21  8 23 30.0000000  0  9G09G07G02G06G30G05G23G29G26
  20696696.219 9  71013151.139 9     -1664.717    20696700.174 8  80555238.58318
     -1297.182    20696696.039          54.000          48.000
  21175554.062 9  73529561.502 9      1430.810    21175555.675 7  78321760.014 7
      1114.917    21175553.783          52.000          44.000
  21919343.063 8  77438184.307 8       -90.654    21919342.259 7  81367423.261 7
       -70.640    21919342.445          47.250          39.250
  21929452.388 8  77491305.980 8     -2730.050    21929457.278 7  85603144.725 7
     -2127.312    21929452.280          49.750          40.000
  22160654.448 8  78706261.533 8      2926.450    22160658.843 7  82355612.651 7
      2280.351    22160653.783          48.000          39.250
  22933847.012 8  82769443.859 8      2986.947    22933848.067 6  85521669.72416
      2327.491    22933846.514          47.250          33.000
  23369548.468 8  85059068.351 8     -2842.016    23369548.183 5  87305776.153 5
     -2214.558    23369547.944          45.500          29.000
  24950212.699 6  97559814.955 6       -93.710    24950216.713 3  93778329.139 3
       -73.021    24950213.005          38.250          19.000
  25601450.216 6  96787799.945 6     -1899.075
                                        34.250
 18  2 21  8 24  0.0000000  0  9G09G07G02G06G30G05G23G29G26
  20706230.642 9  71063253.703 9     -1675.456    20706234.335 8  80594279.53418
     -1305.550    20706230.249          55.000          47.750
  21167432.498 9  73486883.020 9      1414.355    21167434.168 7  78288504.065 7
      1102.095    21167432.274          53.250          43.750
  21919914.203 8  77441184.582 8      -109.355    21919913.130 7  81369761.124 7
       -85.212    21919913.274          48.250          39.250
  21945077.730 8  77573416.447 8     -2744.006    21945082.500 7  85667126.889 7
     -2138.186    21945077.358          49.750          40.000
  22143980.115 8  78618638.818 8      2915.102    22143984.755 7  82287335.232 7
      2271.508    22143979.764          49.750          39.500
  22916812.451 8  82679927.708 8      2980.758    22916813.731 6  85451916.89216
      2322.669    22916812.163          47.000          33.250
  23385785.246 8  85144393.747 8     -2846.343    23385784.766 5  87372263.431 5
     -2217.929    23385784.379          45.250          28.750
  24950801.069 6  97562908.970 6      -112.683    24950805.458 3  93780740.068 3
       -87.805    24950800.952          37.250          19.000
  25612337.862 5  96845011.117 5     -1914.774
                                        30.500
 18  2 21  8 24 30.0000000  0  9G09G07G02G06G30G05G23G29G26
  20715826.672 9  71113681.244 9     -1686.329    20715830.383 8  80633573.71818
     -1314.023    20715826.336          54.000          48.000
  21159405.735 9  73444702.099 9      1397.722    21159407.327 7  78255635.825 7
      1089.134    21159405.390          52.250          44.000
  21920592.136 8  77444747.185 8      -128.119    21920591.030 7  81372537.172 7
       -99.833    21920591.353          49.250          39.000
  21960782.343 8  77655945.295 8     -2757.914    21960787.008 7  85731435.065 7
     -2149.024    21960782.070          49.750          39.750
  22127371.453 9  78531358.570 9      2903.579    22127375.944 7  82219324.667 7
      2262.529    22127370.743          50.500          39.250
  22899813.925 8  82590600.445 8      2974.375    22899815.397 6  85382311.23516
      2317.695    22899814.242          46.750          33.500
  23402047.362 7  85229851.002 7     -2850.803    23402046.597 5  87438853.478 5
     -2221.405    23402046.720          44.000          28.500
  24951499.615 7  97566570.395 7      -131.569    24951502.032 3  93783593.057 3
      -102.521    24951499.624          39.000          18.750
  25623313.102 5  96902690.222 5     -1930.314    25623321.398 2  96534589.665 2
     -1504.141    25623312.077          29.500          11.000
 18  2 21  8 25  0.0000000  0  9G09G07G02G06G30G05G23G29G26
  20725484.117 9  71164431.502 9     -1697.050    20725487.768 8  80673119.36518
     -1322.377    20725483.721          54.250          48.000
  21151473.676 9  73403019.130 9      1381.131    21151475.151 7  78223155.620 7
      1076.206    21151473.446          53.250          43.250
  21921376.831 8  77448870.818 8      -146.859    21921375.823 7  81375750.386 7
      -114.435    21921376.039          48.750          39.000
  21976566.029 8  77738888.930 8     -2771.693    21976571.071 7  85796066.468 7
     -2159.761    21976565.750          48.500          39.500
  22110828.177 8  78444422.050 8      2892.137    22110832.317 7  82151581.937 7
      2253.613    22110827.362          49.250          39.750
  22882851.931 8  82501463.629 8      2967.941    22882853.193 6  85312853.98516
      2312.681    22882852.081          47.000          33.750
  23418334.010 7  85315437.626 7     -2855.042    23418333.752 5  87505544.332 5
     -2224.708    23418333.905          43.750          28.500
  24952304.888 7  97570797.930 7      -150.201    24952306.953 3  93786887.224 3
      -117.040    24952303.701          38.750          19.000
  25634377.378 5  96960834.452 5     -1946.357    25634385.295 2  96579896.916 2
     -1516.642    25634374.949          30.500          11.250
 18  2 21  8 25 30.0000000  0  9G09G07G02G06G30G05G23G29G26
  20735203.029 9  71215505.083 9     -1707.751    20735206.806 8  80712916.95518
     -1330.715    20735202.705          54.750          48.000
  21143637.054 9  73361837.066 9      1364.461    21143638.580 7  78191065.712 7
      1063.216    21143636.802          52.250          43.500
  21922268.608 8  77453557.108 8      -165.512    21922267.628 7  81379402.029 7
      -128.970    21922267.874          48.250          39.000
  21992428.249 8  77822246.481 8     -2785.334    21992433.303 7  85861020.392 7
     -2170.390    21992427.949          48.000          39.250
  22094350.591 8  78357833.248 8      2880.565    22094355.028 7  82084110.152 7
      2244.596    22094350.079          50.000          40.000
  22865926.800 8  82412520.207 8      2961.575    22865927.541 6  85243547.43516
      2307.721    22865926.503          46.500          33.750
  23434645.163 8  85401154.805 8     -2859.266    23434645.540 5  87572336.920 5
     -2227.999    23434644.437          45.000          28.500
  24953215.756 6  97575592.954 6      -169.180    24953218.838 3  93790623.621 3
      -131.828    24953215.648          37.750          19.250
  25645529.876 5  97019443.454 5     -1961.306    25645536.909 1  96625570.217 1
     -1528.291    25645529.049          28.500           3.250
 18  2 21  8 26  0.0000000  0  9G09G07G02G06G30G05G23G29G26
  20744982.409 9  71266896.537 9     -1718.431    20744986.276 8  80752962.23818
     -1339.037    20744982.220          55.000          47.500
  21135894.982 9  73321152.329 9      1347.729    21135896.442 7  78159363.327 7
      1050.179    21135894.797          53.250          43.750
  21923266.509 8  77458801.927 8      -184.231    21923265.628 7  81383488.891 7
      -143.556    21923265.778          48.250          39.250
  22008368.010 8  77906011.079 8     -2799.059    22008373.001 7  85926291.489 7
     -2181.085    22008367.815          48.000          38.750
  22077939.221 8  78271590.200 8      2868.856    22077943.721 7  82016907.791 7
      2235.472    22077938.477          49.500          40.250
  22849037.486 8  82323767.786 8      2955.129    22849038.634 6  85174389.70416
      2302.698    22849037.521          46.250          33.750
  23450980.524 8  85486997.187 8     -2863.677    23450980.524 5  87639227.051 5
     -2231.437    23450979.328          45.000          28.500
  24954235.785 6  97580951.233 6      -188.269    24954239.101 3  93794798.847 3
      -146.703    24954235.227          36.750          18.750
  25656771.907 6  97078509.107 6     -1976.540
                                        37.500
 18  2 21  8 26 30.0000000  0  9G09G07G02G06G30G05G23G29G26
  20754822.787 9  71318607.090 9     -1728.896    20754826.403 8  80793256.17018
     -1347.192    20754822.409          55.000          47.750
  21128248.347 9  73280968.524 9      1331.211    21128249.759 7  78128051.281 7
      1037.307    21128248.038          52.250          44.250
  21924371.487 8  77464607.839 8      -202.769    21924370.363 7  81388012.963 7
      -158.002    21924370.552          48.000          39.000
  22024385.384 8  77990182.525 8     -2812.372    22024390.373 7  85991879.616 7
     -2191.459    22024385.447          49.000          39.250
  22061594.164 8  78185697.517 8      2857.348    22061598.538 7  81949978.436 7
      2226.505    22061593.658          48.250          40.000
  22832185.900 8  82235211.779 8      2948.648    22832186.949 6  85105385.02516
      2297.648    22832185.546          47.250          33.750
  23467339.932 7  85572966.193 7     -2867.657    23467339.977 5  87706215.853 5
     -2234.538    23467339.203          43.750          28.250
  24955364.351 7  97586874.223 7      -206.717    24955367.502 3  93799414.165 3
      -161.078    24955363.634          40.000          19.000
  25668099.380 7  97138036.976 7     -1991.887    25668106.248 4  96717985.222 4
     -1552.120    25668099.215          39.500          21.000
 18  2 21  8 27  0.0000000  0  9G09G07G02G06G30G05G23G29G26
  20764723.133 9  71370635.061 9     -1739.640    20764727.058 8  80833797.43818
     -1355.564    20764722.887          54.000          47.500
  21120696.971 9  73241286.251 9      1314.255    21120698.467 7  78097130.033 7
      1024.094    21120696.845          53.000          43.750
  21925582.955 8  77470974.053 8      -221.671    21925581.908 7  81392973.646 7
      -172.730    21925582.172          47.750          38.750
  22040479.589 8  78074757.654 8     -2825.979    22040484.686 7  86057782.291 7
     -2202.061    22040479.601          48.000          39.250
  22045316.264 8  78100157.002 8      2845.341    22045320.983 7  81883323.506 7
      2217.149    22045315.713          49.750          40.000
  22815371.437 8  82146852.501 8      2941.923    22815372.282 6  85036533.64916
      2292.408    22815371.188          47.250          33.750
  23483723.233 7  85659060.446 7     -2872.001    23483722.843 5  87773302.251 5
     -2237.923    23483723.071          44.000          28.250
  24956598.713 7  97593361.279 7      -225.754    24956599.640 3  93804469.010 3
      -175.912    24956599.544          40.750          19.750
  25679513.519 6  97198021.298 6     -2007.335    25679520.648 4  96764726.291 4
     -1564.157    25679513.348          35.000          20.750
 18  2 21  8 27 30.0000000  0  9G09G07G02G30G06G05G23G29G26
  20774684.190 9  71422979.463 9     -1749.964    20774687.974 8  80874585.27118
     -1363.608    20774683.756          53.750          47.750
  21113241.483 9  73202106.616 9      1297.649    21113242.979 8  78066600.436 8
      1011.155    21113241.168          53.500          44.500
  21926901.016 8  77477900.794 8      -240.164    21926899.799 7  81398371.096 7
      -187.141    21926900.312          49.250          39.000
  22029105.976 8  78014971.033 8      2833.691    22029110.557 7  81816944.854 7
      2208.071    22029105.470          50.000          40.500
  22056650.131 8  78159734.042 8     -2839.188    22056655.188 7  86123997.630 7
     -2212.354    22056650.089          48.250          39.250
  22798595.093 8  82058692.135 8      2935.423    22798596.436 6  84967837.26916
      2287.343    22798594.874          47.750          34.000
  23500130.493 8  85745278.981 8     -2875.943    23500129.327 5  87840485.511 5
     -2240.994    23500129.909          44.500          27.750
  24957939.757 7  97600411.366 7      -244.276    24957941.622 3  93809962.576 3
      -190.345    24957939.205          39.250          19.000
  25691015.110 6  97258460.894 6     -2022.057    25691020.827 4  96811822.021 4
     -1575.629    25691015.833          34.000          21.000
 18  2 21  8 28  0.0000000  0  9G09G07G02G30G06G05G23G29G26
  20784704.828 9  71475638.979 9     -1760.522    20784708.714 8  80915618.65418
     -1371.836    20784704.570          55.000          47.250
  21105881.737 9  73163430.399 9      1280.804    21105883.038 7  78036463.136 7
       998.029    21105881.452          53.000          44.000
  21928325.822 8  77485387.499 8      -258.850    21928324.680 7  81404204.879 7
      -201.701    21928324.878          48.750          39.000
  22012963.807 9  77930141.750 9      2821.661    22012968.058 7  81750844.148 7
      2198.697    22012963.091          50.750          40.750
  22072896.442 8  78245108.916 8     -2852.391    22072901.451 7  86190523.491 7
     -2222.642    22072896.499          49.250          38.750
  22781856.943 8  81970732.282 8      2928.687    22781858.205 6  84899297.13916
      2282.094    22781856.880          46.250          34.250
  23516560.358 8  85831620.813 8     -2880.087    23516559.612 5  87907764.817 5
     -2244.224    23516559.621          45.000          27.500
  24959387.518 6  97608024.842 6      -263.242    24959390.015 3  93815895.176 3
      -205.124    24959386.804          38.250          18.000
  25702604.370 6  97319353.798 6     -2037.225    25702608.975 3  96859270.912 3
     -1587.448    25702603.024          36.250          19.250
 18  2 21  8 28 30.0000000  0 10G09G07G02G30G06G05G23G29G26G13
  20794785.661 9  71528614.455 9     -1771.133    20794789.574 8  80956898.23718
     -1380.104    20794785.368          53.250          47.250
  21098618.261 9  73125260.661 9      1263.855    21098619.586 8  78006720.490 8
       984.822    21098618.063          52.750          44.500
  21929857.243 8  77493436.161 8      -277.673    21929856.355 7  81410476.554 7
      -216.368    21929856.649          48.250          39.750
  21996889.736 8  77845673.299 8      2809.585    21996894.257 7  81685024.591 7
      2189.287    21996889.274          50.000          40.750
  22089218.357 8  78330881.640 8     -2865.714    22089223.583 7  86257359.359 7
     -2233.024    22089218.186          49.500          38.750
  22765157.747 8  81882977.308 8      2921.707    22765159.027 6  84830916.64416
      2276.655    22765157.540          47.000          34.250
  23533014.569 7  85918087.317 7     -2884.295    23533013.601 5  87975141.293 5
     -2247.503    23533013.592          44.250          27.250
  24960942.553 6  97616202.767 6      -282.055    24960944.175 3  93822267.589 3
      -219.783    24960941.974          37.250          16.000
  25714277.290 7  97380699.928 7     -2052.438    25714283.781 3  96907072.948 3
     -1599.302    25714276.118          41.250          18.750
  25964464.406 6  98695443.467 6      3346.103    25964466.571 2  97931539.667 2
      2607.353    25964457.901          35.250          10.250
 18  2 21  8 29  0.0000000  0  9G09G07G02G30G06G05G23G29G26
  20804926.369 9  71581903.754 9     -1781.492    20804930.234 8  80998422.36018
     -1388.176    20804926.108          53.000          47.000
  21091451.320 9  73087597.520 9      1247.009    21091452.492 8  77977372.597 8
       971.696    21091450.987          52.750          44.500
  21931495.761 8  77502045.771 8      -296.325    21931494.781 7  81417185.329 7
      -230.903    21931495.123          49.000          39.250
  21980884.974 8  77761566.985 8      2797.477    21980889.333 7  81619487.227 7
      2179.852    21980884.368          49.750          41.000
  22105615.407 8  78417048.597 8     -2878.777    22105620.593 7  86324502.417 7
     -2243.203    22105615.128          48.000          38.500
  22748497.879 8  81795428.395 8      2914.868    22748498.937 6  84762696.73116
      2271.325    22748497.729          47.750          34.500
  23549491.681 7  86004676.476 7     -2888.289    23549490.791 5  88042613.327 5
     -2250.615    23549491.198          43.250          27.250
  24962604.785 6  97624943.564 6      -300.597    24962609.093 2  93829078.594 2
      -234.232    24962604.459          33.000          13.250
  25726036.206 7  97442496.402 7     -2067.392    25726044.435 3  96955225.969 3
     -1610.955    25726034.323          41.000          17.000
 18  2 21  8 29 30.0000000  0  9G09G07G02G30G06G05G23G29G26
  20815126.310 9  71635505.369 9     -1791.800    20815130.204 8  81040189.84718
     -1396.208    20815126.127          54.250          47.500
  21084380.637 9  73050441.336 9      1230.166    21084381.965 7  77948419.740 7
       958.571    21084380.346          52.500          44.250
  21933240.509 8  77511215.900 8      -314.892    21933239.789 7  81424330.874 7
      -245.370    21933239.999          49.000          39.250
  21964949.209 8  77677824.677 8      2785.442    21964953.592 7  81554233.497 7
      2170.474    21964948.538          49.750          41.250
  22122086.823 8  78503606.783 8     -2891.594    22122092.180 7  86391950.326 7
     -2253.190    22122086.709          48.500          38.500
  22731877.211 8  81708086.618 8      2908.029    22731878.299 6  84694638.21316
      2265.996    22731877.289          47.750          34.500
  23565991.838 7  86091386.970 7     -2892.225    23565991.766 5  88110179.932 5
     -2253.682    23565991.718          43.000          27.000
  24964378.193 6  97634246.440 6      -319.516    24964379.602 2  93836327.532 2
      -248.974    24964376.001          37.250          11.250
  25737881.108 6  97504740.766 6     -2081.942    25737886.387 3  97003726.554 3
     -1622.293    25737881.806          35.750          20.000
 18  2 21  8 30  0.0000000  0  9G09G07G02G30G06G05G23G29G13
  20825385.424 9  71689417.521 9     -1802.087    20825389.534 8  81082199.31018
     -1404.224    20825385.253          55.250          47.000
  21077406.457 9  73013792.398 9      1213.243    21077407.776 8  77919862.127 8
       945.384    21077406.187          53.250          44.500
  21935092.282 8  77520945.345 8      -333.580    21935091.286 7  81431912.246 7
      -259.932    21935091.394          48.750          39.250
  21949083.122 9  77594447.973 9      2773.218    21949087.592 7  81489264.670 7
      2160.949    21949082.432          50.750          40.750
  22138632.315 8  78590552.890 8     -2904.666    22138637.405 7  86459700.497 7
     -2263.376    22138632.210          48.000          38.500
  22715296.694 8  81620953.709 8      2901.101    22715297.684 6  84626742.44716
      2260.598    22715296.410          49.000          35.000
  23582515.062 7  86178217.145 7     -2896.220    23582515.631 5  88177839.769 5
     -2256.795    23582514.810          43.750          27.000
  24966255.826 7  97644110.148 7      -338.062    24966257.508 2  93844013.528 2
      -263.425    24966255.364          39.000          13.750
  25907191.683 5  98394477.479 5      3342.262    25907194.193 1  97697023.688 1
      2604.360    25907191.551          32.250           6.250
 18  2 21  8 30 30.0000000  0  9G09G07G30G02G06G05G23G29G13
  20835703.189 9  71743637.518 9     -1812.452    20835707.191 8  81124448.64918
     -1412.300    20835702.952          54.000          47.000
  21070528.562 9  72977650.008 9      1196.216    21070530.121 8  77891699.244 8
       932.117    21070528.391          51.250          44.500
  21933286.683 8  77511437.540 8      2760.784    21933291.036 7  81424581.254 7
      2151.260    21933286.026          49.250          41.000
  21937050.079 8  77531232.529 8      -352.225    21937048.718 7  81439928.228 7
      -274.461    21937049.090          48.250          39.250
  22155250.785 8  78677882.680 8     -2917.374    22155255.894 6  86527749.645 6
     -2273.278    22155250.401          48.250          38.000
  22698755.448 8  81534029.212 8      2893.997    22698756.521 6  84559009.08616
      2255.063    22698755.388          48.750          35.000
  23599060.577 7  86265164.741 7     -2900.317    23599061.267 5  88245591.118 5
     -2259.987    23599060.349          43.750          27.000
  24968239.199 7  97654532.627 7      -356.784    24968239.942 3  93852134.918 3
      -278.014    24968238.506          38.750          16.250
  25888116.957 5  98294232.477 5      3340.789
                                        28.750
 18  2 21  8 31  0.0000000  0  9G09G07G30G02G06G05G23G29G26
  20846079.911 9  71798167.274 9     -1822.739    20846083.749 8  81166939.36618
     -1420.316    20846079.650          54.250          47.000
  21063748.135 9  72942018.270 9      1179.327    21063749.592 7  77863934.261 7
       918.956    21063747.910          53.000          43.750
  21917560.946 9  77428798.620 9      2748.514    21917565.302 7  81360187.331 7
      2141.699    21917560.353          50.500          41.000
  21939114.174 8  77542080.271 8      -370.798    21939112.897 7  81448381.003 7
      -288.933    21939113.281          48.750          39.250
  22171941.958 8  78765596.602 8     -2930.042    22171947.213 6  86596098.107 6
     -2283.150    22171942.147          48.250          38.250
  22682254.916 8  81447318.880 8      2886.861    22682256.133 6  84491442.59816
      2249.503    22682254.949          48.500          35.250
  23615629.432 7  86352231.919 7     -2904.173    23615629.348 5  88313435.632 5
     -2262.992    23615629.540          43.750          27.250
  24970327.220 6  97665516.043 6      -375.381    24970331.046 3  93860693.428 3
      -292.505    24970326.609          37.750          17.000
  25773922.052 6  97694149.019 6     -2126.185    25773928.363 3  97151319.352 3
     -1656.767    25773923.710          33.500          18.250
 18  2 21  8 31 30.0000000  0  9G09G07G30G02G06G05G23G29G26
  20856515.126 9  71853003.572 9     -1832.969    20856518.777 8  81209668.94318
     -1428.288    20856514.607          53.500          46.750
  21057064.598 9  72906895.973 9      1162.189    21057066.162 7  77836566.250 7
       905.602    21057064.367          52.250          44.250
  21901906.117 8  77346531.334 8      2735.977    21901910.476 7  81296082.994 7
      2131.930    21901905.535          49.500          41.000
  21941284.636 8  77553486.262 8      -389.514    21941283.494 7  81457268.777 7
      -303.517    21941284.039          48.750          39.500
  22188705.777 8  78853689.885 8     -2942.733    22188710.825 6  86664742.187 6
     -2293.039    22188705.636          48.500          38.000
  22665794.970 8  81360822.237 8      2879.666    22665796.199 6  84424042.62616
      2243.896    22665794.805          47.250          35.250
  23632220.258 7  86439415.813 7     -2908.137    23632219.752 5  88381371.103 5
     -2266.081    23632219.491          43.750          27.250
  24972520.463 6  97677058.137 6      -394.153    24972528.422 3  93869687.195 3
      -307.132    24972520.682          32.500          15.250
  25786104.733 6  97758162.849 6     -2141.061    25786111.017 3  97201200.312 3
     -1668.360    25786103.531          34.250          17.000
 18  2 21  8 32  0.0000000  0  9G09G07G30G02G06G05G23G29G26
  20867008.252 9  71908146.515 9     -1843.100    20867012.182 8  81252637.46018
     -1436.182    20867008.081          53.250          47.250
  21050478.562 9  72872285.352 9      1145.153    21050479.929 7  77809596.941 7
       892.327    21050478.205          52.500          44.250
  21886322.386 8  77264639.132 8      2723.548    21886326.787 7  81232270.938 7
      2122.246    21886321.874          50.250          41.500
  21943561.556 8  77565451.247 8      -408.082    21943560.633 7  81466592.126 7
      -317.986    21943560.744          47.250          39.250
  22205541.189 8  78942161.100 8     -2955.227    22205546.453 6  86733680.756 6
     -2302.775    22205541.138          48.500          37.750
  22649376.527 8  81274542.859 8      2872.377    22649378.131 6  84356811.95616
      2238.216    22649376.812          48.250          35.250
  23648832.859 7  86526716.777 7     -2912.055    23648832.847 5  88449397.788 5
     -2269.133    23648832.196          42.000          26.750
  24974826.329 6  97689159.351 6      -412.819    24974827.771 2  93879116.678 2
      -321.677    24974824.545          33.250          11.250
  25798369.324 5  97822614.550 5     -2155.304    25798375.811 1  97251422.467 1
     -1679.457    25798371.356          28.250           7.500
 18  2 21  8 32 30.0000000  0  9G09G07G30G02G06G05G23G29G26
  20877559.789 9  71963594.099 9     -1853.330    20877563.477 8  81295843.36018
     -1444.153    20877559.498          54.000          47.250
  21043989.824 9  72838186.540 9      1127.963    21043991.251 7  77783026.440 7
       878.933    21043989.473          52.750          44.250
  21870810.534 9  77183123.309 9      2710.863    21870814.770 7  81168752.153 7
      2112.361    21870809.913          51.250          41.750
  21945944.658 8  77577974.298 8      -426.787    21945943.572 7  81476350.335 7
      -332.561    21945943.827          47.000          39.250
  22222448.314 8  79031006.659 8     -2967.841    22222453.225 6  86802911.020 6
     -2312.603    22222448.068          48.250          38.250
  22632999.635 8  81188481.943 8      2865.018    22633001.008 6  84289751.51516
      2232.482    22632999.414          48.250          35.250
  23665467.875 7  86614132.809 7     -2915.917    23665467.383 4  88517514.122 4
     -2272.143    23665467.641          44.000          26.000
  24977237.194 6  97701817.857 6      -431.209    24977234.825 2  93888980.478 2
      -336.007    24977236.351          37.500           9.750
  25810716.276 5  97887488.086 5     -2170.297    25810723.003 2  97302013.067 2
     -1691.141    25810716.459          29.500          11.250
 18  2 21  8 33  0.0000000  0 10G09G07G30G02G06G05G23G29G13G26
  20888169.255 9  72019347.434 9     -1863.393    20888173.087 8  81339287.51418
     -1451.994    20888168.956          54.000          47.000
  21037598.785 9  72804602.330 9      1110.963    21037600.311 8  77756856.938 8
       865.685    21037598.546          52.500          44.500
  21855371.036 9  77101988.306 9      2698.257    21855375.476 7  81105530.119 7
      2102.538    21855370.389          50.500          41.750
  21948434.281 8  77591057.349 8      -445.362    21948433.274 7  81486544.906 7
      -347.035    21948433.385          48.250          39.000
  22239425.996 8  79120226.120 8     -2980.117    22239431.140 6  86872432.644 6
     -2322.169    22239426.008          48.000          38.000
  22616665.159 8  81102642.841 8      2857.673    22616665.884 6  84222863.90616
      2226.758    22616664.670          47.500          35.500
  23682124.922 8  86701665.456 8     -2919.659    23682124.260 4  88585721.363 4
     -2275.059    23682123.816          44.500          25.750
  24979751.556 6  97715035.485 6      -449.773    24979751.895 2  93899279.924 2
      -350.473    24979750.770          37.000          11.250
  25792855.709 6  97793634.380 6      3333.632    25792859.057 1  97228832.784 1
      2597.635    25792856.899          35.500           7.500
  25823147.326 6  97952811.177 6     -2184.749    25823153.523 2  97352914.197 2
     -1702.402    25823145.992          37.750          13.250
 18  2 21  8 33 30.0000000  0 10G09G07G30G02G06G05G23G29G13G26
  20898835.865 9  72075400.957 9     -1873.485    20898839.777 8  81382965.57518
     -1459.859    20898835.547          53.250          46.500
  21031305.293 9  72771528.915 9      1093.891    21031306.702 8  77731085.453 8
       852.382    21031304.922          53.250          44.750
  21840003.594 9  77021231.835 9      2685.500    21840008.016 7  81042603.042 7
      2092.597    21840002.767          51.250          42.250
  21951029.752 8  77604695.691 8      -463.875    21951028.535 7  81497172.183 7
      -361.461    21951028.802          49.500          39.250
  22256473.520 8  79209812.335 8     -2992.401    22256479.105 6  86942240.033 6
     -2331.741    22256473.568          49.000          37.750
  22600372.377 8  81017024.018 8      2850.226    22600373.774 6  84156147.94516
      2220.955    22600372.347          48.750          35.500
  23698802.805 7  86789309.595 7     -2923.393    23698802.493 4  88654015.467 4
     -2277.968    23698801.792          43.500          25.500
  24982371.976 6  97728806.914 6      -468.376    24982374.602 2  93910010.948 2
      -364.968    24982370.030          36.750          12.250
  25773828.847 6  97693643.765 6      3332.239    25773830.954 2  97150918.029 2
      2596.550    25773827.884          34.500           9.000
  25835659.869 6  98018563.484 6     -2198.916    25835665.286 4  97404149.771 4
     -1713.441    25835657.857          36.500          21.250
 18  2 21  8 34  0.0000000  0 10G09G07G30G02G06G05G23G29G13G26
  20909559.972 9  72131755.630 9     -1883.466    20909563.620 8  81426878.30318
     -1467.636    20909559.531          53.000          46.750
  21025109.300 9  72738969.478 9      1076.716    21025110.838 8  77705714.476 8
       839.000    21025109.045          52.250          44.500
  21824708.956 9  76940858.107 9      2672.749    21824713.294 7  80979974.204 7
      2082.662    21824708.093          51.000          41.750
  21953730.708 8  77618890.968 8      -482.443    21953729.803 7  81508233.420 7
      -375.930    21953729.989          49.250          39.000
  22273590.971 8  79299764.663 8     -3004.484    22273596.361 6  87012332.709 6
     -2341.156    22273591.028          47.750          38.000
  22584122.387 8  80931629.411 8      2842.747    22584123.748 6  84089606.69316
      2215.128    22584122.223          48.250          35.750
  23715502.447 7  86877066.505 7     -2927.138    23715501.947 4  88722397.439 4
     -2280.887    23715501.983          42.500          25.500
  24985097.809 6  97743133.654 6      -486.803    24985101.049 2  93921174.514 2
      -379.327    24985095.896          35.500          13.000
  25754809.135 6  97593697.739 6      3330.775    25754811.737 1  97073038.051 1
      2595.409    25754808.427          34.000           8.250
  25848252.624 6  98084745.154 6     -2213.147    25848258.893 3  97455719.955 3
     -1724.530    25848252.339          37.750          18.250
 18  2 21  8 34 30.0000000  0 10G09G07G30G02G06G05G23G29G13G26
  20920340.955 9  72188411.123 9     -1893.646    20920344.787 8  81471025.43618
     -1475.568    20920340.718          53.750          46.500
  21019011.476 9  72706925.496 9      1059.460    21019013.065 7  77680745.144 7
       825.553    21019011.161          53.000          44.250
  21809487.555 8  76860870.110 8      2659.762    21809491.875 7  80917645.938 7
      2072.542    21809486.892          50.250          41.750
  21956538.022 8  77633643.458 8      -501.115    21956536.961 7  81519728.860 7
      -390.480    21956537.096          47.500          39.000
  22290777.512 8  79390081.192 8     -3016.746    22290783.049 6  87082709.176 6
     -2350.711    22290777.491          47.500          37.250
  22567915.265 8  80846461.288 8      2835.039    22567916.605 6  84023241.93616
      2209.121    22567915.316          49.750          36.000
  23732223.420 7  86964935.899 7     -2930.913    23732223.294 4  88790867.065 4
     -2283.828    23732223.426          42.750          26.250
  24987931.687 7  97758015.442 7      -505.376    24987931.423 2  93932770.690 2
      -393.799    24987930.032          39.000          12.500
  25735798.009 6  97493797.611 6      3328.875    25735802.122 2  96995193.862 2
      2593.928    25735797.565          35.000          14.250
  25860926.473 6  98151354.491 6     -2227.593    25860931.998 4  97507623.268 4
     -1735.787    25860929.528          34.000          23.250
 18  2 21  8 35  0.0000000  0 10G09G07G30G02G06G05G23G29G13G26
  20931178.887 9  72245364.435 9     -1903.451    20931182.704 8  81515404.63418
     -1483.209    20931178.564          53.500          46.500
  21013011.490 9  72675395.947 9      1042.337    21013013.004 8  77656176.677 8
       812.211    21013011.169          52.250          44.500
  21794339.711 9  76781268.163 9      2646.951    21794344.249 7  80855618.490 7
      2062.559    21794339.033          51.250          41.750
  21959451.021 8  77648950.962 8      -519.526    21959450.110 7  81531656.772 7
      -404.826    21959450.254          48.500          39.250
  22308032.807 8  79480757.397 8     -3028.588    22308037.919 6  87153365.908 6
     -2359.939    22308032.744          46.750          37.000
  22551751.694 8  80761520.429 8      2827.520    22551753.178 6  83957054.25616
      2203.262    22551751.661          47.750          35.750
  23748965.662 7  87052915.241 7     -2934.325    23748965.500 5  88859422.346 5
     -2286.487    23748964.661          43.000          26.500
  24990868.589 7  97773449.527 7      -523.745    24990866.265 2  93944797.329 2
      -408.113    24990868.190          40.000          11.250
  25716795.847 5  97393942.247 5      3328.092    25716800.751 1  96917384.565 1
      2593.319    25716796.677          31.750           6.500
  25873682.103 6  98218388.049 6     -2241.776
                                        33.250
 18  2 21  8 35 30.0000000  0 10G09G07G30G02G06G05G23G29G13G26
  20942073.345 9  72302615.005 9     -1913.252    20942077.150 8  81560015.46418
     -1490.846    20942073.001          53.750          46.500
  21007109.731 9  72644382.093 9      1025.254    21007111.379 7  77632010.043 7
       798.899    21007109.503          52.500          44.000
  21779265.780 9  76702054.843 9      2633.979    21779270.418 7  80793893.851 7
      2052.451    21779265.315          50.500          42.250
  21962469.326 8  77664813.613 8      -538.013    21962468.594 7  81544017.268 7
      -419.231    21962468.783          47.750          38.750
  22325356.111 8  79571791.016 8     -3040.357    22325361.015 6  87224301.152 6
     -2369.109    22325355.898          47.000          37.250
  22535631.551 8  80676809.323 8      2819.904    22535633.059 6  83891045.60916
      2197.328    22535631.623          49.250          36.000
  23765728.393 7  87141004.091 7     -2938.081    23765728.360 5  88928062.986 5
     -2289.414    23765727.838          43.500          26.750
  24993910.085 7  97789436.132 7      -542.138    24993911.080 2  93957254.508 2
      -422.445    24993909.306          41.250          11.000
  25697804.018 5  97294133.271 5      3325.990    25697806.297 1  96839611.459 1
      2591.681    25697803.985          28.500           6.500
  25886517.786 5  98285844.187 5     -2256.211    25886524.669 2  97612405.521 2
     -1758.086    25886515.672          29.250          11.250
 18  2 21  8 36  0.0000000  0 10G09G07G30G02G06G05G23G29G13G26
  20953024.245 9  72360161.853 9     -1923.216    20953027.891 8  81604857.15818
     -1498.610    20953023.798          53.250          46.500
  21001306.360 9  72613884.779 9      1007.937    21001307.904 8  77608245.912 8
       785.405    21001306.057          53.750          44.500
  21764266.558 9  76623232.520 9      2620.750    21764270.836 7  80732473.895 7
      2042.143    21764266.189          51.500          42.500
  21965593.826 8  77681231.065 8      -556.576    21965592.801 7  81556810.072 7
      -433.696    21965592.935          48.000          38.750
  22342746.774 8  79663179.457 8     -3052.174    22342752.003 6  87295512.865 6
     -2378.317    22342746.525          47.500          36.750
  22519555.699 8  80592329.525 8      2812.077    22519557.276 6  83825217.20816
      2191.229    22519555.537          49.250          36.000
  23782511.953 7  87229201.926 7     -2941.708    23782511.527 4  88996788.519 4
     -2292.240    23782511.323          43.750          26.250
  24997055.004 6  97805974.467 6      -560.634    24997059.909 2  93970141.407 2
      -436.857    24997055.801          38.000          13.000
  25678819.853 5  97194371.395 5      3324.550    25678820.644 1  96761875.059 1
      2590.559    25678819.214          31.750           5.500
  25899438.811 5  98353720.790 5     -2269.789
                                        27.500
 18  2 21  8 36 30.0000000  0  9G09G07G30G02G06G05G23G29G13
  20964031.353 9  72418004.703 9     -1932.899    20964034.990 8  81649929.50118
     -1506.155    20964030.993          53.000          46.000
  20995601.502 9  72583905.677 9       990.707    20995602.974 8  77584885.582 8
       771.980    20995601.214          52.750          44.500
  21749342.281 9  76544804.081 9      2607.748    21749346.574 7  80671360.845 7
      2032.011    21749341.771          50.750          42.500
  21968823.442 8  77698203.852 8      -574.968    21968822.408 7  81570035.607 7
      -448.027    21968822.567          47.250          38.500
  22360204.603 8  79754920.868 8     -3063.710    22360209.583 6  87366999.634 6
     -2387.306    22360204.547          47.000          37.250
  22503524.300 8  80508084.395 8      2804.272    22503526.150 6  83759571.64616
      2185.147    22503524.030          48.000          36.500
  23799315.590 7  87317508.753 7     -2945.296    23799315.800 4  89065599.013 4
     -2295.036    23799315.868          42.250          25.500
  25000309.755 7  97823064.466 7      -578.638    25000311.817 3  93983458.219 3
      -450.887    25000309.281          39.250          14.750
  25659844.279 6  97094658.412 6      3323.147    25659847.871 1  96684176.683 1
      2589.465    25659845.605          35.000           6.750
 18  2 21  8 37  0.0000000  0 10G09G07G30G02G06G05G23G29G13G26
  20975094.279 9  72476141.432 9     -1942.712    20975098.039 8  81695230.84418
     -1513.802    20975094.070          53.750          46.500
  20989995.332 9  72554444.427 9       973.528    20989996.666 8  77561928.768 8
       758.593    20989995.002          52.000          44.500
  21734493.060 9  76466770.636 9      2594.642    21734497.308 7  80610555.580 7
      2021.799    21734492.439          51.250          42.500
  21972158.519 8  77715730.396 8      -593.316    21972157.866 7  81583692.642 7
      -462.324    21972157.812          47.750          39.000
  22377728.924 8  79847011.478 8     -3075.391    22377734.125 6  87438758.524 6
     -2396.409    22377729.047          47.500          37.000
  22487537.945 8  80424074.843 8      2796.480    22487539.504 6  83694109.66016
      2179.076    22487537.649          48.000          36.500
  23816140.821 7  87405922.560 7     -2948.806    23816140.221 4  89134492.844 4
     -2297.771    23816139.942          43.000          24.750
  25003666.516 7  97840703.767 7      -597.108    25003664.085 3  93997203.228 3
      -465.279    25003666.369          42.500          16.750
  25640879.112 6  96994994.179 6      3321.401    25640881.633 2  96606516.234 2
      2588.104    25640878.587          37.750          10.500
  25925508.763 5  98490730.232 5     -2297.657    25925515.643 2  97772022.175 2
     -1790.382    25925507.501          32.250           9.250
 18  2 21  8 37 30.0000000  0 10G07G09G30G02G06G05G23G29G13G26
  20984487.623 9  72525500.919 9       956.121    20984488.939 8  77539375.400 8
       745.030    20984487.422          53.250          44.500
  20986212.877 9  72534570.042 9     -1952.539    20986216.723 8  81740759.62518
     -1521.459    20986212.682          53.500          46.250
  21719718.909 9  76389133.425 9      2581.301    21719723.274 7  80550059.066 7
      2011.403    21719718.268          51.750          42.500
  21975599.039 8  77733809.131 8      -611.821    21975597.939 7  81597779.961 7
      -476.744    21975598.503          48.000          38.750
  22395318.877 8  79939447.668 8     -3086.997    22395324.283 6  87510786.685 6
     -2405.452    22395318.928          47.750          37.000
  22471596.263 8  80340301.944 8      2788.421    22471598.220 6  83628832.08616
      2172.795    22471596.143          50.250          36.750
  23832986.090 7  87494441.860 7     -2952.339    23832984.690 4  89203468.862 4
     -2300.524    23832984.408          43.000          24.500
  25007125.344 7  97858891.238 7      -615.395    25007127.227 3  94011375.312 3
      -479.528    25007125.206          39.750          15.500
  25621923.382 6  96895378.449 6      3319.722    25621925.834 2  96528893.566 2
      2586.797    25621922.059          38.000           9.750
  25938662.496 6  98559855.707 6     -2310.930    25938669.217 2  97825886.053 2
     -1800.725    25938661.233          33.250          13.000
 18  2 21  8 38  0.0000000  0 10G07G09G30G02G06G05G23G29G13G26
  20979078.602 9  72497075.600 9       938.733    20979079.756 8  77517225.811 8
       731.480    20979078.260          54.500          45.000
  20997386.963 9  72593289.427 9     -1962.216    20997390.750 8  81786514.98518
     -1528.999    20997386.547          53.750          46.000
  21705020.886 8  76311894.575 8      2567.821    21705025.341 7  80489872.979 7
      2000.900    21705020.184          50.250          42.500
  21979144.301 8  77752439.736 8      -630.364    21979143.288 7  81612297.306 7
      -491.192    21979143.585          48.000          39.250
  22412974.120 8  80032226.632 8     -3098.435    22412979.312 6  87583081.945 6
     -2414.365    22412974.048          45.500          36.250
  22455700.187 8  80256767.647 8      2780.377    22455702.025 6  83563740.43916
      2166.528    22455700.292          48.500          37.000
  23849849.946 7  87583065.733 7     -2955.935    23849849.845 4  89272526.394 4
     -2303.326    23849849.311          42.750          24.250
  25010691.642 7  97877625.743 7      -633.614    25010693.744 3  94025973.560 3
      -493.725    25010691.972          39.750          16.500
  25602976.004 6  96795812.237 6      3318.005    25602973.416 1  96451332.343 1
      2585.458    25602976.939          38.250           2.250
  25951894.639 5  98629392.464 5     -2324.830    25951902.044 2  97880073.570 2
     -1811.556    25951896.921          28.500           8.750
 18  2 21  8 38 30.0000000  0 10G07G09G30G02G06G05G23G29G13G26
  20973767.968 9  72469168.659 9       921.564    20973769.134 8  77495480.148 8
       718.102    20973767.644          52.750          44.500
  21008615.624 9  72652297.705 9     -1971.755    21008619.521 8  81832495.45818
     -1536.432    21008615.378          52.500          46.250
  21690398.652 9  76235055.356 9      2554.637    21690403.188 7  80429998.311 7
      1990.627    21690398.062          51.000          42.750
  21982794.364 8  77771620.869 8      -648.467    21982793.462 7  81627243.632 7
      -505.299    21982793.576          49.250          38.750
  22430693.821 8  80125344.837 8     -3109.581    22430699.181 6  87655641.546 6
     -2423.050    22430693.458          46.500          36.000
  22439850.001 8  80173473.538 8      2772.456    22439851.539 6  83498835.93716
      2160.355    22439849.974          49.250          36.750
  23866734.276 7  87671792.588 7     -2959.223    23866733.772 4  89341664.175 4
     -2305.888    23866733.586          41.250          24.000
  25014361.246 7  97896905.358 7      -651.744    25014362.778 3  94040996.632 3
      -507.852    25014361.195          43.500          19.750
  25584038.812 6  96696295.636 6      3316.145    25584043.246 1  96373786.890 1
      2584.009    25584039.124          34.750           5.750
  25965206.054 5  98699337.900 5     -2338.021    25965211.396 2  97934576.340 2
     -1821.835    25965205.688          28.750          11.500
 18  2 21  8 39  0.0000000  0 10G07G09G30G02G05G06G23G29G13G26
  20968556.354 9  72441781.847 9       904.292    20968557.605 8  77474139.799 8
       704.643    20968556.034          52.250          44.750
  21019899.665 9  72711595.282 9     -1981.303    21019903.437 8  81878701.35218
     -1543.872    21019899.368          52.750          46.250
  21675853.553 9  76158619.330 9      2541.142    21675857.846 7  80370437.799 7
      1980.111    21675852.956          51.750          43.000
  21986549.232 8  77791353.267 8      -666.911    21986548.314 7  81642619.509 7
      -519.671    21986548.497          48.000          38.500
  22424046.172 8  80090423.013 8      2764.314    22424047.434 6  83434121.24416
      2154.011    22424046.028          50.000          37.250
  22448478.103 8  80218800.994 8     -3120.642    22448483.328 6  87728464.494 6
     -2431.669    22448477.857          46.750          36.000
  23883638.034 7  87760623.350 7     -2962.790    23883637.726 4  89410882.915 4
     -2308.668    23883637.084          40.750          24.250
  25018132.584 7  97916730.608 7      -669.880    25018132.638 3  94056444.914 3
      -521.985    25018133.615          42.250          18.500
  25565111.709 6  96596830.579 6      3314.880    25565114.602 1  96296281.709 1
      2583.023    25565110.342          32.500           7.250
  25978592.597 5  98769690.797 5     -2351.827    25978598.907 2  97989391.826 2
     -1832.593    25978591.877          30.750          13.250
 18  2 21  8 39 30.0000000  0 10G07G09G30G02G05G06G23G29G13G26
  20963443.877 9  72414914.948 9       886.957    20963444.986 8  77453204.562 8
       691.135    20963443.496          53.000          45.250
  21031238.290 9  72771179.957 9     -1990.953    21031242.004 8  81925130.96018
     -1551.392    21031237.888          53.250          46.250
  21661385.140 9  76082587.482 9      2527.677    21661389.373 7  80311192.234 7
      1969.618    21661384.603          50.750          43.250
  21990408.910 8  77811635.422 8      -685.221    21990408.028 7  81658423.761 7
      -533.939    21990408.088          48.500          38.500
  22408288.888 8  80007617.226 8      2756.040    22408290.306 6  83369597.25916
      2147.564    22408288.589          48.500          37.000
  22466325.977 8  80312591.276 8     -3131.837    22466331.173 6  87801547.791 6
     -2440.392    22466325.686          46.500          36.500
  23900560.935 7  87849555.929 7     -2965.900    23900561.016 4  89480180.997 4
     -2311.091    23900559.979          41.500          25.250
  25022009.320 7  97937099.870 7      -688.030    25022010.175 3  94072317.062 3
      -536.128    25022008.316          41.750          14.750
  25546193.411 5  96497417.143 5      3312.924
                                        27.750
  25992057.772 6  98840447.964 6     -2365.162    25992064.118 3  98044527.368 3
     -1842.984    25992059.121          36.750          16.750
 18  2 21  8 40  0.0000000  0  9G07G09G30G02G05G06G23G29G13
  20958430.451 9  72388569.178 9       869.446    20958431.632 8  77432675.400 8
       677.490    20958430.022          53.500          45.500
  21042631.395 9  72831051.073 9     -2000.558    21042635.137 8  81971783.76618
     -1558.876    21042631.156          53.750          45.750
  21646994.263 9  76006962.309 9      2513.972    21646998.442 7  80252263.561 7
      1958.939    21646993.615          52.000          43.250
  21994372.900 8  77832467.175 8      -703.630    21994372.088 7  81674656.285 7
      -548.283    21994372.346          47.750          38.750
  22392578.436 8  79925058.407 8      2747.784    22392579.860 6  83305265.70916
      2141.130    22392578.136          49.000          37.000
  22484236.808 8  80406713.331 8     -3143.041    22484242.153 6  87874889.624 6
     -2449.123    22484236.691          47.000          36.250
  23917503.868 7  87938589.846 7     -2969.402    23917504.548 4  89549558.037 4
     -2313.820    23917503.619          42.250          25.500
  25025990.160 7  97958011.874 7      -706.164    25025991.359 3  94088612.105 3
      -550.258    25025989.686          44.000          19.000
  25527285.846 6  96398056.325 6      3310.974    25527289.230 2  96141377.854 2
      2579.980    25527284.859          33.000           9.000
 18  2 21  8 40 30.0000000  0  9G07G09G30G02G05G06G23G29G13
  20953516.010 9  72362743.966 9       852.210    20953517.239 8  77412551.862 8
       664.060    20953515.758          54.000          44.750
  21054078.455 9  72891206.806 9     -2009.816    21054082.421 8  82018658.35318
     -1566.090    21054078.266          53.750          46.000
  21632680.732 9  75931745.142 9      2500.508    21632685.088 7  80193652.834 7
      1948.448    21632680.186          52.750          43.250
  21998441.495 8  77853847.180 8      -721.723    21998440.631 7  81691316.012 7
      -562.382    21998440.811          48.000          38.750
  22376915.005 8  79842747.816 8      2739.580    22376916.507 6  83241127.60116
      2134.738    22376914.960          50.250          37.500
  22502209.986 8  80501163.640 8     -3153.706    22502215.149 6  87948487.242 6
     -2457.433    22502210.226          46.500          36.000
  23934465.348 7  88027723.915 7     -2972.665    23934466.032 4  89619013.120 4
     -2316.362    23934464.635          42.250          25.500
  25030070.641 7  97979465.721 7      -724.165    25030073.932 4  94105329.380 4
      -564.284    25030070.398          41.250          22.250
  25508388.989 6  96298748.968 6      3309.272    25508391.936 2  96063995.515 2
      2578.653    25508387.904          37.000           9.750
 18  2 21  8 41  0.0000000  0  9G07G09G30G02G05G06G23G29G13
  20948700.830 9  72337440.006 9       834.747    20948702.014 8  77392834.500 8
       650.452    20948700.581          52.000          45.000
  21065579.896 9  72951646.010 9     -2019.398    21065583.752 8  82065753.82418
     -1573.557    21065579.576          52.750          45.750
  21618445.423 9  75856937.885 9      2486.656    21618449.650 7  80135361.496 7
      1937.654    21618444.748          51.000          43.000
  22002614.297 8  77875774.583 8      -740.049    22002613.296 7  81708402.287 7
      -576.661    22002613.416          48.250          38.750
  22361299.652 8  79760688.115 8      2731.104    22361300.980 6  83177184.97916
      2128.133    22361299.553          47.250          37.500
  22520245.470 8  80595939.313 8     -3164.583    22520250.771 6  88022338.375 6
     -2465.909    22520245.213          47.500          36.000
  23951445.719 7  88116957.283 7     -2976.186    23951446.439 4  89688545.553 4
     -2319.106    23951445.195          42.250          24.250
  25034256.838 7  98001459.941 7      -742.151    25034257.458 3  94122467.702 3
      -578.299    25034256.076          42.750          20.000
  25489501.524 7  96199495.624 7      3307.420    25489504.438 3  95986655.250 3
      2577.211    25489501.500          40.250          17.500
 18  2 21  8 41 30.0000000  0  9G07G09G30G02G05G06G23G29G13
  20943985.125 9  72312659.144 9       817.301    20943986.387 8  77373524.745 8
       636.858    20943984.906          52.500          45.000
  21077135.085 9  73012368.794 9     -2028.823    21077138.841 8  82113070.27018
     -1580.901    21077134.686          53.000          45.750
  21604288.629 9  75782543.807 9      2472.913    21604292.787 7  80077392.113 7
      1926.945    21604287.892          52.500          43.000
  22006891.184 8  77898249.807 8      -758.286    22006890.315 7  81725915.440 7
      -590.872    22006890.447          49.750          38.750
  22345732.248 8  79678881.385 8      2722.699    22345733.771 6  83113439.47616
      2121.584    22345732.227          50.000          37.250
  22538342.112 8  80691038.851 8     -3175.445    22538347.770 6  88096441.869 6
     -2474.372    22538342.175          46.000          36.000
  23968445.211 7  88206290.300 7     -2979.416    23968446.143 4  89758155.639 4
     -2321.623    23968444.677          41.000          24.000
  25038546.253 8  98023994.615 8      -760.142    25038548.097 4  94140027.234 4
      -592.319    25038545.722          45.000          22.750
  25470624.834 7  96100298.121 7      3305.648    25470626.246 3  95909358.534 3
      2575.830    25470624.627          39.500          16.500
 18  2 21  8 42  0.0000000  0  9G07G09G30G02G05G06G23G29G13
  20939368.642 9  72288399.781 9       799.937    20939369.988 8  77354621.352 8
       623.327    20939368.360          53.750          45.000
  21088743.637 9  73073371.976 9     -2038.106    21088747.423 8  82160605.20818
     -1588.135    21088743.301          53.250          45.750
  21590210.231 9  75708562.774 9      2459.104    21590214.794 7  80019744.563 7
      1916.185    21590209.683          51.750          43.250
  22011271.970 8  77921270.275 8      -776.469    22011270.921 7  81743853.464 7
      -605.041    22011271.170          49.250          38.750
  22330213.291 8  79597328.470 8      2714.155    22330214.607 6  83049891.75916
      2114.926    22330213.330          50.250          37.750
  22556499.675 8  80786457.289 8     -3185.939    22556505.024 6  88170793.875 6
     -2482.550    22556499.402          46.750          35.500
  23985463.544 7  88295720.182 7     -2982.702    23985462.989 4  89827841.205 4
     -2324.183    23985462.585          41.250          23.500
  25042933.821 7  98047066.287 7      -777.954    25042938.833 4  94158005.101 4
      -606.198    25042933.518          40.250          24.000
  25451757.756 6  96001155.109 6      3303.735    25451761.521 2  95832104.188 2
      2574.339    25451757.915          37.250          11.750
 18  2 21  8 42 30.0000000  0  9G07G09G30G02G05G06G23G29G13
  20934852.286 9  72264665.467 9       782.383    20934853.495 8  77336127.089 8
       609.649    20934851.933          52.750          44.750
  21100405.788 9  73134657.597 9     -2047.534    21100409.664 8  82208360.22618
     -1595.481    21100405.506          52.750          45.500
  21576211.615 9  75634999.955 9      2445.105    21576216.177 7  79962422.911 7
      1905.277    21576211.093          52.000          43.250
  22015756.725 8  77944838.420 8      -794.722    22015755.732 7  81762218.237 7
      -619.264    22015755.999          47.750          38.500
  22314743.736 9  79516035.025 9      2705.431    22314745.181 6  82986546.21916
      2108.128    22314743.452          50.500          37.750
  22574717.982 8  80882194.922 8     -3196.528    22574723.309 6  88245394.587 6
     -2490.801    22574718.003          46.250          35.000
  24002500.474 7  88385249.033 7     -2985.907    24002500.078 4  89897603.931 4
     -2326.681    24002498.819          42.500          22.750
  25047429.002 7  98070677.098 7      -795.843    25047429.194 4  94176403.082 4
      -620.137    25047428.861          42.000          22.000
  25432902.555 6  95902070.384 6      3301.935
                                        33.750
 18  2 21  8 43  0.0000000  0  9G07G09G30G02G05G06G23G29G13
  20930435.249 9  72241455.126 9       764.947    20930436.676 8  77318041.123 8
       596.063    20930435.021          53.000          45.000
  21112121.327 9  73196222.852 9     -2056.773    21112125.155 8  82256333.13818
     -1602.681    21112121.024          52.500          45.250
  21562292.916 9  75561855.594 9      2431.199    21562297.437 7  79905427.312 7
      1894.441    21562292.347          52.250          44.000
  22020345.270 8  77968951.602 8      -812.846    22020344.416 7  81781007.717 7
      -633.387    22020344.635          47.000          39.000
  22299323.276 8  79435000.343 8      2696.822    22299324.724 6  82923402.31416
      2101.420    22299323.366          50.250          37.750
  22592996.088 8  80978247.253 8     -3206.902    22593001.694 6  88320240.529 6
     -2498.885    22592996.232          46.500          35.000
  24019555.957 7  88474874.581 7     -2988.978    24019554.962 4  89967441.997 4
     -2329.074    24019555.088          41.750          22.750
  25052023.612 7  98094824.224 7      -813.792    25052025.174 4  94195219.129 4
      -634.124    25052023.279          42.250          22.500
  25414057.445 5  95803043.630 5      3299.457    25414059.208 1  95677715.55111
      2571.005    25414068.717          28.500           1.000
 18  2 21  8 43 30.0000000  0  9G07G09G30G02G05G06G23G29G13
  20926118.394 9  72218770.326 9       747.530    20926120.025 8  77300364.666 8
       582.491    20926118.169          52.750          45.250
  21123890.045 9  73258067.627 9     -2066.036    21123893.964 8  82304523.86518
     -1609.898    21123889.644          53.250          45.250
  21548454.484 9  75489132.695 9      2417.140    21548458.502 7  79848760.123 7
      1883.486    21548453.732          52.750          44.000
  22025037.922 8  77993610.279 8      -830.994    22025036.572 7  81800222.260 7
      -647.528    22025037.043          48.000          38.750
  22283952.590 8  79354228.270 8      2688.078    22283954.379 6  82860463.05016
      2094.606    22283952.674          49.750          37.500
  22611334.126 8  81074612.412 8     -3217.254    22611339.088 6  88395330.229 6
     -2506.951    22611333.886          46.500          35.000
  24036629.483 7  88564597.100 7     -2992.271    24036628.790 4  90037355.622 4
     -2331.640    24036628.655          42.000          22.750
  25056718.539 6  98119507.681 6      -831.629    25056724.343 4  94214452.875 4
      -648.023    25056717.187          36.500          20.750
  25395226.626 6  95704076.402 6      3298.064    25395228.626 1  95600603.264 1
      2569.920    25395225.748          33.000           8.000
 18  2 21  8 44  0.0000000  0  9G07G09G30G02G05G06G23G29G13
  20921901.951 9  72196611.528 9       729.821    20921903.294 8  77283098.080 8
       568.691    20921901.495          52.500          45.000
  21135711.614 9  73320191.157 9     -2075.507    21135715.659 8  82352931.80618
     -1617.278    21135711.252          53.750          45.250
  21534696.373 9  75416833.520 9      2402.802    21534700.543 7  79792423.109 7
      1872.313    21534695.725          51.000          44.000
  22029833.719 8  78018813.605 8      -849.155    22029832.664 7  81819861.204 7
      -661.680    22029833.051          47.500          38.750
  22268632.688 8  79273720.765 8      2679.077    22268634.067 6  82797729.93816
      2087.593    22268632.763          49.750          37.750
  22629730.632 8  81171287.943 8     -3227.669    22629736.245 6  88470661.780 6
     -2515.067    22629730.695          47.000          35.250
  24053721.085 7  88654415.999 7     -2995.669    24053721.307 4  90107344.309 4
     -2334.287    24053721.490          41.750          23.500
  25061519.634 7  98144726.521 7      -849.602    25061520.791 4  94234103.903 4
      -662.028    25061520.297          41.000          21.000
  25376404.694 6  95605170.149 6      3295.851    25376407.766 2  95523533.487 2
      2568.195    25376405.047          37.250          10.500
 18  2 21  8 44 30.0000000  0  9G07G09G30G02G05G06G23G29G13
  20917784.814 9  72174976.611 9       712.421    20917786.256 8  77266239.711 8
       555.133    20917784.574          53.000          45.000
  21147585.743 9  73382589.807 9     -2084.545    21147589.691 8  82401554.11818
     -1624.321    21147585.458          52.500          45.250
  21521018.834 9  75344957.443 9      2388.749    21521022.968 7  79736415.781 7
      1861.363    21521018.240          52.000          44.250
  22034732.880 8  78044558.482 8      -867.113    22034731.654 7  81839922.127 7
      -675.672    22034732.133          47.250          38.500
  22253362.799 8  79193477.440 8      2670.346    22253364.154 6  82735202.66916
      2080.789    22253362.628          50.000          37.750
  22648185.529 8  81268268.387 8     -3237.694    22648190.914 6  88546230.916 6
     -2522.878    22648185.290          46.000          35.500
  24070831.005 7  88744327.954 7     -2998.635    24070832.142 4  90177405.544 4
     -2336.599    24070830.652          41.500          23.750
  25066416.642 6  98170476.766 6      -867.113    25066419.373 4  94254169.106 4
      -675.673    25066417.370          37.000          21.250
  25357594.645 7  95506322.930 7      3293.887    25357597.738 3  95446509.704 3
      2566.665    25357595.070          39.750          16.750
 18  2 21  8 45  0.0000000  0  9G07G09G30G02G05G06G23G29G13
  20913767.775 9  72153866.983 9       694.854    20913769.283 8  77249790.661 8
       541.444    20913767.535          53.750          44.750
  21159512.362 9  73445263.219 9     -2093.715    21159515.984 8  82450390.53318
     -1631.466    21159511.907          53.750          45.000
  21507422.430 9  75273507.149 9      2374.439    21507426.424 8  79680740.235 8
      1850.213    21507421.450          53.250          44.500
  22039735.034 8  78070844.901 8      -885.369    22039734.078 7  81860405.037 7
      -689.898    22039734.096          48.000          38.500
  22238143.825 9  79113501.256 9      2661.352    22238145.216 6  82672883.57016
      2073.780    22238143.765          51.250          37.750
  22666697.663 8  81365551.692 8     -3247.882    22666703.389 6  88622036.041 6
     -2530.817    22666697.648          45.250          35.000
  24087958.140 7  88834333.000 7     -3001.634    24087958.802 4  90247539.271 4
     -2338.935    24087957.369          41.000          23.500
  25071422.280 7  98196758.174 7      -884.932    25071424.357 3  94274648.014 3
      -689.557    25071422.079          41.250          18.750
  25338796.359 7  95407536.139 7      3291.728    25338799.201 3  95369532.995 3
      2564.983    25338795.694          39.750          19.500
 18  2 21  8 45 30.0000000  0  9G07G09G30G02G05G06G23G29G13
  20909850.923 9  72133283.280 9       677.347    20909852.225 8  77233751.422 8
       527.803    20909850.609          52.500          44.750
  21171490.612 9  73508210.590 9     -2102.865    21171494.653 8  82499440.42418
     -1638.596    21171490.402          51.500          45.250
  21493907.142 9  75202484.817 9      2360.206    21493911.201 7  79625398.169 7
      1839.121    21493906.416          52.500          43.750
  22044839.873 8  78097671.969 8      -903.244    22044838.887 7  81881309.234 7
      -703.826    22044839.141          46.750          38.500
  22222976.267 8  79033794.460 8      2652.346    22222977.592 6  82610774.38316
      2066.763    22222976.162          50.250          38.000
  22685267.452 7  81463135.266 7     -3257.729    22685273.313 6  88698075.126 6
     -2538.490    22685267.095          44.000          34.750
  24105103.294 7  88924430.816 7     -3004.800    24105103.630 4  90317745.330 4
     -2341.402    24105102.641          41.500          23.500
  25076521.956 7  98223569.226 7      -902.480    25076523.512 4  94295539.700 4
      -703.231    25076522.169          39.750          22.500
  25320009.490 6  95308811.256 6      3289.662    25320012.887 3  95292604.561 3
      2563.373    25320008.816          37.750          19.500
 18  2 21  8 46  0.0000000  0  9G07G09G30G02G05G06G23G29G13
  20906033.738 9  72113224.341 9       659.874    20906035.126 8  77218121.090 8
       514.188    20906033.468          53.250          45.000
  21183520.774 9  73571429.732 9     -2111.835    21183524.647 8  82548702.08518
     -1645.586    21183520.453          52.500          45.250
  21480473.424 9  75131891.242 9      2345.947    21480477.714 7  79570390.197 7
      1828.010    21480472.809          52.250          44.000
  22050047.493 8  78125037.810 8      -921.233    22050046.695 7  81902633.242 7
      -717.844    22050046.686          48.250          38.500
  22207859.996 8  78954358.162 8      2643.369    22207861.681 6  82548875.97816
      2059.768    22207859.763          49.250          38.250
  22703893.612 8  81561015.188 8     -3267.596    22703899.125 6  88774345.160 6
     -2546.179    22703893.345          46.250          34.500
  24122265.756 7  89014619.591 7     -3007.861    24122267.129 4  90388022.235 4
     -2343.788    24122265.426          41.250          24.000
  25081725.870 7  98250908.188 7      -920.106    25081726.176 3  94316842.779 3
      -716.966    25081725.178          39.750          18.000
  25301234.481 6  95210148.074 6      3287.820    25301237.308 3  95215724.207 3
      2561.938    25301233.800          35.000          16.500
 18  2 21  8 46 30.0000000  0  9G07G09G30G02G05G06G23G29G13
  20902316.836 9  72093692.119 9       642.321    20902318.329 8  77202901.183 8
       500.510    20902316.545          53.250          45.250
  21195602.940 9  73634920.779 9     -2120.880    21195606.631 8  82598175.62118
     -1652.634    21195602.476          52.750          45.000
  21467122.176 9  75061729.578 9      2331.567    21467126.337 7  79515718.781 7
      1816.805    21467121.438          52.250          43.500
  22055357.845 8  78152942.892 8      -939.110    22055356.895 7  81924377.442 7
      -731.774    22055357.057          48.250          38.500
  22192795.896 8  78875195.407 8      2634.230    22192797.167 6  82487190.72116
      2052.647    22192795.527          50.000          38.250
  22722575.790 8  81659189.801 8     -3277.359    22722580.875 6  88850844.821 6
     -2553.787    22722575.601          46.000          34.250
  24139445.615 7  89104899.900 7     -3010.885    24139446.355 4  90458370.499 4
     -2346.144    24139445.845          41.000          23.750
  25087028.686 7  98278774.608 7      -937.559    25087030.710 4  94338556.904 4
      -730.565    25087027.011          39.750          21.250
  25282470.006 6  95111548.034 6      3285.749
                                        32.750
 18  2 21  8 47  0.0000000  0  9G07G09G30G02G05G06G23G29G13
  20898700.299 9  72074687.364 9       624.815    20898701.810 8  77188092.294 8
       486.869    20898700.011          52.250          44.750
  21207736.459 9  73698683.106 9     -2129.784    21207740.311 8  82647860.54418
     -1659.572    21207736.036          53.250          45.000
  21453853.337 9  74992002.168 9      2317.053    21453857.735 7  79461385.743 7
      1805.496    21453852.759          51.500          44.250
  22060770.385 8  78181386.516 8      -956.971    22060769.297 6  81946541.294 6
      -745.692    22060769.597          46.750          38.250
  22177784.340 9  78796308.346 9      2625.059    22177785.561 7  82425720.28117
      2045.501    22177784.187          50.750          38.750
  22741313.319 8  81757656.684 8     -3286.924    22741318.371 6  88927572.236 6
     -2561.240    22741313.017          45.750          34.500
  24156642.307 7  89195270.641 7     -3013.780    24156643.578 4  90528789.211 4
     -2348.400    24156642.148          42.000          23.500
  25092431.465 6  98307168.047 6      -955.070    25092433.543 4  94360681.571 4
      -744.210    25092430.548          35.000          20.750
  25263720.728 6  95013013.323 6      3283.448    25263724.574 1  95062110.776 1
      2558.531    25263720.072          36.000           4.000
 18  2 21  8 47 30.0000000  0  9G07G09G30G02G05G06G23G29G13
  20895184.222 9  72056210.351 9       607.145    20895185.754 8  77173694.609 8
       473.100    20895183.901          52.750          44.500
  21219921.559 9  73762715.573 9     -2138.841    21219925.312 8  82697755.95918
     -1666.630    21219921.052          53.000          45.250
  21440667.494 9  74922710.749 9      2302.455    21440671.940 7  79407392.437 7
      1794.121    21440667.086          51.500          44.250
  22066285.469 8  78210367.751 8      -974.972    22066284.180 6  81969124.069 6
      -759.718    22066284.690          48.750          38.250
  22162825.725 8  78717700.603 8      2615.601    22162826.906 6  82364467.49216
      2038.130    22162825.629          50.250          38.250
  22760106.109 8  81856412.892 8     -3296.600    22760111.260 6  89004525.084 6
     -2568.779    22760105.903          46.500          34.250
  24173856.731 7  89285731.642 7     -3016.777    24173857.496 4  90599278.264 4
     -2350.735    24173856.515          41.250          23.000
  25097933.196 7  98336086.398 7      -972.626    25097936.521 3  94383215.411 3
      -757.891    25097933.931          39.000          17.250
  25244982.431 7  94914544.314 7      3281.350    25244985.276 1  94985381.637 1
      2556.896    25244982.033          38.500           6.500
 18  2 21  8 48  0.0000000  0  9G07G09G30G02G05G06G23G29G13
  20891768.312 9  72038260.006 9       589.546    20891769.952 8  77159707.337 8
       459.387    20891767.976          52.000          45.000
  21232157.456 9  73827015.631 9     -2147.778    21232161.207 8  82747859.89018
     -1673.593    21232156.974          53.500          44.750
  21427565.061 9  74853855.761 9      2287.874    21427569.285 7  79353739.206 7
      1782.759    21427564.420          52.000          44.250
  22071901.928 8  78239884.115 8      -992.776    22071901.293 7  81992123.826 7
      -773.591    22071901.545          48.250          38.500
  22147920.377 8  78639371.859 8      2606.314    22147921.417 7  82303432.11117
      2030.894    22147920.395          49.000          38.750
  22778952.595 8  81955454.134 8     -3306.158    22778958.171 6  89081700.045 6
     -2576.227    22778952.553          45.750          33.750
  24191087.633 7  89376280.816 7     -3019.743    24191087.174 4  90669836.020 4
     -2353.047    24191086.886          40.500          22.000
  25103537.193 6  98365527.619 6      -990.103    25103539.174 3  94406156.452 3
      -771.509    25103537.406          36.000          19.000
  25226257.289 7  94816140.437 7      3278.946    25226259.940 2  94908703.301 2
      2555.023    25226257.367          40.250          14.250
 18  2 21  8 48 30.0000000  0  9G07G09G30G02G05G06G23G29G13
  20888452.925 9  72020837.288 9       571.946    20888454.484 8  77146131.204 8
       445.672    20888452.616          52.250          45.000
  21244444.093 9  73891583.010 9     -2156.628    21244447.904 8  82798172.12618
     -1680.489    21244443.761          53.000          44.750
  21414546.238 9  74785439.846 9      2273.231    21414550.255 8  79300428.110 8
      1771.349    21414545.384          53.750          44.500
  22077620.637 8  78269935.577 8     -1010.550    22077619.822 6  82015540.520 6
      -787.442    22077620.179          46.750          38.250
  22133068.419 9  78561324.425 9      2596.954    22133069.549 7  82242615.93117
      2023.601    22133068.419          51.000          39.000
  22797853.445 8  82054778.313 8     -3315.474    22797859.198 6  89159095.469 6
     -2583.486    22797853.305          45.500          33.750
  24208335.298 7  89466917.961 7     -3022.642    24208335.145 4  90740462.314 4
     -2355.306    24208334.846          41.750          21.500
  25109237.495 6  98395490.573 6     -1007.532    25109238.892 4  94429504.288 4
      -785.090    25109237.989          38.000          20.500
  25207544.154 7  94717803.153 7      3276.727    25207547.158 3  94832076.913 3
      2553.293    25207543.642          39.500          17.500
 18  2 21  8 49  0.0000000  0  9G07G09G30G02G05G06G23G29G13
  20885238.002 9  72003942.509 9       554.246    20885239.576 8  77132966.450 8
       431.880    20885237.672          52.000          45.000
  21256781.563 9  73956416.774 9     -2165.580    21256785.497 8  82848691.93218
     -1687.465    21256781.228          52.750          44.750
  21401610.715 9  74717464.963 9      2258.434    21401614.930 8  79247460.677 8
      1759.819    21401610.170          51.250          44.750
  22083440.838 8  78300521.306 8     -1028.527    22083439.987 6  82039373.546 6
      -801.450    22083440.271          47.500          38.000
  22118270.765 9  78483561.587 9      2587.255    22118271.766 7  82182021.52117
      2016.043    22118270.531          50.750          39.000
  22816807.557 8  82154382.688 8     -3324.914    22816813.640 6  89236709.226 6
     -2590.842    22816807.491          45.250          34.250
  24225599.923 7  89557642.822 7     -3025.623    24225599.354 4  90811156.966 4
     -2357.628    24225599.321          40.750          21.000
  25115039.507 7  98425974.239 7     -1024.879    25115041.177 3  94453257.742 3
      -798.607    25115039.468          40.250          18.750
  25188844.633 6  94619533.715 6      3274.222    25188847.121 3  94755503.393 3
      2551.341    25188843.787          37.000          18.500
 18  2 21  8 49 30.0000000  0  9G07G09G30G02G05G06G23G29G13
  20882123.880 9  71987577.640 9       536.699    20882125.427 8  77120214.610 8
       418.207    20882123.644          52.500          45.250
  21269169.770 9  74021517.398 9     -2174.389    21269173.572 8  82899419.68118
     -1694.329    21269169.446          51.750          44.750
  21388759.941 9  74649934.469 9      2243.586    21388764.324 8  79194839.520 8
      1748.248    21388759.323          51.750          44.500
  22089363.004 8  78331641.718 8     -1046.150    22089362.177 6  82063623.232 6
      -815.182    22089362.135          47.750          38.250
  22103527.868 8  78406085.882 8      2577.812    22103528.489 7  82121650.84817
      2008.685    22103527.457          49.750          39.250
  22835815.004 8  82254265.899 8     -3334.034    22835820.733 6  89314540.243 6
     -2597.949    22835814.833          46.000          34.500
  24242880.758 7  89648456.161 7     -3028.573    24242882.137 4  90881920.591 4
     -2359.927    24242880.851          40.500          20.500
  25120938.337 7  98456978.513 7     -1042.127    25120940.229 4  94477416.950 4
      -812.047    25120937.390          39.750          21.500
  25170157.505 6  94521334.148 6      3272.334    25170159.054 3  94678984.344 3
      2549.870    25170157.286          33.500          16.750
 18  2 21  8 50  0.0000000  0  9G07G09G30G05G02G06G23G29G13
  20879110.391 9  71971740.102 9       519.065    20879111.557 8  77107873.680 8
       404.466    20879110.007          52.750          45.250
  21281608.033 9  74086881.153 9     -2183.184    21281611.895 8  82950352.46718
     -1701.182    21281607.782          52.750          44.750
  21375993.977 9  74582847.526 9      2228.733    21375998.156 8  79142563.986 8
      1736.675    21375993.279          52.500          44.500
  22088839.420 9  78328898.095 9      2568.092    22088840.334 7  82061504.52117
      2001.111    22088839.246          50.750          39.500
  22095385.919 8  78363292.883 8     -1063.860    22095385.286 6  82088286.473 6
      -828.981    22095385.208          46.000          38.000
  22854873.974 8  82354422.410 8     -3343.065    22854879.877 6  89392584.239 6
     -2604.986    22854873.908          46.750          34.000
  24260178.462 7  89739353.869 7     -3031.360    24260179.151 4  90952749.892 4
     -2362.099    24260177.694          40.000          21.000
  25126937.328 7  98488499.301 7     -1059.383    25126938.635 3  94501978.613 3
      -825.494    25126937.556          39.250          17.500
  25151482.935 6  94423202.876 6      3269.992    25151485.903 2  94602518.542 2
      2548.046    25151482.092          33.000          13.000
 18  2 21  8 50 30.0000000  0  9G07G09G30G05G02G06G23G13G29
  20876196.840 9  71956430.072 9       501.512    20876198.219 8  77095943.811 8
       390.789    20876196.591          53.250          45.500
  21294096.167 9  74152506.919 9     -2191.885    21294100.106 8  83001489.41918
     -1707.962    21294095.912          51.500          44.750
  21363312.394 9  74516205.851 9      2213.953    21363316.621 8  79090635.417 8
      1725.158    21363311.728          52.250          44.750
  22074206.133 9  78251999.646 9      2558.519    22074207.035 7  82001583.65317
      1993.651    22074205.944          51.500          39.250
  22101509.689 8  78395473.765 8     -1081.561    22101508.832 6  82113362.468 6
      -842.775    22101509.198          47.500          38.000
  22873984.565 8  82454849.335 8     -3351.980    22873990.189 6  89470838.961 6
     -2611.932    22873984.466          45.500          33.750
  24277491.926 7  89830335.971 7     -3034.137    24277493.002 4  91023644.980 4
     -2364.263    24277491.341          40.000          23.250
  25132822.548 6  94325140.872 6      3267.575    25132826.289 2  94526106.647 2
      2546.162    25132823.549          36.750          10.750
  25133033.275 7  98520535.066 7     -1076.545    25133035.392 3  94526941.517 3
      -838.866    25133033.506          39.000          18.250
 18  2 21  8 51  0.0000000  0  9G07G09G30G05G02G06G23G13G29
  20873384.127 9  71941648.923 9       483.946    20873385.350 8  77084426.033 8
       377.101    20873383.941          52.750          45.500
  21306634.354 9  74218394.673 9     -2200.593    21306638.185 8  83052830.51818
     -1714.748    21306634.048          52.000          44.500
  21350716.272 9  74450012.251 9      2199.008    21350720.439 8  79039055.993 8
      1713.512    21350715.570          53.250          44.750
  22059628.392 9  78175393.505 9      2548.677    22059629.504 7  81941890.56817
      1985.982    22059628.272          51.000          39.500
  22107734.580 8  78428184.455 8     -1099.157    22107733.477 6  82138851.312 6
      -856.486    22107733.788          46.000          37.750
  22893146.343 8  82555544.782 8     -3360.877    22893151.736 6  89549302.916 6
     -2618.865    22893145.821          45.750          33.000
  24294821.555 7  89921402.669 7     -3036.863    24294822.023 4  91094605.948 4
     -2366.387    24294820.266          41.500          24.000
  25114175.883 7  94227149.702 7      3265.201    25114176.608 2  94449749.824 2
      2544.313    25114175.400          39.250          11.750
  25139227.788 7  98553085.572 7     -1093.443    25139228.705 3  94552305.581 3
      -852.034    25139228.070          39.000          17.250
 18  2 21  8 51 30.0000000  0  9G07G09G30G05G02G06G23G13G29
  20870671.746 9  71927394.178 9       466.330    20870672.837 8  77073318.443 8
       363.374    20870671.392          52.500          45.500
  21319221.353 9  74284540.772 9     -2209.296    21319225.370 8  83104372.92118
     -1721.529    21319221.134          51.000          44.500
  21338205.048 9  74384265.975 9      2184.006    21338209.251 8  78987825.134 8
      1701.823    21338204.493          52.000          44.750
  22045106.146 9  78099079.370 9      2538.860    22045107.327 7  81882425.00417
      1978.332    22045106.029          51.500          39.000
  22114059.289 8  78461421.040 8     -1116.668    22114058.216 6  82164749.937 6
      -870.131    22114058.531          49.000          38.000
  22912357.883 7  82656503.274 7     -3369.721    22912363.983 6  89627971.842 6
     -2625.757    22912357.874          43.000          33.000
  24312166.590 7  90012550.593 7     -3039.582    24312167.253 4  91165630.245 4
     -2368.505    24312166.204          41.000          24.500
  25095541.608 6  94129227.634 6      3262.753    25095544.099 2  94373446.817 2
      2542.405    25095542.130          38.250          11.500
  25145517.778 7  98586146.716 7     -1110.561    25145521.565 3  94578067.525 3
      -865.372    25145516.702          39.750          17.000
 18  2 21  8 52  0.0000000  0  9G07G30G09G05G02G06G23G13G29
  20868059.561 9  71913667.980 9       448.569    20868060.802 8  77062622.710 8
       349.534    20868059.399          52.250          45.500
  21325779.865 9  74318970.754 9      2168.832    21325783.990 8  78936945.752 8
      1689.999    21325779.181          53.750          45.000
  21331858.238 9  74350946.182 9     -2218.037    21331861.898 8  83156117.38018
     -1728.340    21331857.845          53.000          44.500
  22030640.287 9  78023061.155 9      2528.831    22030641.351 7  81823190.03317
      1970.517    22030640.059          51.750          39.250
  22120484.315 8  78495184.636 8     -1134.326    22120483.299 6  82191059.220 6
      -883.890    22120483.326          47.500          38.000
  22931619.755 8  82757723.953 8     -3378.517    22931625.256 6  89706845.050 6
     -2632.611    22931619.485          44.500          33.000
  24329527.605 7  90103781.110 7     -3042.532    24329527.452 4  91236718.889 4
     -2370.804    24329526.264          42.000          23.750
  25076921.597 7  94031377.510 7      3260.328    25076923.219 2  94297199.936 2
      2540.515    25076921.945          39.250          12.500
  25151907.294 7  98619718.772 7     -1127.639    25151909.857 3  94604227.563 3
      -878.680    25151906.946          41.500          17.500
 18  2 21  8 52 30.0000000  0  9G07G30G09G05G02G06G23G13G29
  20865548.050 9  71900469.466 9       431.114    20865549.102 8  77052338.156 8
       335.933    20865547.747          53.000          45.500
  21313440.422 9  74254127.438 9      2153.846    21313444.745 8  78886418.497 8
      1678.322    21313439.853          53.000          45.000
  21344543.635 9  74417608.930 9     -2226.414    21344547.436 8  83208062.36618
     -1734.868    21344543.227          52.500          44.750
  22016230.975 9  77947340.226 9      2519.070    22016231.983 7  81764186.71017
      1962.912    22016230.820          51.000          39.500
  22127009.127 8  78529472.979 8     -1151.619    22127008.363 6  82217777.384 6
      -897.365    22127008.405          47.500          38.250
  22950930.730 8  82859203.008 8     -3386.931    22950936.462 6  89785919.619 6
     -2639.167    22950930.613          45.500          33.000
  24346902.856 7  90195092.500 7     -3045.081    24346902.856 4  91307870.604 4
     -2372.790    24346902.868          40.750          22.250
  25058314.604 6  93933599.750 6      3258.111    25058318.111 3  94221009.534 3
      2538.788    25058314.403          35.750          15.250
  25158391.988 7  98653799.403 7     -1144.427    25158394.329 3  94630783.888 3
      -891.761    25158392.293          39.250          16.750
 18  2 21  8 53  0.0000000  0  9G07G30G09G05G02G06G23G13G29
  20863137.002 9  71887799.232 9       413.592    20863138.078 8  77042465.250 8
       322.279    20863136.624          52.750          45.250
  21301187.500 9  74189738.072 9      2138.758    21301191.811 8  78836244.975 8
      1666.564    21301186.855          52.000          44.750
  21357277.856 9  74484528.321 9     -2234.837    21357281.780 8  83260207.33518
     -1741.432    21357277.454          52.750          44.750
  22001878.876 8  77871919.505 8      2509.039    22001880.021 7  81705417.31717
      1955.095    22001878.534          50.000          39.250
  22133633.734 8  78564285.345 8     -1169.092    22133633.054 6  82244903.886 6
      -910.981    22133633.039          48.000          38.000
  22970290.245 8  82960937.848 8     -3395.327    22970295.611 6  89865193.476 6
     -2645.710    22970289.891          45.500          33.000
  24364293.798 7  90286484.433 7     -3047.628    24364292.482 3  91379085.095 3
     -2374.775    24364293.193          39.000          19.250
  25039721.682 6  93835895.058 6      3255.843    25039726.599 3  94144876.094 3
      2537.020    25039722.009          34.000          15.250
  25164974.812 7  98688387.165 7     -1161.218    25164974.854 3  94657735.400 3
      -904.845    25164974.192          41.000          17.000
 18  2 21  8 53 30.0000000  0  9G07G30G09G05G02G06G23G13G29
  20860826.594 9  71875658.054 9       395.907    20860827.778 8  77033004.592 8
       308.499    20860826.238          54.000          45.250
  21289021.535 9  74125805.087 9      2123.446    21289025.804 8  78786427.075 8
      1654.633    21289020.864          54.000          44.750
  21370060.926 9  74551704.011 9     -2243.456    21370064.886 7  83312552.02217
     -1748.147    21370060.632          52.750          43.750
  21987584.304 9  77796801.703 9      2498.830    21987585.566 7  81646883.96717
      1947.140    21987584.388          50.750          39.750
  22140358.025 8  78599621.030 8     -1186.560    22140356.961 6  82272438.163 6
      -924.592    22140357.360          47.250          38.000
  22989697.771 7  83062926.338 7     -3403.824    22989703.773 6  89944664.985 6
     -2652.331    22989698.194          44.000          33.000
  24381700.936 7  90377957.008 7     -3050.352    24381700.036 3  91450362.353 3
     -2376.898    24381700.387          39.000          17.000
  25021143.520 6  93738265.183 6      3253.032    25021147.114 3  94068800.908 3
      2534.830    25021143.652          35.500          14.500
  25171653.280 7  98723481.692 7     -1178.157    25171655.924 3  94685081.823 3
      -918.044    25171653.061          40.500          16.500
 18  2 21  8 54  0.0000000  0  9G07G30G09G05G02G06G23G13G29
  20858616.713 9  71864045.331 9       378.377    20858617.912 8  77023955.719 8
       294.839    20858616.461          53.250          45.500
  21276942.438 9  74062329.332 9      2108.361    21276946.713 8  78736965.454 8
      1642.879    21276941.968          54.000          45.000
  21382892.394 9  74619134.095 9     -2251.760    21382896.315 7  83365094.93517
     -1754.618    21382892.145          51.000          43.500
  21973347.724 9  77721987.563 9      2488.784    21973349.091 7  81588587.23417
      1939.312    21973347.622          51.750          39.500
  22147181.370 8  78635478.268 8     -1203.807    22147180.246 6  82300378.868 6
      -938.032    22147180.717          47.500          37.750
  23009153.190 8  83165164.694 8     -3411.902    23009159.210 6  90024331.193 6
     -2658.625    23009153.609          44.500          33.000
  24399122.781 7  90469508.652 7     -3052.860    24399123.036 4  91521701.229 4
     -2378.852    24399122.334          41.000          20.500
  25002580.086 7  93640710.275 7      3250.739    25002582.898 3  93992784.120 3
      2533.043    25002580.140          38.750          15.500
  25178426.419 6  98759080.089 6     -1194.859    25178428.302 3  94712820.806 3
      -931.059    25178427.178          37.000          14.750
 18  2 21  8 54 30.0000000  0  9G07G30G09G05G02G06G23G13G29
  20856507.664 9  71852961.692 9       360.687    20856508.773 8  77015319.119 8
       281.055    20856507.358          53.750          45.500
  21264950.857 9  73999313.241 9      2092.851    21264955.147 8  78687862.012 8
      1630.793    21264950.254          52.250          44.750
  21395772.548 9  74686818.255 9     -2260.362    21395776.178 7  83417835.82717
     -1761.321    21395772.083          51.500          43.750
  21959169.339 8  77647480.018 8      2478.424    21959170.775 7  81530529.40717
      1931.240    21959169.240          49.000          40.000
  22154103.845 8  78671856.661 8     -1221.264    22154102.943 6  82328725.658 6
      -951.635    22154103.239          47.000          37.750
  23028655.795 8  83267650.743 8     -3420.384    23028661.509 6  90104190.421 6
     -2665.235    23028655.555          44.500          32.500
  24416559.771 7  90561139.369 7     -3055.496    24416559.882 4  91593101.727 4
     -2380.906    24416559.334          41.750          23.000
  24984030.739 6  93543231.421 6      3248.015    24984031.963 3  93916826.545 3
      2530.921    24984030.784          38.250          17.500
  25185296.346 6  98795181.547 6     -1211.870    25185299.437 2  94740951.853 2
      -944.314    25185296.541          36.500          14.250
 18  2 21  8 55  0.0000000  0  9G07G30G09G05G02G06G23G13G29
  20854498.986 9  71842406.448 9       343.064    20854500.212 8  77007094.249 8
       267.322    20854498.731          52.250          45.750
  21253046.971 9  73936757.870 9      2077.455    21253051.213 8  78639117.576 8
      1618.796    21253046.395          51.750          45.000
  21408700.345 9  74754754.854 9     -2268.726    21408704.197 7  83470773.42517
     -1767.839    21408700.063          51.250          44.000
  21945049.924 9  77573280.756 9      2468.155    21945051.168 7  81472711.80317
      1923.238    21945049.813          51.000          40.000
  22161125.269 8  78708753.980 8     -1238.575    22161124.382 6  82357476.809 6
      -965.124    22161124.568          47.250          37.500
  23048205.127 7  83370380.969 7     -3428.442    23048210.379 5  90184239.913 5
     -2671.513    23048204.566          44.250          32.250
  24434011.446 7  90652847.895 7     -3058.268    24434011.485 4  91664562.834 4
     -2383.066    24434010.654          42.000          24.750
  24965495.597 7  93445829.434 7      3245.283    24965497.345 3  93840928.852 3
      2528.792    24965494.842          39.500          16.750
  25192260.834 6  98831783.853 6     -1228.374    25192265.202 2  94769473.087 2
      -957.174    25192260.702          34.000          12.750
 18  2 21  8 55 30.0000000  0  9G07G30G09G05G02G06G23G13G29
  20852590.984 9  71832379.273 9       325.452    20852592.099 8  76999280.867 8
       253.599    20852590.585          54.500          46.000
  21241231.035 9  73874664.324 9      2062.071    21241235.244 8  78590733.004 8
      1606.809    21241230.348          53.250          45.250
  21421676.091 9  74822942.311 9     -2277.103    21421679.869 7  83523906.49717
     -1774.366    21421675.830          52.000          44.000
  21930989.364 9  77499391.613 9      2457.783    21930990.476 7  81415135.85017
      1915.156    21930989.265          52.250          40.000
  22168245.118 8  78746168.711 8     -1255.724    22168244.150 6  82386631.141 6
      -978.486    22168244.288          47.000          37.750
  23067799.999 8  83473351.925 8     -3436.353    23067804.937 5  90264476.988 5
     -2677.678    23067799.463          44.500          32.250
  24451477.076 7  90744633.091 7     -3060.783    24451478.530 4  91736083.697 4
     -2385.026    24451476.674          40.000          24.750
  24946975.153 6  93348504.081 6      3243.029    24946977.150 2  93765090.850 2
      2527.036    24946975.040          38.000          13.500
  25199321.866 6  98868884.736 6     -1245.024    25199323.371 2  94798382.861 2
      -970.149    25199321.666          36.500          12.500
 18  2 21  8 56  0.0000000  0  9G07G30G09G05G02G06G23G13G29
  20850783.397 9  71822880.335 9       307.862    20850784.461 8  76991879.100 8
       239.892    20850783.151          54.250          45.500
  21229503.325 9  73813034.564 9      2046.645    21229507.462 8  78542709.815 8
      1594.788    21229502.713          53.750          45.250
  21434699.282 9  74891379.878 9     -2285.236    21434703.012 7  83577234.46017
     -1780.704    21434699.052          52.500          43.750
  21916988.115 9  77425815.212 9      2447.367    21916989.434 7  81357803.59017
      1907.039    21916988.124          52.500          40.250
  22175462.978 8  78784099.604 8     -1272.944    22175462.148 6  82416187.674 6
      -991.904    22175462.361          47.500          37.500
  23087440.003 8  83576561.007 8     -3444.064    23087444.818 5  90344899.628 5
     -2683.686    23087439.562          44.500          32.250
  24468957.350 6  90836494.303 6     -3063.096    24468959.062 4  91807663.785 4
     -2386.828    24468957.479          38.000          23.500
  24928469.196 6  93251256.971 6      3240.419    24928471.579 2  93689313.850 2
      2525.002    24928468.192          34.750          11.750
  25206477.760 6  98906482.848 6     -1261.394    25206479.696 2  94827680.035 2
      -982.905    25206477.091          38.000          14.250
 18  2 21  8 56 30.0000000  0  9G07G30G09G05G02G06G23G13G29
  20849076.280 9  71813909.440 9       290.233    20849077.473 8  76984888.793 8
       226.155    20849075.944          54.250          45.500
  21217863.984 9  73751869.611 9      2031.109    21217868.205 8  78495048.814 8
      1582.682    21217863.448          51.750          45.500
  21447769.661 9  74960065.947 9     -2293.690    21447773.705 7  83630756.06117
     -1787.291    21447769.517          52.500          43.750
  21903046.776 9  77352552.844 9      2436.869    21903048.065 7  81300716.02617
      1898.859    21903046.662          52.000          40.000
  22182778.619 8  78822544.677 8     -1289.971    22182777.929 6  82446144.868 6
     -1005.172    22182778.286          46.750          37.250
  23107124.271 8  83680004.711 8     -3451.965    23107130.042 5  90425505.086 5
     -2689.843    23107124.163          44.500          32.000
  24486451.961 6  90928430.566 6     -3065.698    24486453.400 4  91879302.348 4
     -2388.856    24486450.690          37.500          20.750
  24909978.908 6  93154088.267 6      3237.809    24909981.349 2  93613598.036 2
      2522.968    24909978.039          35.250          11.250
  25213725.227 6  98944576.013 6     -1278.017    25213727.713 3  94857363.007 3
      -995.857    25213724.187          36.000          15.750
 18  2 21  8 57  0.0000000  0  9G07G30G09G05G02G06G23G13G29
  20847469.887 9  71805467.505 9       272.492    20847470.939 8  76978310.659 8
       212.332    20847469.587          53.500          45.750
  21206313.817 9  73691172.450 9      2015.337    21206317.928 8  78447752.324 8
      1570.393    21206313.146          52.250          45.750
  21460887.605 9  75029000.819 9     -2302.058    21460891.499 7  83684471.53217
     -1793.812    21460887.215          52.250          43.750
  21889165.738 9  77279607.904 9      2426.134    21889166.979 7  81243875.81617
      1890.494    21889165.783          52.250          40.000
  22190192.651 8  78861504.062 8     -1307.307    22190191.590 6  82476502.840 6
     -1018.681    22190191.731          47.500          37.250
  23126853.373 8  83783681.396 8     -3459.777    23126859.231 5  90506292.062 5
     -2695.930    23126853.558          44.500          31.750
  24503961.960 7  91020442.476 7     -3068.444    24503961.945 3  91950999.903 3
     -2390.995    24503961.810          39.250          17.000
  24891503.620 6  93056999.799 6      3234.818    24891506.543 2  93537944.721 2
      2520.638    24891503.080          37.250          14.000
  25221068.308 6  98983163.680 6     -1294.432    25221071.081 3  94887431.304 3
     -1008.649    25221068.431          38.000          17.000
 18  2 21  8 57 30.0000000  0  9G07G30G09G05G02G06G23G13G29
  20845963.640 9  71797552.420 9       255.109    20845964.716 8  76972143.061 8
       198.786    20845963.370          53.500          45.750
  21194852.479 9  73630942.613 9      1999.907    21194856.571 8  78400819.980 8
      1558.369    21194851.747          53.500          46.000
  21474052.127 9  75098181.416 9     -2310.072    21474056.210 7  83738378.47717
     -1800.056    21474051.905          51.750          43.750
  21875345.123 9  77206980.528 9      2415.627    21875346.538 7  81187283.05117
      1882.307    21875345.108          52.000          40.250
  22197703.376 8  78900974.096 8     -1324.140    22197702.716 6  82507258.693 6
     -1031.797    22197702.623          47.500          37.250
  23146626.277 8  83887586.188 8     -3467.176    23146631.694 5  90587256.789 5
     -2701.696    23146625.465          45.500          32.250
  24521485.105 7  91112527.158 7     -3070.535    24521484.661 3  92022754.200 3
     -2392.625    24521484.550          40.750          17.750
  24873043.920 7  92959990.780 7      3232.304    24873045.995 3  93462353.305 3
      2518.678    24873043.455          39.500          17.250
  25228505.238 7  99022242.021 7     -1310.742    25228508.296 3  94917881.961 3
     -1021.357    25228505.154          39.500          19.750
 18  2 21  8 58  0.0000000  0  9G07G30G09G05G02G06G23G13G29
  20844558.153 9  71790165.744 9       237.422    20844559.073 8  76966387.212 8
       185.004    20844557.772          53.750          45.500
  21183480.518 9  73571183.244 9      1984.181    21183484.739 8  78354254.234 8
      1546.115    21183479.894          51.500          45.500
  21487263.804 9  75167608.259 9     -2318.255    21487267.740 7  83792477.29717
     -1806.432    21487263.378          52.750          43.750
  21861585.668 8  77134673.976 8      2404.938    21861586.864 7  81130940.28617
      1873.978    21861585.599          50.000          40.250
  22205311.518 8  78940955.377 8     -1341.164    22205310.843 6  82538412.923 6
     -1045.063    22205310.936          47.250          37.500
  23166441.311 8  83991717.680 8     -3474.718    23166447.058 5  90668398.162 5
     -2707.572    23166441.497          44.500          31.750
  24539023.195 7  91204685.774 7     -3073.165    24539023.267 4  92094566.067 4
     -2394.674    24539022.856          42.250          20.500
  24854599.036 7  92863063.428 7      3229.891    24854601.995 3  93386825.530 3
      2516.798    24854597.663          39.750          19.000
  25236035.029 7  99061810.991 7     -1326.957    25236037.041 3  94948714.857 3
     -1033.992    25236034.712          40.500          19.250
 18  2 21  8 58 30.0000000  0  9G07G30G09G05G02G06G23G13G29
  20843253.108 9  71783308.166 9       219.698    20843254.121 8  76961043.644 8
       171.194    20843252.823          53.750          45.750
  21172198.548 9  73511896.453 9      1968.246    21172202.793 8  78308056.737 8
      1533.698    21172197.825          52.750          45.750
  21500522.233 9  75237280.876 9     -2326.614    21500526.008 7  83846767.63617
     -1812.946    21500521.786          51.750          43.250
  21847887.593 9  77062690.874 9      2393.954    21847888.987 7  81074849.55617
      1865.418    21847887.416          51.000          40.250
  22213016.912 8  78981447.005 8     -1358.282    22213016.010 6  82569964.811 6
     -1058.402    22213016.217          47.750          37.250
  23186299.945 7  84096073.527 7     -3482.439    23186305.494 5  90749714.355 5
     -2713.589    23186299.168          44.250          31.250
  24556574.475 7  91296917.895 7     -3075.755    24556574.487 4  92166435.191 4
     -2396.692    24556573.687          41.000          23.000
  24836169.984 6  92766219.124 6      3226.834    24836171.936 3  93311362.457 3
      2514.416    24836170.230          38.250          17.000
  25243657.307 7  99101869.338 7     -1343.491    25243659.420 3  94979929.161 3
     -1046.876    25243656.569          39.500          19.750
 18  2 21  8 59  0.0000000  0  9G07G30G09G05G02G06G23G13G29
  20842048.647 9  71776979.541 9       202.102    20842049.780 8  76956112.252 8
       157.482    20842048.461          53.000          45.750
  21161006.756 9  73453083.881 9      1952.426    21161011.115 8  78262228.760 8
      1521.371    21161006.288          52.000          45.500
  21513826.978 9  75307198.288 9     -2334.688    21513830.866 7  83901248.71717
     -1819.237    21513826.474          51.250          43.250
  21834251.758 9  76991034.106 9      2383.027    21834253.089 7  81019013.11417
      1856.904    21834251.698          51.250          40.000
  22220819.311 8  79022447.460 8     -1375.136    22220818.534 6  82601913.200 6
     -1071.534    22220818.522          47.000          37.000
  23206200.654 8  84200650.825 8     -3489.627    23206205.639 5  90831203.116 5
     -2719.190    23206199.973          44.500          31.000
  24574138.710 7  91389223.211 7     -3077.945    24574139.519 4  92238361.315 4
     -2398.399    24574138.914          39.750          23.500
  24817756.995 6  92669458.811 6      3223.845    24817759.295 3  93235964.848 3
      2512.087    24817756.360          37.250          14.500
  25251373.572 7  99142415.106 7     -1359.563    25251375.697 3  95011523.273 3
     -1059.400    25251374.279          42.750          19.250
 18  2 21  8 59 30.0000000  0  9G07G30G09G05G02G06G23G13G29
  20840944.772 9  71771177.997 9       184.616    20840945.842 8  76951591.568 8
       143.856    20840944.466          54.750          45.750
  21149905.573 9  73394745.463 9      1936.682    21149909.653 8  78216770.248 8
      1509.103    21149904.934          52.750          45.750
  21527177.803 9  75377357.940 9     -2342.669    21527181.685 7  83955918.56317
     -1825.456    21527177.599          51.250          43.250
  21820678.403 8  76919704.639 8      2372.161    21820679.830 7  80963431.71417
      1848.437    21820678.223          50.000          40.250
  22228717.676 8  79063953.722 8     -1391.927    22228716.765 6  82634255.743 6
     -1084.619    22228717.085          47.250          37.500
  23226142.227 8  84305445.095 8     -3496.680    23226147.546 5  90912860.949 5
     -2724.685    23226142.167          45.000          30.750
  24591716.738 6  91481599.662 6     -3080.438    24591717.607 4  92310342.865 4
     -2400.341    24591715.347          37.000          21.000
  24799359.725 6  92572781.689 6      3221.277    24799362.255 3  93160632.042 3
      2510.086    24799359.020          36.250          14.500
  25259181.921 7  99183445.149 7     -1375.703    25259182.263 3  95043494.748 3
     -1071.976    25259181.543          43.750          20.000
                            4  1
RINEX FILE SPLICE; other post-header comments skipped       COMMENT
 18  2 21  9  0  0.0000000  0  9G07G30G09G05G02G06G23G13G29
  20839940.551 9  71765901.587 9       166.919    20839941.685 8  76947480.081 8
       130.067    20839940.389          53.000          45.250
  21138894.337 9  73336880.854 9      1920.815    21138898.399 8  78171680.942 8
      1496.739    21138893.552          53.000          45.500
  21540574.425 9  75447756.852 9     -2350.718    21540578.199 7  84010774.84817
     -1831.728    21540574.068          51.250          43.500
  21807166.963 8  76848702.147 8      2361.161    21807168.241 7  80908105.09517
      1839.866    21807166.948          50.250          40.250
  22236711.648 8  79105962.394 8     -1408.793    22236710.766 6  82666989.759 6
     -1097.761    22236710.859          47.250          37.250
  23246124.354 8  84410451.513 8     -3503.853    23246129.417 5  90994684.105 5
     -2730.275    23246124.159          45.000          31.000
  24609308.190 6  91574044.192 6     -3082.960    24609309.429 3  92382377.464 3
     -2402.306    24609308.080          36.750          18.000
  24780978.403 6  92476186.882 6      3218.350    24780980.708 2  93085363.412 2
      2507.805    24780978.484          38.250          12.000
  25267080.439 7  99224955.354 7     -1391.768    25267081.608 4  95075840.377 4
     -1084.495    25267080.034          41.500          20.750
 18  2 21  9  0 30.0000000  0  9G07G30G09G05G02G06G23G13G29
  20839036.662 9  71761152.067 9       149.510    20839037.966 8  76943779.157 8
       116.501    20839036.485          52.250          45.250
  21127973.638 9  73279493.316 9      1904.938    21127977.856 8  78126963.384 8
      1484.367    21127973.039          51.750          46.000
  21554016.324 9  75518395.808 9     -2358.635    21554020.353 7  84065818.17617
     -1837.898    21554016.267          51.500          43.250
  21793718.466 8  76778029.859 8      2350.168    21793719.830 7  80853035.78617
      1831.300    21793718.529          50.250          40.250
  22244801.475 8  79148474.033 8     -1425.428    22244800.408 6  82700115.706 6
     -1110.723    22244800.510          47.250          37.250
  23266146.164 7  84515668.918 7     -3510.741    23266152.190 5  91076671.636 5
     -2735.642    23266146.137          43.000          31.500
  24626913.685 7  91666558.217 7     -3084.887    24626913.512 3  92454466.253 3
     -2403.808    24626913.628          40.000          17.250
  24762613.111 6  92379677.088 6      3215.470    24762615.620 2  93010161.041 2
      2505.561    24762612.730          38.250          13.500
  25275070.652 7  99266946.036 7     -1407.759    25275072.927 3  95108560.405 3
     -1096.955    25275069.623          41.500          20.000
 18  2 21  9  1  0.0000000  0  9G07G30G09G05G02G06G23G13G29
  20838232.883 9  71756928.400 9       132.095    20838234.127 8  76940487.988 8
       102.931    20838232.643          53.500          45.250
  21117144.238 9  73222583.655 9      1889.033    21117148.312 8  78082618.198 8
      1471.974    21117143.447          53.500          46.000
  21567504.053 9  75589273.104 9     -2366.513    21567507.839 7  84121047.21917
     -1844.036    21567503.795          51.750          43.000
  21780333.131 9  76707690.036 9      2339.196    21780334.660 7  80798225.53717
      1822.750    21780333.236          51.250          40.500
  22252986.175 8  79191486.092 8     -1441.977    22252985.390 6  82733631.587 6
     -1123.619    22252985.630          47.000          37.000
  23286207.961 7  84621093.687 7     -3517.481    23286214.379 5  91158820.755 5
     -2740.895    23286207.775          43.500          31.250
  24644532.191 7  91759140.424 7     -3087.077    24644531.358 3  92526608.208 3
     -2405.515    24644532.000          41.500          18.000
  24744264.007 7  92283251.958 7      3212.885    24744267.038 3  92935024.614 3
      2503.547    24744263.525          39.250          18.000
  25283152.235 7  99309414.415 7     -1423.209    25283154.786 3  95141652.631 3
     -1108.994    25283151.372          39.500          19.250
 18  2 21  9  1 30.0000000  0  9G07G30G09G05G02G06G23G13G29
  20837529.848 9  71753232.873 9       114.444    20837530.928 8  76937608.359 8
        89.177    20837529.384          51.500          45.250
  21106406.341 9  73166155.572 9      1872.901    21106410.457 8  78038648.265 8
      1459.403    21106405.639          52.250          45.750
  21581037.119 9  75660389.947 9     -2374.517    21581041.226 7  84176462.92217
     -1850.273    21581036.744          52.000          43.000
  21767012.243 9  76637686.730 9      2327.927    21767013.436 7  80743677.50817
      1813.969    21767011.967          51.000          40.750
  22261266.380 8  79234999.323 8     -1458.733    22261265.660 6  82767537.995 6
     -1136.675    22261265.951          46.750          37.000
  23306308.931 7  84726725.146 7     -3524.409    23306314.966 5  91241130.920 5
     -2746.292    23306308.685          44.000          30.750
  24662163.732 7  91851792.465 7     -3089.525    24662163.738 3  92598804.594 3
     -2407.422    24662163.690          41.000          19.000
  24725931.555 7  92186914.984 7      3209.772    24725934.247 3  92859956.890 3
      2501.121    24725930.613          39.000          19.000
  25291324.619 7  99352361.215 7     -1439.418    25291325.588 3  95175117.699 3
     -1121.624    25291324.508          38.500          16.500
 18  2 21  9  2  0.0000000  0  9G07G30G09G05G02G06G23G13G29
  20836926.192 9  71750061.931 9        96.871    20836927.574 8  76935137.498 8
        75.484    20836926.042          53.000          45.250
  21095759.895 9  73110207.568 9      1856.827    21095763.901 8  77995052.410 8
      1446.878    21095759.122          52.250          46.250
  21594615.058 9  75731742.365 9     -2382.378    21594619.090 7  84232062.19217
     -1856.398    21594614.689          51.000          42.500
  21753754.938 9  76568019.617 9      2316.518    21753756.344 7  80689391.44917
      1805.079    21753754.764          51.000          41.000
  22269641.100 8  79279009.542 8     -1475.305    22269640.621 6  82801831.663 6
     -1149.588    22269640.447          46.750          36.750
  23326448.164 7  84832557.371 7     -3531.086    23326454.076 5  91323597.541 5
     -2751.496    23326448.194          43.250          30.250
  24679806.593 7  91944510.463 7     -3091.843    24679808.101 3  92671052.298 3
     -2409.228    24679806.740          39.000          20.250
  24707615.441 6  92090663.873 6      3206.981    24707618.867 3  92784956.104 3
      2498.946    24707614.356          37.750          18.750
  25299587.334 6  99395780.765 6     -1455.196    25299589.628 2  95208951.149 2
     -1133.919    25299586.753          38.250          13.500
 18  2 21  9  2 30.0000000  0  9G07G30G09G05G02G06G13G23G29
  20836422.865 9  71747416.580 9        79.327    20836424.106 8  76933076.184 8
        61.813    20836422.661          52.500          45.500
  21085205.096 9  73054742.008 9      1840.732    21085209.194 8  77951832.492 8
      1434.337    21085204.365          53.250          46.250
  21608237.498 9  75803330.266 9     -2390.284    21608241.627 7  84287844.95217
     -1862.559    21608237.313          51.250          42.750
  21740562.211 9  76498691.558 9      2305.198    21740563.623 7  80635369.59017
      1796.258    21740562.112          51.750          41.250
  22278110.474 8  79323515.941 8     -1491.842    22278110.063 6  82836511.953 6
     -1162.474    22278109.776          47.250          37.000
  23346625.276 7  84938588.378 7     -3537.788    23346630.693 5  91406219.059 5
     -2756.718    23346625.132          43.000          29.750
  24689315.917 6  91994500.348 6      3203.847    24689317.530 3  92710023.559 3
      2496.504    24689315.968          38.000          16.750
  24697462.421 6  92037294.863 6     -3093.983    24697464.270 3  92743351.728 3
     -2410.896    24697462.816          38.000          20.250
  25307939.441 6  99439673.006 6     -1471.122    25307941.108 2  95243152.888 2
     -1146.329    25307939.519          35.250          10.250
 18  2 21  9  3  0.0000000  0  9G07G30G09G05G02G06G13G23G29
  20836019.647 9  71745296.902 9        62.053    20836020.756 8  76931424.487 8
        48.353    20836019.296          52.250          45.250
  21074742.408 9  72999760.740 9      1824.764    21074746.600 8  77908989.953 8
      1421.894    21074741.803          52.500          46.000
  21621905.399 9  75875153.049 9     -2397.829    21621909.081 7  84343810.73817
     -1868.438    21621904.971          51.250          42.500
  21727434.476 9  76429704.924 9      2293.988    21727435.813 7  80581613.77117
      1787.524    21727434.386          52.250          41.500
  22286674.184 8  79368517.316 8     -1508.185    22286673.233 6  82871577.946 6
     -1175.209    22286673.494          47.000          36.750
  23366839.894 7  85044815.601 7     -3543.996    23366844.919 5  91488993.466 5
     -2761.555    23366839.786          43.250          30.000
  24671033.092 6  91898425.703 6      3201.206    24671036.192 3  92635160.258 3
      2494.447    24671032.789          38.250          15.250
  24715132.281 7  92130145.033 7     -3095.887    24715132.875 4  92815702.398 4
     -2412.380    24715131.373          39.000          20.750
  25316380.757 6  99484035.931 6     -1486.529    25316382.382 1  95277721.413 1
     -1158.334    25316378.485          33.750           8.000
 18  2 21  9  3 30.0000000  0  9G07G30G09G05G02G06G13G23G29
  20835715.990 9  71743701.912 9        44.462    20835717.312 8  76930181.638 8
        34.646    20835715.684          51.000          45.250
  21064372.144 9  72945264.502 9      1808.497    21064376.401 8  77866525.353 8
      1409.218    21064371.469          52.750          46.500
  21635617.166 9  75947209.059 9     -2405.747    21635621.015 7  84399958.26617
     -1874.608    21635616.947          52.000          43.000
  21714372.036 9  76361061.101 9      2282.469    21714373.283 7  80528125.08117
      1778.547    21714371.997          51.500          41.000
  22295331.374 8  79414011.390 8     -1524.656    22295330.352 6  82907027.857 6
     -1188.043    22295330.610          45.500          36.750
  23387090.977 7  85151235.469 7     -3550.336    23387096.814 5  91571918.000 5
     -2766.496    23387090.461          43.500          30.000
  24652768.219 7  91802440.037 7      3198.214    24652770.278 3  92560366.236 3
      2492.115    24652767.373          38.500          14.500
  24732813.465 7  92223060.029 7     -3098.185    24732813.914 4  92888103.617 4
     -2414.170    24732813.123          40.750          21.250
  25324911.238 6  99528866.719 6     -1502.162    25324915.408 1  95312654.492 1
     -1170.516    25324909.049          33.750           5.500
 18  2 21  9  4  0.0000000  0  9G07G30G09G05G02G06G13G23G29
  20835512.791 9  71742633.725 9        26.848    20835514.020 8  76929349.284 8
        20.920    20835512.404          53.000          45.500
  21054094.868 9  72891256.861 9      1792.066    21054098.985 8  77824441.475 8
      1396.415    21054094.236          52.500          46.250
  21649373.757 9  76019499.438 9     -2413.584    21649377.409 7  84456288.41317
     -1880.714    21649373.242          51.000          42.500
  21701375.310 9  76292764.198 9      2270.716    21701376.914 7  80474906.71317
      1769.389    21701375.263          50.500          41.250
  22304082.595 8  79459998.504 8     -1541.062    22304081.453 6  82942861.957 6
     -1200.827    22304081.594          45.750          36.500
  23407378.445 7  85257847.269 7     -3557.006    23407384.180 5  91654992.081 5
     -2771.693    23407378.223          43.250          29.750
  24634520.334 7  91706546.320 7      3194.895    24634521.791 3  92485643.824 3
      2489.528    24634520.376          39.000          16.250
  24750507.584 7  92316041.540 7     -3100.382    24750506.982 4  92960556.669 4
     -2415.882    24750507.260          41.000          20.500
  25333532.055 6  99574165.645 6     -1517.965    25333534.630 2  95347952.362 2
     -1182.830    25333531.191          34.250          10.500
 18  2 21  9  4 30.0000000  0  9G07G30G09G05G02G06G13G23G29
  20835409.311 9  71742089.834 9         9.462    20835410.471 8  76928925.472 8
         7.373    20835408.952          53.250          45.250
  21043910.601 9  72837737.544 9      1775.904    21043914.597 8  77782738.112 8
      1383.821    21043909.845          54.250          46.500
  21663174.104 9  76092021.558 9     -2421.178    21663177.791 7  84512799.14217
     -1886.632    21663173.687          51.500          42.750
  21688445.034 9  76224814.758 9      2259.280    21688446.518 7  80421959.09917
      1760.478    21688445.010          51.750          41.500
  22312927.027 8  79506475.599 8     -1557.361    22312926.059 6  82979077.847 6
     -1213.528    22312926.209          48.250          36.750
  23427701.736 7  85364646.349 7     -3562.987    23427707.189 5  91738212.079 5
     -2776.354    23427701.664          44.000          30.250
  24616289.844 7  91610743.634 7      3191.917    24616292.317 3  92410992.413 3
      2487.208    24616289.397          39.750          17.000
  24768213.432 7  92409087.369 7     -3102.465    24768214.568 3  93033059.899 3
     -2417.505    24768212.658          40.750          18.000
  25342240.642 6  99619928.770 6     -1533.058    25342242.402 2  95383611.951 2
     -1194.591    25342240.948          36.000          13.000
 18  2 21  9  5  0.0000000  0  9G07G30G05G09G02G06G13G23G29
  20835405.093 9  71742068.650 9        -8.021    20835406.487 8  76928908.969 8
        -6.250    20835404.979          52.000          45.000
  21033818.939 9  72784706.119 9      1759.522    21033823.034 8  77741414.924 8
      1371.056    21033818.130          53.000          46.250
  21675580.889 9  76157213.371 9      2247.537    21675582.328 7  80369282.69317
      1751.328    21675580.841          52.500          41.250
  21677018.223 8  76164772.599 8     -2428.895    21677021.976 7  84569488.24717
     -1892.646    21677017.878          50.250          42.500
  22321863.717 8  79553439.087 8     -1573.618    22321862.743 6  83015672.758 6
     -1226.196    22321863.025          45.750          36.500
  23448059.403 7  85471628.000 7     -3569.179    23448065.558 5  91821574.347 5
     -2781.179    23448059.682          43.000          30.000
  24598076.376 7  91515031.483 7      3188.899    24598080.049 3  92336411.561 3
      2484.856    24598076.106          40.250          18.500
  24785930.416 6  92502194.879 6     -3104.797    24785931.304 3  93105611.170 3
     -2419.322    24785930.767          38.250          16.750
  25351037.212 6  99666153.260 6     -1548.538    25351038.564 3  95419630.958 3
     -1206.653    25351036.858          36.750          15.500
 18  2 21  9  5 30.0000000  0  9G07G30G05G09G02G06G13G23G29
  20835501.285 9  71742573.019 9       -25.369    20835502.475 8  76929301.979 8
       -19.768    20835500.889          53.000          45.000
  21023821.026 9  72732167.264 9      1743.198    21023825.250 8  77700475.561 8
      1358.336    21023820.288          53.750          46.750
  21662784.140 9  76089965.940 9      2235.821    21662785.390 7  80316882.10317
      1742.198    21662784.041          52.000          41.000
  21690906.225 9  76237754.895 9     -2436.419    21690910.044 7  84626357.55317
     -1898.508    21690905.841          51.250          42.500
  22330893.613 8  79600890.669 8     -1589.694    22330892.144 6  83052647.978 6
     -1238.722    22330892.492          46.750          36.500
  23468452.635 7  85578792.592 7     -3575.010    23468458.104 5  91905079.184 5
     -2785.722    23468452.401          42.750          29.750
  24579880.869 7  91419413.754 7      3185.713    24579883.854 3  92261904.284 3
      2482.374    24579879.855          38.750          19.000
  24803660.568 7  92595366.768 7     -3106.869    24803661.545 3  93178212.553 3
     -2420.937    24803661.345          38.500          17.000
  25359921.190 7  99712839.813 7     -1563.638    25359923.483 3  95456010.037 3
     -1218.419    25359921.280          38.500          19.000
 18  2 21  9  6  0.0000000  0  9G07G30G05G09G02G06G13G23G29
  20835696.821 9  71743600.729 9       -42.900    20835698.059 8  76930102.796 8
       -33.428    20835696.524          54.000          45.750
  21013916.752 9  72680120.487 9      1726.727    21013921.129 8  77659919.637 8
      1345.502    21013916.219          53.250          46.500
  21650054.673 9  76023072.344 9      2223.895    21650056.151 7  80264757.22417
      1732.905    21650054.613          51.250          41.750
  21704837.458 9  76310965.646 9     -2444.099    21704841.550 7  84683404.87117
     -1904.492    21704837.170          51.000          42.000
  22340015.479 8  79648826.993 8     -1605.935    22340014.601 6  83090000.945 6
     -1251.378    22340014.307          46.000          36.250
  23488879.156 7  85686135.403 7     -3581.030    23488884.193 5  91988722.888 5
     -2790.413    23488879.492          43.750          29.250
  24561702.857 6  91323889.336 6      3182.509    24561705.225 3  92187469.750 3
      2479.877    24561702.872          37.750          18.500
  24821403.290 7  92688600.561 7     -3108.874    24821404.300 3  93250862.208 3
     -2422.499    24821402.025          40.500          17.750
  25368892.659 7  99759984.379 7     -1579.037    25368895.693 4  95492746.061 4
     -1230.418    25368892.113          40.250          21.500
 18  2 21  9  6 30.0000000  0  9G07G30G05G09G02G06G13G23G29
  20835991.592 9  71745150.296 9       -60.382    20835992.902 8  76931310.229 8
       -47.051    20835991.340          54.000          45.500
  21004106.377 9  72628565.787 9      1710.179    21004110.553 8  77619747.148 8
      1332.607    21004105.753          53.250          46.500
  21637392.750 9  75956533.503 9      2211.983    21637394.189 7  80212908.77817
      1723.623    21637392.735          51.500          41.500
  21718812.235 9  76384402.528 9     -2451.692    21718816.132 7  84740628.39617
     -1910.409    21718811.917          51.500          41.500
  22349229.085 8  79697245.037 8     -1621.985    22349228.326 6  83127729.265 6
     -1263.885    22349228.332          46.000          36.250
  23509338.646 7  85793652.140 7     -3586.787    23509344.668 5  92072502.125 5
     -2794.899    23509338.325          43.250          28.500
  24543542.737 7  91228457.806 7      3179.495    24543544.341 3  92113107.566 3
      2477.529    24543542.275          38.500          17.750
  24839156.987 7  92781894.188 7     -3111.060    24839157.839 3  93323558.429 3
     -2424.203    24839156.730          39.750          20.000
  25377951.185 7  99807583.771 7     -1594.266    25377952.588 4  95529836.478 4
     -1242.285    25377950.516          43.000          24.250
 18  2 21  9  7  0.0000000  0  9G07G30G05G09G02G06G13G23G29
  20836385.966 9  71747222.415 9       -77.747    20836387.222 8  76932924.868 8
       -60.582    20836385.687          52.500          45.750
  20994390.028 9  72577505.766 9      1693.751    20994394.114 8  77579960.122 8
      1319.806    20994389.342          54.500          46.750
  21624798.897 9  75890352.302 9      2200.068    21624800.183 7  80161339.01517
      1714.339    21624798.831          52.250          41.250
  21732830.051 9  76458065.859 9     -2459.207    21732833.828 7  84798028.37817
     -1916.265    21732829.559          51.750          41.750
  22358534.301 8  79746144.166 8     -1637.924    22358533.437 6  83165832.461 6
     -1276.305    22358533.620          46.250          36.000
  23529831.190 7  85901341.261 7     -3592.406    23529837.243 5  92156415.668 5
     -2799.277    23529830.935          42.000          28.250
  24525401.021 7  91133121.563 7      3176.314    24525404.076 3  92038819.638 3
      2475.050    24525399.777          39.250          17.750
  24856921.555 7  92875248.410 7     -3112.684    24856921.735 4  93396301.884 4
     -2425.468    24856920.680          39.750          21.250
  25387095.143 7  99855637.249 7     -1609.323    25387097.292 4  95567280.761 4
     -1254.018    25387094.831          43.250          24.750
 18  2 21  9  7 30.0000000  0  9G07G30G05G09G02G06G13G23G29
  20836879.739 9  71749817.084 9       -95.153    20836880.989 8  76934946.688 8
       -74.145    20836879.323          52.250          45.500
  20984768.015 9  72526942.162 9      1677.186    20984772.189 8  77540559.914 8
      1306.898    20984767.419          54.000          46.500
  21612273.616 9  75824531.069 9      2188.019    21612274.866 7  80110049.74317
      1704.949    21612273.553          51.250          41.500
  21746890.470 9  76531955.109 9     -2466.755    21746894.610 7  84855604.40117
     -1922.147    21746890.344          51.750          41.750
  22367930.738 8  79795523.188 8     -1653.943    22367930.000 6  83204309.587 6
     -1288.787    22367930.048          45.750          35.750
  23550356.543 7  86009200.259 7     -3598.113    23550362.524 5  92240461.593 5
     -2803.724    23550356.196          43.000          28.750
  24507277.500 7  91037881.713 7      3173.082    24507280.309 3  91964606.776 3
      2472.532    24507276.307          40.250          19.000
  24874697.353 6  92968663.199 6     -3114.624    24874696.931 4  93469092.519 4
     -2426.980    24874697.120          38.000          20.500
  25396325.540 7  99904142.927 7     -1624.384    25396327.914 4  95605077.377 4
     -1265.754    25396324.529          42.500          24.500
 18  2 21  9  8  0.0000000  0  9G07G30G05G09G02G06G13G23G29
  20837472.468 9  71752932.546 9      -112.494    20837473.832 8  76937374.321 8
       -87.657    20837472.255          54.250          45.750
  20975240.581 9  72476874.372 9      1660.722    20975244.721 8  77501546.053 8
      1294.069    20975239.889          54.500          47.250
  21599817.015 9  75759071.509 9      2175.976    21599818.463 7  80059042.29517
      1695.566    21599816.931          52.000          41.750
  21760993.861 9  76606067.421 9     -2474.102    21760997.900 7  84913354.23417
     -1927.871    21760993.466          51.500          41.750
  22377417.910 8  79845378.577 8     -1669.801    22377417.454 6  83243157.919 6
     -1301.144    22377417.265          46.750          36.250
  23570912.839 7  86117224.265 7     -3603.566    23570918.745 5  92324636.113 5
     -2807.973    23570912.647          44.250          29.500
  24489172.326 7  90942737.170 7      3169.957    24489174.388 3  91890468.199 3
      2470.097    24489171.537          38.750          18.500
  24892484.412 6  93062136.021 6     -3117.002    24892485.002 3  93541928.438 3
     -2428.833    24892483.197          38.000          18.250
  25405641.141 7  99953096.927 7     -1639.293    25405642.346 4  95643223.372 4
     -1277.371    25405640.754          40.500          21.250
 18  2 21  9  8 30.0000000  0  9G07G30G05G09G02G06G13G23G29
  20838164.353 9  71756567.750 9      -129.808    20838165.603 8  76940206.946 8
      -101.149    20838163.993          53.250          45.500
  20965807.477 9  72427303.697 9      1644.091    20965811.626 8  77462919.560 8
      1281.110    20965806.805          54.750          47.000
  21587429.677 9  75693975.229 9      2163.775    21587431.095 7  80008317.91717
      1686.059    21587429.611          51.250          41.500
  21775139.254 9  76680401.885 9     -2481.487    21775143.313 7  84971277.17317
     -1933.626    21775138.804          51.000          42.000
  22386995.598 8  79895708.621 8     -1685.528    22386994.774 6  83282376.104 6
     -1313.398    22386994.804          45.250          36.000
  23591499.997 7  86225410.455 7     -3608.888    23591506.311 5  92408937.006 5
     -2812.120    23591500.159          43.500          29.500
  24471084.759 7  90847688.875 7      3166.781    24471087.058 3  91816404.624 3
      2467.622    24471084.492          38.750          17.500
  24910282.412 6  93155666.025 6     -3118.699    24910284.421 3  93614808.920 3
     -2430.155    24910281.474          37.750          16.000
  25415041.721 7 100002497.394 7     -1654.268    25415043.340 3  95681717.268 3
     -1289.040    25415042.185          38.500          19.250
 18  2 21  9  9  0.0000000  0 10G07G30G05G09G02G06G13G23G28G29
  20838955.212 9  71760723.923 9      -147.195    20838956.474 8  76943445.524 8
      -114.697    20838954.957          54.000          45.750
  20956469.388 9  72378232.765 9      1627.420    20956473.699 8  77424682.471 8
      1268.119    20956468.890          53.750          46.750
  21575112.033 9  75629245.409 9      2151.563    21575113.289 7  79957879.09817
      1676.542    21575111.859          51.000          41.250
  21789327.007 9  76754958.914 9     -2488.911    21789330.832 7  85029373.54017
     -1939.411    21789326.629          50.500          41.750
  22396663.396 8  79946512.710 8     -1701.306    22396662.724 6  83321963.678 6
     -1325.693    22396662.307          46.000          36.000
  23612117.807 7  86333757.280 7     -3614.157    23612123.920 5  92493363.074 5
     -2816.226    23612117.159          42.500          28.750
  24453015.922 6  90752738.934 6      3163.309    24453019.967 3  91742417.702 3
      2464.916    24453015.853          37.750          16.750
  24928091.715 6  93249254.218 6     -3120.409    24928092.908 2  93687734.684 2
     -2431.487    24928091.757          37.750          13.750
  25373733.429 6  99785437.372 6      3140.351    25373737.935 1  99706904.842 1
      2447.027    25373733.375          37.500           5.750
  25424526.635 6 100052343.140 6     -1668.916    25424529.046 3  95720558.082 3
     -1300.454    25424526.540          36.750          16.250
 18  2 21  9  9 30.0000000  0 10G07G30G05G09G02G06G13G23G28G29
  20839845.361 9  71765401.398 9      -164.636    20839846.581 8  76947090.304 8
      -128.288    20839845.023          52.750          45.000
  20947226.901 9  72329663.592 9      1610.554    20947231.290 8  77386836.363 8
      1254.977    20947226.484          53.250          46.750
  21562864.611 8  75564884.892 8      2139.142    21562865.937 7  79907728.04617
      1666.864    21562864.671          50.250          42.250
  21803556.992 8  76829738.291 8     -2496.412    21803560.904 7  85087643.16317
     -1945.256    21803556.635          50.000          41.500
  22406421.040 8  79997789.822 8     -1717.147    22406420.108 6  83361919.822 6
     -1338.037    22406420.006          45.250          35.750
  23632765.455 7  86442262.620 7     -3619.547    23632771.472 5  92577912.623 5
     -2820.426    23632764.939          42.250          28.000
  24434966.863 6  90657889.006 6      3159.982    24434969.586 3  91668508.751 3
      2462.323    24434966.797          37.750          17.500
  24945913.316 7  93342900.960 7     -3122.433    24945913.400 3  93760706.110 3
     -2433.064    24945913.031          39.500          16.500
  25355799.161 6  99691188.830 6      3142.900    25355803.412 1  99633464.557 1
      2449.013    25355798.024          37.750           6.750
  25434096.361 6 100102633.364 6     -1683.890    25434098.178 2  95759745.242 2
     -1312.122    25434095.573          34.500          13.250
 18  2 21  9 10  0.0000000  0 10G07G30G05G09G02G06G13G23G28G29
  20840834.197 9  71770598.037 9      -181.804    20840835.543 8  76951139.633 8
      -141.666    20840833.951          53.750          45.750
  20938080.119 9  72281595.651 9      1593.984    20938084.229 8  77349380.830 8
      1242.065    20938079.516          54.000          47.000
  21550687.605 9  75500893.985 9      2126.939    21550688.754 7  79857865.00117
      1657.355    21550687.524          51.250          41.750
  21817828.767 8  76904737.337 8     -2503.599    21817832.512 7  85146083.95917
     -1950.857    21817828.414          50.250          41.500
  22416268.051 8  80049536.672 8     -1732.625    22416267.223 6  83402242.000 6
     -1350.097    22416267.322          45.000          35.750
  23653442.438 7  86550921.791 7     -3624.419    23653448.475 5  92662582.061 5
     -2824.223    23653442.620          41.500          27.750
  24416936.539 7  90563137.915 7      3156.852    24416938.772 3  91594676.827 3
      2459.885    24416936.658          38.500          18.750
  24963744.278 7  93436603.975 7     -3124.244    24963745.085 3  93833721.339 3
     -2434.476    24963744.198          40.750          19.750
  25337848.784 6  99596861.814 6      3145.493    25337851.680 1  99559957.888 1
      2451.034    25337849.852          36.000           2.500
  25443748.887 6 100153363.974 6     -1698.227    25443751.891 2  95799275.536 2
     -1323.294    25443748.533          34.750           9.250
 18  2 21  9 10 30.0000000  0 10G07G30G05G09G02G06G13G23G28G29
  20841921.205 9  71776311.285 9      -199.148    20841922.695 8  76955591.515 8
      -155.181    20841921.067          51.750          45.000
  20929028.248 9  72234028.382 9      1577.104    20929032.583 8  77312315.429 8
      1228.912    20929027.679          53.250          47.000
  21538580.898 8  75437273.294 8      2114.419    21538582.178 7  79808290.43917
      1647.599    21538580.862          50.250          41.750
  21832141.876 9  76979953.344 9     -2510.970    21832145.899 7  85204693.81217
     -1956.600    21832141.702          51.500          41.250
  22426203.850 8  80101749.167 8     -1748.268    22426203.002 6  83442927.020 6
     -1362.287    22426203.224          46.000          35.750
  23674148.110 7  86659730.173 7     -3629.438    23674153.594 5  92747367.771 5
     -2828.134    23674147.981          42.000          28.000
  24398924.873 7  90468485.285 7      3153.305    24398927.652 3  91520921.608 3
      2457.121    24398924.288          40.000          19.750
  24981585.161 7  93530360.774 7     -3126.156    24981587.302 4  93906778.517 4
     -2435.966    24981585.374          40.000          21.250
  25319884.231 6  99502457.037 6      3147.997    25319886.473 1  99486380.855 1
      2452.985    25319882.513          34.500           6.000
  25453486.053 6 100204530.876 6     -1712.826    25453489.897 2  95839145.794 2
     -1334.669    25453484.914          33.500           9.750
 18  2 21  9 11  0.0000000  0 10G07G30G05G09G02G06G13G23G28G29
  20843106.899 9  71782541.974 9      -216.292    20843108.386 8  76960446.598 8
      -168.539    20843106.728          53.000          45.500
  20920072.218 9  72186964.238 9      1560.378    20920076.559 8  77275642.073 8
      1215.879    20920071.691          52.000          47.000
  21526545.580 9  75374026.566 9      2102.025    21526546.719 7  79759007.27317
      1637.942    21526545.430          51.500          42.250
  21846496.664 8  77055386.634 8     -2518.079    21846500.378 7  85263472.97517
     -1962.139    21846496.304          50.000          41.750
  22436228.358 8  80154427.157 8     -1763.677    22436227.465 6  83483974.765 6
     -1374.294    22436227.258          46.500          36.000
  23694881.886 7  86768686.064 7     -3634.229    23694887.348 5  92832268.437 5
     -2831.867    23694882.009          42.250          27.500
  24380931.890 7  90373933.066 7      3149.992    24380934.067 4  91447244.614 4
      2454.539    24380931.776          39.500          20.500
  24999437.625 7  93624172.091 7     -3128.030    24999438.345 3  93979878.145 3
     -2437.426    24999437.443          39.000          20.000
  25301906.831 5  99407978.877 5      3150.145
                  25301903.354          32.000
  25463306.822 6 100256133.065 6     -1727.307    25463309.284 1  95879355.329 1
     -1345.954    25463307.830          36.750           8.000
 18  2 21  9 11 30.0000000  0  9G07G30G05G09G02G06G13G23G29
  20844390.907 9  71789289.265 9      -233.534    20844392.307 8  76965704.250 8
      -181.975    20844390.620          52.250          45.250
  20911212.011 9  72140403.928 9      1543.497    20911216.526 8  77239361.319 8
      1202.725    20911211.520          52.500          46.750
  21514581.534 9  75311155.148 9      2089.454    21514582.832 7  79710016.56317
      1628.146    21514581.390          51.000          42.000
  21860892.026 8  77131035.801 8     -2525.334    21860895.987 7  85322420.35417
     -1967.793    21860891.805          49.750          41.250
  22446340.553 8  80207568.241 8     -1779.104    22446339.845 6  83525383.353 6
     -1386.315    22446340.223          46.000          35.750
  23715643.503 7  86877786.146 7     -3639.111    23715648.221 5  92917281.455 5
     -2835.671    23715642.792          43.000          27.250
  24362958.520 7  90279481.698 7      3146.637    24362959.704 3  91373646.226 3
      2451.925    24362958.328          40.000          19.750
  25017299.017 6  93718036.803 6     -3129.824    25017299.467 3  94053019.381 3
     -2438.824    25017298.055          38.250          18.750
  25473208.563 6 100308168.023 6     -1741.742    25473210.838 2  95919902.085 2
     -1357.202    25473207.882          36.000           8.500
 18  2 21  9 12  0.0000000  0  9G07G30G05G09G02G06G13G23G29
  20845773.430 9  71796554.207 9      -250.762    20845774.734 8  76971365.244 8
      -195.399    20845773.158          53.000          45.500
  20902448.502 9  72094350.250 9      1526.730    20902452.768 8  77203475.339 8
      1189.659    20902447.824          53.000          47.250
  21502689.595 9  75248662.674 9      2076.821    21502690.776 7  79661321.13517
      1618.302    21502689.487          51.250          41.750
  21875328.820 8  77206901.562 8     -2532.517    21875332.765 7  85381536.51417
     -1973.390    21875328.550          50.000          41.500
  22456541.141 8  80261172.060 8     -1794.452    22456540.476 6  83567152.527 6
     -1398.274    22456540.281          47.500          35.500
  23736431.277 7  86987029.166 7     -3643.737    23736437.188 5  93002405.857 5
     -2839.276    23736431.699          42.000          27.500
  24345004.552 7  90185133.588 7      3143.085    24345006.393 3  91300128.276 3
      2449.157    24345003.985          40.000          19.500
  25035170.950 6  93811955.941 6     -3131.439    25035172.410 3  94126203.008 3
     -2440.083    25035171.067          38.000          18.000
  25483192.068 6 100360635.065 6     -1756.117    25483195.609 2  95960785.528 2
     -1368.403    25483191.658          38.000           9.000
 18  2 21  9 12 30.0000000  0 10G07G30G05G09G02G06G13G23G28G29
  20847254.036 9  71804335.429 9      -267.950    20847255.460 8  76977428.533 8
      -208.793    20847253.829          53.750          45.250
  20893781.133 9  72048802.955 9      1509.815    20893785.357 8  77167983.943 8
      1176.479    20893780.561          55.000          47.250
  21490869.863 9  75186550.167 9      2064.104    21490871.167 7  79612921.78117
      1608.393    21490869.857          53.000          42.250
  21889806.298 9  77282981.527 9     -2539.512    21889810.564 7  85440819.58417
     -1978.840    21889806.194          50.750          41.250
  22466828.954 8  80315235.317 8     -1809.735    22466828.142 6  83609279.710 6
     -1410.183    22466828.127          46.000          35.250
  23757246.344 7  87096410.809 7     -3648.403    23757252.378 5  93087638.232 5
     -2842.912    23757246.023          42.250          28.500
  24327069.915 7  90090888.106 7      3139.705    24327072.475 3  91226690.314 3
      2446.523    24327070.134          39.500          18.750
  25053053.882 6  93905927.667 6     -3133.412    25053053.150 3  94199427.684 3
     -2441.620    25053053.627          38.250          18.000
  25247889.597 6  99124121.798 6      3157.106
                                        35.250
  25493258.143 6 100413530.603 6     -1770.432    25493260.490 2  96002002.893 2
     -1379.558    25493257.966          37.000          10.000
 18  2 21  9 13  0.0000000  0 10G07G30G05G09G02G06G13G23G28G29
  20848833.550 9  71812633.772 9      -285.163    20848834.596 8  76983894.771 8
      -222.205    20848833.043          52.500          45.500
  20885210.831 9  72003765.422 9      1492.709    20885214.870 8  77132889.768 8
      1163.150    20885210.205          54.250          47.000
  21479123.365 9  75124821.710 9      2051.250    21479124.771 7  79564821.68817
      1598.377    21479123.284          52.250          42.500
  21904325.016 8  77359277.120 8     -2546.764    21904329.007 7  85500270.68217
     -1984.491    21904324.690          49.000          41.250
  22477204.438 8  80369758.449 8     -1825.014    22477203.554 6  83651765.231 6
     -1422.088    22477203.794          45.000          35.000
  23778086.758 7  87205930.440 7     -3652.918    23778092.430 5  93172978.148 5
     -2846.430    23778086.569          42.250          28.500
  24309155.337 7  89996748.232 7      3136.270    24309158.059 3  91153334.680 3
      2443.847    24309154.983          39.000          18.500
  25070946.122 7  93999953.454 7     -3135.048    25070945.397 3  94272694.476 3
     -2442.895    25070945.636          39.250          16.250
  25229859.686 6  99029376.000 6      3159.167    25229862.270 2  99117740.476 2
      2461.689    25229860.276          36.500          13.500
  25503405.545 7 100466855.028 7     -1784.720    25503406.258 3  96043554.411 3
     -1390.691    25503405.674          40.500          14.500
 18  2 21  9 13 30.0000000  0 10G07G30G05G09G02G06G13G23G28G29
  20850510.097 9  71821445.538 9      -302.186    20850511.506 8  76990761.083 8
      -235.469    20850509.899          53.750          45.250
  20876737.024 9  71959235.461 9      1475.916    20876741.194 8  77098191.100 8
      1150.065    20876736.343          54.500          47.000
  21467449.771 9  75063475.845 9      2038.525    21467450.970 7  79517019.72117
      1588.461    21467449.669          52.500          42.500
  21918883.502 9  77435784.033 9     -2553.645    21918887.732 7  85559886.43717
     -1989.853    21918883.373          51.250          41.000
  22487666.188 8  80424736.260 8     -1840.037    22487665.324 6  83694605.061 6
     -1433.795    22487665.669          46.500          34.750
  23798952.658 7  87315581.891 7     -3657.201    23798958.393 5  93258420.789 5
     -2849.767    23798952.472          41.500          27.000
  24291260.848 7  89902711.461 7      3132.839    24291262.449 3  91080059.352 3
      2441.173    24291259.937          39.750          18.750
  25088848.439 7  94094029.799 7     -3136.650    25088848.711 2  94346000.694 2
     -2444.143    25088848.409          40.000          14.250
  25211818.364 6  98934567.983 6      3161.218    25211821.971 2  99043864.101 2
      2463.287    25211817.111          36.250          13.500
  25513633.294 7 100520602.507 7     -1798.588    25513636.406 3  96085435.564 3
     -1401.497    25513633.342          40.250          17.750
 18  2 21  9 14  0.0000000  0 10G07G30G05G09G02G06G13G23G28G29
  20852284.746 9  71830771.734 9      -319.402    20852286.098 8  76998028.247 8
      -248.884    20852284.593          53.500          45.000
  20868360.289 9  71915215.527 9      1458.793    20868364.507 8  77063889.853 8
      1136.722    20868359.569          52.000          47.250
  21455849.643 8  75002516.774 8      2025.546    21455850.906 7  79469519.14517
      1578.348    21455849.314          50.250          42.750
  21933482.903 9  77512502.771 9     -2560.798    21933486.728 7  85619667.25417
     -1995.427    21933482.546          50.750          40.750
  22498214.820 8  80480168.372 8     -1855.226    22498213.909 6  83737798.849 6
     -1445.631    22498214.106          46.750          35.000
  23819843.731 7  87425363.640 7     -3661.486    23819849.155 4  93343964.977 4
     -2853.106    23819843.779          41.750          25.250
  24273386.706 7  89808780.625 7      3129.243    24273388.670 3  91006866.556 3
      2438.371    24273386.427          41.750          20.000
  25106760.328 7  94188157.382 7     -3138.464    25106762.267 3  94419346.753 3
     -2445.557    25106760.330          40.000          15.750
  25193765.375 6  98839702.061 6      3162.967
                                        34.500
  25523941.823 7 100574772.173 7     -1812.750    25523944.116 3  96127645.699 3
     -1412.533    25523942.042          41.250          20.250
 18  2 21  9 14 30.0000000  0 10G07G30G05G09G02G06G13G23G28G29
  20854157.435 9  71840612.258 9      -336.554    20854158.820 8  77005696.188 8
      -262.250    20854157.117          53.750          45.000
  20860080.908 9  71871707.362 9      1441.778    20860085.187 8  77029987.391 8
      1123.463    20860080.285          53.500          46.750
  21444323.502 9  74941946.938 9      2012.551    21444324.698 7  79422321.87417
      1568.221    21444323.367          52.000          42.500
  21948122.242 9  77589433.019 9     -2567.763    21948126.062 7  85679612.88417
     -2000.855    21948121.921          50.500          40.500
  22508849.376 8  80536052.973 8     -1870.246    22508848.581 6  83781345.220 6
     -1457.335    22508848.686          45.000          35.250
  23840759.172 7  87535273.467 7     -3665.728    23840763.981 4  93429608.955 4
     -2856.411    23840759.538          42.000          25.250
  24255533.022 7  89714956.869 7      3125.689    24255534.488 4  90933757.216 4
      2435.602    24255532.680          40.750          21.000
  25124681.258 6  94282336.224 6     -3140.152    25124683.641 3  94492732.779 3
     -2446.872    25124680.697          38.000          18.500
  25175703.650 5  98744781.445 5      3164.988
                                        30.000
  25534329.679 7 100629362.008 7     -1826.741    25534332.180 4  96170183.258 4
     -1423.435    25534329.811          42.250          23.250
 18  2 21  9 15  0.0000000  0 10G30G07G05G09G02G06G13G23G28G29
  20851898.808 9  71828710.656 9      1424.714    20851903.239 8  76996483.466 8
      1110.167    20851898.217          53.500          47.500
  20856127.677 9  71850965.339 9      -353.558    20856128.834 8  77013763.520 8
      -275.500    20856127.404          54.500          45.500
  21432871.640 9  74881767.142 9      1999.513    21432873.010 7  79375428.52917
      1558.062    21432871.481          52.000          42.500
  21962801.190 9  77666572.553 9     -2574.769    21962805.357 7  85739721.59617
     -2006.313    21962801.013          51.250          40.750
  22519569.660 8  80592387.128 8     -1885.219    22519568.761 6  83825241.892 6
     -1469.002    22519569.109          47.000          35.250
  23861698.155 7  87645307.100 7     -3669.833    23861703.297 5  93515349.422 5
     -2859.610    23861697.660          43.750          27.250
  24237698.782 7  89621239.614 7      3122.148    24237700.761 4  90860730.880 4
      2432.843    24237698.471          40.500          21.500
  25142612.505 6  94376564.313 6     -3141.638    25142614.585 3  94566157.117 3
     -2448.030    25142612.990          37.250          17.000
  25157630.911 6  98649807.527 6      3166.934    25157632.784 1  98821999.928 1
      2467.741    25157633.051          33.250           6.750
  25544797.533 7 100684368.993 7     -1840.352    25544799.577 4  96213045.849 4
     -1434.040    25544797.419          43.000          24.000
 18  2 21  9 15 30.0000000  0 10G30G07G05G09G02G06G13G28G23G29
  20843813.942 9  71786224.075 9      1407.688    20843818.184 8  76963377.045 8
      1096.900    20843813.198          53.000          47.000
  20858194.497 9  71861827.652 9      -370.537    20858195.891 8  77022227.659 8
      -288.730    20858194.276          51.750          45.250
  21421493.967 9  74821977.313 9      1986.531    21421495.412 7  79328839.05117
      1547.947    21421493.895          53.500          42.750
  21977519.660 9  77743918.015 9     -2581.549    21977523.740 7  85799990.76617
     -2011.596    21977519.264          51.250          40.250
  22530374.453 8  80649166.570 8     -1900.095    22530373.782 6  83869485.563 6
     -1480.593    22530373.716          47.000          35.250
  23882659.218 7  87755459.304 7     -3673.775    23882664.782 5  93601182.238 5
     -2862.682    23882659.080          41.250          28.000
  24219884.878 7  89527627.511 7      3118.655    24219886.841 4  90787786.436 4
      2430.121    24219884.287          41.250          21.750
  25139547.627 6  98554781.112 6      3168.312    25139549.519 2  98747953.469 2
      2468.814    25139546.713          36.500           9.750
  25160553.191 6  94470839.101 6     -3143.333    25160554.735 3  94639617.933 3
     -2449.350    25160552.970          38.000          15.250
  25555343.377 7 100739788.199 7     -1854.123    25555346.018 4  96256229.633 4
     -1444.771    25555342.570          39.500          25.250
 18  2 21  9 16  0.0000000  0 10G30G07G05G09G02G06G13G28G23G29
  20835826.727 9  71744250.726 9      1390.562    20835830.978 8  76930670.539 8
      1083.555    20835825.966          54.250          47.000
  20860358.837 9  71873200.995 9      -387.613    20860360.132 8  77031090.003 8
      -302.036    20860358.597          53.750          45.500
  21410191.360 9  74762581.597 9      1973.325    21410192.766 7  79282556.67717
      1537.656    21410191.153          52.750          42.500
  21992277.333 8  77821470.652 8     -2588.602    21992281.608 7  85860421.37317
     -2017.093    21992277.111          50.250          40.250
  22541263.761 8  80706390.927 8     -1914.890    22541263.098 6  83914075.903 6
     -1492.122    22541263.197          46.500          35.250
  23903642.181 7  87865729.288 7     -3677.540    23903649.148 5  93687106.820 5
     -2865.616    23903642.364          40.500          27.500
  24202091.317 7  89434122.927 7      3115.121    24202093.292 4  90714925.784 4
      2427.367    24202091.026          39.000          21.000
  25121454.847 7  98459706.451 7      3169.841    25121458.873 3  98673869.368 3
      2470.006    25121454.916          38.500          16.000
  25178502.375 7  94565161.769 7     -3144.912    25178502.210 3  94713116.074 3
     -2450.581    25178501.943          40.000          17.250
  25565967.521 6 100795619.183 6     -1867.883    25565970.051 3  96299734.299 3
     -1455.494    25565966.801          35.750          19.500
 18  2 21  9 16 30.0000000  0 10G30G07G05G09G02G06G13G28G23G29
  20827937.266 9  71702791.924 9      1373.315    20827941.496 8  76898364.983 8
      1070.116    20827936.553          53.750          47.250
  20862620.405 9  71885085.063 9      -404.702    20862621.626 8  77040350.317 8
      -315.353    20862620.085          53.750          45.250
  21398964.081 9  74703581.941 9      1959.983    21398965.410 7  79236582.92617
      1527.260    21398964.015          52.750          42.750
  22007074.696 9  77899229.772 9     -2595.425    22007078.806 7  85921012.87317
     -2022.409    22007074.339          50.500          40.250
  22552237.715 8  80764058.652 8     -1929.688    22552237.037 6  83959011.742 6
     -1503.653    22552236.740          45.750          35.250
  23924647.769 7  87976114.485 7     -3681.272    23924654.412 5  93773121.185 5
     -2868.523    23924647.406          40.750          26.500
  24184318.499 7  89340727.703 7      3111.221    24184320.300 3  90642150.329 3
      2424.328    24184318.448          39.250          19.750
  25103354.568 6  98364586.908 6      3171.229    25103357.179 3  98599750.296 3
      2471.088    25103354.286          37.750          17.750
  25196460.755 7  94659532.168 7     -3146.609    25196460.437 3  94786651.416 3
     -2451.903    25196459.226          40.750          15.750
  25576670.594 5 100851859.818 5     -1880.156    25576671.608 2  96343558.144 2
     -1465.056    25576670.427          30.750          10.500
 18  2 21  9 17  0.0000000  0  9G30G07G05G09G02G06G13G28G23
  20820145.969 9  71661849.267 9      1356.104    20820150.463 8  76866461.618 8
      1056.704    20820145.462          53.750          47.250
  20864978.945 9  71897479.252 9      -421.663    20864980.183 8  77050008.124 8
      -328.568    20864978.546          52.750          45.000
  21387812.782 9  74644981.641 9      1946.658    21387814.170 7  79190920.35317
      1516.877    21387812.752          52.750          42.750
  22021911.071 8  77977195.161 8     -2602.253    22021915.013 7  85981765.11517
     -2027.730    22021910.690          49.500          40.000
  22563295.835 8  80822168.425 8     -1944.401    22563294.828 6  84004292.021 6
     -1515.117    22563294.849          45.750          34.750
  23945675.656 7  88086612.645 7     -3685.069    23945681.547 4  93859223.609 4
     -2871.482    23945674.624          41.500          25.750
  24166567.344 7  89247443.218 7      3107.557    24166569.898 3  90569461.165 3
      2421.473    24166566.210          40.000          19.000
  25085246.237 6  98269425.646 6      3172.841    25085248.600 3  98525598.758 3
      2472.343    25085245.176          36.750          17.250
  25214427.314 7  94753950.358 7     -3148.210    25214427.866 3  94860223.977 3
     -2453.150    25214425.225          38.750          15.000
 18  2 21  9 17 30.0000000  0 10G30G07G05G09G02G06G13G28G23G29
  20812452.863 9  71621420.478 9      1338.970    20812457.060 8  76834958.670 8
      1043.353    20812452.290          55.250          47.250
  20867433.792 9  71910379.926 9      -438.527    20867435.060 8  77060060.598 8
      -341.709    20867433.579          53.000          45.000
  21376737.298 9  74586779.167 9      1933.349    21376738.656 7  79145567.77617
      1506.505    21376737.073          52.250          42.250
  22036785.853 9  78055362.627 9     -2609.049    22036789.879 7  86042674.80617
     -2033.025    22036785.349          50.750          40.500
  22574436.408 8  80880715.121 8     -1958.925    22574435.913 6  84049912.774 6
     -1526.435    22574435.832          46.250          34.500
  23966723.185 7  88197217.609 7     -3688.623    23966728.767 4  93945409.276 4
     -2874.252    23966723.389          42.750          25.750
  24148836.748 7  89154266.980 7      3103.979    24148838.607 3  90496856.344 3
      2418.685    24148835.591          41.250          19.000
  25067128.433 6  98174222.290 6      3173.986    25067131.752 2  98451414.369 2
      2473.236    25067127.282          33.250          14.000
  25232402.765 6  94848412.711 6     -3149.535    25232404.936 3  94933830.916 3
     -2454.183    25232403.161          37.000          14.750
  25598307.653 6 100965583.982 6     -1908.377
                                        37.250
 18  2 21  9 18  0.0000000  0 10G30G07G05G09G02G06G13G28G23G29
  20804858.241 9  71581508.991 9      1321.867    20804862.172 8  76803858.813 8
      1030.026    20804857.453          54.500          47.750
  20869985.467 9  71923788.904 9      -455.381    20869986.663 8  77070509.152 8
      -354.843    20869985.194          54.500          45.250
  21365738.344 9  74528979.235 9      1920.018    21365739.642 7  79100528.87017
      1496.118    21365738.218          51.250          42.500
  22051699.439 9  78133733.740 9     -2615.601    22051703.450 7  86103743.18017
     -2038.131    22051698.941          50.750          40.250
  22585660.814 8  80939698.871 8     -1973.299    22585660.269 6  84095874.076 6
     -1537.636    22585660.194          44.750          34.000
  23987790.527 7  88307929.045 7     -3692.017    23987796.640 4  94031677.880 4
     -2876.897    23987790.164          41.000          25.750
  24131127.393 7  89061202.337 7      3100.232    24131129.012 4  90424338.461 4
      2415.765    24131126.629          42.750          22.250
  25049004.273 5  98078982.051 5      3175.289    25049008.176 1  98377201.342 1
      2474.251    25049005.224          30.500           6.000
  25250386.760 6  94942921.147 6     -3151.027    25250388.484 3  95007473.780 3
     -2455.346    25250386.943          36.000          15.000
  25609240.161 7 101023039.104 7     -1921.671    25609241.021 3  96476948.365 3
     -1497.406    25609240.599          40.750          15.250
 18  2 21  9 18 30.0000000  0 10G30G07G05G09G02G06G13G28G23G29
  20797362.129 9  71542116.495 9      1304.316    20797366.110 8  76773163.364 8
      1016.350    20797361.319          53.250          47.750
  20872633.827 9  71937706.065 9      -472.468    20872635.077 8  77081353.693 8
      -368.156    20872633.572          52.250          45.000
  21354816.368 9  74471584.570 9      1906.280    21354817.774 7  79055805.75617
      1485.413    21354816.311          52.500          42.500
  22066651.381 9  78212308.375 9     -2622.625    22066655.548 7  86164970.14717
     -2043.604    22066651.060          50.750          39.500
  22596968.122 8  80999118.539 8     -1988.029    22596967.712 6  84142175.060 6
     -1549.113    22596967.415          45.750          34.500
  24008877.530 7  88418744.805 7     -3695.601    24008884.434 4  94118027.765 4
     -2879.689    24008878.234          39.500          25.500
  24113439.146 7  88968250.735 7      3096.459    24113440.513 4  90351908.688 4
      2412.825    24113439.110          42.000          23.000
  25030874.771 6  97983708.751 6      3176.423    25030882.146 1  98302939.415 1
      2475.135                          33.250           1.000
  25268381.137 6  95037475.831 6     -3152.729    25268382.333 3  95081152.595 3
     -2456.671    25268379.608          37.750          16.000
  25620249.676 7 101080894.857 7     -1935.249    25620250.956 3  96522030.837 3
     -1507.986    25620249.224          42.250          15.250
 18  2 21  9 19  0.0000000  0 10G30G07G05G09G02G06G13G28G23G29
  20789965.017 9  71503245.214 9      1287.022    20789969.070 8  76742874.058 8
      1002.874    20789964.372          53.750          47.750
  20875379.102 9  71952131.918 9      -489.320    20875380.199 8  77092594.616 8
      -381.288    20875378.778          52.500          45.250
  21343972.434 9  74414598.763 9      1892.647    21343973.735 7  79011401.23017
      1474.790    21343972.335          51.250          42.750
  22081642.764 8  78291086.945 8     -2629.289    22081646.712 7  86226356.02517
     -2048.797    22081642.239          48.500          39.500
  22608358.095 8  81058973.268 8     -2002.358    22608357.760 6  84188815.057 6
     -1560.279    22608357.766          46.000          34.500
  24029984.886 7  88529663.299 7     -3698.701    24029991.967 4  94204457.663 4
     -2882.105    24029984.178          39.750          25.750
  24095772.509 7  88875414.324 7      3092.574    24095775.399 4  90279568.671 4
      2409.798    24095771.867          39.750          23.000
  25012739.822 6  97888406.361 6      3177.411    25012742.969 1  98228672.730 1
      2475.905    25012739.000          36.250           7.250
  25286382.490 7  95132077.463 7     -3154.234    25286381.908 3  95154868.097 3
     -2457.845    25286382.079          38.750          17.250
  25631335.546 8 101139150.646 8     -1948.502
                                        44.500
 18  2 21  9 19 30.0000000  0 10G30G07G05G09G02G06G13G28G23G29
  20782666.641 9  71464892.033 9      1269.582    20782670.781 8  76712988.462 8
       989.284    20782666.027          53.500          47.500
  20878220.127 9  71967061.982 9      -506.267    20878221.353 8  77104228.433 8
      -394.494    20878219.935          53.250          44.750
  21333205.907 9  74358019.878 9      1878.963    21333207.196 7  78967313.78917
      1464.127    21333205.877          51.750          42.750
  22096671.797 8  78370064.539 8     -2636.099    22096675.677 7  86287896.99317
     -2054.103    22096671.339          49.750          39.500
  22619829.771 8  81119256.866 8     -2016.765    22619829.219 6  84235789.252 6
     -1571.505    22619828.784          44.500          34.500
  24051110.544 7  88640677.767 7     -3702.143    24051117.754 4  94290962.388 4
     -2884.787    24051111.536          41.250          26.250
  24078127.462 7  88782690.213 7      3088.671    24078130.463 4  90207316.210 4
      2406.757    24078127.090          39.500          21.250
  24994598.702 6  97793073.380 6      3178.130    24994602.684 1  98154387.307 1
      2476.465    24994599.218          37.500           7.750
  25304393.610 7  95226721.413 7     -3155.706    25304394.039 3  95228616.575 3
     -2458.992    25304392.932          39.000          15.750
  25642495.701 7 101197799.986 7     -1961.630    25642498.018 2  96613115.066 2
     -1528.543    25642495.725          42.000          11.250
 18  2 21  9 20  0.0000000  0 10G30G07G05G09G02G13G06G28G23G29
  20775467.281 9  71427059.229 9      1252.381    20775471.325 8  76683508.360 8
       975.881    20775466.643          54.250          48.000
  20881157.338 9  71982496.927 9      -522.867    20881158.588 8  77116255.664 8
      -407.429    20881157.014          54.000          45.250
  21322517.229 9  74301850.959 9      1865.438    21322518.618 7  78923545.79817
      1453.588    21322517.119          53.500          43.250
  22111738.659 8  78449241.705 8     -2642.570    22111742.838 7  86349593.46317
     -2059.145    22111738.497          50.250          39.750
  22631382.873 8  81179968.511 8     -2030.886    22631382.561 6  84283096.962 6
     -1582.508    22631382.222          45.750          34.000
  24060504.531 7  88690080.736 7      3085.045    24060507.562 4  90135153.033 4
      2403.931    24060504.792          40.250          21.250
  24072254.462 7  88751786.653 7     -3705.048    24072260.698 5  94377540.688 5
     -2887.050    24072254.102          41.750          26.500
  24976452.424 6  97697714.176 6      3179.064    24976455.512 2  98080081.448 2
      2477.193    24976452.214          37.250          14.000
  25322411.907 7  95321408.677 7     -3156.840    25322411.760 3  95302398.820 3
     -2459.875    25322411.559          38.500          16.500
  25653731.074 7 101256842.121 7     -1974.537    25653732.761 2  96659122.025 2
     -1538.600    25653730.831          42.500          10.750
 18  2 21  9 20 30.0000000  0 10G30G07G05G09G02G13G06G28G23G29
  20768366.874 9  71389747.108 9      1234.986    20768371.047 8  76654433.986 8
       962.327    20768366.262          53.750          48.000
  20884190.152 9  71998434.858 9      -539.710    20884191.435 8  77128674.828 8
      -420.553    20884189.888          53.750          45.250
  21311907.017 9  74246093.703 9      1851.654    21311908.384 7  78880098.58817
      1442.847    21311907.002          51.500          42.500
  22126843.066 8  78528616.948 8     -2649.190    22126847.146 7  86411444.28117
     -2064.304    22126842.787          50.000          39.750
  22643016.871 8  81241105.852 8     -2044.956    22643016.367 6  84330736.408 6
     -1593.472    22643016.043          45.250          34.000
  24042903.725 7  88597586.000 7      3081.118    24042906.267 4  90063079.240 4
      2400.871    24042902.934          43.000          22.250
  24093414.731 7  88862986.600 7     -3708.202    24093420.607 4  94464189.948 4
     -2889.508    24093414.881          41.000          25.750
  24958301.546 6  97602331.417 6      3179.618    24958304.835 3  98005757.300 3
      2477.624    24958302.356          35.500          15.500
  25340438.841 6  95416138.449 6     -3158.118    25340440.154 3  95376214.098 3
     -2460.871    25340437.444          37.750          15.000
  25665040.537 7 101316273.777 7     -1987.523    25665041.979 3  96705432.425 3
     -1548.719    25665040.615          44.250          14.500
 18  2 21  9 21  0.0000000  0 10G30G07G05G09G02G13G06G28G23G29
  20761366.333 9  71352958.748 9      1217.582    20761370.458 8  76625767.735 8
       948.765    20761365.632          53.250          48.000
  20887319.158 9  72014877.378 9      -556.407    20887320.288 8  77141487.179 8
      -433.564    20887318.768          52.250          45.250
  21301375.934 9  74190753.016 9      1837.762    21301377.403 7  78836975.97517
      1432.022    21301375.907          53.000          43.000
  22141985.838 8  78608191.591 8     -2655.672    22141989.699 7  86473450.47517
     -2069.354    22141985.487          49.250          39.750
  22654731.899 8  81302668.640 8     -2059.033    22654731.324 6  84378707.367 6
     -1604.441    22654731.291          46.000          34.000
  24025325.005 7  88505208.942 7      3077.264    24025326.165 4  89991097.132 4
      2397.868    24025324.360          42.250          22.000
  24114592.862 7  88974276.967 7     -3711.153    24114598.816 4  94550909.662 4
     -2891.808    24114592.964          41.750          25.250
  24940146.739 6  97506929.843 6      3180.278    24940149.815 3  97931418.478 3
      2478.139    24940145.165          33.000          15.250
  25358472.548 6  95510912.167 6     -3159.511    25358473.375 2  95450063.728 2
     -2461.956    25358472.979          37.500          12.250
  25676423.156 6 101376094.897 6     -2000.429    25676423.675 3  96752046.292 3
     -1558.776    25676423.978          38.000          18.750
 18  2 21  9 21 30.0000000  0 10G30G07G05G09G02G13G06G28G23G29
  20754465.048 9  71316692.761 9      1200.154    20754469.329 8  76597508.531 8
       935.185    20754464.379          55.250          47.750
  20890543.333 9  72031821.717 9      -573.142    20890544.742 8  77154690.562 8
      -446.604    20890543.201          52.250          45.250
  21290924.063 9  74135828.075 9      1823.862    21290925.436 7  78794177.31917
      1421.191    21290923.922          53.250          42.750
  22157165.730 8  78687962.568 8     -2662.245    22157169.772 7  86535609.64817
     -2074.476    22157165.293          49.000          39.250
  22666527.126 8  81364652.884 8     -2073.092    22666526.805 6  84427006.752 6
     -1615.396    22666526.475          44.500          33.750
  24007768.148 7  88412948.415 7      3073.416    24007769.341 4  89919205.806 4
      2394.869    24007767.815          40.000          21.750
  24135787.079 7  89085652.664 7     -3713.982    24135792.077 4  94637695.879 4
     -2894.012    24135786.510          41.500          24.250
  24921989.764 6  97411510.183 6      3180.570    24921990.855 2  97857065.617 2
      2478.367    24921988.897          32.750          12.000
  25376516.315 6  95605726.981 6     -3161.144    25376516.849 2  95523945.371 2
     -2463.229    25376514.574          35.750          11.250
  25687880.696 6 101436300.923 6     -2013.270    25687883.640 2  96798960.104 2
     -1568.782    25687881.131          36.500          12.500
 18  2 21  9 22  0.0000000  0 10G30G07G05G09G02G13G06G28G23G29
  20747663.270 9  71280950.418 9      1182.758    20747667.829 8  76569657.360 8
       921.629    20747662.820          54.250          47.500
  20893863.246 9  72049267.340 9      -589.794    20893864.473 8  77168284.550 8
      -459.580    20893862.959          52.500          45.250
  21280551.799 9  74081321.513 9      1809.985    21280553.172 7  78751704.67217
      1410.378    21280551.870          51.750          43.000
  22172382.902 8  78767929.527 8     -2668.800    22172387.171 7  86597921.54217
     -2079.585    22172382.581          48.000          39.250
  22678402.379 8  81427056.648 8     -2087.000    22678401.752 6  84475633.051 6
     -1626.234    22678401.719          45.750          33.750
  23990233.578 7  88320805.582 7      3069.488    23990236.255 4  89847406.207 4
      2391.809    23990233.665          41.000          21.750
  24156996.916 7  89197111.404 7     -3716.584    24157003.323 4  94724546.801 4
     -2896.039    24156996.421          41.250          24.000
  24903828.669 6  97316075.698 6      3181.557    24903832.695 2  97782701.113 2
      2479.135    24903826.819          36.500          10.250
  25394566.349 6  95700583.209 6     -3162.375    25394566.627 2  95597859.142 2
     -2464.188    25394565.587          36.000          12.500
  25699409.464 6 101496889.744 6     -2026.106    25699413.424 2  96846172.154 2
     -1578.784    25699409.233          33.250          14.000
 18  2 21  9 22 30.0000000  0 10G30G07G05G09G02G13G06G28G23G29
  20740961.790 9  71245732.127 9      1165.216    20740965.900 8  76542214.537 8
       907.961    20740961.136          52.250          47.750
  20897278.263 9  72067213.000 9      -606.468    20897279.426 8  77182268.176 8
      -472.572    20897277.996          51.750          45.000
  21270259.462 9  74027235.099 9      1795.865    21270260.907 7  78709559.41017
      1399.375    21270259.489          51.750          42.750
  22187637.274 8  78848091.086 8     -2675.248    22187641.289 7  86660385.06317
     -2084.609    22187636.993          49.000          39.500
  22690356.585 8  81489877.270 8     -2101.030    22690356.198 6  84524584.183 6
     -1637.166    22690356.003          45.500          33.750
  23972722.017 7  88228781.030 7      3065.653    23972724.193 4  89775698.823 4
      2388.821    23972721.978          41.250          22.000
  24178222.051 7  89308649.824 7     -3719.284    24178228.221 4  94811459.789 4
     -2898.144    24178222.708          40.750          25.250
  24885666.139 6  97220628.813 6      3181.876    24885668.912 2  97708326.922 2
      2479.384    24885665.027          37.500          10.750
  25412625.178 7  95795479.583 7     -3163.831    25412626.056 3  95671804.182 3
     -2465.323    25412624.188          40.000          18.000
  25711010.287 5 101557857.683 5     -2038.419    25711012.065 2  96893688.411 2
     -1588.378    25711009.130          28.000           8.500
 18  2 21  9 23  0.0000000  0  9G30G07G05G09G02G13G06G28G23
  20734359.599 9  71211037.345 9      1147.876    20734363.733 8  76515179.645 8
       894.449    20734358.921          54.500          48.000
  20900787.838 9  72085656.595 9      -623.001    20900789.148 8  77196639.806 8
      -485.455    20900787.694          53.500          45.000
  21260047.430 9  73973569.677 9      1781.916    21260048.705 7  78667742.19717
      1388.505    21260047.248          50.500          43.250
  22202928.030 8  78928445.120 8     -2681.588    22202932.152 7  86722998.57917
     -2089.549    22202927.739          49.000          39.250
  22702389.514 8  81553111.363 8     -2114.563    22702389.355 6  84573857.498 6
     -1647.711    22702388.722          46.000          33.750
  23955232.865 7  88136874.198 7      3061.660    23955235.402 4  89704083.185 4
      2385.709    23955232.623          41.000          23.500
  24199461.642 7  89420263.871 7     -3721.752    24199467.638 4  94898431.722 4
     -2900.066    24199461.618          40.750          25.500
  24867501.264 6  97125171.103 6      3182.286    24867501.969 2  97633944.232 2
      2479.703    24867500.167          36.250           9.750
  25430690.551 7  95890414.372 7     -3164.947    25430690.392 3  95745779.319 3
     -2466.192    25430689.337          39.000          18.500
 18  2 21  9 23 30.0000000  0  9G30G07G05G09G02G13G06G28G23
  20727857.475 9  71176868.943 9      1130.198    20727861.723 8  76488554.922 8
       880.673    20727856.836          54.000          47.500
  20904392.470 9  72104599.216 9      -639.719    20904393.846 8  77211400.287 8
      -498.482    20904392.266          52.750          45.500
  21249915.956 9  73920328.834 9      1767.612    21249917.356 7  78626255.82617
      1377.360    21249915.869          52.000          43.250
  22218255.744 8  79008992.858 8     -2688.117    22218259.836 7  86785763.02717
     -2094.637    22218255.309          49.500          39.000
  22714501.459 8  81616758.712 8     -2128.475    22714501.147 6  84623452.813 6
     -1658.552    22714500.604          44.750          33.750
  23937766.759 7  88045088.343 7      3057.453    23937768.408 4  89632561.763 4
      2382.431    23937766.486          43.000          24.000
  24220715.680 7  89531952.763 7     -3724.119    24220721.931 4  94985461.979 4
     -2901.911    24220715.671          41.000          25.750
  24849335.586 6  97029707.604 6      3181.990    24849338.155 2  97559557.173 2
      2479.472    24849334.273          36.500          11.500
  25448762.985 6  95985389.503 6     -3166.622    25448765.536 2  95819785.878 2
     -2467.498    25448763.321          33.750          11.250
 18  2 21  9 24  0.0000000  0 10G30G07G05G09G02G13G06G28G23G29
  20721455.398 9  71143225.607 9      1112.689    20721459.655 8  76462339.338 8
       867.031    20721454.717          55.500          47.750
  20908091.510 9  72124037.884 9      -656.216    20908092.895 8  77226547.296 8
      -511.337    20908091.328          53.500          45.000
  21239865.522 9  73867513.062 9      1753.427    21239866.682 7  78585100.67817
      1366.307    21239865.402          52.250          43.250
  22233619.714 8  79089731.399 8     -2694.462    22233623.983 7  86848676.14917
     -2099.581    22233619.304          49.500          38.750
  22726691.143 8  81680815.053 8     -2142.037    22726690.585 6  84673366.799 6
     -1669.120    22726690.472          46.000          34.000
  23920323.056 7  87953421.580 7      3053.570    23920323.703 4  89561133.130 4
      2379.405    23920323.014          42.000          23.500
  24241982.199 7  89643711.667 7     -3726.400    24241988.456 4  95072546.780 4
     -2903.689    24241981.497          41.500          25.250
  24831166.910 6  96934238.980 6      3182.224    24831172.027 2  97485166.143 2
      2479.655    24831166.757          33.750          13.250
  25466844.466 6  96080402.123 6     -3167.707    25466844.571 2  95893821.523 2
     -2468.343    25466843.696          37.500          11.250
  25746247.086 7 101743012.228 7     -2075.909    25746249.164 3  97037981.493 3
     -1617.591    25746247.329          39.250          17.750
 18  2 21  9 24 30.0000000  0 11G30G07G05G09G02G13G06G28G23G20G29
  20715153.635 9  71110109.122 9      1094.972    20715157.763 8  76436534.290 8
       853.225    20715152.906          54.500          47.750
  20911885.063 9  72143972.949 9      -672.878    20911886.340 8  77242081.086 8
      -524.321    20911884.883          54.500          45.250
  21229896.413 9  73815125.406 9      1738.982    21229897.843 7  78544279.13017
      1355.051    21229896.362          52.250          43.250
  22249019.870 8  79170660.915 8     -2700.949    22249024.406 7  86911738.08617
     -2104.635    22249019.822          48.750          38.750
  22738957.961 8  81745279.327 8     -2155.667    22738957.808 6  84723598.658 6
     -1679.741    22738957.619          46.250          34.000
  23902902.785 7  87861876.691 7      3049.324    23902904.080 4  89489799.468 4
      2376.097    23902902.326          43.250          22.500
  24263261.827 7  89755538.852 7     -3728.912    24263268.570 4  95159684.774 4
     -2905.646    24263262.622          39.000          24.250
  24813000.221 6  96838769.412 6      3181.915    24813003.828 2  97410774.417 2
      2479.414    24812999.175          33.000          13.000
  25484931.593 7  96175452.706 7     -3169.031    25484932.987 3  95967886.768 3
     -2469.375    25484930.960          40.750          20.000
  25749590.722 6  97566274.348 6      3614.370    25749588.801 2  97051658.647 2
      2816.392    25749586.840          37.250          10.500
  25758132.295 6 101805474.548 6     -2088.011    25758134.484 3  97086653.403 3
     -1627.022    25758133.713          33.750          19.000
 18  2 21  9 25  0.0000000  0 10G30G07G05G09G02G13G06G28G23G29
  20708952.107 9  71077520.309 9      1077.531    20708956.223 8  76411140.413 8
       839.635    20708951.468          53.750          48.250
  20915773.039 9  72164403.595 9      -689.287    20915774.271 8  77258001.067 8
      -537.107    20915772.739          52.000          45.000
  21220009.275 9  73763167.912 9      1724.704    21220010.498 7  78503792.77117
      1343.925    21220009.248          52.750          43.250
  22264456.723 8  79251780.660 8     -2707.060    22264461.058 7  86974948.25517
     -2109.397    22264456.531          48.000          38.500
  22751302.638 8  81810149.173 8     -2169.079    22751301.706 6  84774146.570 6
     -1690.191    22751301.757          46.500          33.500
  23885505.256 7  87770454.345 7      3045.399    23885507.483 4  89418561.321 4
      2373.038    23885504.299          42.250          22.250
  24284553.933 7  89867431.566 7     -3730.852    24284561.884 4  95246873.833 4
     -2907.158    24284554.218          38.750          23.000
  24794833.695 6  96743301.639 6      3182.124    24794835.263 2  97336384.053 2
      2479.577    24794832.789          35.750          13.000
  25503026.511 6  96270541.119 6     -3170.104    25503027.467 4  96041981.494 4
     -2470.211    25503025.312          38.250          24.000
  25770089.721 7 101868304.360 7     -2100.378    25770091.277 2  97135611.757 2
     -1636.659    25770089.259          42.000          13.750
 18  2 21  9 25 30.0000000  0 11G30G07G05G09G02G13G06G28G23G20G29
  20702850.953 9  71045458.435 9      1059.884    20702855.105 8  76386157.142 8
       825.884    20702850.326          54.750          48.250
  20919754.690 9  72185327.506 9      -705.703    20919755.991 8  77274305.408 8
      -549.898    20919754.384          53.500          45.250
  21210204.155 9  73711641.583 9      1710.333    21210205.426 7  78463642.38517
      1332.727    21210204.101          52.000          43.750
  22279929.105 8  79333088.405 8     -2713.423    22279933.128 7  87038304.91817
     -2114.356    22279928.808          48.500          38.500
  22763723.171 8  81875421.066 8     -2182.449    22763722.761 6  84825007.757 6
     -1700.610    22763722.440          45.000          33.250
  23868131.617 7  87679153.875 7      3041.375    23868133.269 4  89347418.111 4
      2369.903    23868131.620          42.250          23.500
  24305858.957 7  89979385.586 7     -3732.893    24305864.779 4  95334110.672 4
     -2908.748    24305858.630          39.750          22.750
  24776667.282 6  96647837.147 6      3182.114    24776670.544 3  97261996.217 3
      2479.570    24776666.293          37.250          14.750
  25521128.831 5  96365665.136 5     -3171.545    25521128.325 4  96116104.12814
     -2471.334    25521129.047          29.250          21.750
  25708330.967 6  97349455.744 6      3613.024    25708333.200 3  96882672.890 3
      2815.343    25708330.139          35.250          14.500
  25782114.439 7 101931497.775 7     -2112.355    25782116.624 4  97184853.378 4
     -1645.991    25782115.752          40.500          22.250
 18  2 21  9 26  0.0000000  0 11G30G07G05G09G02G13G06G28G23G20G29
  20696850.202 9  71013924.133 9      1042.237    20696854.336 8  76361584.957 8
       812.133    20696849.644          55.500          48.000
  20923829.988 9  72206743.550 9      -722.126    20923831.301 8  77290993.236 8
      -562.695    20923829.763          54.000          45.250
  21200481.283 9  73660547.896 9      1695.798    21200482.668 7  78423829.12017
      1321.401    21200481.136          53.750          43.500
  22295437.075 8  79414583.216 8     -2719.706    22295441.578 6  87101807.33616
     -2119.251    22295436.718          49.000          38.250
  22776220.146 8  81941092.653 8     -2195.735    22776219.279 6  84876180.397 6
     -1710.962    22776219.606          44.750          32.750
  23850781.060 7  87587976.270 7      3037.062    23850783.371 4  89276370.629 4
      2366.542    23850780.601          42.500          24.250
  24327174.216 7  90091398.034 7     -3734.665    24327180.700 4  95421393.073 4
     -2910.129    24327174.662          40.750          23.750
  24758502.644 6  96552379.087 6      3181.874    24758503.538 3  97187613.380 3
      2479.383    24758501.484          37.500          15.250
  25539237.276 7  96460824.772 7     -3172.606    25539238.862 3  96190300.313 3
     -2472.160    25539235.774          43.250          15.750
  25687709.236 5  97241084.116 5      3611.716    25687711.829 2  96798227.440 2
      2814.324    25687707.950          31.000          12.500
  25794208.543 6 101995052.507 6     -2124.546    25794211.856 2  97234376.599 2
     -1655.490    25794208.756          37.250          13.750
 18  2 21  9 26 30.0000000  0 10G30G07G05G09G02G13G06G28G23G20
  20391157.897 9  69407499.256 9      1024.612    20391161.836 8  75109825.313 8
       798.399    20391157.139          53.750          48.250
  20628206.983 9  70653233.662 9      -738.602    20628208.189 8  76080466.047 8
      -575.534    20628206.636          52.000          44.750
  20891048.753 9  72034469.451 9      1681.162    20891050.207 7  77156755.00617
      1309.996    20891048.753          53.250          43.500
  22011189.294 8  77920849.217 8     -2725.931    22011193.290 7  85937858.74517
     -2124.102    22011188.787          48.750          38.750
  22489001.388 7  80431746.253 7     -2209.076    22489000.387 6  83700066.300 6
     -1721.358    22489000.456          43.750          32.750
  23533661.299 7  85921501.519 7      3032.873    23533663.569 4  87977818.919 4
      2363.278    23533661.110          40.750          24.000
  24048708.738 7  88628052.116 7     -3736.764    24048715.457 4  94281123.480 4
     -2911.764    24048708.981          40.500          25.000
  24440546.646 6  94881509.239 6      3181.442    24440549.011 2  95885636.832 2
      2479.046    24440544.844          37.500          13.250
  25257560.422 8  94980604.773 8     -3173.846    25257561.876 4  95036881.994 4
     -2473.126    25257559.819          45.000          23.500
  25367299.868 5  95557318.620 5      3610.071
                                        26.500
 18  2 21  9 27  0.0000000  0  9G30G07G05G09G02G13G06G28G23
  20385358.682 9  69377025.107 9      1006.984    20385362.858 8  75086079.228 8
       784.663    20385358.079          54.500          48.000
  20632469.460 9  70675634.230 9      -754.812    20632470.914 8  76097921.037 8
      -588.165    20632469.289          53.750          45.000
  20881492.431 9  71984250.023 9      1666.756    20881493.786 7  77117622.98017
      1298.771    20881492.341          52.000          43.500
  22026768.288 8  78002718.682 8     -2731.990    22026772.662 7  86001653.10117
     -2128.823    22026768.102          49.000          38.750
  22501649.518 8  80498213.377 8     -2222.069    22501648.754 6  83751858.824 6
     -1731.483    22501648.643          45.750          33.000
  23516358.031 7  85830575.034 7      3028.818    23516360.363 4  87906967.136 4
      2360.118    23516357.057          40.750          23.750
  24070045.405 7  88740176.117 7     -3738.188    24070052.067 4  94368492.719 4
     -2912.873    24070044.608          40.500          25.000
  24422386.094 6  94786075.196 6      3181.200    24422388.156 2  95811272.750 2
      2478.857    24422384.976          36.500          10.750
  25275681.842 7  95075836.862 7     -3174.918    25275684.279 4  95111088.727 4
     -2473.962    25275681.653          41.250          25.250
 18  2 21  9 27 30.0000000  0  9G30G07G05G09G02G13G06G28G23
  20379660.131 9  69347079.200 9       989.308    20379664.292 8  75062744.765 8
       770.889    20379659.483          53.500          48.500
  20636825.102 9  70698522.840 9      -771.155    20636826.385 8  76115756.316 8
      -600.900    20636824.982          54.750          45.250
  20872019.289 9  71934468.119 9      1651.995    20872020.638 7  77078831.88417
      1287.268    20872019.217          52.250          43.500
  22042382.588 8  78084771.525 8     -2738.249    22042386.494 6  86065590.35616
     -2133.700    22042382.279          49.250          38.250
  22514372.560 7  80565072.080 7     -2235.225    22514372.179 6  83803956.484 6
     -1741.733    22514371.616          44.250          33.000
  23499079.367 7  85739772.605 7      3024.726    23499080.521 4  87836212.025 4
      2356.929    23499078.878          42.250          23.500
  24091390.793 7  88852349.054 7     -3739.946    24091398.354 4  94455900.136 4
     -2914.244    24091390.421          39.250          23.500
  24404226.684 6  94690655.017 6      3179.944    24404231.325 2  95736919.468 2
      2477.879    24404226.912          34.500          11.250
  25293811.125 6  95171101.863 6     -3176.153    25293813.068 4  95185321.051 4
     -2474.924    25293810.723          36.000          23.750
 18  2 21  9 28  0.0000000  0  9G30G07G05G09G02G13G06G28G20
  20374062.292 9  69317662.802 9       971.722    20374066.534 8  75039822.897 8
       757.186    20374061.717          53.750          48.250
  20641273.516 9  70721899.259 9      -787.343    20641274.760 8  76133971.704 8
      -613.514    20641273.441          52.750          45.000
  20862629.894 9  71885126.069 9      1637.365    20862631.192 7  77040383.53417
      1275.869    20862629.747          53.250          44.250
  22058031.664 8  78167007.466 8     -2744.260    22058035.400 6  86129670.28616
     -2138.384    22058031.278          49.000          38.250
  22527169.510 8  80632320.525 8     -2248.139    22527169.126 6  83856357.817 6
     -1751.797    22527168.425          46.000          33.000
  23481824.752 7  85649096.108 7      3020.356    23481826.590 4  87765555.047 4
      2353.524    23481823.532          42.250          23.750
  24112745.499 7  88964568.718 7     -3741.548    24112751.695 4  94543343.953 4
     -2915.492    24112745.667          38.750          22.500
  24386072.884 6  94595252.139 6      3179.831    24386075.108 2  95662579.703 2
      2477.790    24386072.542          36.500          13.000
  25305483.430 6  95232479.556 6      3607.787    25305484.884 2  95233123.950 2
      2811.263    25305481.782          38.250          12.750
 18  2 21  9 28 30.0000000  0  9G30G07G05G09G02G13G06G28G20
  20368565.537 9  69288776.219 9       954.066    20368569.555 8  75017313.873 8
       743.428    20368564.818          53.500          48.000
  20645814.400 9  70745761.926 9      -803.496    20645815.671 8  76152565.985 8
      -626.101    20645814.166          53.500          45.000
  20853324.489 9  71836226.198 9      1622.667    20853325.766 7  77002279.74017
      1264.416    20853324.420          52.500          44.250
  22073714.893 8  78249425.464 8     -2750.316    22073719.411 6  86193892.08416
     -2143.104    22073714.932          48.500          37.750
  22540040.296 8  80699956.507 8     -2260.957    22540039.591 6  83909061.114 6
     -1761.785    22540039.292          46.000          33.000
  23464593.356 7  85558545.675 7      3016.324    23464595.308 4  87694996.268 4
      2350.383    23464592.433          43.000          24.000
  24134109.881 7  89076831.909 7     -3742.742    24134115.104 4  94630821.760 4
     -2916.423    24134108.032          39.500          22.000
  24367922.981 6  94499869.361 6      3178.880    24367925.535 3  95588255.537 3
      2477.049    24367921.866          37.250          16.000
  25284890.740 6  95124263.854 6      3606.705
                                        37.500
 18  2 21  9 29  0.0000000  0 10G30G07G05G09G02G13G06G28G20G23
  20363169.675 9  69260421.693 9       936.296    20363173.944 8  74995219.440 8
       729.581    20363169.180          53.750          48.500
  20650448.010 9  70770111.487 9      -819.784    20650449.329 8  76171539.685 8
      -638.793    20650447.806          54.000          45.250
  20844104.057 9  71787772.154 9      1607.639    20844105.361 7  76964523.35017
      1252.706    20844103.946          52.750          43.750
  22089433.288 8  78332026.329 8     -2756.428    22089437.416 6  86258256.36516
     -2147.866    22089433.168          47.750          37.500
  22552984.612 8  80767979.047 8     -2273.898    22552983.697 6  83962065.640 6
     -1771.869    22552983.409          45.000          32.750
  23447386.246 7  85468123.999 7      3011.839    23447388.842 4  87624537.820 4
      2346.888    23447386.126          44.000          24.750
  24155479.058 7  89189137.787 7     -3744.214    24155485.758 4  94718332.772 4
     -2917.569    24155480.638          39.250          21.750
  24349776.825 6  94404511.211 6      3178.163    24349779.296 3  95513950.557 3
      2476.491    24349775.860          37.750          18.000
  25264305.221 6  95016085.051 6      3605.004    25264307.263 1  95064530.312 1
      2809.094    25264304.085          34.250           8.250
  25348233.322 6  95457131.649 6     -3179.272
                                        35.250
 18  2 21  9 29 30.0000000  0  9G30G07G05G09G02G13G06G28G23
  20357875.538 9  69232599.353 9       918.475    20357879.426 8  74973539.694 8
       715.694    20357874.783          55.250          48.500
  20655174.023 9  70794946.889 9      -836.009    20655175.357 8  76190891.944 8
      -651.435    20655173.720          54.250          44.750
  20834968.571 9  71739765.173 9      1592.703    20834969.893 7  76927115.31417
      1241.067    20834968.571          53.250          43.500
  22105186.389 8  78414808.787 8     -2762.448    22105190.667 6  86322762.14816
     -2152.557    22105186.005          48.000          37.750
  22566001.813 8  80836385.266 8     -2286.633    22566001.420 6  84015369.161 6
     -1781.792    22566001.129          45.750          33.000
  23430204.181 7  85377831.648 7      3007.446    23430205.893 4  87554180.168 4
      2343.465    23430204.679          41.500          24.750
  24176858.706 6  89301482.948 6     -3745.515    24176865.319 4  94805874.380 4
     -2918.583    24176858.274          36.500          23.000
  24331635.391 6  94309180.064 6      3177.239    24331638.662 3  95439666.597 3
      2475.771    24331634.924          36.750          14.750
  25366387.180 6  95552528.475 6     -3180.534    25366389.392 1  95482559.424 1
     -2478.338    25366387.926          38.000           6.250
 18  2 21  9 30  0.0000000  0  9G30G07G05G09G02G13G06G28G23
  20352682.644 9  69205311.195 9       900.812    20352686.658 8  74952276.195 8
       701.931    20352682.047          54.500          48.000
  20659992.458 9  70820268.340 9      -852.056    20659993.855 8  76210622.941 8
      -663.939    20659992.275          53.000          44.500
  20825918.530 9  71692208.494 9      1577.765    20825920.083 7  76890058.16517
      1229.427    20825918.599          52.750          43.750
  22120974.338 8  78497773.525 8     -2768.418    22120978.211 6  86387409.97616
     -2157.209    22120974.047          49.000          38.000
  22579091.972 8  80905174.304 8     -2299.153    22579091.399 6  84068970.946 6
     -1791.548    22579091.144          46.750          32.750
  23413047.008 7  85287671.004 7      3003.320    23413049.106 4  87483925.134 4
      2340.250    23413047.056          41.500          24.500
  24198244.656 6  89413866.154 6     -3746.514    24198252.244 4  94893445.620 4
     -2919.361    24198244.161          36.000          22.750
  24313499.590 6  94213880.015 6      3176.128    24313502.283 2  95365406.881 2
      2474.905    24313498.136          34.750           9.750
  25384546.862 7  95647958.704 7     -3181.525    25384548.103 2  95556920.524 2
     -2479.110    25384546.481          41.000          11.000
 18  2 21  9 30 30.0000000  0  9G30G07G05G09G02G13G06G28G23
  20347591.374 9  69178556.930 9       882.906    20347595.541 8  74931428.719 8
       687.979    20347590.780          54.000          48.250
  20664903.220 9  70846073.828 9      -868.189    20664904.569 8  76230731.110 8
      -676.511    20664902.944          53.000          45.000
  20816955.047 9  71645103.569 9      1562.628    20816956.255 7  76853353.02617
      1217.632    20816954.855          53.000          43.750
  22136796.464 8  78580918.891 8     -2774.438    22136800.610 6  86452198.54916
     -2161.900    22136796.050          48.250          37.750
  22592254.273 8  80974343.186 8     -2311.918    22592253.946 6  84122868.726 6
     -1801.495    22592253.643          44.500          32.500
  23395915.065 7  85197641.765 7      2998.734    23395916.768 4  87413772.505 4
      2336.675    23395914.456          41.750          24.000
  24219637.384 7  89526283.915 7     -3747.878    24219642.939 4  94981043.774 4
     -2920.425    24219637.090          39.250          22.750
  24295370.925 6  94118613.863 6      3174.986    24295374.198 2  95291173.551 2
      2474.015    24295369.911          36.750           9.750
  25402712.171 6  95743421.380 6     -3182.624    25402714.774 3  95631307.008 3
     -2479.967    25402712.924          37.750          15.250
 18  2 21  9 31  0.0000000  0 10G30G07G05G09G02G13G06G28G20G23
  20342601.508 9  69152334.592 9       865.219    20342605.624 8  74910995.727 8
       674.197    20342600.762          54.750          48.000
  20669905.194 9  70872359.978 9      -884.249    20669906.627 8  76251213.821 8
      -689.025    20669904.931          53.750          44.750
  20808076.966 9  71598449.482 9      1547.540    20808078.465 7  76816999.19017
      1205.876    20808076.855          52.000          43.750
  22152652.169 8  78664241.696 8     -2780.397    22152656.246 6  86517125.38516
     -2166.543    22152651.887          49.250          38.000
  22605487.876 7  81043887.227 7     -2324.466    22605487.601 5  84177058.833 5
     -1811.272    22605487.415          43.500          32.000
  23378807.819 7  85107742.909 7      2994.365    23378809.630 4  87343721.474 4
      2333.272    23378807.447          42.750          24.750
  24241035.460 7  89638730.949 7     -3748.867    24241041.063 4  95068664.780 4
     -2921.195    24241034.921          41.000          23.750
  24277249.583 6  94023382.111 6      3173.839    24277253.537 2  95216967.015 2
      2473.121    24277248.318          37.250           8.500
  25182041.257 7  94583784.454 7      3599.742    25182042.884 3  94727649.028 3
      2804.994    25182040.717          38.750          19.500
  25420883.824 6  95838914.147 6     -3183.865    25420887.794 2  95705716.931 2
     -2480.934    25420885.179          36.250          12.750
 18  2 21  9 31 30.0000000  0 10G30G07G05G09G02G13G28G06G20G23
  20337713.341 9  69126648.000 9       847.190    20337717.529 8  74890980.202 8
       660.148    20337712.732          54.750          48.250
  20674999.049 9  70899128.982 9      -900.383    20675000.587 8  76272072.782 8
      -701.597    20674998.893          53.000          44.750
  20799285.984 9  71552251.920 9      1532.204    20799287.363 7  76781001.09017
      1193.925    20799285.834          52.500          43.750
  22168542.129 8  78747744.361 8     -2786.568    22168546.434 6  86582192.36516
     -2171.351    22168541.829          47.750          37.750
  22618793.211 7  81113806.893 7     -2337.024    22618792.345 5  84231541.660 5
     -1821.058    22618792.516          44.250          31.500
  23361726.676 7  85017978.635 7      2989.854    23361728.571 4  87273775.299 4
      2329.757    23361726.208          42.750          25.000
  24259135.499 7  93928190.797 7      3172.147    24259138.233 3  95142792.000 3
      2471.803    24259134.021          39.250          18.000
  24262439.308 7  89751207.773 7     -3749.725    24262444.077 4  95156309.023 4
     -2921.863    24262438.708          41.000          23.000
  25161496.635 7  94475822.131 7      3597.867    25161499.579 3  94643522.520 3
      2803.533    25161495.937          38.750          19.500
  25439062.016 6  95934439.863 6     -3184.630
                                        34.500
 18  2 21  9 32  0.0000000  0 10G30G07G05G09G02G13G28G06G20G23
  20332927.082 9  69101495.474 9       829.451    20332931.220 8  74871380.832 8
       646.325    20332926.351          54.000          48.250
  20680184.304 9  70926377.606 9      -916.375    20680185.818 8  76293305.475 8
      -714.058    20680184.136          53.000          45.250
  20790581.837 9  71506510.660 9      1517.009    20790583.039 7  76745358.54517
      1182.085    20790581.603          50.750          43.750
  22184466.001 8  78831423.965 8     -2792.339    22184470.165 6  86647397.22516
     -2175.848    22184465.710          47.000          37.500
  22632169.510 7  81184098.012 7     -2349.260    22632168.638 5  84286313.918 5
     -1830.592    22632168.653          43.750          32.000
  23344670.251 7  84928347.348 7      2985.370    23344672.017 4  87203932.751 4
      2326.262    23344669.966          43.500          25.750
  24241029.572 7  93833040.586 7      3170.859    24241031.554 3  95068648.995 3
      2470.799    24241028.103          39.000          19.250
  24283847.094 7  89863709.649 7     -3750.348    24283852.767 4  95243972.802 4
     -2922.349    24283846.900          38.500          20.750
  25140960.963 6  94367908.070 6      3596.186    25140962.699 3  94559433.472 3
      2802.223    25140960.052          36.250          14.500
  25457246.281 5  96029995.712 5     -3185.433    25457249.258 1  95854572.12711
     -2482.156                          32.000           1.000
 18  2 21  9 32 30.0000000  0 10G30G07G05G09G02G13G28G06G20G23
  20328242.301 9  69076877.260 9       811.676    20328246.513 8  74852197.807 8
       632.475    20328241.632          55.250          48.250
  20685460.694 9  70954104.818 9      -932.225    20685462.160 8  76314911.089 8
      -726.409    20685460.448          52.750          44.750
  20781964.500 9  71461226.844 9      1501.799    20781965.894 7  76710072.45417
      1170.233    20781964.494          52.250          43.750
  22200422.916 8  78915279.520 8     -2798.112    22200427.209 6  86712739.18816
     -2180.347    22200422.502          46.750          37.250
  22645615.520 8  81254757.563 8     -2361.427    22645615.556 5  84341373.254 5
     -1840.073    22645614.851          45.750          32.000
  23327639.329 7  84838849.868 7      2980.991    23327641.251 4  87134194.458 4
      2322.850    23327638.172          42.750          26.000
  24222929.939 6  93737934.048 6      3169.449    24222934.064 3  94994540.110 3
      2469.701    24222928.536          35.500          18.000
  24305258.335 6  89976233.640 6     -3751.253    24305266.702 3  95331653.817 3
     -2923.055    24305259.681          37.000          18.750
  25120436.185 6  94260043.919 6      3594.515
                                        33.500
  25475435.697 5  96125568.587 5     -3187.533
                                        27.000
 18  2 21  9 33  0.0000000  0  9G30G07G05G09G02G13G28G06G20
  20323659.289 9  69052793.061 9       793.920    20323663.493 8  74833430.901 8
       618.639    20323658.498          54.750          48.500
  20690827.413 9  70982308.344 9      -948.023    20690829.044 8  76336887.836 8
      -738.719    20690827.386          52.750          45.000
  20773434.847 9  71416402.456 9      1486.519    20773436.043 8  76675144.35618
      1158.327    20773434.637          53.000          44.500
  22216413.201 8  78999309.494 8     -2803.870    22216417.560 6  86778217.05616
     -2184.834    22216413.054          49.000          37.000
  22659131.219 7  81325782.912 7     -2373.569    22659130.973 6  84396717.645 6
     -1849.534    22659130.805          44.250          32.500
  23310633.800 7  84749486.382 7      2976.564    23310635.713 4  87064560.604 4
      2319.401    23310633.485          42.000          25.500
  24204840.171 6  93642873.670 6      3167.805    24204844.212 3  94920467.163 3
      2468.419    24204839.430          33.500          14.500
  24326677.319 6  90088776.218 6     -3751.579    24326683.054 3  95419349.188 3
     -2923.309    24326675.898          35.750          18.500
  25099918.764 5  94152230.979 5      3592.804    25099920.859 1  94391394.215 1
      2799.587    25099918.500          32.250           6.500
 18  2 21  9 33 30.0000000  0  9G30G07G05G09G02G13G28G06G20
  20319177.788 9  69029243.140 9       776.095    20319182.126 8  74815080.316 8
       604.750    20319177.197          54.000          48.250
  20696285.123 9  71010987.299 9      -963.852    20696286.433 8  76359235.067 8
      -751.054    20696284.853          54.500          44.500
  20764992.716 9  71372038.860 9      1471.098    20764993.906 7  76640575.32217
      1146.310    20764992.491          52.500          44.000
  22232436.802 8  79083512.957 8     -2809.539    22232441.026 6  86843830.12116
     -2189.251    22232436.646          47.750          37.250
  22672716.041 8  81397171.293 8     -2385.563    22672715.750 6  84452344.908 6
     -1858.880    22672715.861          45.000          32.500
  23293654.089 7  84660257.616 7      2972.097    23293655.915 4  86995031.729 4
      2315.920    23293653.684          44.250          25.000
  24186759.508 6  93547862.328 6      3166.347    24186762.916 2  94846432.387 2
      2467.283    24186760.494          35.250          12.250
  24348095.283 7  90201334.436 7     -3752.161    24348102.451 4  95507056.840 4
     -2923.762    24348095.373          40.250          24.250
  25079413.038 5  94044471.396 5      3591.516    25079417.205 1  94307408.762 1
      2798.584    25079410.184          29.250           1.000
 18  2 21  9 34  0.0000000  0  9G30G07G05G09G02G13G28G06G20
  20314798.456 9  69006228.667 9       758.286    20314802.551 8  74797146.963 8
       590.872    20314797.712          53.250          48.500
  20701832.917 9  71040140.896 9      -979.653    20701834.287 7  76381952.152 7
      -763.366    20701832.618          52.000          44.250
  20756638.549 9  71328138.727 9      1455.703    20756639.991 7  76606367.42717
      1134.314    20756638.540          52.250          44.250
  22248493.294 8  79167889.858 8     -2815.378    22248497.545 6  86909578.33416
     -2193.801    22248493.141          48.250          36.750
  22686369.621 7  81468920.963 7     -2397.483    22686369.495 5  84508253.704 5
     -1868.168    22686369.090          44.250          32.250
  23276700.660 7  84571165.078 7      2967.527    23276701.953 4  86925608.979 4
      2312.359    23276699.440          42.250          25.000
  24168689.931 6  93452903.964 6      3164.468    24168692.944 2  94772438.843 2
      2465.819    24168689.152          35.750          13.250
  24369517.445 7  90313906.508 7     -3752.559    24369523.510 4  95594775.232 4
     -2924.072    24369517.397          40.000          25.750
  25058919.084 6  93936768.473 6      3589.169    25058920.089 2  94223477.409 2
      2796.755    25058917.582          35.750          12.750
 18  2 21  9 34 30.0000000  0  9G30G07G05G09G02G13G28G06G20
  20310520.636 9  68983749.225 9       740.440    20310524.842 8  74779630.513 8
       576.966    20310520.037          52.750          48.750
  20707470.664 9  71069767.747 9      -995.314    20707472.061 8  76405038.006 8
      -775.569    20707470.395          52.250          44.750
  20748373.298 9  71284703.562 9      1440.206    20748374.515 7  76572521.84117
      1122.238    20748373.184          54.000          43.750
  22264582.378 8  79252438.629 8     -2821.046    22264586.512 6  86975460.46316
     -2198.218    22264581.848          48.000          36.750
  22700091.173 7  81541028.517 7     -2409.479    22700090.750 5  84564441.369 5
     -1877.516    22700090.106          44.250          31.750
  23259773.050 7  84482209.022 7      2962.998    23259774.624 4  86856292.572 4
      2308.829    23259772.445          43.750          25.250
  24150632.556 6  93358000.666 6      3162.578    24150635.197 3  94698488.195 3
      2464.347    24150630.460          38.250          15.000
  24390941.223 7  90426488.779 7     -3752.767    24390946.823 4  95682501.627 4
     -2924.234    24390941.178          40.000          24.750
  25038434.344 7  93829123.174 7      3587.362    25038436.847 3  94139597.858 3
      2795.347    25038433.558          40.000          20.000
 18  2 21  9 35  0.0000000  0  9G30G07G05G09G02G13G28G06G20
  20306344.791 9  68961804.092 9       722.509    20306348.838 8  74762530.411 8
       562.994    20306344.107          53.500          48.250
  20713198.058 9  71099865.008 9     -1011.163    20713199.282 8  76428490.408 8
      -787.919    20713197.720          51.000          44.500
  20740196.378 9  71241733.593 9      1424.498    20740197.622 8  76539038.74718
      1109.998    20740196.168          52.000          44.500
  22280703.835 8  79337157.421 8     -2826.781    22280708.110 6  87041475.07816
     -2202.686    22280703.469          47.250          37.000
  22713880.358 7  81613490.655 7     -2421.348    22713879.938 5  84620905.341 5
     -1886.764    22713879.713          44.000          31.750
  23242871.402 8  84393389.617 8      2958.328    23242873.174 4  86787082.666 4
      2305.190    23242870.658          44.750          26.000
  24132583.629 7  93263154.380 7      3160.437    24132586.699 3  94624582.053 3
      2462.678    24132583.716          38.750          17.000
  24412366.275 6  90539077.614 6     -3753.167    24412371.254 4  95770233.135 4
     -2924.546    24412365.849          36.500          21.500
  25017961.792 6  93721536.323 6      3585.276    25017962.977 4  94055763.914 4
      2793.721    25017961.151          38.000          21.250
 18  2 21  9 35 30.0000000  0  9G30G07G05G09G02G13G28G06G20
  20302270.812 9  68940395.505 9       704.572    20302274.947 8  74745848.393 8
       549.017    20302270.183          55.250          48.750
  20719014.925 9  71130433.838 9     -1026.919    20719016.313 8  76452310.270 8
      -800.197    20719014.880          53.000          44.500
  20732108.799 9  71199233.020 9      1408.790    20732110.010 7  76505921.41517
      1097.758    20732108.583          53.250          44.250
  22296857.804 8  79422047.342 8     -2832.584    22296862.094 6  87107623.03916
     -2207.208    22296857.741          46.250          37.000
  22727736.432 7  81686306.617 7     -2433.125    22727736.507 5  84677645.002 5
     -1895.941    22727736.145          44.000          31.250
  23225995.737 7  84304709.133 7      2953.590    23225997.574 5  86717980.993 5
      2301.499    23225995.740          44.000          26.500
  24114547.017 6  93168369.822 6      3158.379    24114548.501 3  94550724.040 3
      2461.075    24114544.865          37.750          17.750
  24433791.875 6  90651672.216 6     -3753.200    24433798.461 3  95857969.108 3
     -2924.571    24433790.730          35.000          16.000
  24997501.347 6  93614012.037 6      3582.881    24997502.639 3  93971978.785 3
      2791.855    24997499.188          33.250          17.750
 18  2 21  9 36  0.0000000  0  9G30G05G07G09G02G13G28G06G20
  20298298.718 9  68919522.092 9       686.866    20298302.915 8  74729583.394 8
       535.220    20298298.080          53.500          48.750
  20724110.594 9  71157201.869 9      1393.167    20724111.787 8  76473169.86718
      1085.584    20724110.417          53.250          44.500
  20724921.194 9  71161471.069 9     -1042.419    20724922.579 7  76476495.117 7
      -812.274    20724921.023          52.250          44.250
  22313044.141 8  79507105.931 8     -2838.232    22313048.116 6  87173902.43316
     -2211.610    22313043.904          48.750          36.750
  22741659.706 7  81759472.345 7     -2444.772    22741659.085 5  84734657.220 5
     -1905.017    22741658.410          44.000          30.750
  23209146.393 7  84216166.707 7      2949.006    23209148.513 5  86648986.907 5
      2297.926    23209146.432          43.250          26.500
  24096521.204 7  93073648.340 7      3156.052    24096523.528 3  94476915.230 3
      2459.261    24096520.704          38.500          17.000
  24455218.674 6  90764268.107 6     -3753.164    24455225.051 3  95945706.109 3
     -2924.544    24455217.613          38.250          15.000
  24977050.420 5  93506550.982 5      3580.822    24977052.578 2  93888242.915 2
      2790.251    24977049.293          31.750          10.000
 18  2 21  9 36 30.0000000  0  9G30G05G07G09G02G13G28G06G20
  20294428.751 9  68899185.191 9       668.901    20294432.915 8  74713736.460 8
       521.222    20294428.047          55.000          48.500
  20716202.168 9  71115643.022 9      1377.403    20716203.430 7  76440786.34717
      1073.301    20716202.090          54.500          44.250
  20730916.617 9  71192976.687 9     -1058.029    20730917.912 8  76501044.942 8
      -824.438    20730916.293          53.250          44.500
  22329262.481 8  79592333.385 8     -2843.709    22329266.456 6  87240313.39916
     -2215.877    22329261.969          47.500          36.250
  22755648.897 7  81832986.481 7     -2456.325    22755648.543 5  84791940.926 5
     -1914.020    22755648.432          43.250          30.500
  23192324.283 7  84127764.679 7      2944.422    23192326.528 5  86580102.245 5
      2294.355    23192324.271          43.500          26.750
  24078508.256 6  92978993.924 6      3153.890    24078511.646 3  94403158.615 3
      2457.577    24078506.841          36.250          16.750
  24476644.715 7  90876863.585 7     -3753.205    24476652.099 3  96033442.802 3
     -2924.575    24476644.946          39.250          20.000
  24956612.156 5  93399155.148 5      3578.957    24956612.950 1  93804568.817 1
      2788.798    24956613.031          30.500           1.000
 18  2 21  9 37  0.0000000  0  9G30G05G07G09G02G13G28G06G20
  20290661.029 9  68879385.317 9       651.145    20290665.115 8  74698307.990 8
       507.385    20290660.255          55.000          48.500
  20708384.147 9  71074558.574 9      1361.745    20708385.418 8  76408772.48718
      1061.100    20708384.117          54.250          44.500
  20737000.848 9  71224949.718 9     -1073.375    20737002.317 8  76525958.984 8
      -836.396    20737000.524          53.000          44.500
  22345512.689 8  79677729.227 8     -2849.156    22345517.081 6  87306855.58516
     -2220.121    22345512.339          48.500          36.500
  22769703.902 7  81906846.455 7     -2467.555    22769703.980 5  84849494.118 5
     -1922.770    22769703.557          43.250          30.250
  23175528.521 8  84039504.140 8      2939.693    23175530.953 5  86511327.829 5
      2290.670    23175528.144          44.500          26.750
  24060508.087 6  92884409.613 6      3151.758    24060511.373 3  94329456.571 3
      2455.915    24060508.507          35.750          16.500
  24498069.854 7  90989456.232 7     -3752.759    24498076.531 4  96121177.301 4
     -2924.228    24498070.316          40.500          23.500
  24936190.968 6  93291828.648 6      3576.487    24936192.722 1  93720922.764 1
      2786.873    24936188.948          35.250           8.250
 18  2 21  9 37 30.0000000  0  9G30G05G07G09G02G13G28G06G20
  20286995.211 9  68860122.049 9       633.111    20286999.436 8  74683297.652 8
       493.333    20286994.585          53.250          48.500
  20700656.394 9  71033949.168 9      1345.630    20700657.572 8  76377128.79418
      1048.543    20700656.325          53.250          44.750
  20743173.776 9  71257388.299 9     -1089.032    20743175.128 7  76551235.796 7
      -848.596    20743173.542          51.250          44.250
  22361794.658 8  79763291.985 8     -2854.900    22361798.927 6  87373527.84016
     -2224.597    22361794.256          47.500          36.500
  22783824.669 7  81981049.241 7     -2479.072    22783824.115 5  84907314.439 5
     -1931.745    22783824.004          43.250          30.750
  23158760.248 7  83951385.063 7      2934.751    23158762.352 4  86442663.622 4
      2286.819    23158760.011          42.000          26.250
  24042523.774 6  92789898.088 6      3149.073    24042525.864 3  94255811.188 3
      2453.823    24042522.287          36.250          15.250
  24519495.655 6  91102042.781 6     -3752.942    24519502.056 4  96208907.011 4
     -2924.370    24519495.829          37.500          23.000
  24915780.666 7  93184572.671 7      3573.845    24915781.847 2  93637346.641 2
      2784.814    24915780.234          39.000          10.250
 18  2 21  9 38  0.0000000  0  9G30G05G07G09G02G13G28G06G20
  20283431.201 9  68841393.270 9       615.414    20283435.425 8  74668703.798 8
       479.544    20283430.586          53.750          48.500
  20693019.025 9  70993814.996 9      1329.880    20693020.245 8  76345855.41018
      1036.270    20693018.992          51.000          44.750
  20749434.476 9  71290288.828 9     -1104.345    20749435.906 7  76576872.568 7
      -860.528    20749434.285          51.500          44.250
  22378107.705 8  79849018.519 8     -2860.233    22378112.241 6  87440327.70616
     -2228.753    22378107.517          48.000          36.500
  22798009.053 8  82055590.060 8     -2490.288    22798009.041 5  84965398.144 5
     -1940.484    22798008.774          44.500          31.000
  23142018.500 7  83863406.104 7      2930.370    23142019.795 4  86374108.615 4
      2283.405    23142018.743          43.500          26.250
  24024554.331 6  92695459.951 6      3146.526    24024555.863 2  94182223.059 2
      2451.838    24024553.908          36.750          14.250
  24540916.156 6  91214618.200 6     -3752.140    24540923.879 4  96296627.994 4
     -2923.745    24540916.822          34.250          20.500
  24895384.169 7  93077386.613 7      3571.562    24895385.512 3  93553824.933 3
      2783.035    24895383.315          39.250          15.500
 18  2 21  9 38 30.0000000  0  9G30G05G07G09G02G13G28G06G20
  20279969.185 9  68823199.628 9       597.443    20279973.284 8  74654526.934 8
       465.540    20279968.559          53.500          48.750
  20685472.559 9  70954158.319 9      1313.844    20685473.842 8  76314954.10018
      1023.775    20685472.526          51.500          44.500
  20755783.070 9  71323650.592 9     -1119.828    20755784.344 7  76602868.760 7
      -872.593    20755782.789          53.000          44.250
  22394452.018 8  79934908.457 8     -2865.796    22394456.689 6  87507254.90616
     -2233.088    22394451.994          48.500          36.000
  22812258.059 7  82130466.800 7     -2501.553    22812257.808 5  85023743.627 5
     -1949.262    22812257.145          43.500          31.500
  23125303.500 7  83775568.560 7      2925.418    23125305.190 4  86305663.776 4
      2279.547    23125303.131          42.000          26.250
  24006597.941 6  92601098.362 6      3144.124    24006599.881 3  94108694.630 3
      2449.967    24006597.132          37.000          15.250
  24562337.949 6  91327180.251 6     -3752.023    24562344.913 3  96384338.563 3
     -2923.655    24562336.924          33.000          15.750
  24875000.734 6  92970272.847 6      3568.930    24875003.202 3  93470359.650 3
      2780.985    24874999.322          36.250          17.000
 18  2 21  9 39  0.0000000  0  9G30G05G07G09G02G13G28G06G20
  20276609.309 9  68805543.420 9       579.574    20276613.411 8  74640768.850 8
       451.616    20276608.599          55.500          48.750
  20678017.740 9  70914982.643 9      1297.765    20678018.924 8  76284427.59318
      1011.245    20678017.635          54.000          44.500
  20762219.632 9  71357474.102 9     -1135.197    20762220.700 7  76629224.731 7
      -884.569    20762219.249          53.750          44.000
  22410827.777 8  80020963.271 8     -2871.221    22410832.490 6  87574310.56516
     -2237.315    22410827.540          47.000          35.750
  22826570.244 7  82205678.849 7     -2512.664    22826570.322 5  85082350.374 5
     -1957.920    22826569.612          43.750          31.250
  23108616.125 7  83687875.515 7      2920.580    23108617.705 5  86237331.551 5
      2275.777    23108615.870          43.750          26.750
  23988656.676 6  92506818.478 6      3141.311    23988659.611 3  94035229.879 3
      2447.775    23988656.067          37.000          16.250
  24583754.484 6  91439728.131 6     -3751.433    24583761.301 2  96472038.150 2
     -2923.194    24583755.563          37.750          14.000
  24854632.118 6  92863235.782 6      3566.383    24854633.539 3  93386954.176 3
      2779.000    24854631.845          33.500          15.500
 18  2 21  9 39 30.0000000  0  9G30G05G07G09G02G13G28G06G20
  20273351.576 9  68788424.015 9       561.713    20273355.764 8  74627429.056 8
       437.699    20273350.889          53.750          48.750
  20670654.412 9  70876288.779 9      1281.766    20670655.839 8  76254276.52918
       998.778    20670654.292          51.250          44.750
  20768743.431 9  71391757.623 9     -1150.463    20768744.759 7  76655939.160 7
      -896.465    20768743.134          52.750          44.250
  22427234.546 8  80107181.090 8     -2876.595    22427239.087 6  87641493.25716
     -2241.502    22427234.486          45.750          35.750
  22840945.994 7  82281222.865 7     -2523.593    22840945.544 5  85141215.793 5
     -1966.437    22840944.807          43.250          30.500
  23091956.184 7  83600327.092 7      2915.839    23091957.851 5  86169112.012 5
      2272.083    23091955.999          43.000          27.250
  23970731.584 6  92412622.899 6      3138.335    23970734.633 3  93961830.782 3
      2445.456    23970730.897          38.250          17.750
  24605168.929 7  91552258.539 7     -3750.714    24605174.493 3  96559724.244 3
     -2922.634    24605169.208          39.750          14.750
  24834277.520 5  92756277.307 5      3564.048    24834280.617 2  93303609.923 2
      2777.180    24834278.219          32.250          14.000
 18  2 21  9 40  0.0000000  0  9G30G05G07G09G02G13G28G06G20
  20270195.903 9  68771840.874 9       543.782    20270200.047 8  74614507.124 8
       423.726    20270195.250          56.250          48.500
  20663383.290 9  70838078.359 9      1265.620    20663384.618 8  76224502.17118
       986.198    20663383.212          54.000          44.500
  20775354.727 9  71426499.431 9     -1165.702    20775356.004 7  76683010.688 7
      -908.339    20775354.433          53.250          44.250
  22443672.052 8  80193560.596 8     -2882.044    22443676.432 6  87708801.94116
     -2245.748    22443671.770          47.750          35.500
  22855383.858 7  82357095.481 7     -2534.550    22855383.579 5  85200337.272 5
     -1974.974    22855382.746          43.500          29.500
  23075323.699 7  83512923.465 7      2911.023    23075325.641 5  86101005.309 5
      2268.329    23075323.198          42.500          27.500
  23952822.753 6  92318513.696 6      3135.525    23952826.431 3  93888498.968 3
      2443.266    23952822.999          37.250          18.750
  24626579.066 7  91664768.105 7     -3749.972    24626585.769 3  96647394.033 3
     -2922.056    24626579.021          38.750          17.250
  24813940.038 6  92649398.366 6      3561.173    24813942.031 2  93220327.602 2
      2774.940    24813940.754          35.500           8.500
 18  2 21  9 40 30.0000000  0  9G30G05G07G09G02G13G28G06G20
  20267142.232 9  68755793.342 9       525.864    20267146.286 8  74602002.554 8
       409.764    20267141.543          54.750          48.750
  20656204.238 9  70800352.091 9      1249.341    20656205.551 8  76195105.07818
       973.512    20656204.088          54.250          44.750
  20782052.468 9  71461696.794 9     -1181.007    20782053.707 8  76710437.194 8
      -920.265    20782052.100          53.000          44.750
  22460140.000 8  80280100.216 8     -2887.551    22460144.224 6  87776235.37716
     -2250.040    22460140.021          47.750          35.250
  22869883.974 7  82433293.604 7     -2545.438    22869883.932 5  85259712.409 5
     -1983.458    22869883.713          42.500          29.500
  23058718.851 7  83425664.377 7      2906.081    23058721.240 5  86033011.237 5
      2264.479    23058717.886          43.250          27.750
  23934930.201 6  92224493.037 6      3132.521    23934933.306 3  93815236.138 3
      2440.925    23934929.802          36.250          18.500
  24647983.966 6  91777253.353 6     -3749.139    24647990.735 3  96735044.787 3
     -2921.407    24647984.619          36.500          19.500
  24793617.341 6  92542600.586 6      3558.503    24793619.382 2  93137108.520 2
      2772.859    24793616.798          37.250          10.000
 18  2 21  9 41  0.0000000  0  9G30G05G07G09G02G13G28G06G20
  20264190.761 9  68740283.585 9       508.048    20264194.829 8  74589917.033 8
       395.882    20264190.143          55.500          49.000
  20649117.963 9  70763113.351 9      1233.197    20649119.249 8  76166087.87118
       960.933    20649117.903          54.500          45.500
  20788837.066 9  71497350.431 9     -1196.035    20788838.403 7  76738219.242 7
      -931.975    20788836.811          53.500          44.000
  22476639.027 8  80366801.215 8     -2892.680    22476643.311 6  87843794.55716
     -2254.036    22476638.484          47.250          35.500
  22884445.898 8  82509816.551 8     -2556.213    22884445.148 5  85319340.657 5
     -1991.854    22884444.720          44.500          29.250
  23042141.863 7  83338553.273 7      2901.245    23042144.207 5  85965132.485 5
      2260.711    23042141.563          43.000          27.750
  23917056.718 6  92130565.663 6      3129.124    23917058.172 3  93742045.978 3
      2438.278    23917055.300          35.750          16.500
  24669383.049 6  91889713.796 6     -3748.171    24669390.304 3  96822676.199 3
     -2920.653    24669383.040          33.000          19.750
  24773311.136 6  92435888.083 6      3555.830    24773311.576 2  93053955.872 2
      2770.777    24773309.879          36.750          14.250
 18  2 21  9 41 30.0000000  0  9G30G05G07G09G02G13G28G06G20
  20261341.230 9  68725309.791 9       490.189    20261345.349 8  74578249.140 8
       381.966    20261340.691          55.000          48.500
  20642124.600 9  70726362.441 9      1216.898    20642125.745 8  76137450.79418
       948.232    20642124.507          54.750          44.750
  20795708.009 9  71533457.263 9     -1211.150    20795709.373 7  76766354.429 7
      -943.754    20795707.673          52.750          44.250
  22493167.814 8  80453660.894 8     -2897.979    22493172.158 6  87911477.39616
     -2258.165    22493167.562          48.500          35.500
  22899068.734 7  82586659.733 7     -2566.741    22899068.704 5  85379218.460 5
     -2000.058    22899068.110          43.000          29.750
  23025593.466 7  83251589.095 7      2896.300    23025595.691 5  85897368.235 5
      2256.858    23025592.879          44.250          27.500
  23899202.102 6  92036732.608 6      3126.102    23899204.806 3  93668929.363 3
      2435.924    23899201.661          37.750          14.500
  24690778.641 6  92002144.684 6     -3747.012    24690784.654 3  96910284.574 3
     -2919.749    24690778.850          33.000          17.750
  24753020.507 6  92329261.353 6      3552.617    24753022.288 3  92970870.087 3
      2768.273    24753019.509          37.250          14.750
 18  2 21  9 42  0.0000000  0  9G30G05G07G09G02G13G28G06G20
  20258594.532 9  68710874.959 9       472.185    20258598.654 8  74567001.222 8
       367.936    20258593.788          52.500          48.750
  20635224.741 9  70690103.999 9      1200.474    20635225.982 8  76109197.45718
       935.434    20635224.699          53.000          44.750
  20802665.565 9  71570019.240 9     -1226.220    20802666.806 7  76794844.276 7
      -955.496    20802665.295          51.250          43.750
  22509727.012 8  80540681.407 8     -2903.271    22509731.650 6  87979285.56116
     -2262.289    22509726.901          45.750          35.500
  22913752.820 7  82663823.688 7     -2577.326    22913752.472 5  85439346.161 5
     -2008.306    22913751.744          43.250          30.500
  23009073.667 7  83164775.194 7      2891.327    23009074.257 5  85829721.051 5
      2252.982    23009073.112          42.500          27.750
  23881365.728 7  91943000.145 7      3122.653    23881367.209 3  93595891.116 3
      2433.236    23881363.899          40.500          15.250
  24712167.468 6  92114546.426 6     -3745.999    24712175.062 3  96997870.183 3
     -2918.960    24712166.287          33.750          16.750
  24732747.498 6  92222725.916 6      3549.841    24732749.897 3  92887855.485 3
      2766.110    24732745.954          34.750          16.000
 18  2 21  9 42 30.0000000  0  9G30G05G07G09G02G13G28G20G06
  20255949.622 9  68696976.285 9       454.344    20255953.807 8  74556171.084 8
       354.034    20255948.950          55.000          48.500
  20628418.415 9  70654336.608 9      1184.011    20628419.710 8  76081326.76118
       922.606    20628418.382          51.500          45.000
  20809708.739 9  71607031.660 9     -1241.288    20809710.011 7  76823685.113 7
      -967.237    20809708.548          53.500          44.250
  22526316.478 8  80627859.146 8     -2908.505    22526321.058 6  88047216.23316
     -2266.368    22526316.262          47.500          35.500
  22928496.484 7  82741302.844 7     -2587.923    22928496.379 5  85499719.471 5
     -2016.563    22928495.339          44.000          30.500
  22992581.508 7  83078110.173 7      2886.369    22992582.608 5  85762189.881 5
      2249.119    22992581.721          44.000          27.500
  23863547.608 6  91849368.413 6      3119.539    23863550.582 3  93522931.398 3
      2430.809    23863546.984          37.750          19.000
  24712491.325 6  92116280.212 6      3546.493    24712493.031 3  92804910.852 3
      2763.501    24712490.081          36.000          16.000
  24733550.750 7  92226913.395 7     -3745.023    24733558.305 3  97085428.839 3
     -2918.200    24733550.648          38.500          18.000
 18  2 21  9 43  0.0000000  0  9G30G05G07G09G02G13G28G20G06
  20253407.091 9  68683614.728 9       436.590    20253411.204 8  74545759.478 8
       340.200    20253406.396          54.500          48.500
  20621706.071 9  70619063.170 9      1167.653    20621707.408 8  76053840.95818
       909.860    20621706.056          51.750          44.750
  20816837.900 9  71644494.428 9     -1256.115    20816839.033 7  76852876.868 7
      -978.791    20816837.570          54.250          44.250
  22542935.526 8  80715194.226 8     -2913.630    22542940.296 6  88115269.50116
     -2270.361    22542935.449          46.750          35.000
  22943299.225 7  82819095.340 7     -2598.135    22943300.095 5  85560336.954 5
     -2024.520    22943299.019          43.000          30.250
  22976118.399 7  82991595.583 7      2881.337    22976119.056 5  85694775.910 5
      2245.197    22976117.641          43.750          27.000
  23845749.841 7  91755841.252 7      3115.866    23845752.878 3  93450053.144 3
      2427.948    23845748.777          38.500          19.500
  24692252.591 6  92009928.398 6      3543.627    24692255.259 3  92722039.333 3
      2761.268    24692251.758          35.750          16.000
  24754927.622 7  92339243.919 7     -3743.538    24754931.981 3  97172959.156 3
     -2917.042    24754928.171          39.000          18.250
 18  2 21  9 43 30.0000000  0  9G30G05G07G09G02G13G28G20G06
  20250966.241 9  68670788.627 9       418.637    20250970.423 8  74535765.112 8
       326.211    20250965.647          53.000          48.750
  20615087.847 9  70584283.409 9      1151.110    20615089.085 8  76026739.83818
       896.969    20615087.694          53.000          45.250
  20824051.836 9  71682404.365 9     -1271.080    20824053.023 8  76882417.074 8
      -990.452    20824051.566          52.500          44.500
  22559584.276 8  80802684.187 8     -2918.903    22559589.069 6  88183443.46416
     -2274.470    22559584.099          47.250          34.750
  22958161.922 7  82897196.888 7     -2608.494    22958161.952 5  85621195.246 5
     -2032.592    22958160.993          42.250          30.250
  22959683.549 7  82905230.466 7      2876.284    22959684.811 5  85627478.438 5
      2241.260    22959683.606          44.000          27.000
  23827972.343 6  91662419.739 6      3112.290    23827974.861 3  93377257.211 3
      2425.161    23827971.141          38.000          19.000
  24672032.199 6  91903669.656 6      3540.386    24672034.411 3  92639240.304 3
      2758.743    24672031.392          36.500          15.250
  24776294.580 7  92451533.698 7     -3742.295    24776299.089 3  97260457.688 3
     -2916.074    24776294.277          38.500          16.250
 18  2 21  9 44  0.0000000  0  9G30G05G07G09G13G02G28G20G06
  20248627.467 9  68658498.309 9       400.782    20248631.709 8  74526188.240 8
       312.298    20248626.840          55.000          48.750
  20608563.961 9  70549999.499 9      1134.524    20608565.172 8  76000025.09818
       884.045    20608563.649          52.500          44.500
  20831350.673 9  71720760.612 9     -1286.025    20831352.109 7  76912305.054 7
     -1002.097    20831350.508          52.750          44.250
  22576262.681 8  80890328.605 8     -2923.977    22576267.156 6  88251737.78616
     -2278.424    22576262.591          47.250          34.750
  22943277.997 7  82819016.332 7      2871.275    22943279.040 5  85560298.614 5
      2237.357    22943276.954          43.250          27.500
  22973082.356 7  82975605.175 7     -2618.859    22973082.440 5  85682292.572 5
     -2040.669    22973082.071          42.500          29.000
  23810215.468 6  91569107.620 6      3108.563    23810219.038 3  93304546.517 3
      2422.257    23810214.742          38.250          18.250
  24651830.537 6  91797508.004 6      3536.791    24651831.844 2  92556516.922 2
      2755.941    24651829.170          35.000          14.250
  24797656.058 6  92563780.475 6     -3740.785    24797661.886 2  97347922.707 2
     -2914.897    24797655.521          34.500          13.750
 18  2 21  9 44 30.0000000  0  9G30G05G07G09G13G02G28G20G06
  20246390.958 9  68646745.619 9       382.768    20246395.221 8  74517030.302 8
       298.261    20246390.353          53.250          49.250
  20602134.858 9  70516214.937 9      1117.821    20602136.144 8  75973699.46018
       871.029    20602134.699          51.250          45.250
  20838734.633 9  71759563.382 9     -1300.860    20838736.072 7  76942540.944 7
     -1013.657    20838734.381          53.750          44.000
  22592970.735 8  80978128.595 8     -2929.334    22592975.136 6  88320153.32416
     -2282.598    22592970.366          47.250          34.750
  22926900.827 8  82732955.376 8      2866.107    22926902.725 5  85493238.144 5
      2233.330    22926900.608          45.000          28.500
  22988061.561 8  83054319.542 8     -2628.775    22988060.146 5  85743628.430 5
     -2048.396    22988061.075          44.500          28.250
  23792480.280 6  91475909.321 6      3104.731    23792482.732 3  93231924.489 3
      2419.271    23792479.042          38.250          17.500
  24631647.801 6  91691447.483 6      3533.546    24631650.175 2  92473872.303 2
      2753.412    24631648.158          34.750          11.500
  24819002.375 5  92675983.575 5     -3739.434    24819013.533 2  97435353.604 2
     -2913.845    24819005.490          30.500          14.250
 18  2 21  9 45  0.0000000  0  9G30G05G07G09G13G02G28G20G06
  20244256.637 9  68635528.749 9       365.019    20244260.753 8  74508289.885 8
       284.431    20244255.908          54.750          48.500
  20595800.738 9  70482929.345 9      1101.270    20595802.093 8  75947762.62718
       858.133    20595800.600          53.250          45.250
  20846203.006 9  71798809.495 9     -1315.502    20846204.418 7  76973122.323 7
     -1025.066    20846202.691          53.250          43.750
  22609707.521 8  81066081.572 8     -2934.198    22609712.111 6  88388688.08516
     -2286.388    22609707.383          46.500          34.750
  22910552.988 7  82647047.425 7      2861.013    22910555.656 5  85426296.921 5
      2229.361    22910552.449          44.250          29.250
  23003098.144 7  83133335.328 7     -2638.851    23003096.848 5  85805199.154 5
     -2056.247    23003096.752          44.000          28.000
  23774767.624 7  91382826.384 7      3100.893    23774769.947 3  93159392.353 3
      2416.280    23774766.404          39.000          17.500
  24611484.099 6  91585487.857 6      3530.326    24611486.069 2  92391306.396 2
      2750.903    24611484.201          33.750          11.750
  24840349.355 6  92788138.503 6     -3737.506    24840354.802 2  97522746.878 2
     -2912.342    24840349.346          32.750          12.500
 18  2 21  9 45 30.0000000  0  9G30G05G07G09G13G02G28G20G06
  20242224.149 9  68624848.250 9       347.046    20242228.358 8  74499967.419 8
       270.425    20242223.501          55.000          49.000
  20589562.195 9  70450145.502 9      1084.399    20589563.505 8  75922216.76818
       844.986    20589562.120          53.750          45.750
  20853755.426 9  71838498.362 9     -1330.380    20853756.703 7  77004048.702 7
     -1036.659    20853755.084          53.000          43.750
  22626473.885 8  81154187.412 8     -2939.519    22626477.929 6  88457341.95616
     -2290.535    22626473.681          47.250          35.000
  22894234.562 7  82561293.967 7      2855.769    22894236.880 5  85359476.053 5
      2225.274    22894233.957          43.250          29.250
  23018191.321 7  83212650.857 7     -2648.856    23018191.108 5  85867003.421 5
     -2064.044    23018190.376          44.000          28.500
  23757076.799 7  91289862.229 7      3096.805    23757080.292 3  93086952.790 3
      2413.095    23757076.535          39.250          18.250
  24591340.885 6  91479632.098 6      3526.681    24591343.688 2  92308821.425 2
      2748.063    24591340.474          36.000          13.500
  24861682.263 6  92900243.141 6     -3736.073    24861688.120 3  97610101.076 3
     -2911.225    24861681.489          38.250          15.250
