     2.11           OBSERVATION DATA    G (GPS)             RINEX VERSION / TYPE
teqc  2016Nov7                          20180403 09:56:50UTCPGM / RUN BY / DATE
Linux 2.4.21-27.ELsmp|Opteron|gcc|Linux x86_64|=+           COMMENT
teqc  2016Nov7                          20180403 09:56:50UTCCOMMENT
     2.11           OBSERVATION DATA    M (MIXED)           COMMENT
teqc  2016Nov7                          20180403 09:56:49UTCCOMMENT
teqc  2016Nov7      IGN-RGP             20180221 09:10:37UTCCOMMENT
TPP 3.10.3                              21-FEB-18 08:00     COMMENT
                                                            COMMENT
                                                            COMMENT
                                                            COMMENT
MOMO                                                        MARKER NAME
19616M001                                                   MARKER NUMBER
Automatic           SAT-INFO                                OBSERVER / AGENCY
5349K48426          TRIMBLE NETR9       5.14                REC # / TYPE / VERS
5000114608          TRM57971.00     NONE                    ANT # / TYPE
  4140686.3130   106260.3200  4834180.0680                  APPROX POSITION XYZ
        0.0000        0.0000        0.0000                  ANTENNA: DELTA H/E/N
     1     1                                                WAVELENGTH FACT L1/2
     9    C1    L1    S1    P2    L2    S2    C5    L5    S5# / TYPES OF OBSERV
    30.0000                                                 INTERVAL
     0                                                      RCV CLOCK OFFS APPL
    18                                                      LEAP SECONDS
Forced Modulo Decimation to 30 seconds                      COMMENT
teqc_2016 edited: all GLONASS satellites excluded           COMMENT
teqc_2016 edited: all SBAS satellites excluded              COMMENT
teqc_2016 edited: all Galileo satellites excluded           COMMENT
  2018     2    21     8     0    0.0000000     GPS         TIME OF FIRST OBS
                                                            END OF HEADER
 18  2 21  8  0  0.0000000  0  8G02G05G06G07G09G16G23G30
  21831642.117   114726042.621 6        46.800    21831642.402    89396912.950 8
        36.200
  23541927.844   123713661.170 6        44.300    23541929.594    96400271.150 6
        25.000
  21210825.953   111463645.581 7        49.400    21210831.188    86854794.539 9
        41.500
  21673508.008   113895071.138 8        52.500    21673511.676    88749420.046 8
        39.800
  20270793.492   106523755.305 8        52.600    20270798.355    83005549.956 9
        45.800
  24248339.398   127425888.351 5        40.800    24248339.645    99292903.265 6
        20.100
  22638809.359   118967760.507 6        47.000    22638809.785    92702156.423 8
        33.200
  23015043.914   120944875.705 7        47.800    23015049.156    94242793.273 8
        35.000
 18  2 21  8  0 30.0000000  0  8G02G05G06G07G09G16G23G30
  21827172.797   114702555.659 6        46.000    21827172.766    89378611.422 8
        36.500
  23523350.625   123616030.359 6        45.200    23523352.172    96324195.207 7
        28.100
  21222197.203   111523405.840 7        49.200    21222202.641    86901360.955 9
        41.500
  21660591.320   113827191.512 7        51.900    21660594.633    88696526.837 8
        40.100
  20277127.750   106557040.360 8        52.100    20277131.742    83031486.352 9
        45.300
  24243236.297   127399069.044 5        40.900    24243236.613    99272005.147 6
        20.100
  22653586.516   119045412.209 7        47.500    22653586.531    92762664.213 8
        33.600
  22995304.305   120841146.500 7        47.200    22995309.375    94161965.357 8
        35.200
 18  2 21  8  1  0.0000000  0  8G02G05G06G07G09G16G23G30
  21822804.828   114679604.917 6        45.900    21822805.395    89360727.720 8
        35.900
  23504793.773   123518517.330 6        44.800    23504796.570    96248211.056 7
        28.000
  21233667.508   111583680.899 7        48.000    21233673.078    86948328.516 9
        41.300
  21647754.250   113759733.699 7        51.200    21647757.453    88643962.316 8
        39.200
  20283534.852   106590710.609 7        51.400    20283539.063    83057722.914 9
        45.300
  24238240.953   127372823.932 5        39.800    24238242.191    99251554.415 6
        19.300
  22668397.359   119123243.485 7        47.600    22668397.652    92823311.945 8
        33.100
  22975606.773   120737635.511 6        47.000    22975612.027    94081307.473 8
        34.800
 18  2 21  8  1 30.0000000  0  8G02G05G06G07G09G16G23G30
  21818539.938   114657191.095 6        46.000    21818539.699    89343262.403 8
        36.400
  23486261.148   123421123.496 6        45.300    23486262.637    96172319.747 7
        28.200
  21245235.430   111644468.728 7        48.100    21245240.445    86995695.641 9
        41.300
  21634997.984   113692699.416 7        51.900    21635000.648    88591727.810 8
        38.900
  20290015.063   106624764.774 7        51.500    20290019.297    83084258.623 9
        45.300
  24233357.039   127347154.743 5        39.600    24233357.516    99231552.433 6
        22.000
  22683241.422   119201253.040 7        47.200    22683242.016    92884098.589 8
        33.200
  22955951.617   120634345.234 7        48.000    22955956.773    94000821.558 8
        35.700
 18  2 21  8  2  0.0000000  0  8G02G05G06G07G09G16G23G30
  21814376.742   114635315.195 6        46.600    21814376.957    89326216.251 8
        36.000
  23467750.969   123323851.014 6        45.800    23467753.355    96096523.007 7
        29.700
  21256899.938   111705767.339 7        49.000    21256905.582    87043460.764 8
        40.400
  21622322.617   113626090.643 7        51.100    21622325.180    88539824.863 8
        39.000
  20296567.961   106659201.547 8        53.000    20296572.008    83111092.470 9
        45.300
  24228581.484   127322062.201 4        39.000    24228582.766    99211999.828 6
        22.300
  22698120.336   119279439.733 6        47.000    22698120.781    92945023.268 8
        33.100
  22936338.984   120531278.078 7        47.700    22936343.828    93920509.539 8
        35.200
 18  2 21  8  2 30.0000000  0  8G02G05G06G07G09G16G23G30
  21810316.969   114613978.467 6        46.700    21810317.008    89309590.231 8
        35.800
  23449262.945   123226700.484 6        43.900    23449265.531    96020821.307 7
        28.700
  21268661.508   111767575.092 7        48.800    21268667.012    87091622.647 8
        40.900
  21609728.984   113559909.148 8        52.100    21609731.172    88488254.842 8
        38.900
  20303193.781   106694020.088 8        52.300    20303197.332    83138223.791 9
        45.500
  24223916.570   127297548.496 5        39.400    24223918.797    99192898.250 6
        21.100
  22713032.250   119357802.705 7        47.200    22713032.652    93006085.304 7
        32.300
  22916768.523   120428436.943 7        48.400    22916773.789    93840373.621 8
        35.500
 18  2 21  8  3  0.0000000  0  8G02G05G06G07G09G16G23G30
  21806359.266   114593181.630 6        47.000    21806359.859    89293384.900 8
        36.500
  23430799.547   123129674.334 6        43.400    23430802.094    95945216.510 7
        28.600
  21280519.836   111829889.729 7        48.200    21280525.480    87140179.495 9
        41.300
  21597216.891   113494156.702 8        52.100    21597219.188    88437019.170 8
        39.300
  20309891.875   106729218.875 8        52.100    20309895.543    83165651.416 9
        44.900
  24219362.070   127273614.703 5        39.500    24219364.246    99174248.564 6
        21.300
  22727977.258   119436340.176 7        47.400    22727977.891    93067283.315 7
        32.800
  22897241.508   120325824.037 7        48.300    22897246.973    93760415.544 8
        35.500
 18  2 21  8  3 30.0000000  0  8G02G05G06G07G09G16G23G30
  21802504.289   114572925.549 6        47.000    21802504.648    89277600.926 8
        36.200
  23412360.406   123032773.834 5        42.000    23412362.836    95869709.628 7
        27.400
  21292474.195   111892709.317 7        49.400    21292479.281    87189129.816 9
        41.200
  21584786.672   113428835.245 7        51.900    21584788.727    88386119.347 8
        39.200
  20316662.266   106764796.813 8        53.000    20316665.988    83193374.480 9
        45.400
  24214919.047   127250262.498 5        39.200    24214920.141    99156052.026 6
        21.800
  22742955.750   119515051.128 6        47.000    22742955.875    93128616.499 7
        32.600
  22877758.797   120223441.984 7        48.900    22877764.980    93680637.371 8
        35.800
 18  2 21  8  4  0.0000000  0  8G02G05G06G07G09G16G23G30
  21798753.414   114553211.494 7        47.700    21798753.426    89262239.327 8
        36.800
  23393943.250   122935999.965 5        41.100    23393946.371    95794301.463 6
        25.900
  21304523.766   111956032.274 7        48.700    21304529.137    87238472.387 8
        40.900
  21572438.391   113363947.003 8        52.100    21572440.730    88335557.088 8
        38.600
  20323504.539   106800753.081 8        52.700    20323508.281    83221392.340 9
        45.000
  24210586.219   127227493.562 5        39.800    24210588.406    99138310.021 6
        20.400
  22757966.555   119593934.916 7        47.500    22757966.797    93190084.361 7
        32.200
  22858321.102   120121293.735 7        48.600    22858326.863    93601041.374 8
        35.500
 18  2 21  8  4 30.0000000  0  8G02G05G06G07G09G16G23G30
  21795105.500   114534039.966 7        47.400    21795104.840    89247300.479 8
        36.800
  23375552.953   122839354.822 5        40.600    23375555.359    95718993.570 6
        25.600
  21316668.992   112019856.451 7        49.000    21316674.910    87288205.507 8
        40.500
  21560173.742   113299493.608 7        51.400    21560175.934    88285333.673 8
        38.900
  20330418.586   106837086.347 8        53.200    20330422.727    83249703.965 9
        45.500
  24206363.445   127205308.850 4        37.200    24206366.398    99121023.231 6
        21.100
  22773010.164   119672990.111 7        47.400    22773010.281    93251685.795 7
        32.700
  22838927.875   120019381.649 7        49.000    22838933.301    93521629.404 8
        36.000
 18  2 21  8  5  0.0000000  0  8G02G05G06G07G09G16G23G30
  21791560.570   114515411.293 7        48.300    21791560.105    89232784.617 8
        36.500
  23357187.273   122742840.369 6        42.300    23357189.785    95643787.515 7
        27.600
  21328909.617   112084179.458 7        48.200    21328914.742    87338327.331 8
        40.600
  21547991.164   113235476.260 7        51.200    21547993.816    88235450.040 8
        40.100
  20337403.828   106873795.046 7        52.000    20337408.434    83278308.145 9
        45.300
  24202253.609   127183709.608 4        37.100    24202256.086    99104192.665 6
        20.400
  22788086.578   119752215.054 7        47.200    22788086.438    93313419.494 7
        32.300
  22819579.898   119917707.945 7        48.700    22819585.480    93442403.174 8
        36.400
 18  2 21  8  5 30.0000000  0  8G02G05G06G07G09G16G23G30
  21788118.906   114497326.727 7        47.600    21788118.758    89218692.739 8
        36.600
  23338846.359   122646458.354 6        43.400    23338849.602    95568684.651 7
        28.700
  21341244.469   112148999.164 7        49.300    21341249.172    87388836.194 8
        40.200
  21535892.711   113171896.786 7        51.600    21535895.051    88185907.606 8
        39.800
  20344460.602   106910877.921 8        52.100    20344465.301    83307203.879 9
        45.300
  24198254.391   127162697.139 3        37.000    24198258.004    99087819.321 6
        19.300
  22803194.977   119831608.462 7        48.700    22803195.156    93375284.475 7
        32.600
  22800277.711   119816275.071 7        49.100    22800283.359    93363364.610 8
        36.000
 18  2 21  8  6  0.0000000  0  8G02G05G06G07G09G16G23G30
  21784781.422   114479787.223 7        48.100    21784781.234    89205025.595 8
        36.200
  23320531.492   122550209.901 6        43.600    23320534.098    95493685.867 7
        29.200
  21353673.070   112214313.774 7        48.000    21353678.516    87439730.696 8
        40.500
  21523877.938   113108757.296 7        51.300    21523879.793    88136708.014 8
        40.100
  20351587.984   106948334.001 8        52.100    20351592.895    83336390.428 9
        45.800
  24194367.477   127142272.917 4        37.200    24194370.859    99071904.359 6
        19.600
  22818334.391   119911169.459 7        47.300    22818335.512    93437280.039 7
        32.200
  22781022.438   119715085.771 7        49.600    22781027.613    93284515.828 8
        36.100
 18  2 21  8  6 30.0000000  0  8G02G05G06G07G09G16G23G30
  21781547.016   114462793.265 7        48.200    21781547.391    89191783.546 8
        36.700
  23302242.109   122454096.244 6        46.700    23302244.652    95418792.109 7
        30.500
  21366196.086   112280121.275 7        49.000    21366201.266    87491009.264 8
        40.100
  21511946.625   113046059.337 7        50.900    21511948.867    88087852.472 8
        39.800
  20358786.406   106986162.155 8        53.000    20358791.164    83365866.896 9
        45.400
  24190593.078   127122438.284 3        36.200    24190596.324    99056448.797 5
        17.400
  22833506.188   119990897.110 6        46.800    22833506.762    93499405.451 7
        31.600
  22761813.453   119614142.708 7        49.400    22761818.824    93205858.927 8
        36.100
 18  2 21  8  7  0.0000000  0  8G02G05G06G07G09G16G23G30
  21778416.852   114446346.254 6        47.000    21778417.219    89178967.700 8
        36.000
  23283977.211   122358119.498 6        44.900    23283980.836    95344005.039 7
        28.800
  21378812.180   112346419.657 7        48.900    21378817.137    87542670.341 8
        40.100
  21500100.031   112983804.871 7        51.200    21500102.539    88039342.500 8
        39.400
  20366055.750   107024361.248 8        53.000    20366060.297    83395632.414 9
        45.200
  24186931.156   127103194.402 3        36.200    24186933.602    99041453.617 6
        19.300
  22848709.156   120070790.099 6        47.000    22848709.941    93561659.699 7
        31.300
  22742651.609   119513448.416 7        49.000    22742657.168    93127395.892 8
        35.700
 18  2 21  8  7 30.0000000  0  8G02G05G06G07G09G16G23G30
  21775391.664   114430445.993 6        47.000    21775391.414    89166577.879 8
        36.100
  23265740.648   122262281.316 6        45.200    23265744.039    95269325.940 7
        30.800
  21391521.063   112413206.636 7        49.800    21391526.125    87594712.120 8
        40.000
  21488337.820   112921995.487 7        51.300    21488340.297    87991179.354 8
        39.400
  20373394.977   107062929.903 7        51.500    20373399.602    83425685.899 9
        45.200
  24183382.375   127084542.587 3        37.000    24183385.266    99026919.743 6
        20.400
  22863944.125   120150847.178 7        47.800    22863944.641    93624041.825 7
        32.800
  22723537.711   119413005.302 7        49.300    22723543.871    93049128.555 8
        36.400
 18  2 21  8  8  0.0000000  0  8G02G05G06G07G09G16G23G30
  21772470.242   114415093.766 7        47.500    21772470.578    89154615.099 8
        36.100
  23247528.992   122166583.331 6        44.700    23247532.820    95194756.123 7
        29.400
  21404322.938   112480479.854 7        49.900    21404328.215    87647132.776 8
        40.500
  21476661.297   112860632.734 7        51.600    21476663.461    87943364.237 8
        39.900
  20380804.758   107101866.697 8        53.400    20380808.578    83456026.250 9
        45.300
  24179946.500   127066483.876 4        38.400    24179948.398    99012848.025 6
        19.000
  22879209.023   120231066.865 7        48.000    22879209.902    93686550.652 7
        31.600
  22704472.148   119312815.663 7        48.800    22704477.566    92971058.730 8
        35.900
 18  2 21  8  8 30.0000000  0  8G02G05G06G07G09G16G23G30
  21769653.453   114400290.038 7        47.300    21769653.688    89143079.727 8
        36.700
  23229345.922   122071027.269 6        45.000    23229348.070    95120296.850 7
        31.300
  21417217.094   112548237.458 7        50.000    21417221.750    87699930.894 8
        40.200
  21465069.789   112799718.471 7        51.500    21465072.488    87895898.586 8
        39.700
  20388284.078   107141170.573 8        52.500    20388288.051    83486652.638 9
        45.400
  24176622.406   127049019.291 4        38.800    24176624.863    98999239.232 6
        20.100
  22894504.445   120311448.314 7        47.600    22894506.238    93749185.519 7
        32.000
  22685455.602   119212882.143 7        48.700    22685460.984    92893188.476 8
        36.000
 18  2 21  8  9  0.0000000  0  8G02G05G06G07G09G16G23G30
  21766940.938   114386035.610 7        48.000    21766940.910    89131972.375 8
        36.600
  23211189.250   121975614.880 6        44.100    23211192.250    95045949.554 7
        28.600
  21430202.703   112616477.239 7        49.300    21430207.633    87753104.746 8
        40.500
  21453563.688   112739254.246 7        51.700    21453566.930    87848783.620 8
        40.000
  20395833.008   107180840.370 8        53.000    20395836.973    83517564.162 9
        44.900
  24173413.125   127032150.310 5        40.200    24173414.945    98986094.580 6
        19.300
  22909831.930   120391990.378 7        47.500    22909833.219    93811945.545 7
        31.900
  22666488.070   119113207.341 7        49.300    22666492.996    92815519.819 8
        36.400
 18  2 21  8  9 30.0000000  0  8G02G05G06G07G09G16G23G30
  21764333.195   114372331.241 7        47.500    21764332.762    89121293.639 8
        35.700
  23193061.070   121880347.358 6        44.900    23193063.527    94971715.129 7
        30.200
  21443279.367   112685197.192 7        49.300    21443284.680    87806652.750 8
        40.500
  21442143.461   112679241.835 7        51.900    21442146.473    87802020.722 8
        39.400
  20403451.281   107220874.967 8        53.600    20403455.504    83548759.939 9
        45.000
  24170316.805   127015877.960 5        39.500    24170318.418    98973414.841 6
        21.100
  22925188.797   120472692.071 7        47.500    22925189.582    93874829.968 7
        32.000
  22647570.750   119013793.901 7        49.200    22647575.945    92738054.821 8
        35.800
 18  2 21  8 10  0.0000000  0  8G02G05G06G07G09G16G23G30
  21761829.625   114359177.267 6        46.400    21761830.188    89111043.783 8
        36.200
  23174959.539   121785226.454 6        45.200    23174962.148    94897594.951 7
        30.400
  21456447.250   112754394.836 7        49.300    21456452.707    87860572.976 8
        39.700
  21430809.672   112619682.790 7        51.500    21430813.059    87755611.087 8
        40.000
  20411138.805   107261272.904 8        53.400    20411143.137    83580238.845 9
        45.400
  24167334.438   127000203.428 5        40.900    24167335.570    98961200.895 6
        20.400
  22940575.773   120553551.688 7        47.500    22940576.582    93937837.438 7
        31.900
  22628703.422   118914644.028 7        48.800    22628707.754    92660795.200 8
        36.200
 18  2 21  8 10 30.0000000  0  8G02G05G06G07G09G16G23G30
  21759431.398   114346574.400 7        47.600    21759431.637    89101223.370 8
        36.400
  23156887.320   121690253.905 6        46.000    23156888.711    94823590.359 7
        29.100
  21469705.750   112824068.159 7        49.300    21469711.215    87914863.864 8
        40.300
  21419562.594   112560578.639 7        51.500    21419564.977    87709555.910 8
        39.700
  20418895.008   107302033.091 8        52.800    20418899.863    83612000.027 9
        45.500
  24164464.320   126985127.723 5        40.800    24164466.715    98949453.624 6
        20.900
  22955992.984   120634568.466 6        47.000    22955993.219    94000967.381 7
        31.900
  22609885.883   118815760.355 7        49.500    22609891.551    92583742.997 8
        35.900
 18  2 21  8 11  0.0000000  0  8G02G05G06G07G09G16G23G30
  21757138.656   114334523.336 7        47.200    21757138.613    89091832.925 8
        36.300
  23138843.414   121595431.731 6        46.400    23138845.680    94749702.976 7
        30.000
  21483054.273   112894214.829 7        50.400    21483059.598    87969523.593 8
        40.000
  21408402.313   112501930.990 7        51.500    21408404.871    87663856.454 8
        39.400
  20426719.773   107343154.203 8        53.300    20426724.371    83644042.437 9
        45.200
  24161709.813   126970651.446 5        39.200    24161711.895    98938173.382 6
        20.400
  22971439.711   120715741.309 6        45.900    22971439.766    94064218.927 7
        31.200
  22591120.141   118717145.329 7        48.600    22591125.504    92506900.142 8
        36.500
 18  2 21  8 11 30.0000000  0  8G02G05G06G07G09G16G23G30
  21754949.984   114323024.384 6        46.900    21754950.125    89082872.684 8
        35.900
  23120828.086   121500761.475 6        46.900    23120829.844    94675933.938 7
        31.100
  21496492.125   112964832.495 7        49.000    21496497.527    88024550.330 8
        40.300
  21397329.211   112443741.418 7        51.800    21397331.645    87618513.947 8
        39.600
  20434613.531   107384634.882 8        52.100    20434617.766    83676365.042 9
        45.400
  24159069.469   126956775.880 5        40.600    24159071.324    98927361.257 6
        19.300
  22986915.297   120797068.715 6        46.000    22986916.074    94127590.910 7
        31.000
  22572406.031   118618801.335 7        48.400    22572411.250    92430268.483 8
        36.400
 18  2 21  8 12  0.0000000  0  8G02G05G06G07G09G16G23G30
  21752867.070   114312078.068 6        45.800    21752867.070    89074343.078 8
        35.800
  23102841.758   121406244.490 6        46.700    23102844.582    94602284.359 7
        31.400
  21510019.563   113035919.074 7        49.400    21510024.770    88079942.468 8
        39.600
  21386343.711   112386011.596 7        51.400    21386346.148    87573529.684 8
        40.000
  20442575.453   107426474.055 8        53.000    20442579.699    83708966.995 9
        45.000
  24156543.547   126943502.054 5        40.500    24156545.789    98917017.992 6
        21.500
  23002420.438   120878550.108 6        46.200    23002420.969    94191082.895 7
        30.700
  22553743.734   118520730.925 7        48.400    22553748.785    92353849.999 8
        36.600
 18  2 21  8 12 30.0000000  0  8G02G05G06G07G09G16G23G30
  21750889.172   114301684.926 6        46.200    21750889.473    89066244.524 8
        35.700
  23084885.359   121311882.958 6        45.000    23084887.680    94528755.887 7
        31.000
  21523635.773   113107472.223 7        49.600    21523641.504    88135698.161 8
        40.000
  21375446.047   112328743.158 7        51.800    21375448.441    87528904.953 8
        40.300
  20450604.930   107468670.365 8        53.700    20450609.051    83741847.230 9
        44.800
  24154132.422   126930830.798 5        40.700    24154133.805    98907144.279 6
        20.600
  23017954.734   120960183.876 6        45.400    23017956.172    94254693.607 7
        31.000
  22535133.883   118422936.578 7        47.300    22535139.227    92277646.636 8
        36.300
 18  2 21  8 13  0.0000000  0  8G02G05G06G07G09G16G23G30
  21749016.953   114291845.665 6        44.800    21749016.684    89058577.568 8
        35.900
  23066958.930   121217678.253 7        47.200    23066961.285    94455349.630 7
        31.400
  21537340.047   113179489.657 7        49.900    21537345.551    88191815.628 8
        39.900
  21364635.648   112271937.108 7        51.600    21364638.887    87484640.514 8
        40.900
  20458702.203   107511222.629 8        52.900    20458706.863    83775004.841 9
        45.300
  24151836.648   126918763.040 5        41.100    24151838.988    98897740.809 6
        21.500
  23033519.055   121041968.950 6        46.600    23033519.559    94318422.203 7
        31.200
  22516576.813   118325420.704 7        48.300    22516582.109    92201660.244 8
        35.700
 18  2 21  8 13 30.0000000  0  8G02G05G06G07G09G16G23G30
  21747250.539   114282560.934 6        45.800    21747250.586    89051342.710 8
        35.900
  23049062.094   121123631.303 7        47.500    23049064.355    94382066.288 7
        30.900
  21551132.898   113251969.533 7        49.500    21551138.281    88248293.440 8
        39.200
  21353914.477   112215596.115 8        52.400    21353916.965    87440738.453 8
        40.400
  20466867.305   107554130.023 8        53.000    20466871.645    83808439.160 9
        44.600
  24149654.617   126907300.564 4        38.400    24149656.918    98888809.001 6
        20.100
  23049110.234   121123904.689 6        45.600    23049111.746    94382268.206 7
        30.900
  22498073.891   118228186.302 7        48.300    22498079.258    92125893.196 8
        36.000
 18  2 21  8 14  0.0000000  0  8G02G05G06G07G09G16G23G30
  21745589.398   114273830.698 6        47.000    21745589.457    89044539.923 8
        36.800
  23031195.734   121029744.983 6        46.100    23031199.086    94308908.141 7
        31.200
  21565012.453   113324908.850 7        49.300    21565017.859    88305129.225 8
        39.500
  21343281.984   112159720.748 7        51.700    21343284.098    87397199.216 8
        40.100
  20475099.750   107597390.672 8        53.000    20475103.953    83842148.759 9
        45.000
  24147588.711   126896443.150 5        39.500    24147591.508    98880348.698 6
        21.700
  23064730.766   121205989.402 6        45.900    23064732.230    94446230.290 7
        29.900
  22479624.945   118131235.162 7        48.800    22479630.133    92050346.894 8
        36.200
 18  2 21  8 14 30.0000000  0  8G02G05G06G07G09G16G23G30
  21744033.563   114265655.685 6        47.000    21744033.352    89038169.776 8
        36.400
  23013361.070   120936021.239 6        44.200    23013363.332    94235876.670 7
        30.300
  21578979.430   113398305.469 7        49.800    21578984.738    88362321.353 8
        40.000
  21332737.969   112104312.556 7        51.900    21332740.719    87354024.014 8
        40.400
  20483398.859   107641003.423 8        53.700    20483402.961    83876132.711 9
        44.800
  24145637.867   126886191.832 5        40.300    24145641.086    98872360.640 6
        20.400
  23080379.234   121288221.919 6        46.200    23080379.879    94510307.559 7
        30.900
  22461230.375   118034569.853 7        47.200    22461235.246    91975023.320 8
        37.200
 18  2 21  8 15  0.0000000  0  8G02G05G06G07G09G16G23G30
  21742583.086   114258035.954 6        45.900    21742582.891    89032232.309 8
        36.100
  22995557.313   120842461.235 6        46.300    22995559.406    94162972.764 7
        31.200
  21593033.031   113472156.886 7        50.200    21593038.285    88419867.856 8
        39.700
  21322283.352   112049372.797 7        51.900    21322285.996    87311213.832 8
        40.700
  20491764.930   107684966.923 8        53.500    20491769.422    83910389.981 9
        45.200
  24143802.109   126876547.533 4        38.900    24143805.316    98864845.584 6
        21.100
  23096055.305   121370601.014 6        46.000    23096055.984    94574499.041 7
        31.100
  22442889.961   117938192.655 7        47.800    22442895.156    91899924.221 8
        36.700
 18  2 21  8 15 30.0000000  0  8G02G05G06G07G09G16G23G30
  21741239.281   114250972.483 6        46.600    21741238.898    89026728.307 8
        36.200
  22977785.156   120749066.878 6        45.100    22977787.621    94090197.936 7
        30.600
  21607172.750   113546461.244 7        49.500    21607178.102    88477767.319 8
        39.200
  21311917.891   111994903.633 7        51.400    21311920.664    87268770.338 8
        40.200
  20500197.648   107729280.333 8        53.100    20500201.922    83944919.910 9
        45.200
  24142082.539   126867510.897 4        38.100    24142085.184    98857804.039 6
        20.400
  23111759.563   121453126.219 6        44.900    23111760.777    94638804.383 7
        30.200
  22424605.125   117842106.484 7        47.800    22424610.211    91825051.898 8
        36.600
 18  2 21  8 16  0.0000000  0  8G02G05G06G07G09G16G23G30
  21740001.141   114244465.784 7        47.900    21740001.012    89021658.149 8
        36.000
  22960044.195   120655839.240 6        46.600    22960046.570    94017553.036 7
        30.400
  21621398.086   113621216.319 7        49.500    21621403.590    88536017.967 8
        39.400
  21301642.602   111940906.783 7        51.200    21301645.285    87226694.875 8
        40.000
  20508696.234   107773942.550 8        53.000    20508700.402    83979721.630 9
        44.600
  24140478.977   126859083.234 4        38.700    24140481.793    98851236.991 6
        20.900
  23127491.570   121535796.640 6        45.400    23127491.793    94703222.851 7
        30.300
  22406376.281   117746313.912 7        47.100    22406381.582    91750408.362 8
        36.000
 18  2 21  8 16 30.0000000  0  8G02G05G06G07G09G16G23G30
  21738868.547   114238515.703 6        46.700    21738869.184    89017021.704 8
        36.900
  22942336.023   120562780.610 7        47.300    22942338.391    93945039.828 7
        31.400
  21635708.617   113696419.386 7        49.800    21635714.086    88594617.715 8
        39.400
  21291457.469   111887382.902 7        51.600    21291460.301    87184987.978 8
        40.900
  20517261.641   107818951.995 8        53.300    20517265.547    84014793.911 9
        44.500
  24138990.922   126851264.880 4        38.800    24138993.859    98845144.820 6
        19.900
  23143250.555   121618610.470 6        44.900    23143251.574    94767753.096 7
        30.200
  22388203.820   117650817.103 7        47.300    22388209.438    91675995.283 8
        36.000
 18  2 21  8 17  0.0000000  0  8G02G05G06G07G09G16G23G30
  21737842.680   114233122.764 6        46.100    21737842.262    89012819.402 8
        36.200
  22924659.305   120469892.867 6        46.000    22924662.543    93872659.779 7
        31.700
  21650104.102   113772068.060 7        48.600    21650109.738    88653564.686 8
        38.900
  21281362.672   111834333.691 7        51.600    21281365.121    87143650.939 8
        40.200
  20525892.109   107864307.418 8        53.000    20525896.355    84050135.790 9
        44.900
  24137619.203   126844056.555 4        38.100    24137622.449    98839527.911 6
        20.900
  23159036.000   121701566.720 6        45.600    23159037.828    94832394.305 7
        30.500
  22370088.781   117555618.402 7        48.700    22370093.527    91601814.495 8
        35.900
 18  2 21  8 17 30.0000000  0  8G02G05G06G07G09G16G23G30
  21736921.883   114228286.736 6        45.500    21736922.520    89009051.073 8
        35.900
  22907016.875   120377177.969 6        45.300    22907018.809    93800414.420 7
        31.900
  21664584.086   113848159.771 7        50.000    21664589.246    88712856.852 8
        39.000
  21271358.250   111781760.370 8        52.200    21271361.063    87102684.729 8
        40.500
  20534588.258   107910007.421 8        52.500    20534593.176    84085746.167 9
        44.700
  24136364.094   126837459.021 4        37.500    24136367.063    98834386.954 6
        21.800
  23174849.180   121784664.016 6        44.300    23174850.418    94897145.419 7
        30.400
  22352030.039   117460720.157 7        47.200    22352034.902    91527867.810 8
        36.200
 18  2 21  8 18  0.0000000  0  8G02G05G06G07G09G16G23G30
  21736108.016   114224008.485 6        46.600    21736107.930    89005717.365 8
        37.100
  22889406.328   120284637.012 6        46.800    22889409.004    93728304.610 7
        32.400
  21679148.211   113924692.479 7        48.500    21679153.441    88772492.695 8
        39.400
  21261444.734   111729664.620 8        52.100    21261447.109    87062090.657 8
        40.400
  20543350.430   107956051.011 8        52.500    20543355.070    84121624.278 9
        44.500
  24135225.375   126831472.970 4        37.900    24135228.109    98829722.510 6
        20.900
  23190688.742   121867901.875 6        45.800    23190689.723    94962006.050 7
        29.300
  22334028.945   117366125.059 7        47.800    22334034.645    91454157.367 8
        36.900
 18  2 21  8 18 30.0000000  0  8G02G05G06G07G09G16G23G30
  21735400.086   114220288.122 6        45.900    21735400.254    89002818.379 8
        36.800
  22871830.273   120192272.271 6        46.400    22871832.371    93656332.096 7
        31.700
  21693795.094   114001663.347 7        49.100    21693800.402    88832469.963 8
        39.500
  21251622.602   111678047.437 8        52.300    21251624.898    87021869.488 8
        40.300
  20552177.406   108002436.604 8        52.200    20552181.730    84157768.890 9
        44.900
  24134202.586   126826098.754 4        39.000    24134205.762    98825534.787 6
        21.500
  23206554.992   121951278.857 6        44.200    23206555.367    95026975.113 7
        28.900
  22316086.453   117271835.188 7        47.600    22316091.539    91380684.769 8
        36.800
 18  2 21  8 19  0.0000000  0  8G02G05G06G07G09G16G23G30
  21734798.547   114217126.082 6        46.300    21734798.949    89000354.428 8
        36.900
  22854287.203   120100085.333 6        44.800    22854289.656    93584498.129 7
        31.900
  21708525.281   114079070.312 7        49.400    21708530.664    88892787.040 8
        39.100
  21241891.273   111626910.646 7        51.900    21241893.961    86982022.656 8
        40.400
  20561069.445   108049163.315 8        53.700    20561073.637    84194179.305 9
        44.800
  24133295.859   126821337.361 4        38.400    24133299.707    98821824.604 6
        21.100
  23222447.188   122034794.158 6        44.900    23222447.684    95092051.960 7
        29.200
  22298201.805   117177853.298 6        46.500    22298207.516    91307452.150 8
        36.300
 18  2 21  8 19 30.0000000  0  8G02G05G06G07G09G16G23G30
  21734303.023   114214522.381 6        46.400    21734302.848    88998325.567 8
        36.500
  22836779.352   120008077.949 6        46.500    22836781.254    93512804.079 7
        32.100
  21723337.492   114156910.769 7        49.700    21723343.254    88953441.911 8
        39.100
  21232251.594   111576255.373 7        51.600    21232254.559    86942551.021 8
        40.800
  20570025.688   108096229.627 8        53.400    20570030.242    84230854.350 9
        44.700
  24132506.875   126817189.185 4        38.900    24132510.234    98818592.287 6
        21.300
  23238365.867   122118446.573 6        44.700    23238366.238    95157235.632 7
        29.600
  22280376.664   117084181.551 7        47.900    22280382.406    91234461.202 8
        36.600
 18  2 21  8 20  0.0000000  0  8G02G05G06G07G09G16G23G30
  21733914.258   114212477.044 7        47.200    21733913.742    88996731.790 8
        37.100
  22819305.297   119916251.748 7        47.300    22819307.957    93441251.200 7
        31.800
  21738232.281   114235182.013 7        49.300    21738237.910    89014432.453 8
        39.500
  21222704.609   111526082.781 8        52.200    21222707.230    86903455.511 8
        40.400
  20579046.453   108143634.177 8        53.100    20579050.820    84267792.958 9
        44.500
  24131834.469   126813654.655 3        36.900    24131837.797    98815838.084 6
        20.900
  23254310.375   122202234.974 6        45.000    23254310.867    95222525.288 7
        29.400
  22262611.383   116990822.322 7        47.800    22262616.227    91161713.775 8
        36.900
 18  2 21  8 20 30.0000000  0  8G02G05G06G07G09G16G23G30
  21733631.164   114210990.690 7        47.500    21733631.305    88995573.593 8
        37.300
  22801866.102   119824608.909 7        47.300    22801868.730    93369841.206 8
        33.500
  21753208.305   114313882.039 7        49.000    21753213.844    89075757.123 8
        38.800
  21213249.133   111476394.658 8        52.300    21213251.672    86864737.506 8
        40.700
  20588131.586   108191376.102 8        52.800    20588135.738    84304994.447 9
        44.500
  24131279.352   126810734.411 5        39.100    24131282.320    98813562.571 6
        20.900
  23270280.023   122286158.449 6        43.900    23270281.234    95287920.166 7
        28.700
  22244905.813   116897778.272 7        48.000    22244911.125    91089211.928 8
        37.600
 18  2 21  8 21  0.0000000  0  8G02G05G06G07G09G16G23G30
  21733454.844   114210063.216 7        47.500    21733454.695    88994850.878 8
        37.200
  22784462.297   119733150.932 7        47.500    22784463.879    93298575.260 8
        33.400
  21768265.508   114393008.196 7        49.100    21768270.828    89137413.824 8
        39.000
  21203885.688   111427191.884 7        51.700    21203888.770    86826397.684 8
        41.000
  20597279.945   108239454.014 8        53.000    20597284.695    84342457.743 9
        44.500
  24130840.820   126808429.139 4        38.400    24130842.617    98811766.197 6
        21.100
  23286275.297   122370215.722 6        44.500    23286276.930    95353419.306 7
        29.100
  22227260.648   116805051.678 7        48.200    22227265.867    91016957.453 8
        37.300
 18  2 21  8 21 30.0000000  0  8G02G05G06G07G09G16G23G30
  21733384.297   114209694.652 6        45.300    21733384.570    88994563.674 8
        37.200
  22767094.008   119641879.406 6        46.300    22767096.371    93227454.616 7
        32.700
  21783403.289   114472557.956 7        49.000    21783408.824    89199400.606 8
        38.600
  21194615.883   111378476.024 8        52.700    21194618.070    86788437.285 8
        40.700
  20606492.641   108287866.599 8        53.200    20606497.102    84380181.832 9
        45.300
  24130519.133   126806739.172 5        39.800    24130521.285    98810449.344 6
        22.000
  23302296.508   122454405.998 6        44.700    23302297.535    95419022.075 7
        28.400
  22209676.047   116712644.947 7        47.800    22209681.680    90944952.230 8
        38.200
 18  2 21  8 22  0.0000000  0  8G02G05G06G07G09G16G23G30
  21733420.680   114209885.201 6        45.900    21733420.973    88994712.149 8
        36.800
  22749761.414   119550796.802 6        46.500    22749763.805    93156481.151 7
        32.800
  21798621.766   114552528.509 7        48.200    21798627.090    89261715.266 8
        39.200
  21185438.148   111330247.994 7        51.500    21185440.898    86750857.017 8
        40.800
  20615768.938   108336612.408 8        52.800    20615773.406    84418165.577 9
        45.100
  24130314.250   126805664.820 4        37.800    24130316.328    98809612.172 6
        20.900
  23318342.508   122538727.810 6        44.700    23318343.352    95484727.358 7
        29.300
  22192153.172   116620560.236 7        49.200    22192158.688    90873197.919 8
        37.600
 18  2 21  8 22 30.0000000  0  8G02G05G06G07G09G16G23G30
  21733563.352   114210635.182 6        46.200    21733563.402    88995296.539 8
        37.500
  22732465.461   119459904.317 6        46.300    22732468.316    93085655.841 8
        33.600
  21813918.852   114632917.795 7        48.400    21813924.203    89324356.240 8
        38.800
  21176354.086   111282509.368 7        52.000    21176356.277    86713658.075 8
        40.800
  20625108.180   108385690.435 8        53.400    20625112.395    84456408.182 9
        44.500
  24130227.258   126805206.618 5        39.400    24130229.348    98809255.140 6
        21.300
  23334413.242   122623180.620 6        45.000    23334413.941    95550534.724 7
        29.200
  22174691.570   116528800.122 7        47.500    22174697.168    90801696.557 8
        38.000
 18  2 21  8 23  0.0000000  0  8G02G05G06G07G09G16G23G30
  21733812.695   114211944.651 6        47.000    21733813.008    88996316.886 8
        36.900
  22715206.172   119369203.908 7        48.200    22715208.270    93014980.205 8
        34.500
  21829295.703   114713723.204 7        49.600    21829301.039    89387321.428 8
        38.600
  21167362.984   111235261.073 8        52.500    21167365.465    86676841.238 8
        40.100
  20634510.391   108435099.404 8        53.300    20634515.117    84494908.675 9
        44.600
  24130256.695   126805364.938 5        39.100    24130259.840    98809378.479 6
        20.400
  23350508.813   122707763.003 6        45.200    23350509.609    95616443.053 7
        28.700
  22157292.109   116437367.049 7        48.400    22157298.211    90730450.013 8
        38.300
 18  2 21  8 23 30.0000000  0  8G02G05G06G07G09G16G23G30
  21734168.289   114213813.242 6        46.100    21734168.668    88997772.916 8
        36.700
  22697982.867   119278697.644 7        47.800    22697985.738    92944455.851 7
        32.900
  21844751.141   114794942.054 7        47.100    21844756.469    89450608.801 8
        38.300
  21158465.555   111188504.543 8        52.800    21158468.043    86640407.585 8
        40.800
  20643975.125   108484837.928 7        51.300    20643979.727    84533665.958 9
        44.100
  24130405.016   126806140.002 5        39.900    24130407.176    98809982.422 6
        20.900
  23366628.555   122792473.896 6        44.800    23366629.570    95682451.524 7
        29.000
  22139955.969   116346263.118 7        49.800    22139961.914    90659459.951 8
        37.900
 18  2 21  8 24  0.0000000  0  8G02G05G06G07G09G16G23G30
  21734630.453   114216241.131 6        46.700    21734630.277    88999664.780 8
        37.000
  22680797.430   119188387.427 7        47.500    22680799.375    92874084.262 8
        33.100
  21860284.508   114876571.682 6        47.000    21860290.012    89514216.257 8
        38.700
  21149661.594   111142240.961 8        52.200    21149663.645    86604358.061 8
        40.600
  20653502.547   108534904.637 8        52.700    20653507.156    84572678.967 9
        44.500
  24130669.570   126807532.265 5        39.500    24130672.988    98811067.301 6
        21.500
  23382773.461   122877312.203 6        46.100    23382773.895    95748559.262 7
        29.100
  22122682.406   116255490.666 7        49.200    22122688.207    90588728.184 8
        38.800
 18  2 21  8 24 30.0000000  0  8G02G05G06G07G09G16G23G30
  21735198.930   114219228.386 6        46.200    21735198.484    89001992.497 8
        36.500
  22663649.617   119098274.376 7        47.600    22663651.754    92803866.305 7
        33.000
  21875895.727   114958609.576 6        47.000    21875901.512    89578141.867 8
        38.400
  21140951.805   111096471.048 8        52.500    21140954.613    86568693.204 8
        40.500
  20663091.859   108585298.271 8        53.000    20663095.961    84611946.722 9
        44.300
  24131051.992   126809542.195 4        38.300    24131055.414    98812633.458 6
        22.300
  23398941.938   122962277.210 6        43.800    23398942.750    95814765.739 7
        29.100
  22105472.539   116165052.027 7        49.100    22105477.879    90518256.539 8
        38.400
 18  2 21  8 25  0.0000000  0  8G02G05G06G07G09G16G23G30
  21735873.336   114222775.050 7        47.400    21735873.539    89004756.113 8
        36.400
  22646538.914   119008361.281 7        47.400    22646541.992    92733804.156 7
        32.400
  21891584.547   115041053.326 6        46.500    21891589.801    89642383.702 8
        38.100
  21132336.289   111051196.552 7        51.700    21132338.887    86533414.412 8
        39.900
  20672743.914   108636017.836 7        51.600    20672747.914    84651468.455 9
        44.500
  24131551.680   126812169.552 4        39.000    24131555.594    98814680.765 6
        21.300
  23415134.281   123047367.647 6        43.500    23415134.852    95881069.959 7
        29.300
  22088326.289   116074949.837 7        49.300    22088332.340    90448047.079 8
        38.100
 18  2 21  8 25 30.0000000  0  8G02G05G06G07G09G16G23G30
  21736654.547   114226880.779 7        47.100    21736654.930    89007955.368 8
        36.500
  22629467.938   118918649.208 7        48.200    22629470.059    92663898.654 8
        33.500
  21907349.883   115123900.338 6        46.500    21907355.383    89706939.771 8
        38.500
  21123815.602   111006418.592 7        52.000    21123817.949    86498522.507 8
        40.300
  20682457.320   108687061.925 8        53.000    20682461.367    84691243.060 9
        44.500
  24132170.211   126815415.098 5        40.600    24132172.254    98817209.729 6
        21.300
  23431350.383   123132582.781 6        43.200    23431350.559    95947471.335 7
        29.100
  22071244.906   115985186.172 7        49.700    22071250.375    90378101.407 8
        38.700
 18  2 21  8 26  0.0000000  0  8G02G05G06G07G09G16G23G30
  21737542.250   114231545.629 7        47.200    21737542.492    89011590.301 8
        36.700
  22612434.734   118829139.960 7        47.300    22612437.840    92594151.205 8
        33.200
  21923191.625   115207147.927 7        48.400    21923196.609    89771808.013 8
        37.700
  21115389.141   110962137.919 8        52.900    21115391.746    86464018.100 8
        40.500
  20692232.438   108738429.231 8        53.600    20692236.418    84731269.533 9
        44.300
  24132905.352   126819279.007 5        40.800    24132907.207    98820220.506 6
        21.700
  23447588.992   123217921.333 6        43.500    23447589.762    96013968.873 7
        27.100
  22054228.359   115895763.410 7        49.600    22054233.945    90308421.366 8
        38.500
 18  2 21  8 26 30.0000000  0  8G02G05G06G07G09G16G23G30
  21738536.688   114236769.718 7        47.300    21738536.563    89015661.017 8
        36.300
  22595440.789   118739836.462 7        47.600    22595444.133    92524564.086 8
        33.700
  21939108.680   115290793.489 7        48.000    21939114.227    89836986.362 8
        37.800
  21107058.109   110918355.819 8        52.600    21107060.199    86429902.187 8
        40.900
  20702068.531   108790118.465 8        52.600    20702073.000    84771546.844 9
        43.700
  24133758.523   126823760.850 5        41.000    24133760.625    98823712.884 6
        21.800
  23463851.914   123303382.298 6        45.100    23463851.902    96080561.810 7
        27.800
  22037276.766   115806683.780 7        49.600    22037282.684    90239008.698 8
        38.300
 18  2 21  8 27  0.0000000  0  8G02G05G06G07G09G16G23G30
  21739636.938   114242552.939 7        47.200    21739636.887    89020167.405 8
        36.100
  22578485.742   118650739.745 7        48.100    22578489.621    92455138.081 8
        34.400
  21955101.109   115374834.504 7        49.400    21955106.719    89902472.876 8
        37.700
  21098821.539   110875073.585 8        52.100    21098823.688    86396175.782 8
        40.900
  20711965.492   108842128.534 8        53.200    20711969.828    84812074.163 9
        43.900
  24134727.883   126828861.354 5        39.800    24134731.898    98827687.310 6
        21.300
  23480137.203   123388964.866 6        44.000    23480138.398    96147249.508 7
        27.600
  22020391.648   115717949.759 7        49.400    22020397.313    90169865.325 8
        38.100
 18  2 21  8 27 30.0000000  0  8G02G05G06G07G09G16G23G30
  21740844.359   114248895.339 7        47.600    21740844.422    89025109.523 8
        36.000
  22561571.430   118561851.765 7        48.200    22561574.066    92385874.726 8
        33.500
  21971168.789   115459268.414 6        46.900    21971174.484    89968265.505 8
        37.600
  21090680.289   110832292.311 7        51.300    21090682.977    86362839.711 8
        40.400
  20721923.563   108894458.214 8        52.500    20721927.984    84852850.524 9
        44.300
  24135818.000   126834580.595 5        40.600    24135819.426    98832143.841 6
        22.500
  23496445.742   123474667.857 6        43.800    23496447.422    96214031.022 7
        28.400
  22003572.305   115629563.682 7        49.300    22003578.047    90100993.081 8
        38.800
 18  2 21  8 28  0.0000000  0  8G02G05G06G07G09G16G23G30
  21742157.219   114255796.483 7        48.200    21742157.672    89030487.026 8
        35.900
  22544696.594   118473174.278 7        47.600    22544699.566    92316775.395 8
        33.400
  21987310.000   115544092.591 7        47.900    21987315.809    90034362.241 8
        38.400
  21082634.750   110790013.037 7        51.600    21082637.086    86329894.837 8
        40.700
  20731942.266   108947106.289 8        52.300    20731946.320    84893874.999 9
        44.300
  24137022.414   126840918.972 5        39.700    24137025.402    98837082.829 6
        20.600
  23512777.633   123560490.370 6        42.500    23512779.207    96280905.672 7
        28.300
  21986819.344   115541527.923 7        49.400    21986825.148    90032393.810 8
        38.700
 18  2 21  8 28 30.0000000  0  8G02G05G06G07G09G16G23G30
  21743577.055   114263256.684 7        48.000    21743577.027    89036300.161 8
        36.600
  22527862.156   118384709.977 6        45.700    22527865.566    92247842.167 7
        33.000
  22003525.391   115629304.802 7        49.100    22003531.418    90100761.339 8
        37.900
  21074685.211   110748237.232 8        52.100    21074687.086    86297342.276 8
        40.600
  20742021.203   109000071.807 8        52.500    20742025.426    84935146.816 9
        44.200
  24138347.828   126847876.699 5        40.400    24138350.230    98842504.408 6
        20.900
  23529131.680   123646432.069 6        42.200    23529133.281    96347873.195 7
        27.400
  21970134.055   115453845.077 7        48.500    21970139.398    89964069.565 8
        38.600
 18  2 21  8 29  0.0000000  0  8G02G05G06G07G09G16G23G30
  21745102.977   114271275.158 7        47.700    21745102.832    89042548.310 8
        36.400
  22511069.133   118296460.247 7        47.300    22511071.641    92179076.166 7
        33.000
  22019813.875   115714901.658 6        47.000    22019819.848    90167460.171 8
        38.000
  21066831.195   110706965.327 7        51.600    21066833.770    86265182.352 8
        40.700
  20752160.063   109053352.835 7        51.400    20752164.707    84976664.498 9
        44.600
  24139788.273   126855453.233 4        38.700    24139791.707    98848408.179 6
        21.300
  23545508.227   123732491.152 6        42.200    23545510.043    96414932.183 7
        28.300
  21953515.977   115366516.711 7        49.300    21953521.535    89896021.515 8
        39.000
 18  2 21  8 29 30.0000000  0  8G02G05G06G07G09G16G23G30
  21746734.969   114279851.685 7        47.200    21746735.176    89049231.302 8
        36.300
  22494316.992   118208426.359 6        45.500    22494319.953    92110478.336 8
        33.400
  22036175.266   115800880.427 6        46.600    22036180.945    90234456.577 8
        37.900
  21059073.547   110666198.009 8        52.100    21059075.852    86233415.621 8
        41.000
  20762359.188   109106948.023 7        51.800    20762363.527    85018426.965 9
        44.300
  24141347.570   126863648.721 5        39.200    24141351.383    98854794.236 6
        20.400
  23561907.539   123818666.340 6        42.800    23561908.828    96482081.652 7
        29.400
  21936965.648   115279544.988 7        48.100    21936970.965    89828251.372 8
        39.300
 18  2 21  8 30  0.0000000  0  8G02G05G06G07G09G16G23G30
  21748473.125   114288985.798 7        48.300    21748473.352    89056348.791 8
        35.700
  22477606.219   118120610.833 7        47.400    22477608.512    92042050.640 8
        34.000
  22052608.492   115887238.550 7        47.900    22052613.984    90301748.586 8
        38.100
  21051412.266   110625936.438 7        51.200    21051414.461    86202042.986 9
        41.100
  20772617.086   109160856.222 8        52.100    20772621.832    85060433.353 9
        44.200
  24143024.898   126872463.166 5        39.200    24143028.426    98861662.623 6
        21.500
  23578328.023   123904956.787 6        43.800    23578329.340    96549320.924 7
        27.900
  21920483.469   115192932.327 7        49.600    21920488.883    89760761.025 8
        38.900
 18  2 21  8 30 30.0000000  0  8G02G05G06G07G09G16G23G30
  21750317.313   114298677.565 7        48.400    21750317.301    89063900.801 8
        36.000
  22460937.305   118033014.764 7        47.800    22460940.039    91973793.977 8
        33.800
  22069113.859   115973973.476 6        46.800    22069119.406    90369334.208 8
        38.100
  21043846.992   110586181.612 7        51.500    21043849.570    86171065.212 8
        40.900
  20782935.203   109215076.319 8        52.100    20782939.906    85102682.759 9
        44.700
  24144819.883   126881896.420 4        38.900    24144823.227    98869013.180 6
        19.300
  23594769.836   123991361.743 5        41.400    23594771.449    96616649.392 6
        26.000
  21904070.461   115106681.090 7        49.600    21904075.934    89693552.300 8
        39.200
 18  2 21  8 31  0.0000000  0  8G02G05G06G07G09G16G23G30
  21752268.078   114308926.735 7        47.200    21752267.980    89071887.161 8
        36.100
  22444310.453   117945640.932 7        48.100    22444313.367    91905710.477 8
        33.800
  22085690.211   116061082.657 7        47.600    22085695.934    90437211.467 8
        38.200
  21036378.219   110546934.728 7        51.900    21036381.129    86140483.236 8
        40.600
  20793312.383   109269607.117 8        52.700    20793316.570    85145174.286 9
        44.900
  24146733.430   126891948.214 5        40.200    24146736.445    98876845.750 6
        19.900
  23611233.828   124077880.334 6        42.600    23611234.594    96684066.470 7
        27.300
  21887727.055   115020793.599 7        49.700    21887731.891    89626627.019 8
        39.200
 18  2 21  8 31 30.0000000  0  8G02G05G06G07G09G16G23G30
  21754323.938   114319732.926 6        46.900    21754323.965    89080307.557 8
        35.700
  22427726.063   117858490.704 6        45.400    22427728.766    91837801.206 8
        33.100
  22102336.961   116148563.205 7        48.500    22102342.230    90505378.108 8
        37.600
  21029006.852   110508196.566 7        49.900    21029009.563    86110297.679 8
        40.900
  20803748.063   109324447.247 7        51.400    20803752.020    85187906.852 9
        43.900
  24148763.680   126902619.071 5        39.400    24148767.309    98885160.682 6
        19.300
  23627719.711   124164511.469 6        42.200    23627720.738    96751571.238 7
        27.300
  21871452.500   114935271.948 7        48.900    21871457.715    89559986.792 8
        40.100
 18  2 21  8 32  0.0000000  0  8G02G05G06G07G09G16G23G30
  21756486.242   114331095.569 7        47.600    21756486.586    89089161.552 8
        35.900
  22411184.563   117771566.417 6        45.300    22411187.453    91770067.989 7
        33.000
  22119054.219   116236412.466 7        48.100    22119059.652    90573832.053 8
        37.400
  21021732.102   110469968.178 7        50.500    21021734.625    86080509.334 8
        41.000
  20814242.320   109379595.431 7        51.900    20814246.254    85230879.458 9
        43.900
  24150911.922   126913908.413 5        39.600    24150914.477    98893957.544 6
        20.100
  23644225.859   124251254.245 6        42.900    23644228.125    96819162.956 7
        28.500
  21855248.344   114850118.371 7        48.100    21855253.801    89493633.398 8
        40.400
 18  2 21  8 32 30.0000000  0  8G02G05G06G07G09G16G23G30
  21758754.984   114343014.594 7        48.500    21758754.707    89098449.094 8
        36.700
  22394686.969   117684870.034 7        48.200    22394689.824    91702512.380 8
        33.400
  22135840.930   116324627.734 7        47.700    22135846.758    90642571.184 8
        37.600
  21014554.883   110432250.672 7        50.700    21014557.480    86051119.078 8
        40.800
  20824794.867   109435050.514 7        51.700    20824798.938    85274091.195 9
        43.900
  24153177.445   126925816.332 4        38.900    24153180.668    98903236.440 6
        20.900
  23660754.297   124338107.452 6        43.200    23660755.484    96886840.730 7
        27.300
  21839115.000   114765335.154 7        51.000    21839120.352    89427568.574 8
        39.800
 18  2 21  8 33  0.0000000  0  8G02G05G06G07G09G16G23G30
  21761128.586   114355489.844 6        47.000    21761128.645    89108170.060 8
        36.000
  22378232.828   117598402.843 6        47.000    22378235.910    91635135.364 8
        33.600
  22152697.258   116413206.471 6        47.000    22152702.480    90711593.511 8
        37.000
  21007474.906   110395044.833 7        50.000    21007477.355    86022127.522 8
        40.900
  20835405.773   109490811.345 7        50.800    20835409.879    85317541.183 9
        43.400
  24155561.914   126938342.789 4        38.900    24155565.098    98912997.248 6
        19.900
  23677301.742   124425070.422 6        43.500    23677302.992    96954604.080 6
        25.800
  21823051.992   114680924.712 7        49.800    21823056.930    89361794.248 8
        39.700
 18  2 21  8 33 30.0000000  0  8G02G05G06G07G09G16G23G30
  21763608.023   114368520.568 7        47.900    21763608.141    89118323.854 8
        36.500
  22361822.906   117512167.215 7        48.000    22361825.543    91567938.782 7
        32.400
  22169621.438   116502145.553 7        48.000    22169627.645    90780896.649 8
        37.500
  21000492.430   110358350.889 7        50.600    21000494.734    85993534.849 8
        40.900
  20846074.477   109546876.288 7        51.400    20846078.055    85361228.144 9
        43.100
  24158062.641   126951487.108 5        39.800    24158065.207    98923239.557 6
        20.400
  23693872.227   124512141.980 6        42.300    23693872.559    97022452.017 7
        27.200
  21807060.320   114596888.770 7        50.900    21807065.367    89296311.761 8
        39.900
 18  2 21  8 34  0.0000000  0  8G02G05G06G07G09G16G23G30
  21766193.258   114382106.395 6        46.900    21766193.375    89128910.193 8
        35.700
  22345457.086   117426165.178 7        48.000    22345460.359    91500924.205 8
        34.000
  22186614.750   116591442.456 6        47.000    22186620.602    90850478.624 8
        37.300
  20993607.313   110322170.187 7        50.400    20993609.844    85965342.102 9
        41.200
  20856801.352   109603244.270 7        51.800    20856805.262    85405151.244 9
        43.900
  24160682.914   126965249.371 5        39.900    24160684.098    98933963.404 6
        20.400
  23710461.195   124599321.401 6        42.300    23710462.801    97090384.002 7
        28.700
  21791140.391   114513229.717 7        50.300    21791145.926    89231122.940 8
        40.100
 18  2 21  8 34 30.0000000  0  8G02G05G06G07G09G16G23G30
  21768884.195   114396246.693 7        48.100    21768884.168    89139928.600 8
        36.500
  22329136.586   117340397.971 6        46.300    22329139.754    91434092.627 8
        34.000
  22203674.547   116681094.278 6        46.200    22203680.449    90920337.142 8
        37.500
  20986819.906   110286503.357 7        49.700    20986822.535    85937549.780 9
        41.600
  20867585.148   109659913.930 7        50.700    20867589.391    85449309.405 9
        44.200
  24163419.063   126979629.546 5        39.700    24163420.793    98945168.695 6
        19.300
  23727071.820   124686607.388 6        43.400    23727073.172    97158398.999 7
        28.500
  21775292.266   114429949.589 7        48.200    21775297.813    89166229.380 8
        40.400
 18  2 21  8 35  0.0000000  0  8G02G05G06G07G09G16G23G30
  21771680.797   114410941.204 7        48.600    21771680.191    89151378.860 8
        36.500
  22312860.117   117254868.362 7        48.400    22312863.434    91367446.194 8
        34.400
  22220801.617   116771098.503 6        46.000    22220807.820    90990470.254 8
        36.900
  20980130.703   110251351.453 7        50.500    20980133.211    85910158.683 8
        40.500
  20878426.383   109716884.188 7        50.800    20878430.902    85493701.799 9
        44.400
  24166271.406   126994626.865 4        38.600    24166275.273    98956854.908 6
        19.300
  23743701.234   124773999.311 5        41.200    23743702.211    97226496.597 6
        25.700
  21759517.703   114347050.764 7        51.700    21759523.098    89101632.944 8
        40.000
 18  2 21  8 35 30.0000000  0  8G02G05G06G07G09G16G23G30
  21774582.766   114426189.375 7        48.800    21774582.285    89163260.537 8
        36.400
  22296630.898   117169578.087 7        47.600    22296632.781    91300986.243 8
        34.000
  22237995.656   116861452.228 6        46.200    22238001.793    91060875.707 8
        37.600
  20973539.930   110216715.098 7        50.600    20973542.434    85883169.326 9
        41.100
  20889324.094   109774153.677 7        50.600    20889328.539    85538327.364 9
        43.200
  24169244.086   127010241.304 5        39.400    24169246.676    98969021.965 6
        19.900
  23760351.227   124861495.984 5        41.100    23760352.504    97294675.774 6
        25.600
  21743815.258   114264535.268 7        49.600    21743820.965    89037335.203 8
        40.500
 18  2 21  8 36  0.0000000  0  8G02G05G06G07G09G16G23G30
  21777589.148   114441990.578 6        46.400    21777589.188    89175573.150 8
        36.900
  22280446.117   117084528.472 7        47.900    22280448.656    91234713.818 8
        34.300
  22255255.305   116952152.674 7        47.400    22255261.355    91131551.357 8
        37.000
  20967047.125   110182595.022 7        50.900    20967049.352    85856582.261 9
        41.400
  20900278.953   109831721.092 7        51.600    20900283.398    85583185.077 9
        43.500
  24172333.016   127026472.765 5        39.800    24172334.816    98981669.832 6
        19.300
  23777021.094   124949096.566 6        43.400    23777022.922    97362935.929 7
        28.500
  21728186.352   114182405.239 7        50.500    21728192.004    88973337.838 8
        40.600
 18  2 21  8 36 30.0000000  0  8G02G05G06G07G09G16G23G30
  21780701.297   114458344.676 7        47.600    21780701.738    89188316.594 8
        36.900
  22264308.078   116999722.147 7        48.400    22264310.051    91168630.975 8
        34.600
  22272580.398   117043197.274 6        45.500    22272586.203    91202495.167 8
        35.900
  20960652.242   110148992.291 7        49.600    20960654.887    85830398.330 8
        40.800
  20911289.953   109889585.456 7        50.900    20911294.660    85628274.176 9
        43.500
  24175539.148   127043320.372 5        40.300    24175540.914    98994797.814 6
        20.400
  23793711.781   125036800.327 6        44.100    23793712.156    97431276.479 7
        27.100
  21712631.453   114100663.045 7        51.000    21712636.789    88909642.672 8
        40.700
 18  2 21  8 37  0.0000000  0  8G02G05G06G07G09G16G23G30
  21783918.523   114475250.823 6        47.000    21783918.680    89201490.209 8
        36.400
  22248216.453   116915160.783 7        47.200    22248218.898    91102739.010 8
        34.300
  22289970.656   117134583.018 6        46.000    22289976.445    91273704.798 8
        36.500
  20954356.641   110115907.407 7        49.300    20954359.320    85804617.915 8
        40.800
  20922357.625   109947745.220 7        51.200    20922361.941    85673593.471 9
        43.400
  24178862.086   127060783.688 5        40.400    24178864.758    99008405.567 6
        20.400
  23810419.320   125124606.011 5        41.200    23810420.445    97499696.430 6
        23.300
  21697150.578   114019310.560 7        49.500    21697155.699    88846251.189 8
        40.600
 18  2 21  8 37 30.0000000  0  8G02G05G06G07G09G16G23G30
  21787240.852   114492708.412 7        48.700    21787240.352    89215093.508 8
        36.700
  22232172.125   116830846.400 7        49.300    22232174.234    91037039.494 8
        34.100
  22307424.922   117226307.301 6        46.000    22307431.285    91345178.213 8
        36.600
  20948159.391   110083341.315 7        49.900    20948161.547    85779241.747 8
        40.700
  20933481.242   110006199.367 7        51.700    20933485.852    85719142.144 9
        43.700
  24182302.906   127078862.846 4        38.800    24182304.648    99022493.229 6
        20.600
  23827148.211   125212512.932 6        43.100    23827148.641    97568195.323 7
        26.100
  21681744.211   113938350.012 8        52.100    21681749.355    88783165.072 8
        40.900
 18  2 21  8 38  0.0000000  0  8G02G05G06G07G09G16G23G30
  21790667.625   114510717.103 7        48.500    21790667.691    89229126.230 8
        36.700
  22216174.500   116746780.865 6        46.400    22216177.559    90971533.890 8
        33.900
  22324943.586   117318367.340 6        46.100    22324949.617    91416913.268 8
        36.600
  20942061.484   110051294.506 7        51.400    20942063.641    85754270.213 9
        41.100
  20944660.234   110064946.647 7        51.700    20944665.098    85764919.244 9
        43.400
  24185860.039   127097557.258 5        40.400    24185861.949    99037060.291 6
        20.100
  23843895.734   125300520.103 6        44.600    23843896.316    97636772.317 7
        27.000
  21666413.180   113857783.640 7        48.800    21666418.004    88720386.104 8
        40.800
 18  2 21  8 38 30.0000000  0  8G02G05G06G07G09G16G23G30
  21794199.563   114529276.076 7        48.500    21794198.969    89243587.753 8
        36.400
  22200225.359   116662966.306 7        49.300    22200228.684    90906223.856 8
        34.800
  22342525.195   117410760.210 6        45.500    22342531.570    91488907.676 8
        36.800
  20936061.805   110019767.863 7        51.100    20936064.207    85729704.007 9
        41.100
  20955894.375   110123985.644 7        51.200    20955899.496    85810923.630 9
        43.300
  24189534.617   127116866.334 5        41.100    24189536.566    99052106.323 6
        20.600
  23860660.484   125388626.516 5        41.300    23860662.777    97705426.593 6
        25.900
  21651157.281   113777613.315 7        51.800    21651162.184    88657915.747 8
        40.400
 18  2 21  8 39  0.0000000  0  8G02G05G06G07G09G16G23G30
  21797835.484   114548384.467 7        47.800    21797835.117    89258477.407 8
        36.000
  22184324.531   116579404.551 7        48.700    22184326.723    90841110.809 8
        34.200
  22360170.336   117503483.085 6        46.400    22360176.156    91561159.238 8
        35.900
  20930162.148   109988761.649 8        52.200    20930164.063    85705543.346 9
        41.800
  20967184.836   110183315.171 8        52.200    20967189.316    85857154.412 9
        43.600
  24193325.688   127136789.577 5        41.000    24193328.859    99067630.900 6
        20.400
  23877445.742   125476831.467 5        40.900    23877447.004    97774157.638 6
        24.600
  21635977.164   113697841.186 7        50.900    21635981.719    88595755.668 8
        40.600
 18  2 21  8 39 30.0000000  0  8G02G05G06G07G09G16G23G30
  21801575.773   114568041.861 7        47.800    21801576.547    89273794.844 8
        36.800
  22168471.953   116496097.736 7        49.800    22168474.230    90776196.414 8
        34.300
  22377877.094   117596533.139 6        46.400    22377883.461    91633665.763 8
        36.300
  20924360.688   109958276.774 7        51.700    20924363.363    85681788.908 9
        41.600
  20978530.297   110242933.902 8        52.800    20978534.422    85903610.562 9
        43.200
  24197234.227   127157326.644 5        40.400    24197236.055    99083633.811 6
        19.300
  23894249.828   125565133.774 6        42.600    23894249.465    97842964.624 6
        24.700
  21620872.898   113618469.301 7        51.700    21620877.855    88533907.462 8
        40.600
 18  2 21  8 40  0.0000000  0  8G02G05G06G07G09G16G23G30
  21805421.281   114588247.808 7        47.200    21805421.539    89289539.710 8
        36.700
  22152667.453   116413047.823 7        50.100    22152669.723    90711482.190 8
        34.900
  22395645.500   117689907.891 6        45.400    22395651.555    91706425.287 8
        36.300
  20918659.031   109928314.272 7        51.700    20918661.590    85658441.508 9
        41.400
  20989929.719   110302840.921 8        52.200    20989933.867    85950291.351 9
        42.900
  24201257.609   127178476.966 5        39.300    24201261.039    99100114.566 6
        18.600
  23911071.188   125653532.680 6        42.300    23911071.633    97911846.889 6
        24.800
  21605845.844   113539500.007 8        52.100    21605850.637    88472372.955 8
        40.500
 18  2 21  8 40 30.0000000  0  8G02G05G06G07G09G16G23G30
  21809370.203   114609001.237 7        47.700    21809370.227    89305711.200 8
        35.800
  22136912.813   116330256.356 7        49.600    22136915.457    90646969.368 8
        34.600
  22413475.766   117783604.072 6        45.900    22413481.383    91779435.263 8
        36.300
  20913056.344   109898873.994 7        51.200    20913059.371    85635501.040 8
        41.000
  21001384.320   110363034.578 7        52.000    21001388.457    85997195.497 9
        42.900
  24205400.172   127200239.818 5        39.900    24205401.719    99117072.625 6
        19.300
  23927910.938   125742027.253 5        40.500    23927912.617    97980803.618 7
        26.300
  21590895.117   113460934.994 7        51.200    21590900.234    88411153.476 9
        41.400
 18  2 21  8 41  0.0000000  0  8G02G05G06G07G09G16G23G30
  21813423.414   114630301.432 6        46.800    21813423.016    89322308.743 8
        35.500
  22121208.023   116247726.098 7        48.800    22121210.313    90582660.087 8
        35.500
  22431366.406   117877619.009 6        45.300    22431371.719    91852693.629 8
        36.600
  20907554.008   109869956.888 7        50.700    20907556.801    85612968.236 9
        42.000
  21012893.414   110423513.835 7        51.200    21012897.563    86044322.182 9
        42.800
  24209657.000   127222614.232 5        39.300    24209659.879    99134507.229 6
        19.300
  23944769.281   125830616.683 5        42.000    23944770.242    98049834.277 6
        25.900
  21576022.031   113382776.454 7        51.000    21576027.395    88350250.728 8
        40.800
 18  2 21  8 41 30.0000000  0  8G02G05G06G07G09G16G23G30
  21817581.219   114652147.648 7        48.000    21817580.848    89339331.743 8
        37.000
  22105552.859   116165457.985 7        49.900    22105555.172    90518555.065 8
        34.200
  22449316.742   117971950.074 6        45.000    22449322.926    91926198.327 8
        35.800
  20902151.156   109841563.724 7        50.200    20902153.145    85590843.693 9
        41.600
  21024456.102   110484277.550 7        50.900    21024460.992    86091670.513 9
        42.600
  24214031.359   127245600.342 5        40.700    24214033.973    99152418.460 6
        19.300
  23961646.047   125919300.156 6        42.300    23961646.254    98118938.261 6
        24.600
  21561226.859   113305026.566 7        51.400    21561232.051    88289666.400 9
        41.300
 18  2 21  8 42  0.0000000  0  8G02G05G06G07G09G16G23G30
  21821841.797   114674538.965 7        48.000    21821841.719    89356779.509 8
        36.300
  22089948.367   116083454.447 7        49.300    22089950.703    90454656.202 8
        35.400
  22467326.547   118066593.955 6        45.400    22467332.625    91999946.772 8
        35.700
  20896847.266   109813694.615 7        49.600    20896849.844    85569127.505 9
        41.400
  21036073.242   110545324.072 7        51.800    21036078.082    86139239.213 9
        43.400
  24218521.648   127269197.182 5        40.900    24218525.270    99170805.572 6
        20.600
  23978538.555   126008076.467 5        41.400    23978539.512    98188114.589 6
        22.900
  21546509.688   113227686.927 7        51.200    21546514.887    88229401.767 9
        41.300
 18  2 21  8 42 30.0000000  0  8G02G05G06G07G09G16G23G30
  21826206.008   114697474.924 7        47.300    21826206.602    89374651.669 8
        36.200
  22074393.945   116001718.243 7        48.600    22074396.699    90390965.655 8
        35.100
  22485395.727   118161548.127 6        45.000    22485401.809    92073937.005 8
        35.400
  20891643.820   109786350.338 7        49.800    20891646.367    85547820.280 9
        41.600
  21047743.781   110606652.489 7        51.300    21047748.488    86187027.585 9
        43.300
  24223128.492   127293403.593 4        38.400    24223130.871    99189667.677 6
        21.100
  23995450.219   126096944.836 6        42.700    23995451.258    98257362.609 6
        25.600
  21531871.055   113150759.892 7        51.600    21531876.422    88169458.620 9
        41.600
 18  2 21  8 43  0.0000000  0  8G02G05G06G07G09G16G23G30
  21830674.508   114720954.493 7        47.900    21830674.727    89392947.419 8
        36.100
  22058890.938   115920250.222 7        49.300    22058893.344    90327484.082 8
        34.700
  22503523.656   118256809.677 6        45.300    22503529.926    92148166.746 8
        36.000
  20886540.828   109759531.500 7        49.800    20886542.375    85526922.497 9
        41.400
  21059467.492   110668261.550 7        50.500    21059472.086    86235034.637 9
        43.000
  24227851.477   127318219.660 5        41.600    24227853.570    99209004.902 6
        22.000
  24012378.891   126185904.433 6        42.700    24012379.910    98326681.727 6
        25.900
  21517310.141   113074247.400 7        51.300    21517316.355    88109838.503 9
        41.100
 18  2 21  8 43 30.0000000  0  8G02G05G06G07G09G16G23G30
  21835245.594   114744977.138 7        47.100    21835245.949    89411666.343 8
        35.600
  22043439.805   115839053.249 7        48.700    22043442.695    90264213.727 8
        35.300
  22521709.641   118352375.849 6        45.600    22521715.113    92222633.849 8
        35.800
  20881537.375   109733238.856 7        49.800    20881539.688    85506434.724 8
        41.000
  21071244.625   110730150.085 7        50.400    21071248.809    86283259.462 9
        42.600
  24232689.477   127343643.946 5        41.900    24232691.309    99228815.995 6
        20.900
  24029323.242   126274954.591 5        41.300    24029325.293    98396071.406 6
        25.600
  21502829.977   112998151.536 7        49.600    21502835.633    88050543.057 8
        40.500
 18  2 21  8 44  0.0000000  0  8G02G05G06G07G09G16G23G30
  21839920.164   114769541.477 7        47.200    21839921.219    89430807.371 8
        36.300
  22028040.609   115758128.735 7        49.500    22028043.617    90201155.675 8
        35.100
  22539952.586   118448243.699 6        45.100    22539958.668    92297336.036 8
        35.300
  20876634.250   109707472.379 7        49.900    20876635.969    85486356.947 9
        41.500
  21083074.141   110792316.750 7        50.300    21083079.035    86331701.002 9
        43.000
  24237643.367   127369676.096 5        40.800    24237644.355    99249100.781 6
        22.200
  24046286.516   126364094.082 5        40.800    24046288.031    98465530.715 6
        22.500
  21488429.523   112922474.162 7        51.500    21488434.809    87991573.668 9
        41.400
 18  2 21  8 44 30.0000000  0  8G02G05G06G07G09G16G23G30
  21844697.609   114794647.028 7        48.000    21844698.266    89450370.119 8
        35.800
  22012693.445   115677478.911 7        50.000    22012695.969    90138311.658 8
        34.900
  22558252.508   118544410.432 6        44.500    22558258.133    92372271.126 8
        34.600
  20871831.242   109682232.674 7        49.700    20871833.516    85466689.655 9
        41.600
  21094956.531   110854760.405 7        50.500    21094961.402    86380358.373 9
        43.200
  24242712.438   127396315.195 5        41.300    24242714.520    99269858.498 6
        22.500
  24063266.023   126453322.200 5        41.700    24063267.871    98535059.071 6
        25.100
  21474108.352   112847217.339 7        51.500    21474114.164    87932931.991 9
        41.500
 18  2 21  8 45  0.0000000  0  8G02G05G06G07G09G16G23G30
  21849577.789   114820292.844 7        48.800    21849577.832    89470353.856 8
        35.200
  21997399.016   115597105.757 7        48.700    21997400.836    90075683.231 8
        35.100
  22576608.977   118640873.082 6        44.600    22576614.664    92447436.778 8
        34.800
  20867128.734   109657520.353 7        50.100    20867131.418    85447433.299 9
        42.300
  21106892.469   110917479.739 7        50.800    21106896.797    86429230.572 9
        42.500
  24247897.063   127423560.659 5        41.800    24247899.254    99291088.731 6
        22.300
  24080262.609   126542637.998 6        42.100    24080264.336    98604655.749 6
        24.100
  21459868.102   112772382.928 8        52.700    21459873.609    87874619.479 9
        42.400
 18  2 21  8 45 30.0000000  0  8G02G05G06G07G09G16G23G30
  21854560.836   114846477.814 6        46.300    21854560.234    89490757.710 8
        35.900
  21982157.320   115517011.243 7        48.900    21982160.168    90013271.919 8
        34.800
  22595020.805   118737628.874 6        44.900    22595026.496    92522830.853 8
        34.600
  20862526.070   109633335.862 7        50.200    20862529.324    85428588.242 9
        41.600
  21118879.367   110980473.570 7        51.200    21118883.867    86478316.660 9
        42.800
  24253197.484   127451411.379 5        41.800    24253199.461    99312790.568 6
        22.900
  24097275.961   126632040.834 5        41.200    24097276.918    98674320.232 6
        23.900
  21445708.188   112697972.954 8        52.800    21445714.035    87816637.679 9
        43.000
 18  2 21  8 46  0.0000000  0  8G02G05G06G07G09G16G23G30
  21859646.203   114873200.918 6        46.900    21859645.883    89511580.896 8
        36.300
  21966968.977   115437197.353 7        48.500    21966971.770    89951079.272 8
        35.200
  22613487.492   118834674.735 6        44.800    22613493.746    92598450.971 8
        34.600
  20858024.609   109609679.036 7        51.000    20858027.074    85410154.352 9
        41.700
  21130918.766   111043740.569 7        51.300    21130923.418    86527615.609 9
        43.300
  24258611.961   127479866.334 5        41.000    24258613.426    99334963.266 6
        21.700
  24114305.383   126721529.704 5        41.900    24114305.801    98744051.770 6
        24.700
  21431629.961   112623989.178 8        53.000    21431635.063    87758987.981 9
        42.400
 18  2 21  8 46 30.0000000  0  8G02G05G06G07G09G16G23G30
  21864833.219   114900461.268 6        45.800    21864833.152    89532822.712 8
        36.000
  21951834.852   115357665.695 7        48.500    21951837.707    89889106.564 8
        35.600
  22632009.617   118932007.736 6        45.100    22632016.000    92674294.832 8
        35.200
  20853623.320   109586550.510 7        49.600    20853625.750    85392132.140 9
        41.900
  21143009.656   111107279.393 7        50.300    21143014.199    86577126.366 9
        42.700
  24264140.945   127508924.878 4        38.200    24264143.434    99357606.253 6
        22.200
  24131350.953   126811103.813 6        43.400    24131350.992    98813849.748 6
        24.500
  21417632.578   112550433.454 8        53.000    21417638.125    87701671.844 9
        42.600
 18  2 21  8 47  0.0000000  0  8G02G05G06G07G09G16G23G30
  21870123.156   114928258.156 7        47.100    21870123.406    89554482.621 8
        36.300
  21936754.664   115278418.483 7        48.400    21936757.707    89827355.485 8
        36.000
  22650586.250   119029625.525 6        45.100    22650592.035    92750360.610 8
        34.400
  20849323.023   109563951.243 7        49.600    20849324.957    85374522.323 9
        41.800
  21155152.203   111171089.413 7        50.900    21155156.645    86626848.444 9
        42.500
  24269784.938   127538586.448 4        38.500    24269788.398    99380719.134 6
        20.600
  24148412.031   126900762.060 6        43.400    24148412.453    98883713.264 6
        25.000
  21403717.297   112477308.262 8        52.900    21403722.813    87644691.174 9
        42.600
 18  2 21  8 47 30.0000000  0  8G02G05G06G07G09G16G23G30
  21875514.328   114956589.888 7        47.500    21875514.621    89576559.275 8
        36.300
  21921729.125   115199458.503 7        49.300    21921732.031    89765828.232 8
        35.500
  22669215.414   119127524.418 6        44.700    22669221.656    92826645.424 8
        34.100
  20845122.820   109541880.748 7        49.400    20845125.297    85357324.518 9
        41.700
  21167346.172   111235168.596 7        51.700    21167350.535    86676780.262 9
        43.000
  24275544.523   127568849.846 4        38.500    24275546.270    99404300.983 6
        19.600
  24165488.938   126990503.410 6        43.000    24165489.500    98953641.530 6
        23.800
  21389884.305   112404614.635 8        52.900    21389889.602    87588046.796 9
        42.600
 18  2 21  8 48  0.0000000  0  8G02G05G06G07G09G16G23G30
  21881007.266   114985455.989 7        47.500    21881007.617    89599052.337 8
        35.700
  21906758.211   115120787.411 7        48.800    21906761.035    89704526.088 8
        36.000
  22687898.344   119225702.092 6        44.800    22687904.145    92903147.463 8
        33.500
  20841023.828   109520340.082 7        50.200    20841026.266    85340539.591 9
        41.100
  21179591.461   111299516.301 8        52.400    21179595.781    86726921.326 9
        42.600
  24281417.422   127599713.627 5        39.400    24281420.313    99428350.637 6
        20.100
  24182581.945   127080327.703 6        43.000    24182582.406    99023634.431 6
        22.600
  21376133.656   112332355.119 8        52.900    21376139.199    87531740.685 9
        43.000
 18  2 21  8 48 30.0000000  0  8G02G05G06G07G09G16G23G30
  21886602.258   115014855.701 7        47.900    21886602.301    89621961.190 8
        36.400
  21891843.008   115042406.720 7        49.200    21891845.969    89643450.227 8
        36.300
  22706633.164   119324155.854 6        44.600    22706638.832    92979864.637 8
        33.500
  20837025.523   109499329.561 7        50.900    20837027.750    85324167.765 9
        41.500
  21191887.227   111364131.463 8        52.100    21191891.770    86777270.788 9
        42.900
  24287404.992   127631177.350 4        38.300    24287407.078    99452867.790 6
        19.900
  24199690.227   127170233.960 6        42.600    24199691.727    99093691.195 6
        23.400
  21362465.773   112260531.677 8        53.400    21362471.230    87475774.364 9
        43.000
 18  2 21  8 49  0.0000000  0  8G02G05G06G07G09G16G23G30
  21892297.695   115044787.309 7        48.600    21892297.672    89645284.513 8
        36.400
  21876983.641   114964318.876 7        48.300    21876986.262    89582602.580 8
        36.100
  22725420.133   119422882.103 6        45.100    22725426.258    93056794.136 8
        34.100
  20833128.250   109478848.759 7        51.000    20833130.727    85308208.704 9
        41.500
  21204233.508   111429012.298 7        52.000    21204238.418    86827827.259 9
        42.500
  24293506.016   127663239.564 5        39.800    24293508.141    99477851.319 6
        19.300
  24216814.336   127260221.092 6        42.800    24216815.234    99163810.995 6
        25.200
  21348881.750   112189145.582 8        52.800    21348886.883    87420148.848 9
        43.100
 18  2 21  8 49 30.0000000  0  8G02G05G06G07G09G16G23G30
  21898094.617   115075250.073 7        47.200    21898094.703    89669021.708 8
        36.400
  21862179.898   114886525.292 7        48.600    21862182.219    89521984.194 8
        36.200
  22744258.617   119521878.381 6        44.000    22744264.277    93133934.046 8
        33.600
  20829332.109   109458898.587 7        50.300    20829334.762    85292663.118 9
        41.600
  21216630.391   111494157.969 7        52.000    21216634.590    86878590.106 9
        42.000
  24299721.086   127695899.588 4        38.300    24299723.918    99503300.669 6
        19.600
  24233953.492   127350288.558 6        42.400    24233955.656    99233993.375 6
        24.000
  21335381.180   112118199.072 8        52.500    21335385.969    87364865.856 9
        42.800
 18  2 21  8 50  0.0000000  0  8G02G05G06G07G09G16G23G30
  21903991.977   115106242.482 7        47.500    21903992.070    89693171.636 8
        36.500
  21847433.086   114809029.010 7        48.900    21847435.449    89461597.478 8
        37.000
  22763147.758   119621141.615 6        43.500    22763153.734    93211281.963 8
        33.700
  20825636.516   109439478.935 7        49.400    20825638.977    85277530.929 9
        41.600
  21229077.359   111559567.107 8        52.300    21229081.598    86929558.249 9
        42.500
  24306049.750   127729156.534 4        38.100    24306051.750    99529215.159 6
        20.100
  24251108.219   127440434.714 6        43.200    24251108.977    99304237.053 6
        24.300
  21321964.148   112047693.809 8        52.800    21321969.270    87309926.695 9
        42.900
 18  2 21  8 50 30.0000000  0  8G02G05G06G07G09G16G23G30
  21909990.273   115137763.515 6        46.500    21909990.977    89717733.460 8
        36.300
  21832743.219   114731831.496 7        50.100    21832745.262    89401443.568 8
        36.900
  22782087.008   119720668.900 6        43.300    22782093.074    93288835.644 7
        32.500
  20822042.172   109420590.083 7        50.700    20822044.125    85262812.373 9
        42.000
  21241574.500   111625238.483 8        52.400    21241578.469    86980730.746 9
        42.600
  24312491.492   127763008.702 4        38.000    24312493.605    99555593.453 6
        19.900
  24268277.375   127530659.460 6        43.100    24268278.660    99374541.987 6
        24.700
  21308631.891   111977631.616 8        52.500    21308636.801    87255332.779 9
        42.400
 18  2 21  8 51  0.0000000  0  8G02G05G06G07G09G16G23G30
  21916089.375   115169812.282 6        46.700    21916089.973    89742706.512 8
        36.800
  21818109.508   114654934.661 7        48.900    21818112.023    89341523.969 8
        36.900
  22801076.172   119820457.435 6        44.000    22801082.211    93366592.902 8
        33.400
  20818548.914   109402232.530 7        50.800    20818551.129    85248507.789 9
        42.200
  21254120.844   111691171.051 7        51.500    21254125.031    87032106.765 9
        42.500
  24319047.023   127797455.288 5        39.900    24319048.984    99582434.949 6
        19.900
  24285461.086   127620962.013 5        41.900    24285462.691    99444907.570 6
        25.000
  21295384.156   111908014.421 8        52.600    21295389.039    87201085.616 9
        42.600
 18  2 21  8 51 30.0000000  0  8G02G05G06G07G09G16G23G30
  21922288.336   115202387.162 6        46.000    21922288.684    89768089.523 8
        36.900
  21803534.031   114578340.538 7        48.500    21803536.789    89281840.243 8
        36.600
  22820114.375   119920504.119 6        43.900    22820120.289    93444551.313 7
        32.800
  20815157.305   109384406.214 8        52.500    20815158.719    85234617.163 9
        42.600
  21266716.391   111757363.430 7        51.100    21266720.949    87083685.234 9
        42.100
  24325714.781   127832495.624 5        41.300    24325716.582    99609739.081 6
        20.900
  24302660.180   127711341.249 5        42.000    24302661.559    99515332.884 6
        23.500
  21282221.469   111838843.870 8        52.100    21282226.453    87147186.489 9
        43.100
 18  2 21  8 52  0.0000000  0  8G02G05G06G07G09G16G23G30
  21928586.922   115235487.224 6        45.700    21928587.367    89793881.763 8
        36.700
  21789017.148   114502050.951 7        49.900    21789018.914    89222393.812 8
        36.300
  22839201.102   120020806.083 6        43.100    22839206.930    93522708.647 8
        33.600
  20811866.234   109367111.314 8        53.200    20811867.824    85221140.610 9
        42.500
  21279361.695   111823814.430 7        51.200    21279366.391    87135465.210 9
        42.600
  24332494.922   127868128.100 5        39.700    24332496.938    99637504.638 6
        18.600
  24319872.758   127801796.448 6        42.200    24319874.770    99585817.371 6
        22.500
  21269143.992   111770121.716 8        52.600    21269149.332    87093636.763 9
        43.000
 18  2 21  8 52 30.0000000  0  8G02G05G06G07G09G16G23G30
  21934985.828   115269111.384 6        47.000    21934985.910    89820082.376 8
        36.800
  21774558.039   114426068.379 7        49.600    21774560.219    89163186.606 8
        36.500
  22858335.945   120121360.703 6        43.000    22858342.508    93601062.857 8
        33.700
  20808675.984   109350348.204 7        51.400    20808677.848    85208078.441 9
        42.100
  21292056.188   111890523.166 7        51.300    21292060.914    87187446.024 9
        42.100
  24339388.305   127904351.145 4        38.400    24339389.840    99665730.361 6
        19.300
  24337100.508   127892326.985 6        43.700    24337101.629    99656360.628 6
        23.000
  21256152.305   111701850.086 8        52.900    21256157.219    87040438.093 9
        42.400
 18  2 21  8 53  0.0000000  0  8G02G05G06G07G09G16G23G30
  21941483.406   115303258.179 6        45.700    21941483.926    89846690.252 8
        36.600
  21760157.469   114350394.958 7        50.100    21760160.027    89104220.292 8
        37.500
  22877518.813   120222164.682 6        44.300    22877524.969    93679611.365 8
        33.200
  20805586.625   109334116.865 7        50.800    20805589.199    85195430.648 9
        41.300
  21304799.570   111957488.164 7        50.900    21304803.289    87239626.523 9
        42.200
  24346392.891   127941163.865 5        39.900    24346395.605    99694415.590 6
        19.900
  24354342.680   127982931.759 6        42.700    24354343.832    99726961.709 6
        24.700
  21243246.781   111634030.373 7        52.000    21243251.625    86987591.571 9
        42.500
 18  2 21  8 53 30.0000000  0  8G02G05G06G07G09G16G23G30
  21948080.367   115337926.295 6        46.800    21948081.297    89873704.362 8
        37.100
  21745816.773   114275032.786 7        50.800    21745819.516    89045496.527 8
        36.800
  22896748.648   120323215.366 6        44.200    22896753.617    93758352.115 8
        33.200
  20802598.430   109318417.514 7        50.200    20802601.707    85183197.387 8
        40.800
  21317591.258   112024708.338 8        52.600    21317594.281    87292005.882 9
        42.600
  24353510.359   127978565.010 4        38.100    24353512.480    99723559.347 6
        18.600
  24371597.922   128073610.180 6        43.000    24371599.234    99797620.140 6
        23.600
  21230427.664   111566664.499 8        52.700    21230431.984    86935098.687 9
        42.000
 18  2 21  8 54  0.0000000  0  8G02G05G06G07G09G16G23G30
  21954776.391   115373114.561 6        46.300    21954776.582    89901123.774 8
        36.100
  21731535.430   114199983.209 7        50.400    21731538.250    88987016.333 8
        37.400
  22916023.930   120424509.587 6        45.200    22916029.824    93837282.633 8
        33.200
  20799712.820   109303250.287 7        50.300    20799715.582    85171378.798 8
        40.700
  21330430.570   112092182.386 7        51.500    21330434.699    87344583.049 9
        41.700
  24360738.953   128016553.649 5        39.200    24360741.949    99753160.837 6
        19.900
  24388866.445   128164361.370 6        42.100    24388868.102    99868335.292 6
        22.500
  21217694.891   111499754.076 8        52.900    21217699.613    86882960.699 9
        42.600
 18  2 21  8 54 30.0000000  0  8G02G05G06G07G09G16G23G30
  21961571.453   115408821.886 6        46.800    21961571.211    89928947.644 8
        36.900
  21717313.672   114125248.337 7        50.300    21717316.570    88928781.373 8
        37.500
  22935345.352   120526044.475 6        44.900    22935351.391    93916400.682 7
        32.300
  20796928.156   109288615.197 7        51.400    20796930.848    85159974.826 9
        41.700
  21343318.531   112159909.152 7        51.100    21343323.781    87397357.134 9
        41.700
  24368079.734   128055128.431 4        38.600    24368082.609    99783219.111 6
        18.300
  24406150.227   128255184.526 6        43.000    24406152.277    99939106.480 6
        22.800
  21205049.180   111433300.808 8        52.900    21205054.223    86831178.934 9
        42.300
 18  2 21  8 55  0.0000000  0  8G02G05G06G07G09G16G23G30
  21968464.375   115445046.620 6        46.300    21968464.883    89957174.693 8
        37.000
  21703152.758   114050830.503 7        51.000    21703155.383    88870793.465 8
        37.400
  22954712.109   120627817.186 6        44.300    22954718.492    93995704.056 7
        32.200
  20794244.570   109274512.230 7        51.800    20794247.055    85148985.505 9
        42.100
  21356254.617   112227887.585 7        51.400    21356258.875    87450327.308 9
        41.600
  24375532.414   128094287.581 4        38.800    24375533.945    99813732.679 6
        18.600
  24423447.297   128346078.765 6        43.000    24423448.945   100009933.148 6
        22.900
  21192490.625   111367306.512 8        52.200    21192495.953    86779754.813 9
        42.400
 18  2 21  8 55 30.0000000  0  8G02G05G06G07G09G16G23G30
  21975456.289   115481787.425 7        47.200    21975456.621    89985803.860 8
        36.400
  21689052.148   113976731.696 7        50.300    21689054.043    88813054.140 8
        37.500
  22974123.211   120729824.534 6        44.700    22974129.684    94075190.234 7
        32.000
  20791662.109   109260941.381 7        52.000    20791664.527    85138410.826 9
        42.300
  21369238.258   112296116.200 8        52.100    21369242.520    87503492.450 9
        41.900
  24383095.109   128134029.894 4        38.900    24383096.996    99844700.712 6
        18.600
  24440757.070   128437043.338 5        42.000    24440758.492   100080814.564 6
        22.000
  21180020.102   111301772.602 7        51.800    21180025.484    86728689.443 9
        42.800
 18  2 21  8 56  0.0000000  0  8G02G05G06G07G09G16G23G30
  21982545.578   115519043.071 7        47.200    21982545.945    90014834.215 8
        36.900
  21675012.961   113902954.440 7        50.600    21675014.977    88755565.361 8
        37.600
  22993579.078   120832063.915 6        44.100    22993584.988    94154857.222 7
        32.300
  20789180.820   109247902.854 8        52.400    20789183.113    85128250.934 9
        41.600
  21382268.641   112364594.134 7        50.900    21382273.598    87556851.872 9
        41.600
  24390768.531   128174353.918 5        39.100    24390770.574    99876122.013 6
        19.900
  24458080.258   128528077.465 6        43.200    24458081.973   100151750.154 6
        22.500
  21167637.102   111236701.076 7        52.000    21167642.766    86677984.356 9
        42.600
 18  2 21  8 56 30.0000000  0  9G02G05G06G07G09G13G16G23G30
  21989733.156   115556812.036 7        47.600    21989733.285    90044264.568 8
        37.200
  21661034.453   113829500.448 7        49.500    21661037.082    88698328.477 8
        37.000
  23013078.648   120934532.315 6        45.500    23013084.617    94234702.673 7
        32.600
  20786801.273   109235396.966 8        52.200    20786803.492    85118506.089 9
        42.100
  21395346.594   112433320.143 7        50.200    21395351.246    87610404.595 9
        41.300
  24679068.727   129689381.178 3        35.900    24679071.766   101056669.158 5
        16.900
  24398553.016   128215258.657 5        40.200    24398553.844    99907995.812 6
        21.100
  24475417.125   128619180.369 6        43.300    24475418.289   100222739.360 6
        22.000
  21155342.805   111172093.464 7        51.100    21155348.742    86627640.764 9
        42.700
 18  2 21  8 57  0.0000000  0  9G02G05G06G07G09G13G16G23G30
  21997017.797   115595093.408 7        48.000    21997018.008    90074094.190 8
        37.200
  21647119.000   113756372.092 7        49.300    21647121.000    88641345.362 8
        37.300
  23032620.531   121037227.175 6        45.800    23032626.402    94314724.602 7
        32.300
  20784522.922   109223423.772 7        52.000    20784525.016    85109176.326 9
        42.200
  21408471.766   112502293.507 7        50.800    21408476.898    87664150.045 9
        41.100
  24659932.406   129588813.347 3        36.800    24659934.625   100978304.703 5
        17.800
  24406447.664   128256743.169 5        40.400    24406449.402    99940321.414 6
        20.900
  24492766.578   128710351.830 6        43.200    24492766.512   100293782.020 6
        22.500
  21143137.039   111107951.902 7        51.900    21143142.145    86577660.321 9
        42.600
 18  2 21  8 57 30.0000000  0  9G02G05G06G07G09G13G16G23G30
  22004399.563   115633884.872 7        48.500    22004400.449    90104321.271 8
        37.000
  21633265.852   113683570.731 7        50.000    21633267.508    88584617.027 8
        38.100
  23052205.203   121140144.913 6        44.700    23052211.023    94394920.198 7
        31.700
  20782345.477   109211982.526 7        51.000    20782348.250    85100261.077 9
        42.300
  21421644.109   112571512.326 7        51.700    21421648.820    87718086.774 9
        41.600
  24640811.195   129488332.523 3        37.000    24640813.555   100900007.988 5
        17.400
  24414451.078   128298805.064 4        38.100    24414453.402    99973096.873 6
        19.600
  24510128.594   128801590.225 5        42.000    24510129.777   100364876.823 6
        22.300
  21131020.188   111044277.289 8        52.200    21131025.766    86528043.745 9
        42.700
 18  2 21  8 58  0.0000000  0  9G02G05G06G07G09G13G16G23G30
  22011878.242   115673185.522 7        47.700    22011878.742    90134945.151 8
        37.400
  21619475.063   113611098.144 7        48.900    21619476.672    88528144.867 8
        37.300
  23071831.367   121243282.675 6        44.900    23071837.555    94475287.252 7
        31.500
  20780269.313   109201073.357 7        50.000    20780272.008    85091760.423 9
        42.000
  21434862.805   112640975.521 7        52.000    21434867.965    87772213.926 9
        41.700
  24621706.898   129387939.371 4        39.000    24621709.746   100821779.650 6
        18.300
  24422564.836   128341442.931 5        40.400    24422567.176   100006321.174 6
        20.900
  24527502.367   128892895.084 5        41.000    24527504.590   100436023.413 6
        22.500
  21118992.703   110981071.349 7        51.800    21118997.703    86478792.358 9
        42.200
 18  2 21  8 58 30.0000000  0  9G02G05G06G07G09G13G16G23G30
  22019453.375   115712993.968 7        47.300    22019453.867    90165964.715 8
        36.000
  21605746.484   113538956.379 7        49.500    21605747.984    88471930.491 8
        38.000
  23091499.023   121346637.610 6        44.400    23091505.230    94555823.517 7
        30.700
  20778294.641   109190696.547 7        51.700    20778297.094    85083674.604 9
        42.400
  21448127.469   112710682.101 7        51.900    21448132.566    87826530.726 9
        41.600
  24602618.609   129287634.881 4        38.000    24602622.730   100743620.372 5
        17.400
  24430788.250   128384655.911 5        40.200    24430790.980   100039993.570 6
        20.400
  24544891.328   128984265.484 6        43.600    24544892.395   100507221.031 6
        25.300
  21107054.492   110918335.801 7        51.800    21107059.461    86429907.507 9
        42.300
 18  2 21  8 59  0.0000000  0  9G02G05G06G07G09G13G16G23G30
  22027125.305   115753308.349 6        47.000    22027125.508    90197378.509 8
        36.900
  21592081.250   113467148.012 7        47.900    21592083.387    88415975.915 8
        36.900
  23111208.195   121450206.658 6        45.400    23111213.992    94636526.624 7
        31.400
  20776421.859   109180851.783 8        52.300    20776423.793    85076003.362 9
        42.000
  21461437.422   112780630.750 7        51.100    21461442.566    87881036.142 8
        40.600
  24583548.008   129187419.780 5        39.400    24583551.539   100665530.733 5
        17.800
  24439119.133   128428442.151 4        39.000    24439122.363   100074112.684 6
        19.600
  24562290.102   129075700.793 6        42.900    24562291.172   100578469.263 6
        24.500
  21095206.172   110856072.108 8        52.100    21095211.020    86381390.339 9
        42.800
 18  2 21  8 59 30.0000000  0  9G02G05G06G07G09G13G16G23G30
  22034892.781   115794127.043 7        47.300    22034893.020    90229185.256 8
        37.300
  21578480.125   113395675.341 7        48.400    21578482.695    88360282.940 8
        35.900
  23130956.938   121553986.704 6        45.800    23130961.910    94717394.145 7
        31.700
  20774649.063   109171538.663 7        51.800    20774651.754    85068746.384 9
        42.000
  21474794.742   112850820.153 7        51.100    21474799.766    87935729.167 9
        41.300
  24564496.195   129087294.882 5        40.300    24564498.867   100587511.392 5
        17.800
  24447561.180   128472799.896 4        38.900    24447562.988   100108677.128 6
        19.000
  24579701.203   129167200.160 5        39.900    24579703.059   100649767.400 6
        21.700
  21083447.453   110794281.675 7        51.400    21083452.707    86333241.940 9
        42.200
                            4  1
RINEX FILE SPLICE; other post-header comments skipped       COMMENT
 18  2 21  9  0  0.0000000  0  9G02G05G06G07G09G13G16G23G30
  22042756.641   115835449.086 7        48.200    22042756.156    90261384.225 8
        37.200
  21564943.570   113324540.486 7        47.600    21564946.723    88304853.184 8
        35.700
  23150745.008   121657975.470 6        44.000    23150751.508    94798424.300 7
        30.500
  20772978.492   109162757.762 7        51.500    20772980.352    85061904.126 9
        42.100
  21488197.320   112921249.763 8        52.100    21488201.523    87990609.379 9
        41.300
  24545459.750   128987261.606 4        38.900    24545462.613   100509563.467 5
        16.900
  24456111.055   128517728.003 4        38.000    24456112.715   100143685.985 6
        20.400
  24597125.563   129258763.127 5        40.100    24597127.074   100721115.089 6
        20.100
  21071779.680   110732966.690 7        51.900    21071785.297    86285464.014 9
        42.400
 18  2 21  9  0 30.0000000  0  9G02G05G06G07G09G13G16G23G30
  22050715.000   115877272.631 6        46.600    22050715.469    90293973.968 8
        37.000
  21551471.664   113253744.121 7        47.900    21551474.699    88249687.193 8
        36.200
  23170572.266   121762169.353 6        43.800    23170579.336    94879614.295 7
        31.200
  20771408.609   109154508.455 7        51.300    20771410.348    85055476.088 9
        41.700
  21501645.242   112991917.813 7        52.000    21501649.332    88045675.390 9
        41.600
  24526441.633   128887320.342 4        38.800    24526445.348   100431687.175 6
        19.000
  24464768.211   128563224.628 4        39.000    24464770.441   100179137.905 6
        18.600
  24614561.438   129350388.461 5        41.400    24614562.488   100792511.447 6
        21.700
  21060202.445   110672128.058 7        52.000    21060207.844    86238057.289 9
        42.600
 18  2 21  9  1  0.0000000  0  9G02G05G06G07G09G13G16G23G30
  22058768.945   115919595.910 6        47.000    22058769.145    90326953.132 8
        37.200
  21538064.469   113183289.260 7        47.300    21538067.836    88194787.312 8
        36.300
  23190438.344   121866565.539 6        44.100    23190444.484    94960961.932 7
        29.900
  20769939.633   109146790.563 7        51.700    20769941.660    85049462.144 9
        41.400
  21515137.695   113062823.230 7        51.100    21515142.645    88100926.345 8
        40.800
  24507440.148   128787471.654 5        39.200    24507443.727   100353883.073 6
        19.300
  24473533.805   128609288.681 4        38.700    24473536.141   100215031.906 6
        19.000
  24632008.992   129442075.651 5        41.700    24632010.734   100863955.932 6
        24.600
  21048716.539   110611767.425 8        52.600    21048721.758    86191023.023 9
        42.400
 18  2 21  9  1 30.0000000  0  9G02G05G06G07G09G13G16G23G30
  22066917.359   115962417.653 6        45.700    22066917.617    90360320.714 8
        36.600
  21524722.672   113113177.957 7        48.400    21524725.758    88140155.149 8
        36.900
  23210342.172   121971161.394 6        44.100    23210348.594    95042465.120 7
        31.000
  20768572.188   109139604.479 7        51.600    20768574.355    85043862.598 9
        41.800
  21528675.617   113133965.296 7        50.800    21528680.758    88156361.690 8
        40.900
  24488457.602   128687717.089 5        40.700    24488461.469   100276152.247 6
        18.600
  24482407.672   128655917.900 5        40.000    24482409.633   100251366.351 6
        19.300
  24649467.961   129533824.266 5        39.600    24649470.152   100935448.300 6
        21.800
  21037321.484   110551886.658 8        52.300    21037326.676    86144362.683 9
        43.000
 18  2 21  9  2  0.0000000  0  9G02G05G06G07G09G13G16G23G30
  22075160.680   116005736.309 7        47.300    22075160.793    90394075.497 8
        36.400
  21511446.891   113043412.415 7        49.000    21511450.039    88085792.397 8
        37.300
  23230284.000   122075953.662 6        43.100    23230290.008    95124121.402 7
        31.000
  20767305.977   109132949.325 7        51.300    20767308.297    85038676.766 9
        41.800
  21542257.930   113205342.460 7        51.500    21542262.836    88211980.230 8
        41.000
  24469493.742   128588057.107 5        40.900    24469495.703   100198495.145 5
        17.800
  24491387.727   128703110.758 4        39.000    24491390.336   100288139.984 6
        18.300
  24666938.672   129625633.069 5        40.000    24666940.453   101006987.515 6
        21.100
  21026017.906   110492486.913 8        53.000    21026023.738    86098077.161 9
        43.600
 18  2 21  9  2 30.0000000  0  8G02G05G06G07G09G13G16G30
  22083498.828   116049550.182 7        47.400    22083498.387    90428216.159 8
        36.500
  21498237.305   112973994.624 7        49.500    21498239.859    88031700.614 8
        37.700
  23250262.250   122180939.530 6        44.800    23250267.855    95205928.511 7
        31.300
  20766140.352   109126825.355 7        51.600    20766143.055    85033904.833 9
        41.300
  21555885.773   113276953.754 7        52.000    21555889.418    88267781.231 8
        40.600
  24450547.258   128488492.642 5        41.600    24450550.254   100120912.503 6
        20.100
  24500475.500   128750866.178 4        38.100    24500477.809   100325351.958 6
        19.300
  21014806.359   110433569.803 8        52.500    21014812.332    86052167.732 9
        43.700
 18  2 21  9  3  0.0000000  0  8G02G05G06G07G09G13G16G30
  22091929.977   116093857.850 7        47.300    22091930.074    90462741.583 8
        36.800
  21485094.336   112904926.660 7        49.200    21485096.605    87977881.413 8
        37.700
  23270276.953   122286116.251 6        44.300    23270282.652    95287884.357 7
        30.700
  20765076.289   109121232.476 7        49.900    20765079.422    85029546.747 9
        41.700
  21569557.617   113348798.205 7        50.900    21569561.039    88323763.923 9
        41.100
  24431619.211   128389024.805 6        42.900    24431622.172   100043405.115 6
        20.900
  24509668.430   128799182.027 4        37.100    24509672.066   100363000.582 6
        18.600
  21003687.328   110375137.011 8        52.700    21003692.660    86006635.680 9
        44.100
 18  2 21  9  3 30.0000000  0  8G02G05G06G07G09G13G16G30
  22100454.633   116138657.168 7        47.300    22100454.633    90497650.120 8
        35.900
  21472018.203   112836209.993 7        50.300    21472020.027    87924335.951 8
        38.600
  23290326.563   122391480.453 6        45.400    23290333.043    95369986.266 7
        29.700
  20764112.742   109116169.923 7        51.200    20764115.523    85025601.902 9
        41.300
  21583272.531   113420874.280 7        50.900    21583277.621    88379927.082 9
        41.100
  24412708.938   128289653.923 6        42.100    24412711.801    99965973.338 6
        18.600
  24518969.727   128848056.779 3        36.100    24518972.039   100401084.818 5
        17.800
  20992659.914   110317189.521 8        52.600    20992665.836    85961481.785 9
        43.500
 18  2 21  9  4  0.0000000  0  8G02G05G06G07G09G13G16G30
  22109073.086   116183946.612 7        47.500    22109072.875    90532940.583 8
        35.500
  21459008.766   112767846.741 7        49.600    21459011.410    87871065.881 8
        38.900
  23310412.148   122497029.471 6        44.600    23310418.098    95452232.220 7
        29.800
  20763250.594   109111637.959 7        51.000    20763252.750    85022070.507 9
        41.800
  21597031.945   113493181.119 7        51.200    21597037.305    88436270.047 9
        41.300
  24393817.906   128190381.056 5        40.600    24393821.039    99888617.883 6
        19.900
  24528376.297   128897488.822 4        37.500    24528378.305   100439603.253 5
        17.800
  20981726.047   110259729.086 8        52.500    20981731.063    85916707.427 9
        43.500
 18  2 21  9  4 30.0000000  0  8G02G05G06G07G09G13G16G30
  22117784.484   116229724.647 6        47.000    22117784.527    90568611.769 8
        35.900
  21446067.484   112699839.066 7        50.400    21446070.047    87818072.901 8
        39.300
  23330531.563   122602760.387 6        44.400    23330537.863    95534619.894 7
        29.900
  20762488.914   109107635.812 8        52.700    20762491.066    85018951.948 9
        42.100
  21610835.273   113565717.618 7        51.200    21610840.891    88492791.963 9
        41.300
  24374945.602   128091207.039 5        41.500    24374949.039    99811339.464 6
        20.900
  24537889.242   128947476.211 3        36.600    24537891.961   100478554.379 6
        19.000
  20970884.086   110202757.148 8        52.600    20970889.164    85872313.701 9
        43.600
 18  2 21  9  5  0.0000000  0  8G02G05G06G07G09G13G16G30
  22126588.141   116275989.320 6        46.000    22126587.828    90604662.157 8
        35.700
  21433194.273   112632189.009 7        51.600    21433196.883    87765358.576 8
        38.900
  23350686.320   122708670.003 6        45.800    23350691.766    95617146.815 7
        29.100
  20761828.258   109104163.466 7        52.000    20761829.695    85016246.227 9
        41.300
  21624682.094   113638482.431 7        51.200    21624686.113    88549491.796 8
        40.400
  24356092.633   127992133.015 6        42.200    24356096.023    99734138.960 6
        20.900
  24547506.219   128998017.150 4        37.400    24547509.371   100517936.896 6
        19.000
  20960136.328   110146274.868 8        52.300    20960141.340    85828301.545 9
        43.400
 18  2 21  9  5 30.0000000  0  7G02G05G06G07G09G13G30
  22135484.000   116322738.762 6        46.700    22135484.250    90641090.292 8
        35.600
  21420389.313   112564898.976 7        50.300    21420391.605    87712924.771 8
        39.200
  23370873.422   122814755.309 6        44.200    23370879.555    95699810.650 7
        29.400
  20761268.266   109101220.345 7        51.900    20761270.227    85013952.893 9
        42.000
  21638572.180   113711474.297 7        50.600    21638576.242    88606368.569 8
        40.600
  24337259.344   127893159.428 5        40.800    24337261.883    99657016.751 6
        20.600
  20949481.523   110090283.556 8        52.600    20949486.703    85784671.958 9
        43.500
 18  2 21  9  6  0.0000000  0  7G02G05G06G07G09G13G30
  22144472.359   116369971.743 6        47.000    22144472.352    90677895.189 8
        35.200
  21407653.234   112497970.820 7        51.400    21407655.281    87660772.961 8
        39.800
  23391093.953   122921013.635 6        45.200    23391100.211    95782609.312 7
        28.500
  20760808.797   109098806.450 7        51.600    20760811.266    85012071.932 9
        42.000
  21652504.773   113784692.446 7        50.700    21652509.344    88663421.664 8
        40.300
  24318444.461   127794287.347 5        41.300    24318446.746    99579973.595 6
        21.100
  20938920.625   110034784.871 8        52.800    20938925.559    85741426.232 9
        43.400
 18  2 21  9  6 30.0000000  0  7G02G05G06G07G09G13G30
  22153552.445   116417686.409 7        47.300    22153552.387    90715075.445 8
        35.700
  21394986.547   112431406.642 7        51.800    21394988.984    87608904.774 8
        38.900
  23411346.469   123027442.023 6        44.700    23411352.680    95865540.464 7
        29.900
  20760449.969   109096921.522 7        51.300    20760452.559    85010603.130 9
        41.800
  21666480.367   113858135.678 7        50.900    21666485.797    88720650.132 8
        40.000
  24299648.750   127695517.626 5        41.600    24299651.660    99503010.211 6
        22.300
  20928453.172   109979780.101 8        52.500    20928458.039    85698565.367 9
        43.300
 18  2 21  9  7  0.0000000  0  7G02G05G06G07G09G13G30
  22162723.750   116465881.417 6        46.300    22162723.520    90752629.971 8
        35.900
  21382389.414   112365208.561 7        51.800    21382392.172    87557321.849 8
        39.500
  23431630.883   123134038.140 6        44.100    23431637.406    95948602.342 7
        29.100
  20760192.289   109095565.633 8        52.700    20760194.789    85009546.594 9
        42.300
  21680499.438   113931803.514 7        51.600    21680504.246    88778053.611 8
        41.000
  24280872.984   127596851.960 5        41.100    24280876.340    99426127.913 6
        22.200
  20918080.484   109925271.243 8        53.000    20918085.563    85656090.928 9
        42.400
 18  2 21  9  7 30.0000000  0  7G02G05G06G07G09G13G30
  22171985.555   116514554.250 6        46.600    22171985.848    90790556.845 8
        35.400
  21369862.234   112299377.544 8        52.800    21369865.027    87506024.959 8
        40.100
  23451946.789   123240798.254 6        44.500    23451952.703    96031791.978 7
        28.800
  20760034.523   109094737.558 7        51.700    20760036.609    85008901.343 9
        41.500
  21694560.047   114005694.060 7        51.600    21694564.719    88835630.642 8
        40.700
  24262117.586   127498290.318 6        42.200    24262120.328    99349326.680 6
        21.700
  20907802.492   109871258.812 8        53.400    20907807.508    85614003.331 9
        43.300
 18  2 21  9  8  0.0000000  0  7G02G05G06G07G09G13G30
  22181338.422   116563703.282 6        47.000    22181339.012    90828854.760 8
        34.800
  21357405.578   112233917.148 8        52.300    21357408.344    87455016.852 8
        39.400
  23472293.594   123347719.449 6        44.700    23472299.340    96115107.176 7
        28.900
  20759977.289   109094437.490 7        51.600    20759979.551    85008667.520 9
        41.900
  21708663.180   114079806.241 7        51.300    21708668.070    88893380.375 8
        39.800
  24243381.883   127399833.500 5        40.700    24243384.645    99272607.144 6
        22.000
  20897618.953   109817744.197 8        53.400    20897624.172    85572303.646 9
        43.100
 18  2 21  9  8 30.0000000  0  7G02G05G06G07G09G13G30
  22190781.117   116613326.464 6        45.500    22190781.992    90867522.160 8
        35.400
  21345019.867   112168828.508 8        52.900    21345021.852    87404298.436 8
        39.900
  23492669.414   123454798.573 6        42.900    23492675.871    96198545.402 7
        28.100
  20760020.531   109094664.068 8        52.900    20760022.504    85008844.072 9
        41.100
  21722808.109   114154138.716 7        50.600    21722812.250    88951301.767 8
        39.900
  24224665.961   127301482.139 5        41.000    24224669.172    99195969.734 6
        22.800
  20887530.148   109764728.372 8        52.800    20887535.723    85530992.612 9
        43.600
 18  2 21  9  9  0.0000000  0  7G02G05G06G07G09G13G30
  22200313.930   116663422.000 6        46.500    22200314.527    90906557.621 8
        35.600
  21332704.938   112104113.637 8        52.500    21332706.813    87353871.250 8
        40.200
  23513076.219   123562032.897 6        43.600    23513081.453    96282104.577 7
        28.000
  20760163.805   109095417.443 8        52.800    20760165.992    85009431.115 9
        41.400
  21736994.898   114228690.651 7        50.700    21736999.309    89009394.172 8
        39.500
  24205970.648   127203237.248 5        41.300    24205973.379    99119415.332 6
        21.800
  20877537.359   109712212.917 8        53.700    20877542.207    85490071.491 9
        43.400
 18  2 21  9  9 30.0000000  0  7G02G05G06G07G09G13G30
  22209936.328   116713987.691 6        46.500    22209937.117    90945959.435 8
        35.700
  21320461.383   112039774.088 8        52.100    21320463.852    87303736.532 8
        39.700
  23533510.883   123669419.178 6        42.600    23533517.309    96365782.158 7
        28.600
  20760407.000   109096696.805 7        51.300    20760409.629    85010428.017 9
        41.500
  21751223.500   114303460.551 7        51.100    21751227.762    89067656.416 8
        40.400
  24187295.766   127105099.450 5        40.000    24187298.660    99042944.366 6
        22.300
  20867639.016   109660198.736 8        53.900    20867644.277    85449540.963 9
        43.000
 18  2 21  9 10  0.0000000  0  7G02G05G06G07G09G13G30
  22219647.984   116765022.505 6        46.600    22219648.539    90985726.808 8
        35.000
  21308289.773   111975812.403 8        52.800    21308292.082    87253896.258 8
        39.900
  23553974.750   123776955.060 6        44.000    23553981.000    96449576.294 7
        27.000
  20760750.711   109098502.386 7        50.700    20760753.445    85011834.958 9
        42.000
  21765493.719   114378447.926 7        51.400    21765498.426    89126088.130 9
        41.100
  24168641.719   127007069.824 5        41.300    24168643.668    98966557.698 6
        22.600
  20857836.625   109608687.663 8        54.300    20857841.418    85409402.472 9
        43.100
 18  2 21  9 10 30.0000000  0  7G02G05G06G07G09G13G30
  22229448.164   116816523.354 6        45.600    22229448.691    91025857.330 8
        35.400
  21296190.773   111912230.158 8        53.000    21296192.609    87204351.660 8
        39.900
  23574465.195   123884636.986 6        43.100    23574471.914    96533484.270 7
        27.300
  20761194.703   109100832.708 8        52.400    20761196.723    85013650.794 9
        41.800
  21779803.961   114453651.059 7        51.400    21779808.566    89184687.956 8
        40.400
  24150007.016   126909149.120 5        41.700    24150009.637    98890255.896 6
        22.900
  20848130.289   109557680.253 8        53.400    20848135.387    85369656.442 9
        43.100
 18  2 21  9 11  0.0000000  0  7G02G05G06G07G09G13G30
  22239337.273   116868489.525 7        47.100    22239338.004    91066350.423 8
        35.900
  21284164.383   111849030.436 8        52.500    21284165.980    87155105.118 8
        40.000
  23594984.109   123992462.707 6        42.600    23594990.496    96617504.268 7
        26.900
  20761737.859   109103688.050 7        52.000    20761740.082    85015875.742 9
        42.000
  21794155.563   114529069.574 7        51.300    21794159.883    89243455.602 8
        40.700
  24131395.219   126811338.793 6        42.100    24131397.402    98814040.061 6
        22.200
  20838520.234   109507178.457 8        52.800    20838525.203    85330304.400 9
        43.300
 18  2 21  9 11 30.0000000  0  7G02G05G06G07G09G13G30
  22249314.000   116920918.207 6        45.900    22249315.004    91107203.927 8
        34.900
  21272210.375   111786214.181 7        51.700    21272212.324    87106157.386 8
        40.200
  23615529.359   124100428.482 5        41.700    23615535.414    96701633.429 7
        28.100
  20762380.742   109107067.312 8        52.500    20762383.711    85018508.950 9
        41.600
  21808548.813   114604701.623 8        52.400    21808551.930    89302389.643 8
        40.200
  24112802.406   126713638.959 5        40.400    24112806.023    98737910.386 6
        22.200
  20829006.516   109457182.676 8        53.500    20829011.258    85291346.663 9
        43.500
 18  2 21  9 12  0.0000000  0  7G02G05G06G07G09G13G30
  22259378.891   116973807.684 6        46.700    22259379.281    91148416.476 8
        35.000
  21260329.984   111723783.534 7        50.700    21260332.266    87057510.135 8
        39.500
  23636100.336   124208531.801 6        42.600    23636107.074    96785869.725 7
        28.100
  20763123.516   109110970.211 7        51.400    20763125.852    85021550.167 9
        42.200
  21822981.922   114680546.449 8        52.600    21822984.484    89361489.506 8
        40.400
  24094232.406   126616050.694 5        41.100    24094236.023    98661867.628 6
        22.500
  20819588.922   109407694.461 8        53.300    20819594.148    85252784.417 9
        43.700
 18  2 21  9 12 30.0000000  0  7G02G05G06G07G09G13G30
  22269530.359   117027155.954 6        46.600    22269531.355    91189986.547 8
        35.000
  21248523.969   111661740.881 7        51.400    21248526.219    87009165.222 8
        39.700
  23656697.508   124316769.675 6        42.500    23656704.594    96870210.871 7
        27.300
  20763966.109   109115396.816 7        51.700    20763968.391    85024999.474 9
        41.800
  21837454.250   114756602.967 8        52.700    21837458.898    89420754.316 8
        40.900
  24075684.570   126518574.888 5        41.700    24075686.953    98585912.502 6
        23.400
  20810268.719   109358714.971 8        52.800    20810273.590    85214618.588 9
        43.900
 18  2 21  9 13  0.0000000  0  7G02G05G06G07G09G13G30
  22279768.914   117080960.863 6        45.800    22279769.652    91231912.423 8
        34.100
  21236791.695   111600087.565 8        52.200    21236793.992    86961123.672 8
        39.900
  23677320.508   124425138.959 6        43.900    23677326.098    96954654.433 7
        26.700
  20764907.266   109120345.332 8        52.700    20764910.055    85028855.454 9
        41.800
  21851967.180   114832869.840 7        51.700    21851971.980    89480183.009 8
        40.900
  24057155.906   126421211.886 5        41.000    24057159.039    98510045.272 6
        22.000
  20801044.555   109310245.008 8        52.500    20801050.242    85176849.791 9
        43.600
 18  2 21  9 13 30.0000000  0  7G02G05G06G07G09G13G30
  22290094.867   117135221.083 6        45.300    22290095.141    91274193.083 8
        34.600
  21225133.773   111538825.920 7        51.900    21225136.426    86913387.322 8
        39.900
  23697966.719   124533637.312 6        43.100    23697973.461    97039198.561 7
        27.700
  20765948.570   109125816.060 8        52.100    20765950.941    85033118.357 9
        41.600
  21866520.438   114909346.606 7        51.800    21866524.637    89539775.250 8
        40.000
  24038650.281   126323963.111 5        41.000    24038653.027    98434267.055 6
        22.300
  20791918.414   109262286.383 8        52.300    20791923.719    85139479.438 9
        43.200
 18  2 21  9 14  0.0000000  0  7G02G05G06G07G09G13G30
  22300506.734   117189934.403 6        46.200    22300506.758    91316826.829 8
        34.800
  21213551.141   111477958.262 8        52.300    21213553.941    86865957.969 8
        40.900
  23718637.258   124642261.374 6        43.800    23718643.387    97123840.642 7
        27.800
  20767088.914   109131808.150 8        52.600    20767091.035    85037787.518 9
        42.200
  21881112.461   114986031.727 7        50.200    21881116.871    89599529.855 8
        39.000
  24020166.148   126226829.607 5        40.500    24020169.676    98358578.679 6
        21.800
  20782890.148   109214839.752 8        52.600    20782895.051    85102508.043 9
        43.300
 18  2 21  9 14 30.0000000  0  7G02G05G06G07G09G13G30
  22311003.297   117245098.046 6        45.500    22311004.449    91359811.447 8
        34.400
  21202043.727   111417485.974 7        51.100    21202046.227    86818836.721 8
        39.900
  23739330.867   124751008.025 6        44.300    23739336.922    97208578.257 7
        28.600
  20768328.078   109138320.639 8        52.200    20768330.684    85042862.187 9
        41.500
  21895744.031   115062923.971 7        49.600    21895749.016    89659445.880 8
        38.500
  24001704.039   126129811.692 5        40.700    24001707.059    98282980.327 6
        22.600
  20773958.984   109167906.017 8        53.100    20773963.453    85065936.307 9
        43.600
 18  2 21  9 15  0.0000000  0  7G02G05G06G07G09G13G30
  22321586.539   117300710.790 6        46.200    22321586.633    91403146.018 8
        34.200
  21190611.891   111357411.575 7        51.400    21190614.141    86772025.504 8
        40.300
  23760047.539   124859874.840 6        43.000    23760053.910    97293409.486 7
        27.700
  20769666.820   109145353.592 8        52.300    20769668.836    85048342.411 9
        41.400
  21910415.234   115140022.706 7        48.500    21910420.289    89719522.811 8
        38.700
  23983264.344   126032910.534 5        40.800    23983266.816    98207472.959 6
        22.200
  20765125.523   109121486.656 8        52.800    20765130.719    85029765.373 9
        44.100
 18  2 21  9 15 30.0000000  0  7G02G05G06G07G09G13G30
  22332254.461   117356770.324 6        45.700    22332254.609    91446828.718 8
        34.400
  21179255.859   111297736.940 7        51.600    21179258.852    86725525.790 8
        39.900
  23780785.977   124968858.599 6        43.800    23780793.086    97378331.835 7
        27.300
  20771103.414   109152905.712 8        52.600    20771105.898    85054227.172 9
        41.600
  21925125.195   115217326.581 7        47.600    21925131.566    89779759.573 8
        39.000
  23964846.445   125936126.901 5        41.100    23964850.203    98132057.201 6
        22.500
  20756390.102   109075582.481 8        52.700    20756395.180    84993995.892 9
        44.100
 18  2 21  9 16  0.0000000  0  7G02G05G06G07G09G13G30
  22343006.766   117413274.483 6        46.300    22343007.582    91490857.854 8
        33.900
  21167976.977   111238464.303 7        51.000    21167979.016    86679339.319 8
        40.100
  23801547.391   125077956.695 6        43.700    23801553.156    97463343.292 7
        26.700
  20772639.648   109160977.013 8        52.900    20772641.727    85060516.498 9
        41.900
  21939874.539   115294834.871 7        47.800    21939881.059    89840155.612 8
        38.900
  23946452.969   125839461.392 5        42.000    23946455.727    98056733.475 6
        22.500
  20747752.914   109030194.783 8        52.800    20747758.332    84958628.853 9
        44.100
 18  2 21  9 16 30.0000000  0  7G02G05G06G07G09G13G30
  22353843.117   117470221.124 6        46.100    22353843.910    91535231.773 8
        33.300
  21156774.008   111179595.022 7        51.700    21156776.684    86633467.146 8
        39.900
  23822328.539   125187166.002 5        41.800    23822335.309    97548441.377 7
        27.400
  20774274.398   109169566.728 8        52.400    20774276.813    85067209.773 9
        42.000
  21954663.016   115372546.273 7        47.800    21954668.984    89900709.931 8
        38.400
  23928080.086   125742915.355 5        40.700    23928082.719    97981502.833 6
        22.900
  20739214.625   108985324.443 8        52.100    20739220.051    84923664.959 9
        43.600
 18  2 21  9 17  0.0000000  0  7G02G05G06G07G09G13G30
  22364763.961   117527608.235 6        45.500    22364764.852    91579948.943 8
        33.900
  21145649.023   111121131.465 7        51.300    21145651.750    86587911.137 8
        40.200
  23843131.266   125296483.546 5        41.200    23843137.617    97633623.841 7
        27.800
  20776006.867   109178673.500 8        52.500    20776009.516    85074305.960 9
        41.800
  21969489.141   115450459.729 6        46.400    21969494.973    89961421.695 8
        37.100
  23909731.109   125646489.495 6        42.200    23909733.383    97906365.861 6
        22.800
  20730774.773   108940972.353 8        52.500    20730780.004    84889104.893 9
        44.700
 18  2 21  9 17 30.0000000  0  7G02G05G06G07G09G13G30
  22375767.508   117585433.958 6        45.400    22375768.602    91625007.900 8
        34.000
  21134601.492   111063075.383 7        51.000    21134604.016    86542672.631 8
        40.000
  23863953.383   125405906.532 5        41.700    23863960.086    97718888.447 6
        25.900
  20777838.445   109188297.054 8        52.700    20777840.828    85081804.832 9
        42.100
  21984353.648   115528574.193 6        46.400    21984358.738    90022290.106 8
        37.200
  23891404.922   125550184.587 5        41.900    23891407.379    97831323.097 6
        22.000
  20722433.656   108897139.630 8        53.000    20722438.762    84854949.533 9
        43.500
 18  2 21  9 18  0.0000000  0  7G02G05G06G07G09G13G30
  22386854.445   117643695.043 6        45.200    22386855.195    91670406.082 8
        33.500
  21123631.477   111005428.134 7        51.400    21123634.430    86497752.694 8
        39.900
  23884795.680   125515431.325 5        40.500    23884802.617    97804232.412 7
        26.600
  20779767.391   109198435.948 8        52.600    20779770.156    85089705.273 9
        41.800
  21999256.430   115606887.962 6        46.400    21999261.707    90083313.804 8
        37.300
  23873100.492   125454000.696 5        39.800    23873104.008    97756374.629 6
        22.600
  20714191.602   108853826.442 8        52.400    20714196.676    84821198.997 9
        43.900
 18  2 21  9 18 30.0000000  0  7G02G05G06G07G09G13G30
  22398024.023   117702390.161 6        44.600    22398024.277    91716142.443 8
        33.100
  21112739.789   110948192.091 7        51.200    21112742.742    86453153.182 8
        40.600
  23905656.945   125625055.526 6        42.100    23905663.012    97889653.828 7
        28.500
  20781794.828   109209089.878 8        52.800    20781797.063    85098007.028 9
        41.800
  22014196.859   115685400.480 6        47.000    22014202.930    90144492.366 8
        37.600
  23854822.352   125357939.241 6        42.300    23854824.270    97681521.614 6
        22.800
  20706048.148   108811034.347 8        52.100    20706053.293    84787854.507 9
        43.900
 18  2 21  9 19  0.0000000  0  7G02G05G06G07G09G13G30
  22409275.844   117761517.443 6        45.900    22409275.621    91762215.572 8
        33.300
  21101927.273   110891369.804 7        51.400    21101929.957    86408876.079 8
        40.300
  23926535.297   125734776.707 5        40.600    23926542.445    97975150.792 7
        27.100
  20783920.469   109220258.415 8        52.700    20783923.230    85106709.788 9
        41.600
  22029174.961   115764111.154 7        47.500    22029181.270    90205825.321 8
        37.500
  23836564.758   125262001.268 5        41.400    23836567.809    97606764.775 6
        22.500
  20698004.500   108768764.661 7        51.900    20698009.695    84754917.095 9
        43.400
 18  2 21  9 19 30.0000000  0  7G02G05G06G07G09G13G30
  22420608.563   117821074.465 6        45.200    22420609.375    91808623.566 7
        33.000
  21091192.766   110834963.023 7        51.500    21091195.918    86364922.753 8
        39.900
  23947432.898   125844591.745 5        41.700    23947440.203    98060720.881 7
        27.400
  20786143.430   109231940.871 8        52.900    20786146.332    85115812.992 9
        41.800
  22044190.430   115843018.716 6        46.400    22044196.297    90267311.723 8
        37.100
  23818331.781   125166187.952 5        41.600    23818335.715    97532105.094 6
        23.500
  20690060.547   108727018.104 8        52.900    20690065.855    84722387.317 9
        44.000
 18  2 21  9 20  0.0000000  0  7G02G05G06G07G09G13G30
  22432023.625   117881058.964 6        45.500    22432024.156    91855364.674 7
        32.800
  21080538.742   110778973.255 7        51.800    21080541.301    86321294.363 8
        40.200
  23968347.906   125954497.777 6        43.400    23968354.332    98146361.868 7
        28.000
  20788463.961   109244136.536 8        52.100    20788467.102    85125316.099 9
        41.700
  22059244.125   115922122.226 6        45.000    22059248.578    90328950.799 8
        35.500
  23800123.531   125070500.053 5        41.700    23800126.715    97457543.107 6
        22.000
  20682216.180   108685795.553 8        53.100    20682221.000    84690265.847 9
        44.100
 18  2 21  9 20 30.0000000  0  7G02G05G06G07G09G13G30
  22443519.258   117941468.859 6        45.000    22443519.621    91902437.266 7
        32.900
  21069964.000   110723402.399 7        51.600    21069966.090    86277992.400 8
        40.400
  23989279.734   126064491.629 6        44.100    23989285.410    98232071.325 7
        27.200
  20790882.000   109256843.809 8        52.900    20790885.250    85135217.865 9
        42.200
  22074334.055   116001420.304 6        45.600    22074338.645    90390741.513 8
        35.900
  23781938.781   124974937.962 6        42.700    23781941.523    97383079.187 6
        23.000
  20674471.453   108645097.695 8        53.300    20674476.777    84658553.244 9
        43.700
 18  2 21  9 21  0.0000000  0  7G02G05G06G07G09G13G30
  22455095.508   118002301.620 6        45.300    22455096.523    91949839.367 8
        33.100
  21059469.195   110668253.064 7        51.000    21059471.520    86235018.895 8
        40.200
  24010225.875   126174570.555 6        43.800    24010232.703    98317847.047 7
        28.400
  20793397.867   109270062.139 8        52.200    20793400.262    85145517.856 9
        41.500
  22089461.156   116080912.069 6        45.900    22089465.770    90452683.132 8
        36.700
  23763778.398   124879502.577 6        42.700    23763780.395    97308713.988 6
        22.600
  20666827.164   108604925.428 8        52.500    20666832.082    84627250.177 9
        44.100
 18  2 21  9 21 30.0000000  0  7G02G05G06G07G09G13G30
  22466751.516   118063555.423 6        45.200    22466752.285    91997569.537 7
        32.500
  21049055.273   110613526.497 7        51.800    21049057.773    86192374.813 8
        40.500
  24031189.750   126284731.648 6        43.600    24031195.902    98403686.803 7
        28.900
  20796009.922   109283790.937 8        53.000    20796012.512    85156215.616 9
        42.000
  22104624.680   116160596.409 6        46.800    22104629.637    90514774.820 8
        37.300
  23745641.305   124784194.914 5        40.900    23745644.063    97234448.306 6
        22.500
  20659282.859   108565279.627 8        52.200    20659287.738    84596357.356 9
        44.400
 18  2 21  9 22  0.0000000  0  7G02G05G06G07G09G13G30
  22478487.602   118125227.540 6        44.900    22478488.266    92045625.689 7
        33.000
  21038721.961   110559224.548 7        50.900    21038724.574    86150061.611 8
        40.300
  24052166.734   126394971.920 6        43.000    24052173.578    98489588.251 7
        27.900
  20798719.930   109298029.013 8        52.300    20798721.629    85167310.212 9
        41.500
  22119824.750   116240472.283 7        47.200    22119829.844    90577015.732 8
        36.200
  23727529.195   124689015.483 6        42.600    23727532.234    97160282.546 6
        21.700
  20651838.820   108526160.910 8        53.700    20651843.262    84565875.240 9
        44.400
 18  2 21  9 22 30.0000000  0  7G02G05G06G07G09G13G30
  22490302.734   118187315.996 6        45.800    22490303.219    92094006.283 7
        32.800
  21028469.617   110505349.471 7        51.300    21028472.527    86108081.037 8
        40.600
  24073159.750   126505288.641 6        43.000    24073166.309    98575549.302 7
        28.700
  20801526.031   109312775.723 8        53.000    20801528.668    85178801.155 9
        41.700
  22135060.656   116320538.792 6        45.900    22135065.871    90639405.197 8
        36.800
  23709442.211   124593965.565 5        40.400    23709445.453    97086217.697 6
        23.200
  20644495.164   108487570.304 8        52.200    20644500.383    84535804.640 9
        44.500
 18  2 21  9 23  0.0000000  0  7G02G05G06G07G09G13G30
  22502196.211   118249818.574 6        45.400    22502197.070    92142709.551 7
        32.500
  21018299.555   110451903.209 7        52.000    21018301.922    86066434.598 8
        40.000
  24094166.625   126615678.890 6        43.000    24094173.676    98661567.608 7
        28.200
  20804428.859   109328030.178 8        52.900    20804431.313    85190687.744 9
        42.000
  22150333.016   116400794.837 6        46.300    22150337.328    90701942.344 8
        36.800
  23691380.250   124499045.696 5        40.500    23691382.449    97012254.169 6
        23.200
  20637252.328   108449508.590 7        50.700    20637257.105    84506146.166 9
        43.700
 18  2 21  9 23 30.0000000  0  7G02G05G06G07G09G13G30
  22514168.547   118312732.779 6        45.400    22514169.012    92191733.589 7
        31.800
  21008210.633   110398887.061 7        51.800    21008213.172    86025123.302 8
        40.200
  24115185.977   126726139.756 5        40.300    24115192.840    98747640.983 7
        27.100
  20807427.930   109343791.310 8        52.400    20807430.348    85202969.132 9
        41.800
  22165641.297   116481239.391 6        46.900    22165646.020    90764626.397 8
        37.300
  23673341.297   124404257.052 5        40.900    23673344.633    96938392.892 6
        22.200
  20630110.375   108411976.403 7        51.200    20630115.516    84476900.308 9
        44.300
 18  2 21  9 24  0.0000000  0  7G02G05G06G07G09G13G30
  22526218.000   118376056.332 6        45.300    22526218.844    92241076.580 7
        31.700
  20998204.180   110346303.330 7        51.400    20998207.375    85984148.962 8
        40.800
  24136219.547   126836668.340 5        40.800    24136225.691    98833767.066 7
        27.300
  20810523.313   109360058.105 8        52.700    20810525.770    85215644.556 9
        42.100
  22180985.320   116561871.379 7        47.800    22180989.422    90827456.500 8
        37.500
  23655328.188   124309599.776 5        39.700    23655331.656    96864634.005 6
        22.300
  20623068.609   108374974.474 7        51.900    20623074.230    84448067.639 9
        43.900
 18  2 21  9 24 30.0000000  0  7G02G05G06G07G09G13G30
  22538346.453   118439787.039 6        46.000    22538347.055    92290736.853 7
        32.200
  20988280.547   110294153.942 7        50.800    20988283.371    85943513.078 8
        39.900
  24157265.188   126947261.755 5        41.200    24157271.242    98919943.685 7
        27.700
  20813714.875   109376829.827 8        52.600    20813717.285    85228713.405 9
        41.600
  22196364.414   116642689.826 7        48.500    22196369.141    90890431.878 8
        36.600
  23637341.289   124215075.502 5        41.300    23637344.523    96790978.781 6
        24.100
  20616128.469   108338503.581 8        52.200    20616133.879    84419648.761 9
        44.200
 18  2 21  9 25  0.0000000  0  7G02G05G06G07G09G13G30
  22550550.586   118503922.280 6        45.000    22550551.469    92340712.376 7
        32.800
  20978440.031   110242440.625 7        51.900    20978442.039    85903216.996 8
        40.400
  24178322.266   127057917.199 5        41.800    24178327.633    99006168.653 7
        27.000
  20817002.641   109394105.534 7        51.800    20817004.480    85242174.992 9
        41.300
  22211778.461   116723693.701 6        47.000    22211783.270    90953551.742 8
        36.800
  23619380.070   124120684.833 5        41.400    23619382.504    96717427.636 6
        22.000
  20609289.977   108302564.381 7        51.400    20609294.629    84391644.197 9
        44.400
 18  2 21  9 25 30.0000000  0  7G02G05G06G07G09G13G30
  22562832.023   118568460.030 6        45.100    22562832.496    92391001.526 7
        31.200
  20968682.617   110191165.806 7        51.400    20968685.000    85863262.597 8
        40.200
  24199389.633   127168631.935 5        41.500    24199397.570    99092439.821 7
        28.100
  20820385.672   109411884.407 8        52.500    20820387.656    85256028.656 9
        41.500
  22227228.805   116804882.122 7        48.000    22227233.262    91016815.418 8
        37.300
  23601442.750   124026428.668 5        41.800    23601446.676    96643981.291 6
        22.900
  20602551.703   108267157.734 8        52.800    20602556.516    84364054.599 9
        44.400
 18  2 21  9 26  0.0000000  0  7G02G05G06G07G09G13G30
  22575189.016   118633397.575 6        45.100    22575189.988    92441602.184 7
        31.900
  20959008.773   110140330.526 7        51.900    20959011.344    85823650.684 8
        40.000
  24220470.008   127279402.731 5        40.800    24220477.293    99178754.653 7
        28.500
  20823864.117   109430165.056 7        51.900    20823866.195    85270273.310 9
        41.200
  22242713.258   116886253.771 7        48.400    22242717.703    91080221.892 8
        37.000
  23583532.883   123932307.548 6        44.300    23583534.512    96570640.194 6
        22.500
  20595915.875   108232283.983 8        53.200    20595920.723    84336880.250 9
        44.000
 18  2 21  9 26 30.0000000  0  7G02G05G06G07G09G13G30
  22587622.195   118698732.911 6        45.700    22587623.152    92492512.815 7
        31.100
  20949419.141   110089936.825 7        50.300    20949422.168    85784382.867 8
        40.300
  24241559.055   127390226.965 5        42.000    24241565.398    99265111.115 7
        28.500
  20827438.313   109448946.513 7        51.300    20827440.523    85284908.209 9
        41.100
  22258232.344   116967807.860 7        47.600    22258237.133    91143770.500 8
        36.500
  23565647.711   123838322.571 6        44.500    23565650.020    96497405.168 6
        22.800
  20589381.008   108197943.934 8        53.200    20589385.797    84310121.776 9
        44.300
 18  2 21  9 27  0.0000000  0  7G02G05G06G07G09G13G30
  22600130.352   118764463.239 6        45.700    22600130.758    92543731.252 7
        31.500
  20939914.141   110039986.377 7        50.800    20939916.996    85745460.444 8
        39.600
  24262657.188   127501101.787 5        41.500    24262663.895    99351507.017 6
        25.400
  20831107.000   109468228.020 7        51.000    20831109.477    85299932.749 9
        41.400
  22273785.945   117049543.307 7        48.300    22273790.586    91207460.433 8
        36.800
  23547788.547   123744474.378 6        44.800    23547791.109    96424276.728 6
        22.600
  20582947.898   108164138.218 8        53.100    20582953.254    84283779.663 9
        44.200
 18  2 21  9 27 30.0000000  0  7G02G05G06G07G09G13G30
  22612712.836   118830586.485 6        45.600    22612713.617    92595255.833 7
        30.800
  20930493.617   109990481.350 7        50.900    20930496.469    85706885.102 8
        40.700
  24283765.219   127612024.382 5        41.000    24283771.898    99437940.164 7
        27.400
  20834871.297   109488008.531 7        49.900    20834874.160    85315346.132 9
        41.400
  22289374.984   117131459.279 7        47.900    22289379.344    91271291.040 8
        37.000
  23529956.836   123650763.934 6        43.000    23529959.035    96351255.610 6
        22.800
  20576616.836   108130867.521 8        52.300    20576622.238    84257854.450 9
        43.800
 18  2 21  9 28  0.0000000  0  7G02G05G06G07G09G13G30
  22625370.313   118897099.935 6        45.600    22625370.488    92647084.468 7
        31.900
  20921158.047   109941423.081 7        50.600    20921161.000    85668657.864 8
        40.200
  24304881.391   127722991.860 5        41.300    24304888.406    99524408.242 7
        26.400
  20838730.352   109508286.963 7        51.700    20838732.898    85331147.507 8
        40.800
  22304997.148   117213554.550 7        49.400    22305001.488    91335261.353 8
        36.900
  23512150.289   123557192.302 5        42.000    23512153.031    96278342.663 6
        22.800
  20570387.320   108098132.327 7        51.700    20570393.012    84232346.512 9
        44.500
 18  2 21  9 28 30.0000000  0  7G02G05G06G07G09G13G30
  22638101.406   118964001.696 6        46.200    22638101.750    92699215.669 7
        31.500
  20911908.180   109892814.143 7        51.600    20911910.875    85630780.768 8
        39.900
  24326007.078   127834001.415 5        41.800    24326013.582    99610909.138 6
        25.900
  20842683.813   109529062.074 7        50.800    20842686.375    85347335.897 9
        41.600
  22320652.781   117295828.296 6        46.900    22320657.336    91399370.745 8
        36.900
  23494370.648   123463759.902 5        41.800    23494373.438    96205538.194 6
        24.500
  20564260.383   108065933.272 7        52.000    20564265.492    84207256.338 9
        43.900
 18  2 21  9 29  0.0000000  0  7G02G05G06G07G09G13G30
  22650905.180   119031288.961 6        45.200    22650906.172    92751647.284 7
        31.100
  20902744.273   109844656.373 7        51.400    20902746.613    85593255.233 8
        40.200
  24347137.656   127945050.249 5        41.800    24347145.043    99697440.632 7
        26.400
  20846731.563   109550332.854 7        51.600    20846734.105    85363910.537 8
        41.000
  22336342.797   117378279.607 7        47.600    22336347.723    91463618.483 8
        36.100
  23476617.945   123370467.828 5        41.200    23476620.637    96132843.080 6
        24.000
  20558234.930   108034270.997 8        52.700    20558240.223    84182584.436 9
        44.100
 18  2 21  9 29 30.0000000  0  7G02G05G06G07G09G13G30
  22663782.867   119098959.253 6        46.000    22663784.082    92804377.312 7
        31.100
  20893665.922   109796951.264 7        51.500    20893668.512    85556082.412 8
        39.700
  24368276.813   128056135.561 5        41.100    24368284.055    99784000.552 7
        28.800
  20850873.430   109572098.584 7        51.000    20850875.555    85380870.845 9
        41.700
  22352066.406   117460907.351 6        46.900    22352070.820    91528003.715 8
        36.700
  23458892.086   123277316.996 5        41.000    23458894.473    96060258.008 6
        23.400
  20552312.219   108003145.985 8        53.000    20552317.414    84158331.179 9
        44.700
 18  2 21  9 30  0.0000000  0  7G02G05G06G07G09G13G30
  22676732.094   119167010.048 6        45.500    22676733.480    92857403.898 7
        31.800
  20884674.523   109749700.252 7        51.000    20884677.086    85519263.440 8
        40.100
  24389422.078   128167254.360 5        39.500    24389429.516    99870586.548 7
        27.300
  20855109.563   109594357.823 7        51.800    20855111.941    85398215.706 9
        41.900
  22367823.469   117543710.480 7        49.000    22367828.414    91592525.609 8
        37.100
  23441193.008   123184308.177 5        40.900    23441195.547    95987783.650 6
        22.900
  20546491.484   107972558.606 8        52.900    20546496.547    84134496.860 9
        44.200
 18  2 21  9 30 30.0000000  0  7G02G05G06G07G09G13G30
  22689753.602   119235439.135 6        45.200    22689755.117    92910725.252 7
        31.000
  20875769.656   109702905.544 7        50.700    20875772.895    85482800.041 8
        40.200
  24410574.719   128278403.925 5        41.300    24410580.246    99957196.532 7
        26.900
  20859439.094   109617109.413 7        51.700    20859441.246    85415944.212 9
        41.300
  22383614.195   117626688.078 7        48.200    22383618.305    91657183.459 8
        36.300
  23423521.328   123091441.896 5        41.500    23423524.266    95915420.310 6
        23.400
  20540773.469   107942509.480 8        52.300    20540778.547    84111081.964 9
        44.100
 18  2 21  9 31  0.0000000  0  7G02G05G06G07G09G13G30
  22702846.805   119304243.805 6        45.700    22702847.949    92964339.236 7
        32.000
  20866951.805   109656568.078 7        51.500    20866954.617    85446692.927 8
        40.200
  24431729.836   128389581.106 5        41.600    24431736.195   100043828.045 7
        26.800
  20863861.539   109640351.965 7        51.600    20863863.871    85434055.296 9
        41.600
  22399436.797   117709838.857 7        48.200    22399441.996    91721976.234 8
        36.200
  23405876.836   122998719.144 5        41.100    23405879.777    95843168.856 6
        22.900
  20535157.953   107912998.696 8        53.400    20535162.922    84088086.549 9
        44.300
 18  2 21  9 31 30.0000000  0  7G02G05G06G07G09G13G30
  22716011.320   119373421.686 6        46.400    22716012.152    93018244.068 7
        31.000
  20858222.039   109610690.687 7        52.000    20858224.605    85410944.312 8
        40.300
  24452890.977   128500783.620 5        40.100    24452897.613   100130479.286 7
        26.800
  20868378.172   109664084.930 7        51.400    20868380.316    85452548.498 9
        41.100
  22415291.883   117793162.350 7        47.300    22415297.039    91786903.594 8
        35.500
  23388259.328   122906141.457 6        42.200    23388262.711    95771030.400 6
        24.400
  20529644.672   107884027.275 8        53.100    20529649.836    84065511.422 9
        44.200
 18  2 21  9 32  0.0000000  0  7G02G05G06G07G09G13G30
  22729246.102   119442970.555 6        46.000    22729246.777    93072437.950 7
        31.400
  20849579.844   109565274.977 8        52.100    20849582.148    85375555.440 8
        40.500
  24474056.438   128612008.569 5        40.600    24474063.613   100217148.005 7
        27.600
  20872987.141   109688306.971 7        51.300    20872988.727    85471422.816 9
        41.400
  22431180.977   117876657.501 6        46.800    22431185.336    91851964.733 8
        35.200
  23370670.563   122813709.140 6        42.800    23370673.555    95699005.255 7
        26.500
  20524234.500   107855595.609 8        53.200    20524240.184    84043356.878 9
        44.800
 18  2 21  9 32 30.0000000  0  7G02G05G06G07G09G13G30
  22742550.875   119512887.381 6        46.000    22742551.430    93126918.571 7
        30.900
  20841025.156   109520322.007 7        51.500    20841028.000    85340527.154 8
        40.600
  24495225.508   128723253.034 5        39.900    24495232.754   100303831.935 7
        27.100
  20877689.344   109713017.122 7        51.300    20877691.172    85490677.482 9
        41.400
  22447102.211   117960323.242 7        47.700    22447106.633    91917158.795 8
        35.700
  23353108.711   122721423.071 5        41.800    23353112.074    95627094.027 6
        25.300
  20518926.656   107827703.970 8        53.000    20518932.152    84021623.138 9
        44.100
 18  2 21  9 33  0.0000000  0  7G02G05G06G07G09G13G30
  22755925.047   119583170.217 6        47.000    22755926.180    93181684.379 7
        31.600
  20832559.477   109475834.331 7        51.900    20832562.137    85305861.436 8
        40.200
  24516398.266   128834514.321 5        42.000    24516405.191   100390528.989 6
        25.800
  20882483.906   109738213.813 7        50.900    20882486.215    85510311.246 8
        40.900
  22463054.883   118044158.615 6        46.000    22463060.371    91982485.037 8
        35.200
  23335575.031   122629284.179 5        41.700    23335578.855    95555297.510 6
        25.300
  20513721.984   107800352.800 8        52.500    20513727.105    84000310.540 9
        44.900
 18  2 21  9 33 30.0000000  0  7G02G05G06G07G09G13G30
  22769368.336   119653816.358 6        46.300    22769369.586    93236733.261 7
        30.100
  20824182.602   109431813.329 8        52.600    20824184.711    85271559.358 8
        40.400
  24537572.664   128945789.643 5        40.500    24537579.715   100477236.958 6
        25.000
  20887371.203   109763896.274 7        50.700    20887372.934    85530323.550 8
        41.000
  22479040.023   118128162.774 6        46.300    22479044.965    92047942.778 8
        35.400
  23318070.367   122537293.349 6        43.700    23318073.242    95483616.348 7
        27.600
  20508620.203   107773542.556 8        52.800    20508625.137    83979419.443 9
        45.200
 18  2 21  9 34  0.0000000  0  7G02G05G06G07G09G13G30
  22782880.789   119724823.032 6        46.300    22782881.875    93292063.088 7
        30.500
  20815895.156   109388260.621 7        51.500    20815897.023    85237622.170 8
        40.600
  24558749.453   129057076.029 5        39.800    24558757.371   100563953.594 6
        23.900
  20892350.789   109790062.757 7        50.500    20892352.418    85550713.007 8
        40.600
  22495057.430   118212334.498 6        46.300    22495062.547    92113531.112 8
        34.700
  23300593.477   122445451.101 6        44.500    23300595.461    95412050.960 7
        26.700
  20503621.438   107747273.420 8        53.700    20503625.926    83958949.987 9
        44.500
 18  2 21  9 34 30.0000000  0  6G02G05G07G09G13G30
  22796461.188   119796188.066 6        47.000    22796462.320    93347672.175 7
        31.200
  20807696.539   109345178.770 8        52.300    20807699.219    85204051.896 8
        40.300
  20897421.977   109816713.084 7        50.400    20897424.227    85571479.496 9
        41.100
  22511106.695   118296673.421 6        46.700    22511112.016    92179249.719 8
        35.400
  23283144.992   122353758.931 6        42.600    23283146.887    95340602.548 7
        26.400
  20498725.555   107721546.304 8        53.400    20498730.875    83938902.885 9
        44.600
 18  2 21  9 35  0.0000000  0  6G02G05G07G09G13G30
  22810109.117   119867908.665 6        46.300    22810110.004    93403558.305 7
        30.500
  20799588.352   109302568.421 7        51.800    20799591.207    85170849.031 8
        40.800
  20902584.945   109843844.923 7        51.500    20902587.355    85592621.180 9
        41.400
  22527188.328   118381178.063 6        46.400    22527192.797    92245097.474 8
        35.000
  23265724.953   122262217.576 6        44.000    23265727.461    95269271.621 7
        26.100
  20493932.984   107696361.006 8        53.700    20493938.383    83919277.984 9
        45.100
 18  2 21  9 35 30.0000000  0  6G02G05G07G09G13G30
  22823824.367   119939981.999 6        46.100    22823825.457    93459719.293 7
        31.000
  20791569.930   109260431.644 7        52.000    20791572.477    85138015.182 9
        41.200
  20907839.094   109871457.399 7        50.700    20907841.926    85614137.386 9
        41.300
  22543299.891   118465847.428 6        46.200    22543304.953    92311073.574 8
        34.200
  23248333.578   122170827.336 6        44.100    23248336.656    95198058.460 7
        27.900
  20489243.375   107671717.781 8        53.800    20489248.887    83900075.467 9
        44.600
 18  2 21  9 36  0.0000000  0  6G02G05G07G09G13G30
  22837606.078   120012405.624 6        45.600    22837607.316    93516153.241 7
        30.600
  20783641.836   109218770.003 7        51.900    20783644.441    85105551.559 8
        40.200
  20913185.148   109899549.017 8        52.400    20913187.910    85636026.946 9
        41.600
  22559442.484   118550680.596 6        45.000    22559448.398    92377177.309 8
        34.000
  23230971.523   122079588.970 6        45.100    23230974.473    95126963.672 7
        27.300
  20484657.258   107647616.962 8        53.300    20484662.363    83881295.613 9
        44.500
 18  2 21  9 36 30.0000000  0  6G02G05G07G09G13G30
  22851454.086   120085177.110 6        46.100    22851455.180    93572858.239 7
        31.200
  20775804.711   109177585.185 7        51.700    20775807.672    85073459.493 8
        40.800
  20918621.680   109928118.666 8        52.100    20918624.645    85658289.000 9
        41.600
  22575617.273   118635676.624 6        45.100    22575623.094    92443407.954 8
        34.600
  23213638.703   121988503.790 6        45.600    23213641.645    95055988.201 7
        26.500
  20480174.391   107624058.816 8        54.000    20480179.223    83862938.613 9
        44.600
 18  2 21  9 37  0.0000000  0  6G02G05G07G09G13G30
  22865367.586   120158293.542 6        45.500    22865368.762    93629832.019 7
        30.800
  20768059.023   109136878.915 8        52.600    20768061.598    85041740.316 8
        40.900
  20924149.203   109957165.140 7        51.600    20924151.559    85680922.609 8
        40.900
  22591822.000   118720834.630 6        44.300    22591827.797    92509764.783 7
        32.900
  23196335.016   121897572.635 6        45.200    23196338.613    94985132.768 6
        26.000
  20475794.648   107601043.688 8        53.700    20475799.758    83845004.749 9
        45.000
 18  2 21  9 37 30.0000000  0  6G02G05G07G09G13G30
  22879346.828   120231752.319 6        46.700    22879347.621    93687072.584 7
        30.200
  20760403.602   109096652.075 7        51.700    20760406.676    85010394.725 8
        40.900
  20929766.625   109986686.895 8        52.300    20929768.887    85703926.573 8
        41.000
  22608057.734   118806153.450 6        44.600    22608063.848    92576246.938 8
        33.600
  23179061.336   121806795.857 6        44.500    23179064.469    94914397.628 7
        27.900
  20471518.391   107578571.519 8        53.000    20471523.176    83827493.981 9
        44.900
 18  2 21  9 38  0.0000000  0  6G02G05G07G09G13G30
  22893390.148   120305550.708 6        46.500    22893391.246    93744577.795 7
        30.800
  20752840.602   109056906.973 7        51.600    20752843.598    84979424.521 9
        41.100
  20935475.133   110016682.548 8        52.200    20935477.188    85727299.804 9
        41.200
  22624323.070   118891632.039 6        42.800    22624328.867    92642853.599 7
        32.000
  23161816.094   121716174.396 6        44.100    23161819.016    94843783.536 7
        27.500
  20467345.242   107556642.474 8        53.800    20467350.262    83810406.415 9
        44.700
 18  2 21  9 38 30.0000000  0  7G02G05G07G09G13G28G30
  22907497.430   120379686.998 6        46.100    22907498.770    93802346.252 7
        30.500
  20745368.914   109017646.022 7        51.200    20745371.582    84948831.572 8
        40.900
  20941272.953   110047151.689 7        51.900    20941275.191    85751042.004 8
        40.300
  22640620.352   118977270.231 6        43.700    22640625.691    92709584.617 7
        32.100
  23144601.117   121625709.775 6        44.100    23144603.918    94773291.652 7
        27.700
  24292147.523   127656094.371 4        38.200    24292151.023    99472302.904 6
        18.300
  20463276.180   107535257.491 8        53.600    20463281.055    83793742.791 9
        44.800
 18  2 21  9 39  0.0000000  0  7G02G05G07G09G13G28G30
  22921669.266   120454157.711 6        46.300    22921669.918    93860375.321 7
        30.900
  20737990.430   108978869.882 8        52.200    20737992.473    84918616.386 8
        40.600
  20947160.742   110078092.045 7        51.900    20947162.879    85775151.358 8
        40.800
  22656945.914   119063066.645 6        43.700    22656952.449    92776438.926 7
        32.700
  23127416.453   121535402.372 6        44.500    23127418.410    94702922.275 7
        26.900
  24273752.773   127559428.986 4        37.700    24273757.016    99396979.323 6
        18.300
  20459310.000   107514416.185 8        53.800    20459314.984    83777502.818 9
        44.900
 18  2 21  9 39 30.0000000  0  7G02G05G07G09G13G28G30
  22935903.023   120528960.280 6        46.400    22935904.133    93918662.990 7
        29.800
  20730704.109   108940579.961 7        51.400    20730706.051    84888780.076 8
        41.000
  20953137.578   110109502.620 7        50.500    20953140.016    85799627.123 8
        40.100
  22673302.797   119149020.011 6        43.900    22673308.883    92843415.501 7
        32.800
  23110262.445   121445253.084 6        44.100    23110264.684    94632676.075 7
        27.000
  24255372.711   127462835.381 5        39.600    24255376.371    99321711.640 6
        20.900
  20455447.313   107494118.660 8        53.400    20455452.313    83761686.566 9
        44.500
 18  2 21  9 40  0.0000000  0  7G02G05G07G09G13G28G30
  22950200.805   120604092.086 6        45.900    22950201.641    93977207.205 7
        30.100
  20723510.586   108902778.638 8        52.100    20723512.813    84859324.498 8
        40.500
  20959204.578   110141382.550 7        50.300    20959207.051    85824468.620 8
        40.600
  22689688.773   119235129.756 6        45.000    22689695.262    92910513.969 7
        32.700
  23093136.984   121355262.983 6        43.400    23093139.652    94562553.950 7
        27.400
  24237005.563   127366316.511 5        41.600    24237008.426    99246502.130 6
        21.300
  20451688.648   107474365.332 8        53.900    20451694.078    83746294.348 9
        45.300
 18  2 21  9 40 30.0000000  0  7G02G05G07G09G13G28G30
  22964560.141   120679550.845 6        46.000    22964560.691    94036006.187 7
        30.200
  20716410.367   108865467.284 7        51.500    20716413.191    84830250.713 9
        41.400
  20965359.914   110173729.827 7        50.800    20965362.797    85849674.283 8
        40.700
  22706104.164   119321395.056 6        43.900    22706111.340    92977733.637 8
        33.300
  23076042.516   121265432.602 6        43.100    23076045.289    94492556.267 7
        26.600
  24218651.656   127269875.197 4        38.500    24218656.469    99171353.082 6
        20.100
  20448033.172   107455156.284 8        53.800    20448037.973    83731326.265 9
        44.900
 18  2 21  9 41  0.0000000  0  7G02G05G07G09G13G28G30
  22978980.781   120755333.544 6        44.400    22978981.953    94095057.582 7
        30.000
  20709403.914   108828646.877 8        52.500    20709406.508    84801559.488 9
        41.100
  20971604.281   110206542.927 8        52.300    20971607.133    85875242.931 9
        41.100
  22722548.891   119407814.735 6        44.400    22722555.422    93045073.618 7
        32.600
  23058979.172   121175763.093 6        44.600    23058981.922    94422683.931 7
        27.400
  24200316.000   127173513.820 4        38.900    24200318.566    99096266.396 6
        18.300
  20444481.508   107436491.471 8        53.800    20444486.734    83716782.263 9
        44.500
 18  2 21  9 41 30.0000000  0  7G02G05G07G09G13G28G30
  22993463.172   120831437.545 6        44.300    22993464.234    94154359.367 7
        29.900
  20702491.016   108792319.549 7        51.400    20702493.793    84773252.470 8
        40.900
  20977936.797   110239820.691 7        51.800    20977939.852    85901173.644 8
        40.900
  22739024.266   119494388.007 6        45.800    22739030.020    93112533.271 8
        33.600
  23041946.172   121086255.367 6        44.100    23041949.184    94352937.686 7
        26.900
  24181994.352   127077235.451 5        40.500    24181997.434    99021244.260 6
        19.300
  20441033.266   107418371.043 8        53.500    20441038.656    83702662.456 9
        45.000
 18  2 21  9 42  0.0000000  0  7G02G05G07G09G13G28G30
  23008005.234   120907860.604 6        44.100    23008006.816    94213909.763 7
        29.300
  20695672.133   108756487.088 7        51.800    20695674.441    84745331.066 9
        41.300
  20984357.617   110273562.317 7        51.300    20984360.246    85927465.816 9
        41.100
  22755527.531   119581114.152 6        44.900    22755533.660    93180112.056 7
        32.900
  23024944.414   120996910.082 6        43.800    23024947.367    94283317.987 7
        26.100
  24163689.133   126981043.549 5        39.800    24163693.617    98946289.585 6
        21.800
  20437688.633   107400795.332 8        54.100    20437694.020    83688967.096 9
        45.100
 18  2 21  9 42 30.0000000  0  7G02G05G07G09G13G28G30
  23022609.000   120984599.363 6        44.200    23022609.824    94273706.148 7
        29.700
  20688947.930   108721150.209 7        51.300    20688950.352    84717795.822 9
        41.700
  20990866.086   110307765.350 7        51.800    20990868.578    85954117.518 8
        40.700
  22772059.953   119667991.760 6        45.200    22772066.242    93247808.855 8
        33.200
  23007974.031   120907728.056 6        44.500    23007976.102    94213825.532 7
        27.000
  24145401.227   126884940.440 4        38.600    24145405.637    98871404.124 6
        20.900
  20434447.852   107383763.833 8        53.900    20434452.961    83675695.789 9
        44.900
 18  2 21  9 43  0.0000000  0  7G02G05G07G09G13G28G30
  23037271.258   121061651.376 6        44.000    23037272.688    94333746.635 7
        30.200
  20682318.117   108686311.133 7        51.500    20682321.070    84690648.486 9
        41.300
  20997462.594   110342429.118 7        51.600    20997464.781    85981128.235 8
        40.800
  22788621.453   119755020.243 6        45.300    22788627.531    93315623.226 8
        33.600
  22991034.094   120818710.341 6        43.800    22991036.438    94144461.097 7
        27.500
  24127130.766   126788929.326 5        39.100    24127134.934    98796590.266 6
        19.600
  20431310.273   107367276.926 8        52.500    20431315.195    83662848.844 9
        44.600
 18  2 21  9 43 30.0000000  0  7G02G05G07G09G13G28G30
  23051993.172   121139013.868 6        43.800    23051993.957    94394029.059 7
        29.600
  20675783.609   108651971.002 7        51.200    20675786.105    84663889.944 9
        41.400
  21004146.172   110377551.992 8        52.300    21004148.363    86008496.706 8
        40.900
  22805210.961   119842198.617 6        45.300    22805217.523    93383554.390 8
        33.600
  22974125.805   120729857.602 6        44.300    22974128.266    94075225.199 7
        27.300
  24108880.109   126693012.890 5        40.600    24108881.883    98721850.235 6
        19.600
  20428276.641   107351334.554 8        53.400    20428281.566    83650426.219 9
        44.800
 18  2 21  9 44  0.0000000  0  7G02G05G07G09G13G28G30
  23066773.359   121216684.017 6        44.600    23066773.660    94454551.220 7
        30.200
  20669344.398   108618131.439 7        51.000    20669346.656    84637521.451 8
        41.000
  21010916.695   110413132.609 8        52.200    21010919.078    86036221.847 8
        40.600
  22821828.742   119929525.888 6        45.700    22821834.543    93451601.579 7
        33.000
  22957249.016   120641170.801 6        44.000    22957251.867    94006118.611 7
        27.400
  24090644.906   126597194.299 5        39.500    24090648.781    98647186.404 6
        20.400
  20425346.586   107335936.605 8        54.100    20425351.836    83638427.818 9
        44.800
 18  2 21  9 44 30.0000000  0  7G02G05G07G09G13G28G30
  23081610.969   121294659.452 6        42.900    23081612.277    94515311.247 7
        29.900
  20663000.086   108584794.063 7        51.500    20663002.773    84611544.260 8
        40.900
  21017774.633   110449169.425 8        52.300    21017776.867    86064302.451 8
        40.400
  22838474.852   120017001.354 6        44.800    22838480.629    93519764.241 7
        32.400
  22940404.758   120552650.444 6        44.300    22940407.109    93937141.738 7
        29.000
  24072431.156   126501476.236 4        38.800    24072434.402    98572600.907 6
        20.600
  20422520.117   107321083.220 8        53.400    20422524.941    83626853.755 9
        44.900
 18  2 21  9 45  0.0000000  0  7G02G05G07G09G13G28G30
  23096507.406   121372937.078 6        43.500    23096508.477    94576306.748 7
        29.300
  20656752.164   108551959.949 7        51.000    20656754.727    84585959.233 8
        40.900
  21024718.680   110485660.880 8        52.600    21024720.367    86092737.354 8
        41.000
  22855149.547   120104623.943 6        46.500    22855155.129    93588041.542 8
        33.700
  22923591.586   120464297.994 6        44.500    22923594.609    93868295.683 7
        29.100
  24054235.289   126405861.722 4        37.900    24054240.055    98498096.210 6
        19.900
  20419797.086   107306774.241 8        53.300    20419802.105    83615703.901 9
        44.500
 18  2 21  9 45 30.0000000  0  7G02G05G07G09G13G28G30
  23111460.398   121451514.408 6        43.000    23111461.426    94637535.811 7
        29.200
  20650600.141   108519631.055 7        51.000    20650602.309    84560767.881 9
        41.300
  21031748.813   110522605.581 8        52.200    21031750.551    86121525.419 8
        40.600
  22871851.719   120192392.667 6        46.100    22871857.250    93656432.707 8
        34.100
  22906810.695   120376114.211 6        44.500    22906813.422    93799581.061 7
        27.200
  24036061.320   126310353.470 5        39.800    24036065.410    98423674.238 6
        20.400
  20417177.852   107293009.470 8        52.800    20417182.609    83604978.112 9
        44.600
 18  2 21  9 46  0.0000000  0  7G02G05G07G09G13G28G30
  23126469.102   121530388.439 6        42.600    23126470.473    94698996.059 7
        29.700
  20644544.523   108487808.558 7        51.300    20644546.980    84535971.121 8
        40.900
  21038865.047   110560001.901 8        52.500    21038867.488    86150665.396 8
        40.700
  22888581.117   120280306.772 6        46.400    22888586.336    93724937.164 8
        33.900
  22890062.711   120288099.687 6        44.000    22890065.742    93730998.332 7
        27.400
  24017907.844   126214954.468 5        40.400    24017910.516    98349337.392 6
        21.700
  20414661.813   107279788.988 8        53.000    20414667.031    83594676.436 9
        45.000
 18  2 21  9 46 30.0000000  0  7G02G05G07G09G13G28G30
  23141534.539   121609556.601 6        42.100    23141535.578    94760685.466 7
        29.000
  20638585.813   108456493.996 7        51.200    20638588.098    84511570.165 8
        41.000
  21046067.047   110597848.675 8        52.300    21046069.695    86180156.376 8
        40.200
  22905337.891   120368365.409 6        46.300    22905343.066    93793554.253 7
        33.000
  22873345.914   120200255.315 6        45.100    22873348.852    93662548.180 7
        29.300
  23999774.422   126119667.968 5        39.700    23999778.199    98275088.134 6
        20.900
  20412249.523   107267112.727 8        53.000    20412254.941    83584798.821 9
        45.300
 18  2 21  9 47  0.0000000  0  7G02G05G07G09G13G28G30
  23156655.352   121689016.123 6        43.100    23156656.363    94822601.922 7
        29.300
  20632723.648   108425688.595 7        51.000    20632726.313    84487565.945 9
        41.100
  21053354.563   110636144.302 8        52.900    21053357.316    86209997.116 8
        40.200
  22922122.672   120456567.524 6        46.800    22922127.746    93862283.146 8
        33.400
  22856662.359   120112582.076 6        45.400    22856664.656    93594231.394 7
        28.200
  23981663.875   126024496.636 5        39.700    23981668.324    98200928.796 6
        21.100
  20409940.820   107254980.405 8        53.500    20409946.152    83575345.071 9
        44.400
 18  2 21  9 47 30.0000000  0  7G02G05G07G09G13G28G30
  23171831.039   121768764.099 6        44.300    23171831.711    94884743.165 7
        28.900
  20626958.555   108395393.630 7        51.500    20626961.227    84463959.475 9
        41.600
  21060727.156   110674887.074 8        52.900    21060729.297    86240186.276 8
        40.200
  22938934.016   120544912.346 6        46.600    22938938.602    93931123.226 8
        33.200
  22840011.234   120025080.814 6        44.300    22840014.242    93526048.610 7
        29.000
  23963576.359   125929443.374 5        40.400    23963579.910    98126861.382 6
        21.800
  20407735.719   107243391.988 8        53.700    20407741.047    83566315.132 9
        44.900
 18  2 21  9 48  0.0000000  0  7G02G05G07G09G13G28G30
  23187061.023   121848798.027 6        44.000    23187062.039    94947107.211 7
        29.100
  20621291.438   108365610.929 7        51.600    20621293.824    84440752.167 9
        41.700
  21068184.484   110714075.791 8        52.700    21068186.637    86270722.934 8
        40.400
  22955772.844   120633399.074 6        46.500    22955777.117    94000073.893 7
        33.000
  22823393.406   119937752.248 6        44.600    22823395.465    93458000.398 7
        29.100
  23945512.211   125834511.217 6        42.100    23945515.043    98052888.334 6
        21.100
  20405633.867   107232347.408 8        53.300    20405639.211    83557708.964 9
        45.000
 18  2 21  9 48 30.0000000  0  8G02G05G07G09G13G20G28G30
  23202344.734   121929115.036 6        43.700    23202346.242    95009691.849 7
        29.400
  20615721.875   108336341.788 7        50.800    20615724.434    84417945.044 9
        41.600
  21075726.508   110753708.561 8        52.300    21075728.617    86301605.613 9
        41.600
  22972638.289   120722026.541 6        45.500    22972642.926    94069134.207 8
        34.100
  22806807.930   119850597.527 6        43.200    22806810.684    93390087.638 7
        28.800
  24440746.508   128436989.804 5        39.700    24440749.961   100080775.764 6
        19.600
  23927470.734   125739702.746 5        41.600    23927473.070    97979011.630 6
        21.300
  20403636.055   107221846.230 8        54.100    20403640.602    83549526.222 9
        44.900
 18  2 21  9 49  0.0000000  0  8G02G05G07G09G13G20G28G30
  23217681.492   122009712.260 6        44.300    23217682.566    95072494.833 7
        29.300
  20610249.797   108307587.551 7        50.900    20610252.051    84395539.150 9
        41.500
  21083352.484   110793784.260 8        52.300    21083354.555    86332833.423 8
        40.200
  22989529.781   120810794.028 6        46.400    22989535.023    94138303.634 8
        34.200
  22790256.563   119763617.515 6        43.500    22790258.754    93322311.031 7
        29.300
  24420377.008   128329953.056 3        36.000    24420381.395    99997370.558 6
        18.600
  23909453.359   125645021.152 5        41.600    23909456.430    97905233.851 6
        21.500
  20401740.883   107211888.407 8        53.900    20401745.887    83541766.871 9
        44.300
 18  2 21  9 49 30.0000000  0  8G02G05G07G09G13G20G28G30
  23233071.633   122090587.016 6        44.600    23233073.047    95135514.076 7
        28.900
  20604876.500   108279349.706 7        50.600    20604878.395    84373535.620 9
        41.600
  21091062.336   110834300.990 7        52.000    21091064.883    86364404.894 8
        40.600
  23006448.219   120899700.869 6        46.600    23006453.039    94207581.650 8
        33.100
  22773738.891   119676813.142 6        44.300    22773740.750    93254671.274 7
        29.800
  24400034.125   128223046.251 4        37.100    24400037.164    99914066.575 6
        19.000
  23891459.391   125550469.377 5        41.000    23891463.773    97831557.216 6
        22.800
  20399949.344   107202473.903 8        53.800    20399954.270    83534430.904 9
        44.600
 18  2 21  9 50  0.0000000  0  8G02G05G07G09G13G20G28G30
  23248514.023   122171736.444 6        44.600    23248515.258    95198747.369 7
        29.100
  20599600.977   108251629.522 7        50.700    20599603.965    84351935.471 9
        41.400
  21098856.367   110875257.417 8        53.000    21098858.688    86396318.978 8
        40.200
  23023392.977   120988745.989 6        46.600    23023398.016    94276967.431 8
        33.400
  22757253.266   119590185.148 6        45.000    22757255.379    93187168.952 7
        29.600
  24379715.445   128116271.655 4        37.500    24379718.559    99830865.562 6
        20.100
  23873492.875   125456050.214 5        40.900    23873496.910    97757983.923 6
        22.500
  20398261.461   107193602.341 8        53.600    20398266.070    83527518.001 9
        44.700
 18  2 21  9 50 30.0000000  0  8G02G05G07G09G13G20G28G30
  23264008.023   122253157.998 6        45.000    23264009.391    95262192.692 7
        28.500
  20594425.125   108224428.286 7        51.500    20594427.457    84330739.701 9
        41.400
  21106733.484   110916652.026 8        52.700    21106736.230    86428574.521 8
        40.500
  23040363.641   121077928.461 6        46.600    23040369.352    94346460.222 8
        33.400
  22740802.492   119503734.181 6        45.000    22740804.691    93119804.570 7
        30.100
  24359422.266   128009631.546 4        37.200    24359425.477    99747769.426 6
        18.600
  23855550.266   125361766.962 5        39.400    23855554.102    97684516.518 6
        20.900
  20396676.133   107185273.403 8        53.000    20396680.938    83521027.910 9
        44.600
 18  2 21  9 51  0.0000000  0  8G02G05G07G09G13G20G28G30
  23279553.531   122334848.722 6        43.400    23279554.898    95325847.765 7
        28.700
  20589348.008   108197747.378 7        51.400    20589350.168    84309949.380 9
        41.500
  21114693.922   110958483.249 8        53.000    21114696.047    86461170.269 8
        40.500
  23057360.211   121167247.553 6        46.000    23057366.203    94416059.456 8
        33.200
  22724385.438   119417461.360 6        46.600    22724387.773    93052579.018 7
        30.500
  24339156.172   127903128.197 4        38.700    24339158.684    99664779.864 6
        19.600
  23837636.008   125267621.990 5        40.000    23837639.578    97611156.858 6
        23.400
  20395194.750   107177486.929 8        53.400    20395199.773    83514960.532 9
        44.900
 18  2 21  9 51 30.0000000  0  8G02G05G07G09G13G20G28G30
  23295149.734   122416805.661 6        42.900    23295150.813    95389710.271 7
        29.100
  20584369.992   108171587.898 7        51.100    20584372.785    84289565.355 9
        41.300
  21122737.023   111000749.442 8        53.200    21122739.945    86494104.964 8
        40.900
  23074383.578   121256702.415 7        47.300    23074389.063    94485764.493 8
        33.600
  22708001.586   119331367.665 6        46.300    22708004.320    92985493.023 7
        29.700
  24318915.000   127796763.691 4        38.000    24318917.063    99581898.362 6
        18.300
  23819747.953   125173618.626 5        39.500    23819751.266    97537907.511 6
        22.800
  20393816.203   107170242.700 8        53.300    20393820.852    83509315.676 9
        44.800
 18  2 21  9 52  0.0000000  0  8G02G05G07G09G13G20G28G30
  23310795.617   122499025.993 6        42.300    23310796.430    95453778.000 7
        28.600
  20579491.289   108145951.046 7        51.800    20579493.863    84269588.585 9
        41.800
  21130862.039   111043448.996 8        53.200    21130865.031    86527377.333 8
        40.300
  23091431.648   121346291.938 7        48.100    23091437.262    94555574.477 8
        33.800
  22691653.430   119245453.898 6        45.400    22691655.613    92918547.242 7
        29.800
  24298700.898   127690540.771 3        36.800    24298704.137    99499127.251 6
        18.600
  23801886.789   125079759.366 5        39.800    23801890.133    97464770.489 6
        22.500
  20392541.203   107163540.151 8        53.900    20392545.500    83504092.916 9
        45.000
 18  2 21  9 52 30.0000000  0  8G02G05G07G09G13G20G28G30
  23326491.016   122581506.885 5        41.200    23326492.102    95518048.801 7
        28.300
  20574712.914   108120838.354 8        52.600    20574715.461    84250020.249 9
        41.800
  21139070.063   111086580.236 8        52.600    21139072.695    86560986.068 8
        40.700
  23108506.047   121436015.480 7        48.700    23108511.848    94625488.876 8
        33.900
  22675338.195   119159720.923 6        44.700    22675341.172    92851742.355 7
        29.100
  24278515.164   127584461.445 4        38.500    24278518.852    99416468.148 6
        19.300
  23784053.109   124986047.699 3        36.900    23784057.281    97391748.520 6
        19.900
  20391368.344   107157379.180 8        54.100    20391373.059    83499292.164 9
        45.300
 18  2 21  9 53  0.0000000  0  8G02G05G07G09G13G20G28G30
  23342235.672   122664245.613 5        41.700    23342237.230    95582520.489 7
        28.400
  20570033.766   108096251.206 7        51.400    20570036.363    84230861.428 9
        41.800
  21147359.609   111130141.752 8        53.200    21147362.441    86594930.100 8
        40.500
  23125604.563   121525872.068 7        47.600    23125610.129    94695506.942 7
        32.700
  22659058.813   119074169.572 6        43.800    22659061.234    92785078.990 7
        29.200
  24258357.023   127478528.117 5        40.000    24258359.676    99333922.684 6
        18.600
  23766250.320   124892486.168 5        40.600    23766252.203    97318843.440 6
        21.700
  20390298.820   107151759.360 8        53.800    20390303.910    83494913.080 9
        45.200
 18  2 21  9 53 30.0000000  0  8G02G05G07G09G13G20G28G30
  23358029.203   122747239.372 5        41.600    23358030.617    95647190.909 7
        28.400
  20565455.383   108072190.504 7        51.500    20565457.246    84212112.818 9
        41.500
  21155730.305   111174131.810 8        53.000    21155732.355    86629208.082 8
        40.600
  23142729.352   121615860.786 7        47.800    23142733.910    94765627.992 7
        33.000
  22642813.672   118988800.622 6        43.100    22642816.117    92718557.748 7
        29.400
  24238225.383   127372742.911 5        39.600    24238229.000    99251492.616 5
        17.800
  23748473.984   124799077.675 5        39.200    23748476.750    97246057.627 6
        21.800
  20389332.258   107146680.233 8        54.000    20389337.277    83490955.324 9
        44.700
 18  2 21  9 54  0.0000000  0  8G02G05G07G09G13G20G28G30
  23373869.906   122830485.436 5        41.300    23373871.230    95712057.945 7
        28.100
  20560977.422   108048657.984 7        50.300    20560979.836    84193775.788 9
        41.100
  21164182.555   111218548.854 7        51.200    21164184.762    86663818.770 8
        39.900
  23159878.977   121705980.925 7        47.900    23159883.418    94835851.446 8
        33.600
  22626602.945   118903615.188 6        43.200    22626605.656    92652179.498 7
        29.100
  24218123.969   127267108.316 4        38.200    24218127.684    99169179.982 5
        17.400
  23730729.234   124705825.517 4        38.700    23730733.152    97173393.694 6
        22.900
  20388468.602   107142141.590 7        51.500    20388473.574    83487418.713 9
        44.500
 18  2 21  9 54 30.0000000  0  8G02G05G07G09G13G20G28G30
  23389759.633   122913980.911 5        41.300    23389759.688    95777119.318 7
        26.400
  20556599.844   108025654.621 7        52.000    20556602.504    84175851.088 9
        41.400
  21172716.156   111263391.087 8        52.700    21172717.969    86698760.761 8
        40.600
  23177052.781   121796231.592 7        47.400    23177057.711    94906176.610 8
        33.500
  22610427.703   118818614.056 6        44.700    22610430.633    92585944.862 7
        29.900
  24198053.016   127161626.634 5        41.400    24198055.012    99086986.508 6
        19.600
  23713014.305   124612731.946 5        39.400    23713017.699    97100853.323 6
        21.100
  20387707.703   107138143.010 8        52.700    20387712.328    83484302.934 9
        44.600
 18  2 21  9 55  0.0000000  0  8G02G05G07G09G13G20G28G30
  23405694.477   122997722.804 5        39.600    23405695.430    95842372.694 7
        27.700
  20552323.211   108003181.244 7        51.900    20552325.910    84158339.357 9
        42.400
  21181329.422   111308656.928 8        52.300    21181332.086    86734032.842 8
        40.700
  23194251.641   121886611.831 7        47.200    23194257.402    94976602.713 8
        33.800
  22594288.789   118733798.026 6        45.000    22594290.984    92519854.456 7
        29.800
  24178009.578   127056300.121 5        41.300    24178012.125    99004913.830 6
        19.600
  23695329.555   124519800.250 5        41.600    23695333.137    97028439.063 6
        22.600
  20387049.602   107134683.975 8        52.700    20387054.063    83481607.582 9
        44.500
 18  2 21  9 55 30.0000000  0  8G02G05G07G09G13G20G28G30
  23421675.891   123081708.137 5        41.200    23421678.234    95907815.750 7
        27.800
  20548147.789   107981239.078 8        52.400    20548150.262    84141241.564 9
        41.700
  21190024.070   111354344.761 8        52.600    21190026.504    86769633.744 8
        40.200
  23211474.719   121977120.730 6        46.300    23211480.555    95047129.076 8
        33.700
  22578183.375   118649168.109 6        45.400    22578186.602    92453909.080 7
        29.000
  24157997.023   126951131.097 4        38.200    24157999.902    98922963.975 6
        19.600
  23677676.773   124427033.416 5        42.000    23677679.777    96956153.257 6
        22.800
  20386494.000   107131763.996 8        53.000    20386498.492    83479332.275 9
        44.800
 18  2 21  9 56  0.0000000  0  8G02G05G07G09G13G20G28G30
  23437704.102   123165933.992 5        41.100    23437705.578    95973446.240 7
        27.300
  20544073.734   107959829.775 7        50.300    20544076.250    84124558.987 9
        41.500
  21198798.203   111400453.130 7        51.200    21198800.504    86805562.332 8
        40.200
  23228722.117   122067757.689 6        46.200    23228727.102    95117755.231 7
        32.300
  22562114.867   118564725.292 6        46.000    22562117.605    92388109.495 7
        30.700
  24138013.664   126846122.067 5        40.200    24138016.738    98841138.796 6
        20.600
  23660055.281   124334434.111 5        39.400    23660057.938    96883997.957 6
        21.500
  20386040.547   107129382.855 7        50.200    20386045.273    83477476.834 9
        43.900
 18  2 21  9 56 30.0000000  0  8G02G05G07G09G13G20G28G30
  23453776.930   123250398.163 5        41.200    23453778.680    96039262.436 7
        26.700
  20540101.008   107938954.150 8        52.100    20540103.586    84108292.261 9
        41.700
  21207651.953   111446980.038 8        53.000    21207654.207    86841817.051 8
        39.800
  23245994.250   122158521.675 6        45.800    23245999.180    95188480.394 7
        32.800
  22546081.195   118480470.361 6        46.200    22546084.426    92322456.320 7
        30.200
  24118062.539   126741275.342 5        40.500    24118064.500    98759439.993 6
        21.100
  23642467.180   124242005.226 5        41.100    23642471.051    96811975.516 6
        23.000
  20385690.063   107127539.945 7        51.500    20385694.508    83476040.813 9
        44.300
 18  2 21  9 57  0.0000000  0  8G02G05G07G09G13G20G28G30
  23469895.625   123335097.447 6        42.100    23469896.324    96105261.813 7
        27.600
  20536230.438   107918613.834 8        52.100    20536233.246    84092442.664 9
        41.800
  21216584.828   111493924.168 8        52.600    21216587.547    86878396.869 8
        39.800
  23263290.156   122249412.047 6        45.000    23263295.680    95259304.020 7
        33.000
  22530084.070   118396404.160 6        45.900    22530086.832    92256950.200 7
        30.500
  24098140.695   126636592.919 3        36.500    24098145.461    98677869.305 6
        20.900
  23624911.727   124149750.254 5        40.900    23624915.629    96740088.562 6
        25.300
  20385441.898   107126234.958 7        51.300    20385446.566    83475023.940 9
        45.000
 18  2 21  9 57 30.0000000  0  8G02G05G07G09G13G20G28G30
  23486056.602   123420028.688 5        42.000    23486058.133    96171441.962 7
        27.300
  20532461.836   107898809.035 7        51.700    20532464.348    84077010.341 9
        42.100
  21225597.055   111541283.504 7        51.800    21225599.789    86915300.234 8
        40.200
  23280609.414   122340427.599 6        45.600    23280615.430    95330225.174 8
        33.200
  22514122.797   118312527.399 6        45.800    22514125.652    92191591.690 7
        31.100
  24078253.539   126532077.590 4        38.800    24078257.168    98596428.891 6
        20.900
  23607389.945   124057671.867 5        40.200    23607393.102    96668339.249 6
        24.100
  20385295.688   107125467.082 8        53.300    20385300.688    83474425.585 9
        44.700
 18  2 21  9 58  0.0000000  0  8G02G05G07G09G13G20G28G30
  23502261.797   123505189.236 5        42.000    23502263.652    96237800.747 7
        27.600
  20528795.234   107879541.332 8        52.500    20528797.855    84061996.544 9
        42.500
  21234687.938   111589056.395 8        52.800    21234690.164    86952525.853 8
        40.200
  23297953.563   122431567.710 6        46.500    23297959.164    95401243.395 8
        33.400
  22498197.727   118228841.042 6        47.000    22498200.773    92126381.555 7
        30.700
  24058396.664   126427731.673 5        39.400    24058399.355    98515120.346 6
        20.900
  23589901.320   123965772.831 4        38.600    23589904.070    96596729.641 6
        20.600
  20385251.477   107125235.929 7        52.000    20385256.566    83474245.459 9
        44.300
 18  2 21  9 58 30.0000000  0  8G02G05G07G09G13G20G28G30
  23518511.156   123590576.223 6        42.300    23518512.273    96304336.007 6
        25.900
  20525231.320   107860812.006 8        52.200    20525233.809    84047402.262 9
        41.700
  21243857.289   111637241.453 8        52.900    21243859.652    86990072.676 8
        39.800
  23315320.555   122522831.624 6        46.700    23315325.711    95472358.084 7
        32.400
  22482309.680   118145346.368 7        47.200    22482312.426    92061320.788 7
        31.700
  24038573.586   126323557.481 4        38.400    24038576.031    98433945.642 6
        22.500
  23572448.555   123874055.807 5        39.400    23572450.898    96525261.839 6
        21.700
  20385309.539   107125541.098 8        52.300    20385314.438    83474483.250 9
        44.100
 18  2 21  9 59  0.0000000  0  8G02G05G07G09G13G20G28G30
  23534802.641   123676187.018 6        43.200    23534804.191    96371045.659 7
        27.700
  20521769.703   107842621.927 8        52.500    20521772.156    84033228.165 9
        41.900
  21253104.758   111685837.277 8        52.700    21253107.359    87027939.549 8
        40.200
  23332710.836   122614218.377 7        47.200    23332716.063    95543568.504 7
        32.900
  22466457.391   118062044.224 6        46.800    22466459.941    91996410.037 7
        31.300
  24018782.211   126219556.967 4        38.000    24018785.547    98352906.335 6
        19.600
  23555031.109   123782524.005 5        40.200    23555034.328    96453938.425 6
        25.300
  20385469.484   107126381.922 8        52.800    20385474.684    83475138.441 9
        45.200
 18  2 21  9 59 30.0000000  0  8G02G05G07G09G13G20G28G30
  23551135.516   123762018.430 6        42.700    23551136.898    96437927.224 7
        26.400
  20518411.297   107824972.129 7        51.900    20518413.730    84019475.070 9
        42.900
  21262429.711   111734841.389 8        52.300    21262432.891    87066124.547 8
        39.800
  23350123.680   122705727.128 6        46.800    23350129.332    95614873.974 7
        32.800
  22450642.414   117978935.043 7        47.200    22450645.551    91931649.650 7
        32.000
  23999025.102   126115733.340 4        37.600    23999026.793    98272004.769 6
        19.600
  23537648.086   123691180.215 5        40.100    23537652.301    96382761.492 7
        26.200
  20385731.664   107127757.803 8        53.700    20385736.480    83476210.552 9
        44.700
                            4  1
RINEX FILE SPLICE; other post-header comments skipped       COMMENT
 18  2 21 10  0  0.0000000  0  8G02G05G07G09G13G20G28G30
  23567510.336   123848067.667 6        42.100    23567511.316    96504978.521 7
        27.900
  20515155.313   107807863.488 8        52.800    20515158.418    84006143.662 9
        42.100
  21271831.961   111784252.403 7        51.800    21271834.945    87104626.617 8
        39.600
  23367560.703   122797357.003 7        47.700    23367565.742    95686273.836 8
        33.100
  22434863.961   117896019.855 7        47.100    22434866.883    91867040.424 7
        30.900
  23979302.492   126012088.381 4        37.200    23979306.004    98191242.500 6
        21.100
  23520301.461   123600027.334 5        39.200    23520305.543    96311733.337 6
        22.800
  20386095.172   107129668.158 8        53.700    20386099.813    83477699.141 9
        45.000
 18  2 21 10  0 30.0000000  0  8G02G05G07G09G13G20G28G30
  23583926.086   123934331.894 5        41.900    23583927.035    96572197.349 7
        27.400
  20512003.023   107791297.367 8        52.800    20512006.125    83993234.986 9
        42.200
  21281312.469   111834068.640 8        53.000    21281314.508    87143444.451 8
        39.900
  23385020.148   122889107.149 6        46.400    23385025.121    95757767.432 7
        32.700
  22419123.141   117813299.819 7        47.400    22419126.266    91802583.266 7
        31.700
  23959614.156   125908624.680 4        38.000    23959617.176    98110621.489 6
        22.000
  23502994.094   123509068.152 5        41.100    23502996.184    96240856.085 6
        22.500
  20386560.461   107132112.338 8        53.900    20386564.863    83479603.690 9
        45.400
 18  2 21 10  1  0.0000000  0  8G02G05G07G09G13G20G28G30
  23600381.742   124020808.213 5        41.500    23600383.258    96639581.446 7
        26.800
  20508954.109   107775274.866 8        52.200    20508957.086    83980749.912 9
        42.200
  21290868.820   111884288.432 8        53.000    21290870.840    87182576.759 8
        40.300
  23402502.445   122980977.086 6        45.800    23402507.820    95829354.338 7
        32.700
  22403419.445   117730775.644 6        46.700    22403422.426    91738278.730 7
        31.200
  23939961.063   125805344.694 4        38.300    23939963.465    98030143.578 6
        22.000
  23485722.602   123418306.070 6        43.000    23485725.406    96170132.367 7
        26.500
  20387126.852   107135090.020 8        53.700    20387131.477    83481923.957 9
        45.200
 18  2 21 10  1 30.0000000  0  8G02G05G07G09G13G20G28G30
  23616876.844   124107493.760 6        42.100    23616879.055    96707128.582 7
        26.300
  20506008.453   107759796.608 7        52.000    20506011.031    83968688.927 9
        42.400
  21300501.625   111934910.039 8        52.800    21300503.746    87222022.161 8
        40.000
  23420007.648   123072965.690 6        44.700    23420012.672    95901033.700 8
        33.100
  22387753.492   117648448.426 6        46.400    22387755.445    91674127.662 7
        31.600
  23920340.398   125702250.830 3        35.800    23920344.738    97949810.675 6
        20.100
  23468489.000   123327743.543 6        42.600    23468492.887    96099564.201 7
        26.500
  20387795.078   107138600.351 8        53.300    20387799.461    83484659.290 9
        44.600
 18  2 21 10  2  0.0000000  0  8G02G05G07G09G13G20G28G30
  23633412.367   124194385.689 5        41.600    23633413.965    96774836.492 7
        26.700
  20503166.938   107744863.709 8        52.600    20503169.375    83957052.906 9
        42.100
  21310210.609   111985931.541 8        52.500    21310213.207    87261779.169 8
        39.500
  23437534.391   123165072.040 6        44.300    23437539.840    95972804.849 7
        32.400
  22372124.688   117566318.984 6        46.500    22372126.945    91610130.703 7
        31.800
  23900760.375   125599345.258 5        40.100    23900763.000    97869624.545 6
        21.500
  23451292.102   123237383.291 5        40.700    23451297.484    96029153.715 6
        24.700
  20388563.992   107142642.593 8        52.800    20388568.602    83487809.082 9
        44.500
 18  2 21 10  2 30.0000000  0  8G02G05G07G09G13G20G28G30
  23649986.188   124281481.007 5        41.300    23649988.102    96842702.932 7
        27.000
  20500429.133   107730476.856 8        52.100    20500431.625    83945842.362 9
        41.800
  21319995.281   112037351.508 8        52.600    21319998.375    87301846.667 8
        39.700
  23455084.773   123257295.427 6        44.300    23455089.207    96044667.181 7
        31.600
  22356533.727   117484388.019 7        47.200    22356536.230    91546288.412 7
        32.600
  23881214.344   125496630.535 5        39.200    23881217.766    97789587.109 6
        23.000
  23434137.398   123147228.395 5        40.800    23434141.043    95958903.230 6
        24.700
  20389434.258   107147216.157 8        52.900    20389439.547    83491372.900 9
        45.300
 18  2 21 10  3  0.0000000  0  8G02G05G07G09G13G20G28G30
  23666598.133   124368776.772 5        41.700    23666599.223    96910725.552 7
        26.400
  20497796.055   107716637.500 8        52.700    20497798.324    83935058.441 9
        41.800
  21329855.859   112089168.067 7        51.800    21329858.605    87342223.182 8
        39.700
  23472656.172   123349635.094 6        44.700    23472661.285    96116620.125 7
        31.800
  22340980.781   117402656.641 6        45.900    22340983.277    91482601.620 8
        33.200
  23861704.953   125394109.159 3        37.000    23861707.906    97709700.361 6
        20.400
  23417021.648   123057282.012 6        42.600    23417024.039    95888815.155 6
        22.600
  20390405.977   107152320.345 8        52.300    20390410.434    83495350.183 9
        44.900
 18  2 21 10  3 30.0000000  0  8G02G05G07G09G13G20G28G30
  23683247.430   124456269.893 5        41.300    23683248.863    96978901.945 7
        26.200
  20495266.578   107703346.148 8        52.100    20495269.289    83924701.535 9
        42.100
  21339791.578   112141379.430 8        52.800    21339794.289    87382907.351 8
        40.300
  23490249.469   123442090.068 6        45.200    23490255.203    96188662.912 7
        32.600
  22325465.367   117321125.751 6        45.800    22325468.543    91419071.085 7
        32.400
  23842233.453   125291783.582 4        38.700    23842234.523    97629966.166 6
        19.300
  23399945.523   122967546.865 6        42.800    23399948.199    95818891.664 6
        24.000
  20391477.836   107157954.401 8        52.800    20391482.668    83499740.361 9
        45.100
 18  2 21 10  4  0.0000000  0  8G02G05G07G09G13G20G28G30
  23699933.344   124543957.789 5        41.300    23699934.992    97047230.130 7
        27.400
  20492841.703   107690603.859 8        52.800    20492844.113    83914772.477 9
        42.600
  21349802.273   112193983.991 8        53.500    21349804.199    87423897.912 8
        39.900
  23507865.039   123534659.667 6        46.000    23507871.051    96260795.018 8
        33.100
  22309989.563   117239796.319 6        46.000    22309992.281    91355697.519 7
        32.100
  23822799.164   125189655.993 5        41.700    23822801.297    97550386.195 6
        22.500
  23382909.156   122878025.757 6        42.100    23382914.258    95749135.025 6
        24.800
  20392650.352   107164117.737 8        52.400    20392655.035    83504542.957 9
        43.900
 18  2 21 10  4 30.0000000  0  8G02G05G07G09G13G20G28G30
  23716657.945   124631837.535 5        41.100    23716658.832    97115707.783 7
        26.900
  20490521.703   107678411.569 7        52.000    20490524.484    83905271.985 9
        42.100
  21359886.688   112246979.830 7        51.400    21359888.840    87465193.377 8
        39.900
  23525502.422   123627343.017 6        45.300    23525507.277    96333015.754 7
        31.500
  22294551.500   117158669.036 7        47.300    22294554.492    91292481.467 7
        32.700
  23803402.203   125087729.040 5        39.900    23803405.992    97470962.608 6
        23.800
  23365916.375   122788721.435 6        43.400    23365920.578    95679547.356 7
        27.800
  20393923.891   107170809.518 8        52.800    20393928.438    83509757.333 9
        44.300
 18  2 21 10  5  0.0000000  0  8G02G05G07G09G13G20G28G30
  23733416.031   124719906.310 5        40.400    23733417.434    97184332.745 6
        26.000
  20488306.500   107666770.362 7        51.800    20488308.719    83896200.909 9
        41.700
  21370045.328   112300365.208 7        51.100    21370048.137    87506792.352 8
        39.800
  23543160.914   123720139.339 6        46.200    23543165.723    96405324.531 7
        31.400
  22279152.383   117077745.026 6        46.100    22279154.336    91229423.808 7
        32.300
  23784044.766   124986004.981 5        40.000    23784047.496    97391697.184 6
        21.700
  23348964.383   122699637.259 6        44.300    23348967.898    95610131.174 7
        27.600
  20395297.711   107178029.055 8        52.600    20395302.117    83515382.945 9
        44.200
 18  2 21 10  5 30.0000000  0  8G02G05G07G09G13G20G28G30
  23750210.016   124808161.073 5        41.500    23750212.109    97253102.638 7
        27.500
  20486195.852   107655680.731 7        51.700    20486198.313    83887559.640 9
        41.900
  21380277.711   112354138.316 7        51.300    21380280.707    87548693.469 8
        39.700
  23560840.773   123813047.698 6        46.000    23560845.496    96477720.607 7
        31.900
  22263791.172   116997025.193 6        46.400    22263793.930    91166525.240 7
        32.000
  23764726.828   124884486.602 5        41.100    23764729.547    97312591.950 6
        22.200
  23332054.102   122610775.640 6        43.400    23332055.871    95540888.343 6
        21.100
  20396771.984   107185775.491 8        53.400    20396776.445    83521419.126 9
        44.100
 18  2 21 10  6  0.0000000  0  8G02G05G07G09G13G20G28G30
  23767039.172   124896599.104 5        41.300    23767040.336    97322015.320 6
        26.000
  20484191.125   107645143.663 7        51.500    20484193.453    83879348.932 9
        41.700
  21390584.422   112408297.487 7        51.800    21390587.012    87590895.408 8
        39.800
  23578541.297   123906067.352 6        45.700    23578546.855    96550203.407 7
        29.900
  22248469.727   116916510.074 6        46.000    22248472.055    91103786.191 7
        31.600
  23745447.672   124783176.092 5        40.800    23745450.758    97233648.679 6
        22.300
  23315186.328   122522139.580 5        41.500    23315189.516    95471821.355 6
        24.500
  20398346.219   107194048.032 8        53.000    20398350.762    83527865.260 9
        44.100
 18  2 21 10  6 30.0000000  0  8G02G05G07G09G13G20G28G30
  23783903.469   124985217.419 5        40.900    23783904.668    97391068.481 7
        26.400
  20482291.156   107635160.113 7        51.900    20482294.074    83871569.540 9
        42.400
  21400963.727   112462841.095 8        52.100    21400966.090    87633396.909 8
        39.900
  23596264.063   123999197.680 6        46.100    23596268.758    96622772.439 7
        30.600
  22233187.375   116836200.808 6        46.800    22233190.020    91041207.555 7
        32.100
  23726209.195   124682075.994 4        38.900    23726211.750    97154869.421 6
        21.500
  23298363.508   122433732.200 5        41.400    23298366.563    95402932.543 7
        28.300
  20400020.234   107202846.099 8        53.400    20400024.707    83534720.902 9
        44.100
 18  2 21 10  7  0.0000000  0  8G02G05G07G09G13G20G28G30
  23800800.125   125074012.662 5        41.900    23800801.695    97460259.539 7
        27.100
  20480496.813   107625730.262 7        51.900    20480499.559    83864221.595 9
        42.200
  21411416.086   112517767.164 8        52.400    21411418.449    87676196.429 8
        39.500
  23614007.164   124092437.648 6        45.000    23614012.184    96695426.913 7
        31.500
  22217944.641   116756098.665 7        47.300    22217947.191    90978790.308 8
        33.400
  23707011.461   124581188.832 5        40.200    23707014.328    97076256.059 6
        22.000
  23281584.734   122345556.086 6        44.300    23281587.746    95334223.915 7
        27.900
  20401794.641   107212168.697 8        52.600    20401798.633    83541985.266 9
        44.000
 18  2 21 10  7 30.0000000  0  8G02G05G07G09G13G20G28G30
  23817730.406   125162982.414 5        42.000    23817732.004    97529586.553 7
        26.800
  20478807.813   107616855.458 7        50.800    20478810.332    83857306.164 9
        42.400
  21421940.727   112573073.808 8        52.200    21421942.754    87719292.514 8
        39.900
  23631770.555   124185786.528 6        45.800    23631776.391    96768166.231 7
        31.500
  22202740.867   116676204.321 7        47.300    22202744.031    90916534.980 7
        33.000
  23687854.383   124480516.811 5        39.900    23687856.930    96997810.327 6
        21.300
  23264848.773   122257614.086 6        43.000    23264853.027    95265697.740 6
        26.000
  20403668.164   107222014.988 8        53.500    20403672.762    83549657.700 9
        45.000
 18  2 21 10  8  0.0000000  0  8G02G05G07G09G13G20G28G30
  23834694.625   125252123.717 5        41.500    23834695.223    97599047.278 6
        25.800
  20477225.031   107608536.476 8        52.400    20477227.238    83850823.836 9
        42.200
  21432537.180   112628759.562 7        51.300    21432539.281    87762684.006 8
        39.400
  23649554.508   124279243.482 6        45.600    23649559.188    96840989.784 7
        30.200
  22187577.227   116596518.813 7        47.700    22187580.770    90854442.381 8
        33.200
  23668737.852   124380062.396 5        39.700    23668739.742    96919534.177 6
        20.900
  23248158.555   122169909.126 6        42.200    23248161.895    95197356.249 6
        23.200
  20405640.984   107232384.192 8        53.500    20405646.203    83557737.598 9
        45.000
 18  2 21 10  8 30.0000000  0  8G02G05G07G09G13G20G28G30
  23851689.727   125341433.767 5        41.300    23851690.480    97668639.444 7
        27.100
  20475747.766   107600773.691 7        51.200    20475749.535    83844774.910 9
        42.800
  21443205.328   112684822.221 7        51.300    21443207.496    87806369.180 8
        39.400
  23667359.680   124372807.630 6        46.300    23667364.656    96913896.868 7
        30.700
  22172453.688   116517042.475 7        48.800    22172456.820    90792512.781 8
        33.500
  23649664.555   124279828.419 5        40.100    23649666.602    96841429.791 6
        21.800
  23231516.008   122082443.783 6        42.700    23231517.320    95129201.457 6
        24.900
  20407713.734   107243275.269 8        53.800    20407718.473    83566224.150 9
        44.800
 18  2 21 10  9  0.0000000  0  8G02G05G07G09G13G20G28G30
  23868716.133   125430909.151 5        40.900    23868717.527    97738360.447 7
        26.300
  20474376.203   107593567.796 7        51.300    20474378.527    83839159.907 9
        42.500
  21453945.086   112741260.074 7        51.300    21453947.293    87850346.717 8
        39.500
  23685184.320   124466478.158 6        45.000    23685189.813    96986886.827 7
        30.600
  22157369.617   116437776.694 7        47.200    22157372.602    90730747.243 8
        33.700
  23630632.273   124179817.156 4        38.800    23630633.934    96763498.914 6
        20.400
  23214917.086   121995221.269 6        44.700    23214920.453    95061235.867 7
        27.600
  20409885.375   107254687.442 8        52.500    20409890.172    83575116.753 9
        44.500
 18  2 21 10  9 30.0000000  0  8G02G05G07G09G13G20G28G30
  23885773.789   125520547.301 5        41.100    23885775.070    97808208.285 7
        27.100
  20473111.633   107586919.980 7        51.300    20473113.934    83833979.788 9
        42.600
  21464755.773   112798071.900 7        50.800    21464758.402    87894615.660 8
        39.400
  23703029.453   124560254.487 6        45.200    23703034.664    97059959.241 7
        31.600
  22142326.648   116358722.598 7        47.200    22142329.273    90669146.666 8
        33.300
  23611644.109   124080031.164 5        40.300    23611646.820    96685743.635 6
        22.600
  23198366.047   121908244.334 6        43.600    23198369.586    94993461.657 7
        28.600
  20412156.063   107266619.957 8        53.000    20412160.867    83584414.818 9
        44.600
 18  2 21 10 10  0.0000000  0  8G02G05G07G09G13G20G28G30
  23902861.297   125610345.532 5        40.200    23902862.828    97878180.870 7
        26.800
  20471952.508   107580830.648 7        51.000    20471955.137    83829234.851 9
        42.600
  21475637.836   112855255.273 7        50.800    21475640.313    87939174.126 8
        39.600
  23720895.180   124654135.660 6        45.400    23720899.926    97133113.347 7
        31.300
  22127323.281   116279880.671 7        47.600    22127325.969    90607711.401 8
        33.200
  23592698.008   123980472.722 5        40.100    23592701.215    96608165.652 6
        23.300
  23181861.602   121821515.690 6        43.100    23181866.074    94925880.984 7
        26.600
  20414525.398   107279071.713 8        52.700    20414530.449    83594117.479 9
        44.700
 18  2 21 10 10 30.0000000  0  8G02G05G07G09G13G20G28G30
  23919979.242   125700300.571 5        41.200    23919980.781    97948275.649 7
        26.900
  20470900.359   107575300.400 7        50.800    20470903.477    83824925.563 9
        42.100
  21486589.797   112912808.434 7        51.300    21486592.484    87984020.725 8
        39.800
  23738779.047   124748120.903 6        44.200    23738785.074    97206348.546 7
        30.200
  22112360.797   116201252.202 7        47.200    22112363.457    90546442.468 8
        33.400
  23573797.391   123881144.335 5        41.700    23573800.168    96530766.918 6
        22.800
  23165406.180   121735038.559 6        43.600    23165409.043    94858496.241 7
        26.900
  20416993.633   107292041.902 8        52.800    20416998.539    83604224.124 9
        44.200
 18  2 21 10 11  0.0000000  0  8G02G05G07G09G13G20G28G30
  23937126.766   125790409.592 5        40.000    23937128.289    98018490.399 7
        27.100
  20469954.398   107570330.038 7        51.500    20469957.320    83821052.541 9
        42.900
  21497611.602   112970729.518 7        50.600    21497614.395    88029154.028 8
        39.700
  23756683.211   124842209.479 6        44.400    23756689.070    97279664.240 7
        30.200
  22097439.180   116122838.069 6        46.400    22097441.742    90485340.552 8
        34.000
  23554939.258   123782048.620 5        41.600    23554942.066    96453549.513 6
        22.500
  23148998.258   121648815.786 6        45.000    23149000.484    94791309.678 7
        26.200
  20419560.039   107305529.585 7        52.000    20419565.371    83614734.006 9
        44.800
 18  2 21 10 11 30.0000000  0  8G02G05G07G09G13G20G28G30
  23954301.641   125880669.600 5        41.100    23954303.793    98088822.810 6
        24.500
  20469115.125   107565920.326 7        50.000    20469117.621    83817616.397 9
        42.300
  21508703.078   113029016.934 7        50.800    21508706.129    88074572.770 8
        39.400
  23774607.516   124936400.558 6        45.000    23774613.582    97353059.836 7
        30.500
  22082558.156   116044639.199 6        46.800    22082560.711    90424406.374 8
        33.500
  23536128.516   123683188.334 6        42.200    23536129.602    96376515.488 6
        24.000
  23132639.539   121562849.768 6        44.500    23132642.262    94724323.194 7
        26.800
  20422225.133   107319533.786 8        53.100    20422230.605    83625646.366 9
        45.500
 18  2 21 10 12  0.0000000  0  8G02G05G07G09G13G20G28G30
  23971507.422   125971077.743 5        41.800    23971508.555    98159270.612 6
        25.200
  20468382.781   107562072.015 7        50.300    20468385.313    83814617.710 9
        42.400
  21519864.602   113087669.269 7        51.000    21519866.750    88120275.871 8
        38.600
  23792551.508   125030693.485 6        43.700    23792556.984    97426534.781 7
        29.700
  22067718.219   115966656.384 7        47.700    22067721.578    90363640.572 8
        33.400
  23517360.102   123584565.439 5        41.700    23517362.266    96299666.529 6
        22.800
  23116329.953   121477143.366 6        44.500    23116333.422    94657539.031 7
        27.600
  20424988.320   107334053.672 8        53.000    20424993.324    83636960.563 9
        44.700
 18  2 21 10 12 30.0000000  0  8G02G05G07G09G13G20G28G30
  23988738.766   126061631.079 5        41.300    23988739.836    98229831.585 6
        24.100
  20467757.633   107558784.944 7        50.800    20467760.211    83812056.350 9
        41.800
  21531095.266   113146684.316 7        50.700    21531096.719    88166261.613 8
        39.600
  23810513.602   125125087.169 6        44.700    23810519.699    97500088.256 7
        29.400
  22052920.227   115888890.678 7        47.200    22052923.266    90303043.926 8
        34.000
  23498638.227   123486182.743 6        42.600    23498640.438    96223004.689 6
        25.600
  23100070.984   121391699.509 6        44.500    23100074.848    94590959.487 7
        26.900
  20427849.344   107349088.001 8        53.000    20427854.355    83648675.617 9
        44.900
 18  2 21 10 13  0.0000000  0  8G02G05G07G09G13G20G28G30
  24005997.844   126152327.013 5        41.000    24005999.641    98300503.691 6
        25.500
  20467239.141   107556060.020 7        49.400    20467241.938    83809933.028 9
        42.600
  21542394.172   113206059.794 7        50.200    21542395.805    88212528.224 8
        39.100
  23828495.008   125219580.837 6        43.900    23828500.852    97573719.623 7
        29.900
  22038163.273   115811342.606 7        47.400    22038166.227    90242616.862 8
        34.600
  23479962.758   123388042.713 6        42.700    23479964.617    96146531.952 6
        25.300
  23083861.758   121306520.954 6        45.800    23083864.723    94524586.641 7
        26.800
  20430807.555   107364635.705 8        53.400    20430813.184    83660790.710 9
        44.600
 18  2 21 10 13 30.0000000  0  8G02G05G07G09G13G20G28G30
  24023282.086   126243162.295 5        40.300    24023284.934    98371284.351 6
        25.300
  20466827.664   107553898.271 7        50.000    20466830.402    83808248.535 9
        42.500
  21553760.602   113265794.307 7        50.400    21553763.387    88259074.583 8
        39.900
  23846495.633   125314174.027 6        44.700    23846501.352    97647428.534 7
        30.500
  22023448.203   115734013.546 7        48.500    22023451.082    90182360.457 8
        33.700
  23461334.516   123290147.939 6        43.200    23461335.332    96070250.331 6
        22.600
  23067703.727   121221610.756 6        45.300    23067705.715    94458422.856 7
        27.000
  20433863.992   107380696.157 8        53.600    20433869.617    83673305.343 9
        44.800
 18  2 21 10 14  0.0000000  0  8G02G05G07G09G13G20G28G30
  24040594.148   126334134.126 5        41.000    24040596.227    98442171.427 6
        24.600
  20466523.102   107552299.536 7        50.600    20466526.086    83807002.756 9
        42.400
  21565195.711   113325885.854 7        50.800    21565199.203    88305899.140 8
        39.100
  23864514.859   125408865.622 6        45.300    23864521.117    97721214.125 7
        29.800
  22008774.656   115656904.359 7        48.500    22008777.395    90122275.391 8
        33.800
  23442752.984   123192500.609 6        43.900    23442754.105    95994161.535 6
        25.300
  23051597.609   121136971.312 6        44.900    23051599.227    94392470.055 6
        25.700
  20437017.375   107397268.020 8        53.800    20437022.352    83686218.473 9
        44.800
 18  2 21 10 14 30.0000000  0  8G02G05G07G09G13G20G28G30
  24057930.359   126425239.641 5        39.700    24057932.609    98513162.678 6
        24.900
  20466326.492   107551264.827 7        49.600    20466329.066    83806196.492 9
        42.500
  21576698.836   113386332.724 7        50.800    21576701.742    88353000.563 8
        39.700
  23882552.625   125503655.002 6        44.300    23882558.930    97795075.928 7
        29.100
  21994143.656   115580016.318 7        49.400    21994146.207    90062362.638 8
        34.300
  23424219.336   123095103.515 6        43.800    23424220.824    95918267.699 6
        24.900
  23035543.570   121052605.616 6        45.000    23035546.387    94326730.629 7
        27.300
  20440268.391   107414350.386 8        53.400    20440273.813    83699529.403 9
        44.700
 18  2 21 10 15  0.0000000  0  8G02G05G07G09G13G20G28G30
  24075293.297   126516475.611 5        41.400    24075294.203    98584255.555 6
        24.100
  20466236.961   107550794.394 7        49.900    20466239.422    83805829.913 9
        42.000
  21588268.805   113447133.387 7        49.800    21588270.363    88400377.678 8
        39.200
  23900609.125   125598541.289 6        43.600    23900615.152    97869013.229 7
        29.700
  21979553.945   115503349.833 7        48.300    21979556.461    90002622.523 8
        33.400
  23405732.938   122997959.190 6        43.300    23405734.398    95842570.803 7
        26.500
  23019541.875   120968516.588 6        45.800    23019544.402    94261206.772 7
        27.200
  20443616.477   107431942.100 8        54.200    20443621.051    83713237.235 9
        44.600
 18  2 21 10 15 30.0000000  0  8G02G05G07G09G13G20G28G30
  24092679.242   126607839.659 5        40.900    24092680.613    98655448.265 6
        23.200
  20466255.117   107550888.983 7        50.500    20466257.395    83805903.615 9
        42.200
  21599905.414   113508285.423 7        50.700    21599907.234    88448028.615 8
        39.000
  23918684.211   125693523.872 6        43.500    23918690.082    97943025.588 7
        28.900
  21965007.648   115426905.908 7        49.300    21965010.074    89943055.832 8
        34.000
  23387294.414   122901070.249 6        42.400    23387298.148    95767072.959 6
        24.400
  23003593.461   120884706.663 6        46.300    23003595.727    94195900.387 7
        28.800
  20447060.484   107450042.265 8        54.900    20447065.234    83727341.256 9
        44.500
 18  2 21 10 16  0.0000000  0  8G02G05G07G09G13G20G28G30
  24110088.094   126699328.455 5        41.300    24110090.367    98726738.141 6
        23.300
  20466380.383   107551548.892 7        51.300    20466382.809    83806417.823 9
        41.800
  21611608.836   113569787.374 7        51.100    21611611.250    88495952.205 8
        39.300
  23936776.609   125788601.849 6        42.800    23936782.754    98017112.257 7
        29.300
  21950503.109   115350685.670 7        49.900    21950505.859    89883663.447 8
        34.000
  23368906.531   122804438.969 6        42.400    23368908.133    95691775.859 6
        24.200
  22987698.047   120801179.011 6        45.500    22987700.441    94130813.955 7
        26.700
  20450601.492   107468649.635 8        54.000    20450606.434    83741840.507 9
        44.600
 18  2 21 10 16 30.0000000  0  8G02G05G07G09G13G20G28G30
  24127521.188   126790939.122 5        40.600    24127523.918    98798123.001 6
        23.800
  20466613.977   107552774.467 7        51.300    20466616.125    83807372.804 9
        42.300
  21623378.336   113631637.342 7        51.400    21623380.973    88544146.971 8
        38.900
  23954887.672   125883774.424 6        42.700    23954893.453    98091272.610 7
        29.300
  21936041.781   115274690.271 7        49.600    21936044.527    89824446.252 8
        34.600
  23350567.914   122708067.869 6        42.800    23350570.426    95616681.522 7
        26.500
  22971856.672   120717936.143 6        45.000    22971859.051    94065949.416 7
        27.000
  20454238.586   107487763.124 8        54.700    20454243.277    83756734.135 9
        44.700
 18  2 21 10 17  0.0000000  0  8G02G05G07G09G13G20G28G30
  24144977.289   126882668.978 5        41.600    24144979.555    98869600.744 6
        23.500
  20466954.938   107554566.148 7        50.600    20466957.215    83808768.917 9
        42.700
  21635213.797   113693833.342 7        51.000    21635217.219    88592611.368 8
        39.200
  23973015.656   125979040.836 5        41.700    23973021.879    98165506.120 7
        28.300
  21921623.125   115198920.198 7        49.100    21921625.801    89765404.628 8
        34.200
  23332278.078   122611959.495 5        41.000    23332281.367    95541791.885 6
        22.300
  22956071.273   120634981.038 6        44.700    22956074.203    94001309.115 7
        28.700
  20457971.703   107507381.769 8        54.500    20457976.773    83772021.396 9
        44.500
 18  2 21 10 17 30.0000000  0  8G02G05G07G09G13G20G28G30
  24162455.188   126974515.165 5        41.000    24162457.344    98941169.135 6
        23.400
  20467403.539   107556924.176 7        50.000    20467406.258    83810606.345 9
        42.400
  21647115.039   113756373.694 7        50.900    21647118.039    88641344.080 8
        39.400
  23991163.102   126074400.359 6        43.000    23991168.395    98239812.189 7
        28.500
  21907247.469   115123376.778 7        48.700    21907249.895    89706539.637 8
        33.300
  23314041.023   122516116.546 6        42.800    23314042.809    95467109.055 6
        24.400
  22940341.461   120552316.405 6        45.100    22940344.547    93936895.166 7
        29.700
  20461800.773   107527504.404 8        54.300    20461805.828    83787701.365 9
        44.200
 18  2 21 10 18  0.0000000  0  8G02G05G07G09G13G20G28G30
  24179955.234   127066474.368 5        41.100    24179956.250    99012825.580 6
        23.300
  20467960.070   107559849.134 7        50.200    20467963.051    83812885.529 9
        42.800
  21659081.602   113819256.531 7        50.800    21659084.145    88690343.689 8
        39.200
  24009326.047   126169852.069 5        41.600    24009332.148    98314190.110 7
        26.700
  21892915.547   115048060.494 7        49.500    21892917.434    89647851.629 8
        34.200
  23295853.602   122420541.564 5        41.700    23295856.438    95392635.064 6
        25.800
  22924665.695   120469944.653 6        44.500    22924669.406    93872709.445 7
        29.100
  20465725.359   107548129.701 8        52.800    20465730.430    83803773.015 9
        44.100
 18  2 21 10 18 30.0000000  0  8G02G05G07G09G13G20G28G30
  24197473.555   127158543.768 5        40.000    24197476.273    99084567.902 6
        22.600
  20468624.258   107563341.241 7        50.500    20468627.422    83815606.640 9
        42.700
  21671112.695   113882479.739 7        50.500    21671114.348    88739608.537 8
        38.800
  24027508.484   126265395.169 6        42.800    24027513.793    98388639.202 7
        29.800
  21878626.773   114972972.511 7        49.700    21878628.855    89589341.520 8
        33.900
  23277717.766   122325236.808 5        41.100    23277720.805    95318371.654 6
        25.400
  22909047.500   120387868.707 6        44.100    22909050.754    93808754.245 7
        29.400
  20469745.617   107569256.478 8        53.100    20469750.602    83820235.444 9
        44.300
 18  2 21 10 19  0.0000000  0  9G02G05G07G09G13G15G20G28G30
  24215015.813   127250720.708 5        40.200    24215017.047    99156394.025 6
        22.600
  20469397.281   107567401.519 7        51.800    20469399.910    83818770.489 9
        42.700
  21683207.664   113946041.984 7        50.500    21683209.848    88789137.546 8
        38.200
  24045705.656   126361029.203 6        42.400    24045712.770    98463159.185 7
        29.900
  21864381.602   114898113.995 7        49.400    21864383.762    89531010.219 8
        33.500
  24506597.500   128783051.512 1        30.800    24506604.293   100350448.208 5
        15.600
  23259632.977   122230205.310 4        38.600    23259636.391    95244321.135 6
        24.000
  22893485.938   120306091.709 6        44.700    22893487.867    93745031.959 7
        28.400
  20473861.281   107590883.996 8        53.500    20473866.258    83837088.047 9
        44.200
 18  2 21 10 19 30.0000000  0  9G02G05G07G09G13G15G20G28G30
  24232575.719   127343002.338 5        39.700    24232577.645    99228301.732 6
        22.300
  20470277.844   107572030.047 7        51.900    20470280.547    83822377.127 9
        42.200
  21695367.273   114009941.220 7        51.400    21695369.668    88838929.148 8
        38.700
  24063921.977   126456753.493 6        43.200    24063929.047    98537749.448 7
        30.800
  21850180.188   114823486.320 7        50.000    21850183.211    89472858.778 8
        34.300
  24487313.992   128681711.162 1        31.000    24487319.707   100271481.816 5
        15.600
  23241602.477   122135449.612 5        39.700    23241604.176    95170485.531 6
        24.200
  22877982.172   120224616.235 6        45.400    22877983.258    93681544.582 7
        29.300
  20478071.555   107613011.056 8        53.400    20478076.961    83854329.913 9
        43.800
 18  2 21 10 20  0.0000000  0  9G02G05G07G09G13G15G20G28G30
  24250156.625   127435385.509 5        39.700    24250158.039    99300288.570 6
        23.200
  20471267.094   107577226.471 7        50.700    20471269.414    83826426.288 9
        42.600
  21707590.570   114074175.259 7        50.800    21707593.465    88888981.631 8
        39.200
  24082154.484   126552566.884 5        41.600    24082161.500    98612409.162 7
        29.100
  21836023.117   114749089.603 7        48.800    21836025.816    89414887.319 8
        33.600
  24468041.680   128580437.993 1        25.900    24468048.219   100192567.564 5
        15.600
  23223624.359   122040971.599 5        40.700    23223626.539    95096866.325 7
        26.500
  22862535.414   120143444.960 6        45.000    22862538.391    93618294.275 7
        30.700
  20482377.719   107635636.125 8        53.400    20482382.230    83871959.838 9
        44.900
 18  2 21 10 20 30.0000000  0  9G02G05G07G09G13G15G20G28G30
  24267755.125   127527867.769 4        39.000    24267756.047    99372352.609 6
        22.200
  20472364.039   107582991.606 7        50.200    20472366.242    83830918.587 9
        42.600
  21719877.547   114138742.630 7        50.700    21719880.258    88939293.857 8
        38.400
  24100404.031   126648468.762 5        41.600    24100410.461    98687137.839 7
        28.000
  21821910.227   114674925.304 7        49.100    21821913.348    89357096.965 8
        34.200
  24448786.250   128479233.044 3        36.300    24448789.305   100113704.677 6
        18.300
  23205698.414   121946774.303 4        39.000    23205701.172    95023465.826 6
        24.800
  22847147.203   120062580.366 6        43.800    22847150.352    93555282.964 7
        29.800
  20486777.422   107658758.179 8        53.300    20486782.688    83889977.022 9
        44.500
 18  2 21 10 21  0.0000000  0  9G02G05G07G09G13G15G20G28G30
  24285372.711   127620445.890 5        40.200    24285374.090    99444491.329 6
        22.300
  20473569.414   107589325.806 7        50.000    20473572.258    83835854.317 9
        42.500
  21732227.070   114203641.415 7        49.400    21732229.852    88989864.314 8
        38.100
  24118670.375   126744458.440 6        43.300    24118676.250    98761934.930 7
        28.300
  21807841.672   114600994.242 7        49.800    21807844.281    89299488.345 8
        34.800
  24429540.867   128378097.449 5        40.700    24429543.797   100034897.712 6
        19.900
  23187825.930   121852860.199 5        40.600    23187830.266    94950285.992 6
        25.400
  22831818.391   119982025.530 6        44.500    22831820.711    93492513.017 7
        29.700
  20491271.945   107682376.058 8        53.700    20491276.906    83908380.559 9
        44.300
 18  2 21 10 21 30.0000000  0  9G02G05G07G09G13G15G20G28G30
  24303007.453   127713116.816 5        40.300    24303009.883    99516702.384 6
        22.000
  20474882.922   107596228.814 7        50.300    20474885.789    83841233.284 9
        43.000
  21744639.719   114268869.610 7        49.400    21744642.043    89040691.473 8
        38.300
  24136954.063   126840534.854 6        44.100    24136959.727    98836799.621 7
        29.400
  21793817.305   114527297.196 7        49.000    21793820.160    89242062.088 8
        33.900
  24410307.625   128277031.996 4        37.300    24410312.270    99956145.428 6
        20.600
  23170009.609   121759231.893 5        39.400    23170013.961    94877328.930 6
        25.200
  22816548.422   119901782.704 6        44.000    22816550.742    93429986.189 7
        29.200
  20495860.344   107706488.269 8        53.400    20495865.551    83927169.298 9
        44.500
 18  2 21 10 22  0.0000000  0  9G02G05G07G09G13G15G20G28G30
  24320658.945   127805877.646 5        39.600    24320660.945    99588983.527 6
        22.000
  20476304.984   107603700.886 7        50.400    20476307.480    83847055.674 9
        42.400
  21757114.609   114334425.226 7        50.200    21757116.707    89091773.757 8
        38.100
  24155252.125   126936697.340 6        42.200    24155259.480    98911731.325 7
        28.600
  21779837.828   114453835.196 7        49.000    21779840.766    89184818.976 8
        34.200
  24391088.547   128176037.615 4        38.100    24391093.730    99877448.546 6
        19.000
  23152248.242   121665891.747 5        40.400    23152251.531    94804596.360 6
        25.700
  22801338.867   119821854.765 6        44.900    22801340.363    93367704.714 7
        29.200
  20500542.594   107731093.599 8        53.500    20500548.141    83946342.273 9
        44.500
 18  2 21 10 22 30.0000000  0  9G02G05G07G09G13G15G20G28G30
  24338326.258   127898725.875 4        38.300    24338328.664    99661332.777 6
        21.300
  20477834.875   107611742.583 7        50.500    20477838.188    83853321.920 9
        42.900
  21769651.781   114400306.542 7        51.000    21769654.129    89143109.841 8
        39.000
  24173568.125   127032945.227 6        42.900    24173574.281    98986729.598 7
        28.100
  21765903.672   114380609.336 7        49.500    21765905.906    89127759.875 8
        34.700
  24371885.273   128075115.858 4        38.600    24371889.055    99798808.272 6
        19.900
  23134541.234   121572842.216 5        41.100    23134544.031    94732090.223 6
        25.600
  22786189.016   119742244.487 6        44.700    22786191.832    93305670.773 7
        28.900
  20505318.195   107756191.002 8        53.700    20505323.848    83965898.697 9
        44.300
 18  2 21 10 23  0.0000000  0  9G02G05G07G09G13G15G20G28G30
  24356011.102   127991658.168 4        38.600    24356012.777    99733747.447 6
        21.700
  20479473.633   107620353.801 7        51.100    20479476.313    83860031.950 9
        42.600
  21782250.164   114466511.400 7        50.900    21782252.500    89194698.035 8
        38.600
  24191899.422   127129277.473 6        42.400    24191905.012    99061793.629 7
        27.300
  21752014.609   114307620.178 7        49.200    21752016.340    89070885.216 8
        34.600
  24352693.438   127974267.624 5        39.500    24352698.129    99720225.201 6
        21.100
  23116890.297   121480085.975 5        40.800    23116894.473    94659812.641 6
        25.800
  22771100.289   119662954.262 6        44.200    22771103.961    93243886.227 7
        29.300
  20510187.539   107781778.853 8        53.900    20510192.813    83985837.278 9
        45.000
 18  2 21 10 23 30.0000000  0  9G02G05G07G09G13G15G20G28G30
  24373712.344   128084671.802 5        40.500    24373713.285    99806225.555 6
        20.900
  20481221.078   107629534.773 7        50.300    20481223.766    83867185.948 9
        42.000
  21794909.891   114533038.419 7        50.500    21794912.680    89246537.235 8
        38.100
  24210247.453   127225693.624 6        43.400    24210253.543    99136923.033 7
        26.900
  21738170.031   114234869.175 7        48.900    21738172.512    89014196.120 8
        34.700
  24333516.875   127873493.833 4        39.000    24333521.570    99641700.233 6
        21.700
  23099297.305   121387625.380 6        42.100    23099298.898    94587765.437 7
        26.800
  22756074.156   119583987.225 6        44.400    22756076.293    93182353.535 7
        29.300
  20515150.000   107807856.199 8        53.400    20515155.449    84006157.281 9
        44.500
 18  2 21 10 24  0.0000000  0  9G02G05G07G09G13G15G20G28G30
  24391426.797   128177764.365 5        40.500    24391429.074    99878765.142 6
        22.300
  20483076.414   107639286.365 7        50.900    20483078.941    83874784.590 9
        42.600
  21807630.281   114599885.913 7        50.900    21807632.488    89298626.170 8
        38.400
  24228610.766   127322193.272 6        42.900    24228617.270    99212117.519 7
        26.500
  21724371.898   114162357.595 7        48.300    21724374.027    88957693.593 8
        34.800
  24314355.875   127772796.001 4        37.900    24314359.762    99563234.425 6
        19.300
  23081757.539   121295463.396 5        40.500    23081760.074    94515950.928 6
        24.700
  22741108.570   119505346.341 6        44.800    22741110.934    93121074.954 7
        29.100
  20520205.266   107834422.119 8        52.900    20520210.504    84026858.003 9
        44.900
 18  2 21 10 24 30.0000000  0  8G05G07G09G13G15G20G28G30
  20485040.492   107649608.216 7        51.100    20485043.043    83882827.578 9
        42.700
  21820411.617   114667051.585 7        50.900    21820413.570    89350963.041 8
        38.300
  24246988.586   127418775.288 5        42.000    24246996.000    99287376.133 7
        28.700
  21710618.867   114090086.058 7        48.900    21710621.496    88901378.114 8
        35.000
  24295206.383   127672174.979 4        37.900    24295211.578    99484828.452 6
        19.600
  23064277.063   121203602.794 5        40.600    23064281.289    94444371.264 6
        25.700
  22726206.398   119427033.831 6        44.600    22726207.934    93060052.245 7
        29.100
  20525353.305   107861474.927 8        53.700    20525359.027    84047938.106 9
        44.800
 18  2 21 10 25  0.0000000  0  8G05G07G09G13G15G20G28G30
  20487113.484   107660499.835 7        51.200    20487115.766    83891314.544 9
        43.000
  21833253.102   114734533.503 7        51.800    21833255.020    89403546.352 8
        37.700
  24265384.328   127515438.717 6        43.000    24265390.395    99362698.233 7
        27.200
  21696911.391   114018055.503 7        48.600    21696914.949    88845250.416 8
        34.400
  24276074.016   127571631.740 5        39.400    24276078.406    99406483.079 6
        18.600
  23046854.766   121112045.716 6        42.500    23046857.750    94373028.103 7
        27.300
  22711366.633   119349051.936 6        44.300    22711369.008    92999287.168 7
        28.900
  20530593.586   107889013.138 8        52.800    20530598.891    84069396.444 9
        44.100
 18  2 21 10 25 30.0000000  0  8G05G07G09G13G15G20G28G30
  20489294.609   107671961.621 7        52.000    20489296.664    83900245.798 9
        43.000
  21846154.203   114802329.943 7        51.200    21846156.262    89456374.737 8
        37.700
  24283793.781   127612182.790 6        43.800    24283801.055    99438083.133 7
        28.400
  21683250.367   113946266.688 7        49.100    21683253.633    88789311.083 8
        34.000
  24256956.813   127471167.081 5        41.100    24256961.402    99328198.924 6
        21.700
  23029490.453   121020794.342 6        42.500    23029493.051    94301923.142 7
        26.700
  22696590.313   119271403.655 6        44.400    22696593.496    92938782.066 7
        30.000
  20535925.914   107917035.441 8        53.000    20535931.008    84091232.000 9
        44.300
 18  2 21 10 26  0.0000000  0  8G05G07G09G13G15G20G28G30
  20491584.094   107683993.478 7        51.300    20491587.000    83909621.265 9
        42.600
  21859114.359   114870438.962 7        50.800    21859117.508    89509446.671 8
        37.600
  24302219.641   127709006.762 6        44.400    24302224.539    99513530.321 6
        26.000
  21669635.961   113874720.692 7        49.300    21669638.715    88733560.960 8
        34.500
  24237855.008   127370782.285 6        43.400    24237858.941    99249977.037 6
        21.300
  23012184.367   120929851.463 6        43.400    23012187.324    94231058.566 7
        27.100
  22681879.211   119194091.458 6        45.800    22681882.227    92878538.848 7
        30.200
  20541350.266   107945540.509 8        52.500    20541355.340    84113443.733 9
        44.100
 18  2 21 10 26 30.0000000  0  8G05G07G09G13G15G20G28G30
  20493982.063   107696595.845 7        51.700    20493984.785    83919441.282 9
        42.800
  21872134.609   114938858.720 7        50.600    21872137.766    89562760.757 8
        38.800
  24320658.008   127805910.095 6        42.600    24320663.137    99589039.406 6
        24.400
  21656067.641   113803418.432 7        49.000    21656070.484    88678000.760 8
        34.700
  24218767.078   127270478.399 6        42.300    24218771.195    99171818.206 6
        22.300
  22994938.242   120839219.814 6        43.100    22994939.973    94160436.549 6
        25.800
  22667230.594   119117118.047 6        44.900    22667232.527    92818559.587 7
        29.300
  20546866.125   107974527.068 8        52.300    20546870.891    84136030.655 9
        44.200
 18  2 21 10 27  0.0000000  0  8G05G07G09G13G15G20G28G30
  20496489.234   107709768.830 8        52.400    20496491.516    83929705.929 9
        43.400
  21885213.094   115007587.334 7        51.100    21885215.902    89616315.499 8
        38.100
  24339113.680   127902891.838 6        42.900    24339119.129    99664609.527 7
        26.200
  21642545.719   113732360.954 7        49.100    21642548.668    88622631.292 8
        34.600
  24199695.766   127170256.626 6        44.400    24199699.863    99093723.352 6
        22.600
  22977750.617   120748901.962 6        43.700    22977751.781    94090058.977 6
        25.300
  22652648.570   119040486.078 6        45.500    22652650.445    92758846.403 7
        28.100
  20552473.758   108003993.785 8        53.600    20552478.438    84158991.726 9
        44.300
 18  2 21 10 27 30.0000000  0  8G05G07G09G13G15G20G28G30
  20499104.039   107723511.682 8        52.700    20499106.082    83940414.637 9
        42.500
  21898350.117   115076622.728 7        51.200    21898351.836    89670109.314 8
        37.200
  24357585.531   127999951.174 6        44.400    24357590.809    99740240.022 7
        29.100
  21629070.977   113661549.138 7        49.100    21629073.668    88567453.279 8
        34.000
  24180639.383   127070118.128 6        44.300    24180643.527    99015693.318 6
        25.800
  22960624.188   120658900.480 6        43.500    22960626.586    94019927.981 7
        26.500
  22638131.750   118964198.001 6        46.100    22638133.105    92699401.203 7
        29.400
  20558172.109   108033939.094 8        53.200    20558176.750    84182325.735 9
        44.400
 18  2 21 10 28  0.0000000  0  8G05G07G09G13G15G20G28G30
  20501828.070   107737825.209 8        52.500    20501830.516    83951568.031 9
        42.500
  21911545.234   115145963.562 7        50.700    21911547.531    89724141.122 8
        37.000
  24376067.727   128097087.509 6        43.300    24376075.660    99815930.608 7
        26.800
  21615643.102   113590984.126 7        49.700    21615644.883    88512467.557 8
        34.700
  24161599.672   126970063.837 6        44.400    24161603.391    98937728.972 7
        26.200
  22943558.836   120569217.931 6        43.700    22943559.426    93950045.484 7
        26.800
  22623680.859   118888256.633 6        46.300    22623682.582    92640226.122 7
        29.600
  20563961.469   108064361.802 8        53.200    20563966.012    84206031.740 9
        44.100
 18  2 21 10 28 30.0000000  0  8G05G07G09G13G15G20G28G30
  20504660.250   107752708.835 7        51.900    20504662.824    83963165.655 9
        42.900
  21924798.266   115215607.423 7        50.800    21924800.699    89778409.056 8
        37.200
  24394568.078   128194299.963 6        42.900    24394572.926    99891680.487 6
        23.000
  21602262.539   113520666.831 7        49.000    21602264.578    88457674.863 8
        35.000
  24142577.133   126870094.847 6        45.200    24142579.613    98859831.144 6
        25.400
  22926553.063   120479856.686 6        43.400    22926554.988    93880413.364 7
        27.100
  22609295.797   118812664.426 6        46.100    22609298.938    92581323.130 7
        31.400
  20569841.422   108095260.428 8        53.500    20569845.949    84230108.589 9
        44.400
 18  2 21 10 29  0.0000000  0  8G05G07G09G13G15G20G28G30
  20507600.992   107768162.652 8        52.500    20507603.965    83975207.575 9
        43.200
  21938108.359   115285552.471 8        52.100    21938111.980    89832911.673 8
        38.100
  24413079.805   128291587.995 5        40.900    24413085.461    99967489.303 6
        22.600
  21588928.172   113450598.412 7        49.300    21588930.969    88403076.102 8
        35.700
  24123570.188   126770212.456 6        46.200    24123572.402    98782000.698 6
        25.200
  22909610.133   120390819.430 6        43.400    22909612.289    93811033.681 7
        26.500
  22594977.406   118737424.012 6        44.300    22594980.344    92522694.283 7
        29.300
  20575811.281   108126633.674 8        53.400    20575816.340    84254555.271 9
        43.700
 18  2 21 10 29 30.0000000  0  8G05G07G09G13G15G20G28G30
  20510650.094   107784186.775 7        51.800    20510653.023    83987693.906 9
        42.900
  21951475.820   115355797.214 7        51.800    21951478.629    89887647.819 8
        38.000
  24431609.133   128388950.710 6        42.800    24431613.973   100043356.318 7
        27.500
  21575642.234   113380779.716 7        48.700    21575644.852    88348671.927 8
        35.000
  24104579.469   126670417.803 6        45.500    24104582.582    98704238.650 7
        27.200
  22892729.313   120302108.588 6        43.800    22892731.195    93741908.382 7
        27.500
  22580727.125   118662537.923 6        45.300    22580729.625    92464341.539 7
        30.200
  20581871.461   108158480.154 8        52.700    20581877.016    84279370.710 9
        43.700
 18  2 21 10 30  0.0000000  0  8G05G07G09G13G15G20G28G30
  20513808.438   107800781.367 7        51.800    20513810.816    84000624.750 9
        42.700
  21964899.453   115426339.780 7        51.500    21964901.918    89942616.041 8
        37.500
  24450148.211   128486387.320 5        40.200    24450155.727   100119280.879 7
        26.200
  21562403.852   113311211.750 7        47.600    21562406.211    88294463.136 8
        35.300
  24085606.445   126570711.945 6        46.700    24085609.215    98626545.771 7
        27.700
  22875910.203   120213726.683 6        43.000    22875911.844    93673039.357 6
        25.600
  22566544.813   118588008.701 6        45.800    22566547.098    92406266.849 7
        29.700
  20588021.234   108190798.257 8        52.600    20588026.715    84304553.640 9
        44.100
 18  2 21 10 30 30.0000000  0  8G05G07G09G13G15G20G28G30
  20517074.141   107817945.501 7        51.900    20517076.547    84013999.392 9
        42.200
  21978379.695   115497178.236 7        51.200    21978381.395    89997814.819 8
        36.700
  24468706.516   128583897.157 6        44.200    24468713.535   100195262.457 7
        30.000
  21549213.586   113241895.810 7        48.700    21549215.902    88240450.721 8
        35.400
  24066650.039   126471095.541 6        45.800    24066653.379    98548922.600 7
        29.300
  22859154.922   120125676.428 6        42.500    22859157.121    93604428.816 7
        27.000
  22552431.227   118513839.193 6        46.200    22552432.473    92348472.430 7
        30.200
  20594260.859   108223586.733 8        52.700    20594266.105    84330103.090 9
        44.300
 18  2 21 10 31  0.0000000  0  8G05G07G09G13G15G20G28G30
  20520448.695   107835679.100 7        50.800    20520451.180    84027817.774 9
        42.600
  21991914.914   115568310.499 7        50.300    21991917.430    90053242.535 8
        36.900
  24487274.195   128681479.409 5        40.100    24487282.355   100271300.510 6
        25.900
  21536071.234   113172832.383 7        48.100    21536073.656    88186635.063 8
        35.600
  24047710.922   126371570.307 6        46.100    24047714.035    98471370.478 7
        27.200
  22842463.383   120037960.533 6        42.500    22842465.316    93536078.777 7
        26.800
  22538385.531   118440031.580 6        44.900    22538388.730    92290960.027 7
        31.000
  20600589.305   108256844.054 8        52.700    20600594.648    84356017.876 9
        44.100
 18  2 21 10 31 30.0000000  0  8G05G07G09G13G15G20G28G30
  20523931.906   107853982.260 7        51.300    20523934.789    84042079.958 9
        42.700
  22005506.969   115639734.697 7        51.400    22005509.730    90108897.746 8
        37.700
  24505857.352   128779133.457 6        42.600    24505863.734   100347394.465 6
        22.000
  21522976.898   113104022.640 7        48.200    21522979.898    88133017.082 8
        36.200
  24028789.508   126272137.279 6        44.900    24028793.254    98393890.223 7
        28.300
  22825835.797   119950581.450 6        43.000    22825837.148    93467991.180 7
        27.300
  22524409.719   118366588.474 6        44.700    22524412.855    92233731.666 7
        32.100
  20607007.336   108290568.841 8        53.500    20607012.223    84382296.931 9
        44.500
 18  2 21 10 32  0.0000000  0  8G05G07G09G13G15G20G28G30
  20527523.492   107872854.915 7        50.700    20527526.086    84056785.918 9
        42.500
  22019154.055   115711449.229 7        51.300    22019156.750    90164779.178 8
        37.900
  24524454.789   128876858.374 5        41.700    24524459.891   100423543.749 6
        22.500
  21509931.359   113035467.502 6        46.600    21509934.160    88079597.501 8
        35.200
  24009884.461   126172797.669 6        44.600    24009889.340    98316482.747 7
        28.300
  22809272.711   119863541.412 6        42.900    22809275.652    93400167.781 7
        28.100
  22510503.711   118293512.566 6        44.100    22510506.844    92176789.444 7
        31.000
  20613513.828   108324759.515 8        53.200    20613518.500    84408939.003 9
        44.100
 18  2 21 10 32 30.0000000  0  7G05G07G13G15G20G28G30
  20531223.078   107892296.735 7        50.900    20531225.520    84071935.379 9
        42.600
  22032855.781   115783452.189 7        51.800    22032858.066    90220885.373 8
        37.100
  21496934.344   112967168.152 6        46.500    21496937.164    88026377.236 8
        35.600
  23990999.156   126073552.419 6        44.600    23991003.168    98239148.812 7
        29.200
  22792773.914   119776843.057 5        41.600    22792777.141    93332610.653 6
        25.900
  22496668.398   118220806.156 6        44.500    22496671.027    92120135.117 7
        30.900
  20620108.031   108359414.704 8        53.500    20620112.609    84435943.047 9
        43.700
 18  2 21 10 33  0.0000000  0  7G05G07G13G15G20G28G30
  20535031.078   107912307.996 7        50.600    20535033.406    84087528.554 9
        42.400
  22046611.836   115855741.538 7        51.400    22046614.000    90277214.711 8
        37.100
  21483986.398   112899125.696 7        47.300    21483989.094    87973357.155 8
        35.500
  23972132.367   125974402.855 6        45.400    23972135.371    98161889.442 7
        26.700
  22776341.172   119690489.321 6        42.200    22776344.332    93265322.041 7
        28.100
  22482903.359   118148471.847 6        43.700    22482905.711    92063770.744 7
        29.300
  20626790.758   108394532.981 8        53.300    20626795.723    84463307.944 9
        43.900
 18  2 21 10 33 30.0000000  0  7G05G07G13G15G20G28G30
  20538946.805   107932887.897 7        50.500    20538949.672    84103564.841 9
        42.400
  22060422.211   115928315.511 8        52.200    22060424.094    90333765.856 8
        36.400
  21471087.766   112831340.970 6        46.700    21471090.625    87920537.896 8
        35.600
  23953282.664   125875350.009 6        46.000    23953286.066    98084705.427 7
        26.900
  22759974.766   119604482.309 6        42.200    22759976.832    93198303.589 7
        27.500
  22469209.758   118076512.217 6        44.800    22469212.500    92007698.303 7
        30.700
  20633561.352   108430112.873 8        52.100    20633566.277    84491032.524 9
        43.800
 18  2 21 10 34  0.0000000  0  7G05G07G13G15G20G28G30
  20542971.563   107954036.043 7        51.200    20542974.379    84120043.912 9
        42.000
  22074286.344   116001172.210 7        51.100    22074288.672    90390537.297 8
        36.300
  21458237.813   112763814.888 7        48.100    21458240.246    87867920.176 8
        35.700
  23934452.227   125776394.924 6        45.300    23934455.309    98007597.568 7
        26.100
  22743674.773   119518824.934 6        42.600    22743678.203    93131557.597 7
        27.300
  22455588.555   118004929.364 6        45.500    22455590.965    91951919.488 7
        31.900
  20640419.344   108466152.589 8        52.600    20640424.652    84519115.410 9
        44.100
 18  2 21 10 34 30.0000000  0  7G05G07G13G15G20G28G30
  20547104.203   107975752.535 7        50.900    20547106.664    84136965.834 9
        42.800
  22088204.242   116074309.761 7        51.700    22088206.691    90447527.580 8
        36.800
  21445437.773   112696548.759 7        48.000    21445439.758    87815505.006 8
        35.500
  23915640.141   125677538.915 6        44.700    23915643.645    97930566.908 7
        27.600
  22727442.188   119433519.584 6        43.000    22727444.465    93065085.897 7
        28.600
  22442038.734   117933726.201 6        45.100    22442041.926    91896436.523 7
        32.600
  20647364.797   108502650.814 8        53.200    20647370.031    84547555.579 9
        43.800
 18  2 21 10 35  0.0000000  0  7G05G07G13G15G20G28G30
  20551344.789   107998036.879 7        51.500    20551347.199    84154330.244 9
        42.700
  22102175.055   116147726.408 7        51.900    22102177.566    90504735.336 8
        37.300
  21432687.086   112629543.197 7        48.700    21432689.152    87763292.877 8
        36.300
  23896847.797   125578783.017 6        44.200    23896851.324    97853614.286 7
        27.000
  22711276.289   119348568.809 6        42.700    22711278.766    92998890.488 7
        28.400
  22428562.148   117862904.764 6        44.300    22428565.164    91841251.020 7
        32.300
  20654397.078   108539605.997 8        52.400    20654402.285    84576351.825 9
        44.000
 18  2 21 10 35 30.0000000  0  7G05G07G13G15G20G28G30
  20555693.367   108020889.005 7        51.300    20555695.977    84172137.090 9
        42.500
  22116198.602   116221420.181 7        51.700    22116201.016    90562159.031 8
        36.900
  21419985.859   112562799.640 7        49.200    21419988.016    87711284.908 8
        36.200
  23878075.258   125480128.604 6        45.400    23878078.969    97776740.748 7
        26.900
  22695178.352   119263975.128 6        42.100    22695181.340    92932973.349 7
        28.800
  22415158.430   117792467.874 6        45.800    22415161.031    91786365.166 7
        31.400
  20661516.250   108577016.733 8        53.300    20661521.758    84605503.036 9
        43.900
 18  2 21 10 36  0.0000000  0  7G05G07G13G15G20G28G30
  20560149.711   108044308.009 7        51.200    20560152.371    84190385.654 9
        42.500
  22130274.094   116295389.310 7        52.000    22130276.535    90619797.300 8
        37.200
  21407335.242   112496318.425 7        49.400    21407337.504    87659481.379 8
        36.000
  23859320.977   125381576.656 6        43.600    23859324.188    97699947.027 7
        26.400
  22679149.023   119179740.710 6        43.800    22679151.566    92867336.163 7
        27.200
  22401828.102   117722417.436 6        45.900    22401829.867    91731780.421 7
        31.800
  20668721.938   108614881.114 8        53.200    20668727.313    84635007.744 9
        44.100
 18  2 21 10 36 30.0000000  0  7G05G07G13G15G20G28G30
  20564713.570   108068293.834 7        50.900    20564716.691    84209075.897 9
        42.400
  22144401.922   116369631.876 7        51.100    22144403.930    90677648.646 8
        36.200
  21394734.344   112430101.062 7        48.300    21394736.941    87607883.449 8
        36.200
  23840586.664   125283128.578 6        43.000    23840589.965    97623234.276 7
        26.900
  22663189.055   119095868.655 6        43.400    22663191.703    92801981.330 7
        28.500
  22388572.781   117652756.504 6        46.600    22388574.762    91677499.185 7
        31.600
  20676013.352   108653198.032 8        53.700    20676018.422    84664865.086 9
        44.200
 18  2 21 10 37  0.0000000  0  7G05G07G13G15G20G28G30
  20569386.258   108092846.020 7        51.600    20569388.996    84228207.467 9
        42.200
  22158581.438   116444145.671 7        51.400    22158583.695    90735711.327 8
        36.000
  21382183.789   112364148.416 7        47.600    21382185.922    87556491.775 8
        37.200
  23821872.820   125184785.248 6        44.600    23821875.535    97546603.168 7
        26.600
  22647297.656   119012361.311 6        43.200    22647300.387    92736910.679 7
        28.500
  22375390.500   117583487.155 6        45.700    22375393.492    91623523.096 8
        33.100
  20683390.688   108691965.579 8        53.800    20683395.863    84695073.560 9
        43.800
 18  2 21 10 37 30.0000000  0  7G05G07G13G15G20G28G30
  20574166.484   108117964.219 7        51.200    20574168.609    84247780.073 9
        42.600
  22172812.430   116518929.443 8        52.100    22172814.648    90793984.377 8
        36.900
  21369684.008   112298461.667 7        48.300    21369686.367    87505307.292 8
        36.800
  23803178.648   125086548.118 6        43.800    23803181.125    97470054.736 7
        26.100
  22631477.461   118929221.124 6        43.700    22631478.711    92672126.131 7
        28.000
  22362284.125   117514612.138 7        47.300    22362287.570    91569854.280 8
        34.200
  20690853.195   108731182.411 8        53.100    20690858.055    84725632.128 9
        43.700
 18  2 21 10 38  0.0000000  0  7G05G07G13G15G20G28G30
  20579053.422   108143647.845 7        50.800    20579056.246    84267793.280 9
        42.000
  22187094.289   116593981.145 7        51.300    22187096.930    90852466.210 8
        36.700
  21357234.828   112233041.615 7        48.000    21357237.211    87454330.633 8
        36.900
  23784504.711   124988418.234 6        43.200    23784506.598    97393589.896 7
        27.000
  22615726.727   118846450.654 6        44.100    22615727.781    92607629.684 7
        27.700
  22349252.672   117446133.239 7        47.200    22349255.797    91516494.138 8
        33.600
  20698401.492   108770846.930 8        53.300    20698406.309    84756539.537 9
        43.400
 18  2 21 10 38 30.0000000  0  7G05G07G13G15G20G28G30
  20584048.258   108169896.333 8        52.100    20584051.125    84288246.637 9
        42.700
  22201426.750   116669299.124 8        52.400    22201429.641    90911155.519 8
        37.400
  21344836.813   112167889.319 7        48.500    21344839.324    87403562.621 8
        36.300
  23765851.844   124890396.676 6        44.200    23765853.965    97317209.467 6
        25.800
  22600046.203   118764052.278 6        43.600    22600048.102    92543423.135 7
        29.100
  22336297.969   117378053.203 7        47.300    22336300.043    91463444.786 7
        32.600
  20706033.969   108810957.369 8        53.200    20706038.543    84787794.417 9
        43.500
 18  2 21 10 39  0.0000000  0  7G05G07G13G15G20G28G30
  20589150.914   108196709.482 7        51.400    20589153.824    84309139.986 9
        42.400
  22215809.844   116744881.410 7        51.800    22215812.961    90970050.795 8
        37.000
  21332489.758   112103005.919 6        46.600    21332492.445    87353004.138 8
        36.900
  23747219.609   124792484.755 6        43.500    23747221.223    97240914.475 6
        23.400
  22584437.680   118682028.705 6        42.700    22584439.949    92479508.672 7
        28.900
  22323419.000   117310374.098 6        46.800    22323421.223    91410707.854 8
        33.400
  20713750.969   108851512.255 8        53.100    20713756.512    84819395.613 9
        43.500
 18  2 21 10 39 30.0000000  0  7G05G07G13G15G20G28G30
  20594360.773   108224087.067 7        51.200    20594363.461    84330473.163 9
        42.600
  22230242.523   116820725.937 7        51.700    22230245.184    91029150.405 8
        36.200
  21320194.180   112038392.471 6        46.700    21320196.973    87302656.007 8
        36.600
  23728609.664   124694683.773 6        45.900    23728610.758    97164705.950 7
        26.400
  22568900.766   118600382.468 6        43.900    22568903.910    92415888.235 7
        30.000
  22310616.797   117243098.504 7        47.800    22310619.141    91358285.319 8
        33.100
  20721552.758   108892510.145 8        53.400    20721558.363    84851342.015 9
        43.700
 18  2 21 10 40  0.0000000  0  7G05G07G13G15G20G28G30
  20599677.500   108252028.244 7        50.800    20599680.816    84352245.498 9
        42.700
  22244724.578   116896830.917 7        51.500    22244727.535    91088452.974 8
        36.100
  21307950.180   111974049.764 7        47.700    21307953.480    87252518.839 8
        37.100
  23710019.578   124596995.031 6        45.400    23710021.676    97088584.877 6
        24.900
  22553436.641   118519116.097 6        43.800    22553439.289    92352563.829 7
        29.300
  22297891.281   117176228.677 7        47.100    22297894.777    91306178.982 8
        33.100
  20729438.477   108933949.313 8        53.600    20729443.328    84883632.267 9
        44.100
 18  2 21 10 40 30.0000000  0  7G05G07G13G15G20G28G30
  20605101.680   108280532.730 7        50.900    20605104.828    84374456.761 9
        42.100
  22259256.422   116973194.400 7        51.100    22259259.250    91147956.933 8
        35.900
  21295758.117   111909978.943 7        48.600    21295760.922    87202593.527 8
        36.900
  23691451.258   124499419.591 6        45.800    23691453.492    97012552.062 6
        24.700
  22538044.977   118438232.055 6        44.400    22538047.039    92289537.297 7
        28.900
  22285243.938   117109767.027 7        47.200    22285247.043    91254390.718 8
        33.500
  20737407.852   108975828.155 8        52.900    20737412.387    84916265.127 9
        43.400
 18  2 21 10 41  0.0000000  0  8G05G07G13G15G20G21G28G30
  20610632.867   108309599.604 7        51.200    20610636.094    84397106.267 9
        41.800
  22273836.969   117049814.730 7        51.900    22273838.898    91207661.057 8
        36.900
  21283618.086   111846180.819 7        48.300    21283620.703    87152880.714 8
        37.200
  23672905.430   124401958.808 6        46.000    23672908.363    96936608.576 7
        27.900
  22522726.320   118357732.764 6        43.700    22522728.133    92226810.573 7
        29.800
  25490527.828   133953629.339 5        39.300    25490530.211   104379462.324 5
        16.900
  22272675.773   117043715.836 7        47.700    22272678.008    91202922.287 8
        33.400
  20745460.391   109018145.034 8        52.500    20745465.039    84949239.325 9
        43.600
 18  2 21 10 41 30.0000000  0  8G05G07G13G15G20G21G28G30
  20616271.438   108339228.491 7        51.300    20616274.242    84420193.697 9
        42.900
  22288465.859   117126690.215 7        50.200    22288467.703    91267564.024 8
        35.800
  21271530.055   111782656.922 7        48.600    21271532.164    87103381.577 8
        37.600
  23654381.773   124304613.610 6        45.800    23654384.934    96860755.220 7
        28.500
  22507481.336   118277620.847 6        43.500    22507484.234    92164385.705 7
        28.700
  25483197.711   133915107.714 5        39.700    25483199.984   104349445.476 6
        18.600
  22260185.227   116978077.358 7        47.900    22260187.422    91151775.421 8
        33.700
  20753595.938   109060898.317 7        52.000    20753600.891    84982553.570 9
        43.800
 18  2 21 10 42  0.0000000  0  8G05G07G13G15G20G21G28G30
  20622016.188   108369418.572 7        50.500    20622019.320    84443718.427 9
        42.300
  22303142.531   117203818.752 7        50.300    22303144.320    91327664.150 8
        35.000
  21259494.125   111719407.946 7        48.000    21259496.152    87054096.663 8
        37.300
  23635879.539   124207385.423 6        45.900    23635882.656    96784993.005 7
        27.700
  22492310.422   118197898.676 6        44.300    22492313.742    92102264.562 7
        28.900
  25475947.211   133877004.103 5        40.700    25475949.863   104319754.357 6
        19.600
  22247772.852   116912853.939 7        47.100    22247775.367    91100951.986 7
        32.600
  20761814.602   109104086.320 8        52.800    20761819.723    85016206.552 9
        43.200
 18  2 21 10 42 30.0000000  0  8G05G07G13G15G20G21G28G30
  20627867.773   108400169.538 7        51.400    20627871.262    84467680.208 9
        42.600
  22317867.453   117281198.605 7        50.400    22317869.977    91387960.132 8
        35.200
  21247510.188   111656434.542 7        49.700    21247512.828    87005026.475 8
        37.500
  23617399.695   124110275.595 6        46.400    23617403.781    96709323.024 7
        27.600
  22477214.945   118118568.524 6        44.600    22477217.691    92040448.880 7
        29.500
  25468775.023   133839319.597 4        38.600    25468778.527   104290389.831 6
        19.900
  22235440.836   116848047.527 7        48.400    22235443.637    91050453.496 8
        33.900
  20770115.219   109147707.341 8        52.400    20770120.680    85050196.948 9
        43.700
 18  2 21 10 43  0.0000000  0  8G05G07G13G15G20G21G28G30
  20633826.219   108431480.219 7        52.000    20633829.430    84492078.132 9
        42.200
  22332639.656   117358828.115 7        50.200    22332642.605    91448450.642 8
        35.800
  21235579.391   111593738.202 7        48.800    21235582.051    86956172.191 8
        38.000
  23598944.000   124013285.166 6        46.800    23598946.883    96633746.107 7
        27.900
  22462193.813   118039632.873 6        45.100    22462196.367    91978940.578 7
        30.700
  25461684.648   133802055.393 4        38.800    25461687.465   104261352.795 6
        18.600
  22223188.336   116783660.775 7        47.300    22223191.316    91000282.050 8
        34.400
  20778498.352   109191759.934 7        52.000    20778503.586    85084523.641 9
        43.800
 18  2 21 10 43 30.0000000  0  8G05G07G13G15G20G21G28G30
  20639890.836   108463350.396 7        51.000    20639893.738    84516912.020 9
        42.200
  22347459.375   117436705.248 7        50.400    22347462.844    91509134.101 8
        35.500
  21223701.758   111531320.196 7        47.700    21223704.176    86907534.790 8
        37.700
  23580510.008   123916415.441 6        46.800    23580512.781    96558263.202 7
        27.700
  22447248.297   117961094.858 6        44.300    22447251.289    91917742.113 7
        29.800
  25454673.375   133765211.966 4        37.800    25454676.105   104232643.712 6
        18.300
  22211016.000   116719695.976 6        45.800    22211019.480    90950439.376 8
        34.600
  20786963.094   109236242.332 8        52.700    20786968.129    85119185.240 9
        43.600
 18  2 21 10 44  0.0000000  0  8G05G07G13G15G20G21G28G30
  20646062.266   108495779.624 7        51.600    20646064.703    84542181.543 9
        41.600
  22362326.141   117514828.187 7        49.800    22362329.418    91570009.089 8
        35.900
  21211877.016   111469181.183 7        48.300    21211879.535    86859114.786 8
        37.900
  23562099.742   123819667.512 6        46.000    23562102.953    96482875.201 7
        28.200
  22432378.898   117882956.771 6        43.900    22432381.938    91856855.317 7
        29.400
  25447742.609   133728791.262 4        37.800    25447744.984   104204263.893 5
        17.800
  22198925.398   116656155.021 7        47.100    22198927.238    90900926.955 8
        34.400
  20795508.922   109281152.829 8        52.100    20795514.082    85154180.435 9
        43.600
 18  2 21 10 44 30.0000000  0  8G05G07G13G15G20G21G28G30
  20652339.172   108528766.539 7        51.700    20652342.141    84567885.616 9
        42.700
  22377238.742   117593195.340 7        49.000    22377241.625    91631074.380 8
        35.800
  21200105.742   111407322.189 7        49.300    21200108.070    86810912.971 8
        37.600
  23543712.461   123723042.845 6        46.100    23543716.430    96407583.285 7
        27.700
  22417587.055   117805220.488 6        44.900    22417589.184    91796281.604 7
        29.700
  25440892.211   133692793.672 4        39.000    25440894.992   104176213.835 5
        17.400
  22186914.438   116593040.296 7        47.500    22186916.508    90851746.657 8
        33.400
  20804136.422   109326489.802 8        52.500    20804141.535    85189507.932 9
        43.200
 18  2 21 10 45  0.0000000  0  8G05G07G13G15G20G21G28G30
  20658722.492   108562310.877 7        51.800    20658725.172    84594024.045 9
        41.800
  22392197.539   117671804.713 7        49.100    22392200.047    91692328.410 8
        35.400
  21188387.641   111345744.342 7        49.900    21188389.703    86762930.234 8
        38.100
  23525349.508   123626542.780 6        46.400    23525353.203    96332388.447 7
        27.800
  22402870.953   117727888.769 6        45.000    22402873.605    91736023.131 7
        30.400
  25434124.109   133657220.142 5        39.200    25434124.699   104148494.198 5
        16.900
  22174985.391   116530354.120 7        48.000    22174987.121    90802900.295 8
        33.800
  20812844.477   109372251.666 7        51.900    20812850.098    85225166.504 9
        43.400
 18  2 21 10 45 30.0000000  0  8G05G07G13G15G20G21G28G30
  20665211.680   108596411.900 8        52.300    20665214.648    84620596.258 9
        41.800
  22407202.203   117750654.443 7        48.900    22407204.805    91753769.739 8
        35.800
  21176724.016   111284448.733 7        50.300    21176726.582    86715167.419 8
        37.900
  23507009.258   123530168.439 6        46.500    23507013.551    96257291.560 7
        26.700
  22388232.961   117650964.393 6        43.800    22388234.578    91676082.046 7
        30.000
  25427434.523   133622071.729 4        37.600    25427437.844   104121105.780 5
        17.400
  22163138.969   116468098.336 7        48.200    22163140.676    90754389.311 8
        34.200
  20821633.016   109418436.588 7        51.400    20821637.594    85261154.744 9
        43.600
 18  2 21 10 46  0.0000000  0  8G05G07G13G15G20G21G28G30
  20671806.438   108631068.590 7        51.900    20671809.480    84647601.463 9
        42.400
  22422251.875   117829742.541 7        48.700    22422254.398    91815396.811 8
        35.500
  21165112.414   111223436.085 7        49.300    21165115.645    86667625.100 8
        36.900
  23488694.063   123433921.008 6        45.900    23488697.551    96182293.581 6
        25.800
  22373671.563   117574449.478 6        43.000    22373674.297    91616460.032 7
        29.300
  25420826.703   133587349.798 4        38.200    25420829.980   104094049.706 5
        17.800
  22151374.852   116406275.145 7        49.700    22151376.934    90706215.424 8
        35.200
  20830501.797   109465042.881 8        52.300    20830506.883    85297471.335 9
        42.800
 18  2 21 10 46 30.0000000  0  8G05G07G13G15G20G21G28G30
  20678507.305   108666280.228 7        51.100    20678510.172    84675039.091 9
        42.100
  22437347.359   117909067.722 7        47.900    22437349.426    91877208.610 8
        35.200
  21153556.938   111162707.618 7        49.600    21153559.902    86620304.234 8
        37.500
  23470402.727   123337801.803 6        45.200    23470407.633    96107395.520 7
        26.600
  22359190.289   117498346.649 6        43.900    22359193.395    91557159.166 7
        30.500
  25414301.930   133553054.962 5        40.300    25414303.305   104067326.520 6
        18.600
  22139692.555   116344886.963 7        48.900    22139694.805    90658380.489 8
        34.600
  20839451.000   109512069.014 7        52.000    20839455.352    85334115.064 9
        43.000
 18  2 21 10 47  0.0000000  0  8G05G07G13G15G20G21G28G30
  20685313.422   108702046.144 8        52.800    20685316.273    84702908.620 9
        42.200
  22452487.273   117988627.812 7        49.700    22452489.969    91939203.468 8
        35.400
  21142054.805   111102264.559 7        49.800    21142058.059    86573205.758 8
        38.100
  23452136.852   123241812.273 6        45.400    23452141.324    96032598.504 7
        27.200
  22344787.461   117422658.048 6        45.600    22344790.301    91498181.051 7
        30.800
  25407856.555   133519188.107 5        39.600    25407859.906   104040936.767 6
        19.000
  22128093.625   116283935.889 7        48.700    22128096.754    90610886.167 8
        34.500
  20848479.570   109559513.139 8        52.600    20848484.410    85371084.500 9
        43.300
 18  2 21 10 47 30.0000000  0  8G05G07G13G15G20G21G28G30
  20692224.719   108738365.542 7        52.000    20692227.379    84731209.439 9
        42.000
  22467671.273   118068421.024 7        50.200    22467674.129    92001379.969 8
        35.000
  21130608.016   111042107.793 7        50.800    21130610.781    86526330.361 8
        38.800
  23433895.148   123145953.579 6        45.500    23433899.363    95957903.418 7
        26.700
  22330463.891   117347386.508 6        44.600    22330466.000    91439527.918 7
        31.400
  25401493.555   133485750.297 5        40.100    25401496.555   104014881.329 6
        19.300
  22116578.477   116223423.942 7        47.900    22116580.242    90563734.034 8
        34.000
  20857586.898   109607373.625 8        53.200    20857592.008    85408378.392 9
        43.700
 18  2 21 10 48  0.0000000  0  8G05G07G13G15G20G21G28G30
  20699241.117   108775237.439 7        51.900    20699243.820    84759940.779 9
        42.100
  22482899.266   118148445.565 7        48.100    22482901.602    92063736.730 8
        34.900
  21119215.242   110982238.216 7        50.600    21119217.531    86479678.753 8
        38.700
  23415679.773   123050226.883 6        45.800    23415683.277    95883311.217 7
        27.000
  22316219.148   117272534.335 6        44.200    22316221.035    91381201.547 7
        29.200
  25395212.398   133452742.447 4        38.700    25395215.012   103989160.934 5
        17.800
  22105148.078   116163353.265 7        48.800    22105148.949    90516925.719 8
        34.100
  20866773.195   109655648.730 8        52.100    20866778.684    85445995.346 9
        43.600
 18  2 21 10 48 30.0000000  0  8G05G07G13G15G20G21G28G30
  20706362.672   108812661.206 8        52.600    20706365.551    84789102.139 9
        42.000
  22498171.313   118228699.749 7        48.300    22498174.363    92126272.439 8
        35.300
  21107877.242   110922657.288 7        51.100    21107879.578    86433252.066 8
        39.200
  23397488.953   122954633.779 6        45.500    23397492.043    95808823.094 7
        27.300
  22302056.203   117198103.939 6        45.400    22302057.586    91323203.845 7
        29.600
  25389013.109   133420165.298 4        38.900    25389015.316   103963776.139 5
        17.800
  22093801.102   116103726.206 7        48.900    22093803.289    90470463.076 8
        35.000
  20876038.383   109704336.751 8        52.300    20876043.754    85483934.050 9
        43.600
 18  2 21 10 49  0.0000000  0  8G05G07G13G15G20G21G28G30
  20713589.070   108850635.771 8        52.400    20713591.719    84818692.703 9
        42.000
  22513486.719   118309181.581 7        48.900    22513490.023    92188985.522 8
        35.400
  21096594.297   110863365.524 7        50.700    21096596.938    86387050.690 8
        38.800
  23379324.789   122859175.368 6        45.900    23379327.852    95734439.933 7
        29.100
  22287973.297   117124097.744 6        45.000    22287975.379    91265536.676 7
        31.000
  25382896.094   133388019.799 4        39.000    25382898.855   103938727.690 6
        18.600
  22082539.242   116044544.463 7        49.300    22082541.539    90424347.458 8
        35.600
  20885381.508   109753435.961 7        51.400    20885386.590    85522193.162 9
        43.400
 18  2 21 10 49 30.0000000  0  8G05G07G13G15G20G21G28G30
  20720920.258   108889160.130 8        52.800    20720922.766    84848711.672 9
        42.200
  22528844.508   118389889.420 7        49.200    22528847.996    92251874.718 8
        34.800
  21085366.563   110804364.218 7        50.600    21085368.992    86341075.653 8
        39.200
  23361184.500   122763852.950 6        45.400    23361188.250    95660162.743 7
        29.000
  22273971.242   117050518.042 6        43.400    22273974.332    91208201.849 7
        30.700
  25376861.008   133356306.861 4        38.200    25376864.570   103914016.310 6
        19.000
  22071361.859   115985810.060 7        47.800    22071365.699    90378580.413 8
        34.500
  20894803.273   109802944.501 8        52.400    20894807.539    85560771.238 9
        43.400
 18  2 21 10 50  0.0000000  0  8G05G07G13G15G20G21G28G30
  20728355.422   108928233.493 8        53.200    20728357.863    84879158.435 9
        42.500
  22544245.133   118470821.473 7        48.000    22544248.398    92314938.625 8
        34.000
  21074194.742   110745654.281 7        51.100    21074196.844    86295327.655 8
        38.900
  23343070.539   122668667.667 6        44.700    23343075.563    95585992.387 7
        28.200
  22260051.109   116977367.287 6        43.500    22260055.086    91151201.290 7
        30.900
  25370908.672   133325027.241 4        38.700    25370911.797   103889642.597 6
        18.300
  22060271.320   115927525.369 7        48.800    22060273.719    90333163.810 8
        35.100
  20904301.469   109852860.714 8        52.200    20904306.902    85599666.982 9
        43.300
 18  2 21 10 50 30.0000000  0  8G05G07G13G15G20G21G28G30
  20735895.063   108967854.840 8        52.700    20735897.781    84910032.193 9
        42.400
  22559689.188   118551976.139 7        48.300    22559691.375    92378175.993 8
        34.600
  21063077.836   110687236.849 7        50.500    21063080.453    86249807.574 8
        38.400
  23324984.555   122573620.890 6        44.600    23324988.992    95511929.994 7
        28.100
  22246212.719   116904647.916 6        44.500    22246216.180    91094536.862 7
        31.800
  25365039.188   133294181.987 4        38.100    25365041.891   103865607.375 6
        19.000
  22049265.977   115869692.423 7        48.900    22049269.098    90288099.200 8
        35.400
  20913877.953   109903182.866 7        51.800    20913883.188    85638879.049 9
        43.000
 18  2 21 10 51  0.0000000  0  8G05G07G13G15G20G21G28G30
  20743538.852   109008023.568 8        52.100    20743541.516    84941332.491 9
        42.200
  22575174.344   118633351.422 7        48.500    22575176.773    92441585.296 8
        34.500
  21052017.547   110629112.978 7        50.700    21052019.594    86204516.257 8
        39.100
  23306924.273   122478714.071 6        44.700    23306928.828    95437976.650 7
        28.200
  22232458.109   116832362.196 6        44.600    22232459.609    91038210.351 7
        30.800
  25359251.398   133263771.704 4        38.200    25359255.438   103841911.049 6
        18.300
  22038346.938   115812312.921 7        48.700    22038349.137    90243387.926 8
        34.200
  20923530.516   109953909.190 7        51.400    20923536.051    85678406.041 9
        43.200
 18  2 21 10 51 30.0000000  0  8G05G07G13G15G20G21G28G30
  20751286.727   109048738.323 8        52.100    20751289.652    84973058.264 9
        42.400
  22590700.906   118714945.556 7        48.700    22590703.750    92505165.100 8
        34.600
  21041012.273   110571283.548 7        49.600    21041015.215    86159454.355 8
        38.700
  23288890.141   122383948.327 6        43.800    23288894.535    95364133.223 7
        27.500
  22218785.242   116760512.674 6        44.800    22218787.168    90982223.693 7
        31.000
  25353548.328   133233797.411 4        38.800    25353551.805   103818554.463 6
        19.000
  22027514.523   115755389.000 7        48.600    22027517.434    90199031.638 8
        34.900
  20933259.891   110005038.016 7        52.000    20933264.949    85718246.665 9
        42.900
 18  2 21 10 52  0.0000000  0  8G05G07G13G15G20G21G28G30
  20759138.375   109089997.878 8        52.400    20759141.633    85005208.552 9
        42.600
  22606269.438   118796756.727 7        49.500    22606271.945    92568914.047 8
        35.000
  21030064.492   110513749.932 7        50.100    21030066.789    86114622.970 8
        39.200
  23270884.164   122289325.356 6        43.200    23270889.191    95290401.082 7
        29.200
  22205195.898   116689101.761 6        43.600    22205197.840    90926578.852 7
        30.400
  25347927.883   133204259.632 5        39.400    25347930.848   103795538.025 5
        17.800
  22016769.141   115698922.654 7        48.600    22016772.539    90155031.903 8
        35.400
  20943065.984   110056567.635 8        52.700    20943071.055    85758399.607 9
        42.900
 18  2 21 10 52 30.0000000  0  8G05G07G13G15G20G21G28G30
  20767093.234   109131801.583 8        52.500    20767095.996    85037782.858 9
        42.600
  22621878.375   118878783.255 7        49.000    22621880.637    92632830.798 8
        33.400
  21019172.844   110456513.027 7        49.400    21019175.379    86070022.790 8
        38.800
  23252906.141   122194846.410 6        43.700    23252909.762    95216781.149 7
        27.900
  22191690.734   116618131.851 6        44.100    22191693.426    90871277.635 7
        31.200
  25342390.609   133175159.145 4        38.500    25342392.875   103772862.356 6
        19.300
  22006111.313   115642916.012 6        46.000    22006114.695    90111390.394 8
        35.000
  20952947.469   110108496.162 8        52.800    20952952.387    85798863.385 9
        43.200
 18  2 21 10 53  0.0000000  0  8G05G07G13G15G20G21G28G30
  20775151.664   109174147.987 8        53.000    20775153.965    85070780.041 9
        42.800
  22637528.195   118961023.377 7        48.300    22637529.813    92696913.988 8
        34.400
  21008337.547   110399573.659 7        50.300    21008340.012    86025654.445 8
        39.500
  23234955.094   122100512.398 6        44.200    23234958.125    95143274.146 7
        28.300
  22178270.633   116547604.895 6        43.800    22178272.625    90816321.571 7
        31.300
  25336935.352   133146496.888 3        36.800    25336938.516   103750528.161 5
        16.900
  21995541.922   115587370.795 7        48.300    21995544.656    90068108.445 8
        35.800
  20962904.836   110160821.611 8        52.300    20962909.695    85839636.463 9
        43.700
 18  2 21 10 53 30.0000000  0  8G05G07G13G15G20G21G28G30
  20783313.016   109217036.807 8        52.100    20783315.832    85104199.891 9
        42.400
  22653218.031   119043475.420 7        48.100    22653220.031    92761162.328 8
        34.400
  20997559.086   110342933.507 7        49.300    20997561.910    85981519.271 8
        38.900
  23217031.938   122006325.134 6        43.800    23217035.328    95069881.506 7
        28.900
  22164934.703   116477523.362 6        43.900    22164937.430    90761712.582 7
        32.100
  25331563.766   133118273.388 4        37.100    25331567.344   103728535.832 6
        18.600
  21985059.953   115532289.353 7        48.000    21985063.242    90025187.866 8
        35.500
  20972937.109   110213542.783 7        51.700    20972942.133    85880717.881 9
        43.200
 18  2 21 10 54  0.0000000  0  8G05G07G13G15G20G21G28G30
  20791577.336   109260466.580 7        51.500    20791580.160    85138041.253 9
        41.800
  22668948.203   119126137.463 7        48.300    22668951.219    92825574.278 8
        33.600
  20986837.836   110286592.955 7        49.500    20986840.441    85937617.535 8
        38.600
  23199136.203   121912285.868 6        44.300    23199138.906    94996604.167 7
        28.300
  22151682.914   116407890.359 6        42.900    22151685.488    90707453.117 7
        31.200
  25326278.328   133090489.503 5        39.600    25326281.078   103706886.076 6
        18.300
  21974666.859   115477673.134 7        48.600    21974669.637    89982629.796 8
        34.900
  20983044.734   110266657.572 7        51.300    20983049.465    85922106.025 9
        42.900
 18  2 21 10 54 30.0000000  0  8G05G07G13G15G20G21G28G30
  20799944.383   109304436.013 7        51.900    20799947.398    85172303.130 9
        41.600
  22684717.922   119209007.614 7        48.300    22684721.168    92890148.388 8
        34.400
  20976173.945   110230553.056 7        50.800    20976176.266    85893950.096 8
        38.800
  23181269.813   121818395.773 6        43.900    23181273.359    94923443.085 7
        29.300
  22138518.266   116338707.532 6        43.800    22138520.336    90653544.427 7
        30.600
  25321074.813   133063146.101 4        39.000    25321077.281   103685579.508 5
        17.400
  21964362.156   115423524.030 7        48.500    21964364.707    89940435.707 8
        34.600
  20993226.570   110320164.112 7        51.200    20993231.328    85963799.419 9
        42.600
 18  2 21 10 55  0.0000000  0  8G05G07G13G15G20G21G28G30
  20808413.984   109348944.781 8        52.100    20808417.598    85206985.272 9
        42.400
  22700526.906   119292084.228 7        47.900    22700529.875    92954883.369 8
        34.000
  20965566.828   110174815.065 7        50.000    20965569.723    85850517.908 8
        38.700
  23163431.250   121724656.256 6        43.300    23163435.090    94850399.326 7
        30.400
  22125439.492   116269977.227 6        44.100    22125441.156    90599988.347 7
        31.400
  25315955.617   133036243.687 5        40.600    25315958.195   103664616.622 6
        19.600
  21954148.008   115369844.182 7        48.700    21954150.371    89898607.280 8
        34.600
  21003482.633   110374060.707 7        51.500    21003487.680    86005796.764 9
        42.900
 18  2 21 10 55 30.0000000  0  8G05G07G13G15G20G21G28G30
  20816986.180   109393991.257 8        52.800    20816989.086    85242086.403 9
        42.000
  22716375.477   119375366.150 7        49.000    22716377.777    93019778.383 8
        34.000
  20955018.594   110119380.888 7        49.500    20955021.176    85807322.446 8
        38.200
  23145622.609   121631069.105 6        43.800    23145624.441    94777474.297 7
        29.200
  22112446.992   116201702.154 6        44.700    22112449.570    90546787.001 7
        31.900
  25310919.500   133009783.366 4        38.400    25310923.492   103643998.232 6
        19.900
  21944022.563   115316636.107 7        49.100    21944025.543    89857146.457 8
        35.400
  21013812.891   110428346.132 7        51.700    21013818.578    86048097.086 9
        43.000
 18  2 21 10 56  0.0000000  0  8G05G07G13G15G20G21G28G30
  20825660.477   109439574.401 7        52.000    20825663.227    85277605.713 9
        41.700
  22732261.445   119458851.275 6        47.000    22732264.875    93084831.706 8
        33.700
  20944527.727   110064250.556 7        49.900    20944530.180    85764363.759 8
        39.100
  23127842.305   121537635.120 6        44.800    23127845.410    94704668.616 7
        29.300
  22099541.844   116133884.322 6        44.300    22099544.262    90493941.948 7
        31.500
  25305969.688   132983765.414 5        40.200    25305972.207   103623724.517 6
        19.900
  21933987.508   115263900.909 7        48.600    21933989.910    89816054.125 8
        35.200
  21024216.492   110483018.053 7        50.400    21024221.957    86090698.562 9
        42.900
 18  2 21 10 56 30.0000000  0  8G05G07G13G15G20G21G28G30
  20834436.508   109485692.841 7        51.900    20834439.305    85313542.146 9
        41.400
  22748186.789   119542537.844 7        47.700    22748189.539    93150041.994 8
        33.300
  20934094.766   110009425.314 7        50.000    20934097.770    85721642.793 8
        38.400
  23110092.234   121444355.927 6        44.900    23110095.254    94631983.540 7
        30.200
  22086723.477   116066525.824 6        43.900    22086727.371    90441454.831 7
        31.800
  25301103.008   132958189.987 5        40.000    25301105.320   103603795.612 6
        20.900
  21924042.563   115211640.633 7        48.400    21924045.039    89775331.850 8
        35.200
  21034693.391   110538074.722 7        52.000    21034698.504    86133599.851 9
        42.600
 18  2 21 10 57  0.0000000  0  8G05G07G13G15G20G21G28G30
  20843314.336   109532344.490 8        52.900    20843317.070    85349894.066 9
        41.500
  22764149.531   119626423.611 7        48.700    22764151.930    93215407.517 8
        33.200
  20923720.430   109954905.917 7        50.400    20923722.621    85679160.161 8
        39.900
  23092371.430   121351232.604 6        44.600    23092374.082    94559419.941 7
        30.000
  22073993.875   115999628.903 6        45.000    22073996.043    90389327.382 7
        31.600
  25296320.023   132933058.526 5        39.400    25296322.391   103584212.681 6
        19.600
  21914188.523   115159856.413 7        47.700    21914190.285    89734980.524 8
        35.000
  21045243.555   110593514.032 8        52.300    21045248.203    86176799.310 9
        42.900
 18  2 21 10 57 30.0000000  0  8G05G07G13G15G20G21G28G30
  20852292.539   109579529.045 8        52.800    20852296.027    85386661.231 9
        41.100
  22780149.742   119710507.273 7        48.700    22780153.555    93280927.216 8
        33.400
  20913403.883   109900693.706 7        49.400    20913406.398    85636916.889 8
        39.200
  23074680.695   121258266.446 6        44.600    23074683.258    94486978.791 7
        30.400
  22061351.695   115933196.112 6        43.600    22061353.820    90337561.564 7
        31.400
  25291622.648   132908371.168 4        38.800    25291623.949   103564975.808 5
        17.800
  21904424.914   115108550.587 6        45.900    21904427.000    89695001.989 8
        34.800
  21055865.367   110649334.480 7        51.700    21055870.340    86220295.752 9
        43.200
 18  2 21 10 58  0.0000000  0  8G05G07G13G15G20G21G28G30
  20861372.836   109627245.579 7        51.700    20861375.898    85423842.913 9
        41.400
  22796188.328   119794787.075 7        48.500    22796191.332    93346599.748 8
        34.000
  20903146.109   109846789.689 7        50.900    20903148.941    85594913.761 8
        39.700
  23057019.688   121165459.074 6        44.400    23057022.879    94414661.391 7
        30.500
  22048798.680   115867229.774 6        44.600    22048801.141    90286159.216 7
        31.900
  25287008.555   132884128.566 4        38.400    25287010.523   103546085.473 5
        17.800
  21894753.055   115057724.878 7        48.600    21894754.770    89655397.546 8
        34.800
  21066559.969   110705534.201 7        51.300    21066565.477    86264087.732 9
        42.500
 18  2 21 10 58 30.0000000  0  8G05G07G13G15G20G21G28G30
  20870554.125   109675492.611 8        52.500    20870557.363    85461437.968 9
        41.100
  22812262.406   119879261.432 7        47.300    22812265.395    93412423.896 7
        32.700
  20892947.320   109793195.254 7        50.900    20892950.246    85553151.862 8
        39.200
  23039389.594   121072812.096 6        44.900    23039393.324    94342468.947 7
        31.300
  22036335.227   115801732.266 6        44.200    22036337.547    90235122.177 7
        31.900
  25282481.102   132860330.889 5        41.100    25282481.398   103527541.841 5
        16.900
  21885173.305   115007381.421 7        49.200    21885176.133    89616168.896 8
        34.700
  21077326.766   110762111.600 8        52.100    21077332.070    86308174.003 9
        42.600
 18  2 21 10 59  0.0000000  0  8G05G07G13G15G20G21G28G30
  20879836.242   109724269.160 8        52.600    20879839.270    85499445.671 9
        41.800
  22828374.844   119963928.938 6        46.600    22828376.844    93478398.565 7
        32.000
  20882807.828   109739911.425 7        50.700    20882810.727    85511632.000 8
        39.000
  23021790.211   120980327.049 6        45.200    23021793.582    94270402.706 7
        31.800
  22023960.523   115736705.628 6        43.700    22023963.734    90184452.103 7
        31.500
  25278036.875   132836980.139 4        38.300    25278038.996   103509346.431 5
        16.900
  21875685.367   114957521.927 7        48.200    21875687.590    89577317.355 8
        35.100
  21088164.563   110819064.984 7        51.600    21088169.438    86352553.265 9
        43.200
 18  2 21 10 59 30.0000000  0  8G05G07G13G15G20G21G28G30
  20889218.695   109773573.468 8        53.600    20889221.203    85537864.611 9
        41.700
  22844523.000   120048787.447 7        47.900    22844525.598    93544522.059 7
        32.800
  20872727.117   109686939.131 7        50.200    20872729.977    85470354.896 8
        39.000
  23004221.703   120888005.254 6        44.900    23004226.008    94198463.669 7
        32.500
  22011677.102   115672152.455 6        45.400    22011680.008    90134150.951 7
        31.900
  25273677.961   132814075.512 4        38.800    25273680.230   103491498.666 5
        17.800
  21866289.609   114908147.809 7        48.400    21866292.602    89538844.037 8
        34.900
  21099073.422   110876392.472 7        51.200    21099078.910    86397224.025 9
        42.400
                            4  1
RINEX FILE SPLICE; other post-header comments skipped       COMMENT
 18  2 21 11  0  0.0000000  0  8G05G07G13G15G20G21G28G30
  20898701.070   109823403.982 8        52.700    20898704.148    85576693.567 9
        42.400
  22860706.844   120133834.900 7        48.800    22860710.215    93610792.767 7
        32.700
  20862706.813   109634279.056 7        50.200    20862709.641    85429321.079 8
        39.800
  22986684.469   120795847.311 6        44.300    22986687.914    94126652.302 7
        31.400
  21999483.195   115608074.357 6        44.900    21999485.617    90084219.978 7
        32.500
  25269403.406   132791617.837 3        36.600    25269407.309   103473999.145 5
        17.400
  21856986.688   114859260.821 7        48.600    21856989.531    89500750.294 8
        35.600
  21110052.672   110934091.701 7        51.000    21110058.328    86442184.440 9
        42.100
 18  2 21 11  0 30.0000000  0  8G05G07G13G15G20G21G28G30
  20908283.227   109873759.810 8        52.900    20908286.273    85615931.860 9
        42.200
  22876926.820   120219069.798 6        47.000    22876929.602    93677209.542 7
        33.000
  20852745.555   109581932.334 7        49.300    20852748.406    85388531.429 8
        38.900
  22969179.359   120703855.078 6        45.300    22969183.066    94054970.061 7
        31.700
  21987380.539   115544473.829 6        44.400    21987383.004    90034661.124 7
        32.600
  25265215.625   132769608.105 4        37.500    25265217.684   103456848.740 5
        17.800
  21847776.922   114810862.597 7        47.500    21847779.391    89463037.412 8
        35.100
  21121103.063   110992161.198 7        50.000    21121108.465    86487433.378 9
        42.200
 18  2 21 11  1  0.0000000  0  8G05G07G13G15G20G21G28G30
  20917965.852   109924639.098 8        53.400    20917968.043    85655578.045 9
        41.900
  22893180.781   120304490.427 6        46.800    22893184.039    93743771.046 7
        33.000
  20842843.906   109529899.669 7        49.200    20842846.879    85347986.504 8
        39.000
  22951705.461   120612029.845 6        45.700    22951708.586    93983417.966 7
        31.400
  21975369.156   115481352.794 6        44.900    21975371.289    89985475.916 7
        31.900
  25261112.742   132748046.041 4        38.400    25261113.848   103440047.168 6
        18.300
  21838660.383   114762954.701 7        48.700    21838662.672    89425706.592 8
        34.900
  21132224.195   111050598.796 7        50.800    21132228.797    86532969.168 9
        42.100
 18  2 21 11  1 30.0000000  0  8G05G07G13G15G20G21G28G30
  20927747.016   109976041.211 8        53.400    20927749.977    85695631.624 9
        41.700
  22909471.586   120390095.572 6        46.500    22909474.371    93810476.332 7
        32.800
  20833002.664   109478183.021 7        49.800    20833005.516    85307687.823 8
        38.700
  22934263.969   120520373.272 6        45.600    22934267.219    93911997.269 7
        32.700
  21963448.797   115418713.786 6        44.000    21963451.410    89936666.299 7
        32.400
  25257094.109   132726932.229 3        37.000    25257096.656   103423594.815 5
        17.800
  21829637.719   114715538.932 7        49.700    21829640.082    89388759.250 8
        36.100
  21143413.984   111109403.171 7        50.900    21143418.656    86578790.757 9
        42.300
 18  2 21 11  2  0.0000000  0  8G05G07G13G15G20G21G28G30
  20937627.664   110027964.304 8        53.300    20937630.746    85736091.148 9
        41.600
  22925796.727   120475883.096 7        47.200    22925799.801    93877323.726 8
        33.100
  20823221.625   109426782.770 7        50.000    20823223.918    85267635.685 8
        39.300
  22916854.570   120428886.556 6        46.200    22916857.184    93840708.962 7
        32.500
  21951621.164   115356558.593 6        44.100    21951623.395    89888233.672 7
        32.100
  25253161.914   132706267.117 4        37.600    25253164.465   103407492.154 5
        17.400
  21820708.547   114668616.929 7        48.600    21820711.352    89352196.636 8
        36.200
  21154673.289   111168572.173 7        51.200    21154678.230    86624896.469 9
        42.000
 18  2 21 11  2 30.0000000  0  8G05G07G13G15G20G21G28G30
  20947606.891   110080407.189 7        51.200    20947610.234    85776955.718 9
        41.900
  22942155.688   120561851.395 6        46.000    22942158.688    93944311.985 8
        33.100
  20813501.156   109375700.208 7        50.000    20813503.363    85227831.087 8
        39.400
  22899477.617   120337571.054 6        45.000    22899481.109    93769554.030 7
        32.900
  21939886.250   115294889.072 6        45.300    21939888.051    89840179.519 7
        31.600
  25249314.539   132686051.706 4        37.300    25249318.250   103391739.909 6
        18.300
  21811873.797   114622190.309 7        48.800    21811877.070    89316020.075 8
        35.700
  21166001.773   111228104.093 7        51.300    21166007.375    86671284.961 9
        42.700
 18  2 21 11  3  0.0000000  0  8G05G07G13G15G20G21G28G30
  20957685.234   110133368.570 7        51.500    20957688.309    85818224.302 9
        41.400
  22958548.570   120647998.719 6        45.800    22958551.363    94011439.741 7
        32.500
  20803841.164   109324936.146 7        50.200    20803843.059    85188274.676 8
        38.900
  22882133.852   120246428.123 6        45.500    22882137.270    93698533.593 7
        32.700
  21928243.391   115233708.258 6        46.000    21928245.824    89792506.154 7
        32.800
  25245553.773   132666285.880 4        38.400    25245556.730   103376337.941 6
        19.000
  21803133.211   114576260.685 7        48.600    21803136.496    89280230.773 8
        35.500
  21177399.320   111287996.974 7        51.100    21177404.785    86717954.721 9
        42.600
 18  2 21 11  3 30.0000000  0  8G05G07G13G15G20G21G28G30
  20967862.164   110186846.836 8        52.300    20967864.996    85859895.655 9
        41.900
  22974975.875   120734323.452 6        46.500    22974978.773    94078705.737 7
        32.100
  20794241.422   109274492.060 7        49.700    20794243.988    85148967.597 8
        39.300
  22864822.852   120155459.788 6        46.000    22864826.668    93627649.218 8
        33.300
  21916695.523   115173018.573 6        46.300    21916697.313    89745215.492 7
        32.700
  25241878.156   132646969.998 4        38.400    25241880.488   103361286.591 6
        18.300
  21794488.000   114530829.571 7        48.100    21794491.285    89244829.926 8
        35.700
  21188864.641   111348249.198 7        51.400    21188870.262    86764904.493 9
        42.400
 18  2 21 11  4  0.0000000  0  8G05G07G13G15G20G21G28G30
  20978136.289   110240840.345 7        52.000    20978139.211    85901968.492 9
        41.700
  22991437.297   120820823.911 6        47.000    22991439.648    94146108.658 7
        32.800
  20784703.664   109224368.995 7        51.100    20784705.637    85109910.667 8
        39.000
  22847545.813   120064667.185 6        46.100    22847549.855    93556901.751 8
        33.600
  21905239.930   115112821.461 6        45.800    21905242.129    89698308.662 7
        33.000
  25238288.664   132628104.772 4        38.900    25238290.473   103346586.401 6
        19.300
  21785938.617   114485898.893 7        48.600    21785940.414    89209819.026 8
        35.700
  21200398.344   111408858.959 7        51.500    21200403.559    86812132.875 9
        42.000
 18  2 21 11  4 30.0000000  0  8G05G07G13G15G20G21G28G30
  20988509.344   110295347.680 8        52.200    20988512.035    85944441.726 9
        41.600
  23007929.961   120907498.349 6        46.000    23007932.480    94213647.152 7
        31.600
  20775226.445   109174567.547 7        50.400    20775228.652    85071104.339 8
        39.500
  22830302.219   119974051.456 6        45.900    22830305.645    93486292.118 8
        33.200
  21893878.211   115053119.020 6        45.200    21893880.680    89651787.288 7
        32.600
  25234784.539   132609690.572 5        39.300    25234786.941   103332237.662 6
        19.000
  21777483.828   114441469.836 7        48.800    21777486.059    89175198.986 8
        35.700
  21212000.023   111469824.236 7        51.400    21212005.133    86859638.279 9
        42.100
 18  2 21 11  5  0.0000000  0  8G05G07G13G15G20G21G28G30
  20998978.867   110350367.414 8        52.400    20998981.727    85987314.228 9
        41.600
  23024456.977   120994345.171 7        47.300    23024458.727    94281319.983 7
        31.900
  20765811.531   109125088.977 7        51.100    20765813.398    85032549.609 8
        38.900
  22813092.922   119883614.292 6        46.800    22813095.707    93415821.619 8
        34.100
  21882612.281   114993913.784 6        45.500    21882614.414    89605653.342 7
        33.000
  25231365.352   132591727.407 4        37.400    25231368.691   103318240.417 5
        17.800
  21769124.914   114397543.962 7        49.200    21769126.762    89140971.044 8
        35.400
  21223668.398   111531143.247 7        51.100    21223674.004    86907419.316 9
        41.700
