     2.11           OBSERVATION DATA    M (MIXED)           RINEX VERSION / TYPE
teqc  2017Sep15                         20180326 12:33:02UTCPGM / RUN BY / DATE
                                                            OBSERVER / AGENCY
BASS                                                        MARKER NAME
BASS                                                        MARKER NUMBER
471773              LEICA GX1230GG      8.10                REC # / TYPE / VERS
                    LEIAX1202GG                             ANT # / TYPE
  4206230.7094   171067.7112  4775622.1124                  APPROX POSITION XYZ
        1.7260        0.0000        0.0000                  ANTENNA: DELTA H/E/N
Linux 2.4.21-27.ELsmp|Opteron|gcc -static|Linux 64|=+       COMMENT
     2              OBSERVATION DATA    M                   COMMENT
LEICA GEO OFFICE 7.0                    26-3-18 13:33       COMMENT
L1PhaOff:   0.0644  L2PhaOff:   0.0640                      COMMENT
     1     1                                                WAVELENGTH FACT L1/2
     4    C1    P2    L1    L2                              # / TYPES OF OBSERV
    18                                                      LEAP SECONDS
          C1    L1    D1    P2    L2    D2                  COMMENT
teqc edited: all GLONASS satellites excluded                COMMENT
  2018     3    26     6    48    0.0000000     GPS         TIME OF FIRST OBS
                                                            END OF HEADER
 18  3 26  6 48  0.0000000  0  6G02G09G07G05G06G30
  22123896.760    22123893.840   116261862.54748  90593643.04747
  21552856.160    21552857.480   113261021.17949  88255347.20048
  20739126.100    20739124.520   108984843.89449  84923247.04548
  21534310.320    21534309.240   113163565.85849  88179396.99847
  23300205.440    23300207.660   122443406.48348  95410454.47246
  21005308.560    21005309.260   110383640.56049  86013228.96348
 18  3 26  6 48 30.0000000  0  6G02G09G07G05G06G30
  22132017.580    22132014.480   116304537.28548  90626896.07747
  21566345.180    21566346.560   113331907.32249  88310583.14748
  20738403.900    20738402.660   108981049.72549  84920290.55348
  21521039.320    21521038.400   113093826.88649  88125054.97147
  23320244.400    23320246.880   122548712.35448  95492510.98146
  20994078.840    20994079.560   110324627.85249  85967245.04148
 18  3 26  6 49  0.0000000  0  6G02G09G07G05G06G30
  22140232.300    22140229.160   116347705.39448  90660533.55647
  21579877.760    21579878.900   113403021.12349  88365996.47448
  20737782.220    20737780.960   108977782.73249  84917744.84448
  21507834.760    21507833.800   113024436.16949  88070984.27447
  23340317.480    23340319.860   122654196.79948  95574706.61146
  20982940.620    20982941.440   110266096.38649  85921636.13048
 18  3 26  6 49 30.0000000  0  6G02G09G07G05G06G30
  22148536.840    22148533.620   116391345.54948  90694538.84447
  21593449.680    21593450.580   113474341.22549  88421570.56148
  20737257.060    20737255.520   108975022.41249  84915593.93148
  21494693.080    21494691.920   112955375.48049  88017170.74848
  23360420.200    23360422.420   122759836.68048  95657023.33646
  20971890.380    20971891.360   110208027.44649  85876387.59848
 18  3 26  6 50  0.0000000  0  6G02G09G07G05G06G30
  22156936.120    22156932.920   116435483.79848  90728932.22747
  21607065.880    21607066.900   113545894.53149  88477326.39048
  20736833.480    20736831.720   108972796.05549  84913859.10448
  21481619.800    21481618.480   112886674.58149  87963637.58448
  23380557.120    23380559.320   122865656.95147  95739480.65546
  20960933.680    20960934.840   110150450.31149  85831522.30248
 18  3 26  6 50 30.0000000  0  6G02G09G07G05G06G30
  22165427.160    22165423.940   116480104.73848  90763701.78247
  21620723.680    21620724.840   113617666.35049  88533252.45248
  20736508.800    20736506.940   108971089.64849  84912529.44648
  21468612.780    21468611.360   112818321.76749  87910375.66548
  23400725.200    23400727.500   122971641.08748  95822065.68845
  20950068.260    20950069.520   110093352.72149  85787030.69348
 18  3 26  6 51  0.0000000  0  6G02G09G07G05G06G30
  22174010.700    22174007.640   116525212.74848  90798850.87147
  21634424.040    21634425.100   113689661.47949  88589352.52448
  20736284.220    20736282.420   108969909.05549  84911609.50948
  21455673.520    21455672.060   112750325.18249  87857391.30748
  23420924.980    23420927.480   123077791.87348  95904780.57446
  20939295.500    20939296.860   110036741.90649  85742918.37748
 18  3 26  6 51 30.0000000  0  6G02G09G07G05G06G30
  22182686.600    22182683.520   116570805.54948  90834377.72547
  21648166.560    21648167.620   113761878.51749  88645625.54948
  20736159.500    20736157.820   108969253.30049  84911098.52748
  21442802.380    21442800.920   112682686.77149  87804686.05048
  23441155.920    23441158.380   123184106.08948  95987622.81246
  20928615.640    20928617.080   109980618.95249  85699186.20948
 18  3 26  6 52  0.0000000  0  6G02G09G07G05G06G30
  22191454.160    22191450.960   116616879.01748  90870279.10847
  21661950.640    21661951.960   113834314.14749  88702068.85448
  20736134.180    20736132.620   108969119.80949  84910994.50448
  21429999.360    21429997.820   112615406.08549  87752259.52948
  23461417.160    23461419.520   123290578.50748  96070588.30447
  20918028.500    20918029.940   109924982.81249  85655833.38948
 18  3 26  6 52 30.0000000  0  6G02G09G07G05G06G30
  22200313.260    22200310.000   116663433.69748  90906555.43947
  21675776.460    21675777.860   113906969.43249  88758683.34548
  20736208.440    20736206.920   108969510.11949  84911298.64248
  21417265.200    21417263.600   112548487.40149  87700115.10647
  23481708.240    23481710.600   123397208.31348  96153676.40547
  20907534.760    20907536.080   109869837.02449  85612862.64748
 18  3 26  6 53  0.0000000  0  6G02G09G07G05G06G30
  22209263.400    22209259.940   116710466.20248  90943204.15247
  21689643.380    21689644.480   113979841.36649  88815466.67048
  20736381.860    20736380.420   108970421.88049  84912009.11648
  21404599.840    21404598.200   112481930.48049  87648252.56047
  23502028.220    23502030.740   123503990.66047  96236883.35147
  20897134.120    20897135.320   109815180.91149  85570273.48748
 18  3 26  6 53 30.0000000  0  6G02G09G07G05G06G30
  22218303.820    22218300.020   116757973.14648  90980222.54746
  21703551.100    21703551.980   114052927.55149  88872416.89948
  20736654.180    20736652.840   108971853.29949  84913124.53248
  21392003.560    21392001.940   112415736.38749  87596672.74848
  23522376.340    23522379.040   123610921.12847  96320205.72646
  20886826.540    20886827.700   109761014.36749  85528065.78648
 18  3 26  6 54  0.0000000  0  6G02G09G07G05G06G30
  22227434.160    22227430.220   116805952.81348  91017609.28847
  21717499.640    21717500.760   114126227.30049  88929533.57148
  20737025.360    20737024.140   108973804.16649  84914644.69648
  21379476.660    21379475.140   112349906.85049  87545376.99847
  23542752.300    23542754.860   123717997.21648  96403641.56546
  20876612.400    20876613.640   109707339.04649  85486240.88148
 18  3 26  6 54 30.0000000  0  6G02G09G07G05G06G30
  22236655.360    22236651.400   116854409.78948  91055367.93147
  21731489.760    21731491.160   114199745.72949  88986820.64848
  20737496.500    20737495.460   108976280.23649  84916574.09748
  21367020.780    21367019.280   112284450.71449  87494372.23147
  23563156.440    23563159.120   123825222.06647  96487193.35946
  20866493.220    20866494.480   109654162.37049  85444804.51748
 18  3 26  6 55  0.0000000  0  6G02G09G07G05G06G30
  22245965.520    22245961.480   116903334.79249  91093491.31247
  21745519.860    21745521.020   114273474.31649  89044271.49948
  20738066.080    20738065.220   108979273.69149  84918906.65548
  21354635.020    21354633.460   112219362.89349  87443654.44047
  23583586.820    23583589.680   123932585.32648  96570852.99946
  20856467.720    20856468.920   109601478.12549  85403751.86248
 18  3 26  6 55 30.0000000  0  6G02G09G07G05G06G30
  22255365.780    22255361.820   116952732.76749  91131983.23047
  21759591.060    21759591.920   114347418.82649  89101890.58448
  20738735.240    20738734.420   108982790.39749  84921646.94848
  21342320.860    21342319.200   112154651.61949  87393230.07548
  23604044.260    23604047.320   124040090.80748  96654623.47646
  20846537.480    20846538.600   109549294.28349  85363089.15948
 18  3 26  6 56  0.0000000  0  6G02G09G07G05G06G30
  22264854.220    22264850.320   117002593.95249  91170836.06947
  21773701.640    21773702.640   114421570.58249  89159671.15448
  20739502.440    20739501.600   108986822.32149  84924788.70448
  21330077.340    21330075.660   112090311.36949  87343094.82648
  23624527.020    23624529.920   124147727.90248  96738496.52045
  20836701.260    20836702.360   109497604.40349  85322811.33748
 18  3 26  6 56 30.0000000  0  6G02G09G07G05G06G30
  22274431.440    22274427.440   117052921.97848  91210052.68447
  21787852.420    21787853.900   114495934.10149  89217616.72648
  20740368.520    20740367.700   108991374.07749  84928335.53848
  21317905.820    21317904.160   112026349.51849  87293254.41448
  23645035.420    23645037.780   124255499.24948  96822474.17545
  20826960.320    20826961.400   109446415.26649  85282923.70748
 18  3 26  6 57  0.0000000  0  6G02G09G07G05G06G30
  22284096.100    22284091.960   117103709.99649  91249627.75347
  21802042.420    21802044.080   114570503.32549  89275722.60948
  20741332.640    20741331.620   108996440.58049  84932283.43848
  21305805.860    21305804.300   111962763.83149  87243707.12548
  23665567.860    23665570.140   124363396.87248  96906550.22446
  20817313.860    20817314.940   109395722.98449  85243423.24448
 18  3 26  6 57 30.0000000  0  6G02G09G07G05G06G30
  22293849.260    22293844.980   117154962.97248  91289565.13947
  21816272.720    21816274.180   114645283.99549  89333993.23148
  20742395.920    20742394.740   109002027.81349  84936637.14248
  21293779.040    21293777.600   111899562.67549  87194459.48648
  23686125.020    23686127.460   124471424.60748  96990727.67846
  20807763.480    20807764.580   109345535.47249  85204316.10048
 18  3 26  6 58  0.0000000  0  6G02G09G07G05G06G30
  22303689.520    22303685.260   117206674.04548  91329859.45347
  21830542.160    21830543.500   114720270.27249  89392424.05148
  20743557.280    20743555.920   109008130.32549  84941392.34648
  21281824.760    21281823.280   111836742.78849  87145508.91947
  23706705.460    23706707.880   124579574.76747  97075000.46046
  20798308.440    20798309.480   109295849.01149  85165599.38848
 18  3 26  6 58 30.0000000  0  6G02G09G07G05G06G30
  22313617.480    22313613.180   117258846.19549  91370513.04747
  21844851.480    21844852.720   114795465.56849  89451017.78648
  20744817.340    20744815.860   109014751.87549  84946552.00048
  21269944.340    21269942.860   111774310.89949  87096860.69748
  23727309.360    23727311.840   124687848.82147  97159369.75546
  20788949.840    20788950.860   109246669.26849  85127277.52248
 18  3 26  6 59  0.0000000  0  7G13G02G09G07G05G06G30
  24039740.080    24039735.140   126329683.85145  98438700.42943
  22323631.520    22323627.100   117311470.02548  91411518.63847
  21859199.040    21859200.340   114870862.29449  89509768.46547
  20746174.760    20746173.140   109021885.32649  84952110.53048
  21258136.940    21258135.520   111712262.69849  87048511.45448
  23747934.980    23747937.440   124796237.19648  97243828.20846
  20779686.680    20779687.660   109197990.72449  85089346.21048
 18  3 26  6 59 30.0000000  0  7G13G02G09G07G05G06G30
  24021491.820    24021489.020   126233791.14645  98363970.93841
  22333732.220    22333728.040   117364550.38548  91452879.91647
  21873585.920    21873587.180   114946465.98049  89568680.42648
  20747630.780    20747628.900   109029536.37949  84958072.39848
  21246404.220    21246402.740   111650606.53949  87000467.68548
  23768583.120    23768585.280   124904743.56848  97328378.56046
  20770520.300    20770521.300   109149820.99849  85051811.35848
 18  3 26  7  0  0.0000000  0  7G13G02G09G07G05G06G30
  24003264.380    24003260.680   126138006.43545  98289333.53742
  22343917.680    22343913.680   117418076.40748  91494588.51347
  21888010.520    21888011.400   115022266.75849  89627745.94148
  20749183.620    20749181.480   109037695.61549  84964430.24748
  21234744.840    21234743.260   111589335.70349  86952724.18348
  23789251.500    23789253.500   125013356.07848  97413011.66146
  20761449.200    20761450.300   109102152.25949  85014666.91148
 18  3 26  7  0 30.0000000  0  7G13G02G09G07G05G06G30
  23985059.700    23985057.060   126042340.68545  98214788.74444
  22354189.700    22354185.880   117472056.82048  91536651.16047
  21902474.340    21902475.060   115098274.31249  89686972.60248
  20750835.000    20750832.760   109046372.78749  84971191.68448
  21223161.160    21223159.420   111528462.94049  86905290.84748
  23809941.560    23809943.680   125122082.55748  97497733.54746
  20752475.660    20752476.800   109054996.28549  84977922.00048
 18  3 26  7  1  0.0000000  0  7G13G02G09G07G05G06G30
  23966877.160    23966878.040   125946791.54444  98140335.01144
  22364547.180    22364543.600   117526486.17948  91579063.60247
  21916976.380    21916977.340   115174484.20549  89746356.90448
  20752584.060    20752581.780   109055563.89449  84978353.58548
  21211652.960    21211651.240   111467986.64749  86858166.46948
  23830652.040    23830654.320   125230916.66548  97582539.28646
  20743599.200    20743600.380   109008350.66449  84941574.77748
 18  3 26  7  1 30.0000000  0  7G13G02G09G07G05G06G30
  23948716.880    23948706.780   125851360.52044  98065923.11743
  22374990.000    22374986.640   117581363.20348  91621824.88348
  21931517.040    21931518.280   115250896.26749  89805898.71748
  20754430.840    20754428.640   109065268.94649  84985915.95548
  21200220.640    21200218.920   111407909.26949  86811352.91548
  23851382.480    23851384.960   125339856.30348  97667427.24446
  20734820.280    20734821.520   108962217.30149  84905626.69948
 18  3 26  7  2  0.0000000  0  7G13G02G09G07G05G06G30
  23930578.440    23930577.180   125756042.89244  97991712.62153
  22385516.460    22385513.240   117636680.03148  91664928.89747
  21946094.920    21946096.480   115327503.43949  89865592.60548
  20756374.160    20756372.040   109075481.31949  84993873.65148
  21188863.640    21188861.800   111348227.32649  86764847.49548
  23872131.200    23872133.780   125448892.43847  97752390.43746
  20726137.900    20726139.160   108916591.06549  84870073.80048
 18  3 26  7  2 30.0000000  0  6G02G09G07G05G06G30
  22396127.880    22396124.780   117692444.02748  91708381.35147
  21960711.660    21960713.380   115404314.60849  89925445.47648
  20758415.720    20758413.760   109086210.13649  85002233.77848
  21177584.000    21177582.300   111288952.80749  86718659.57048
  23892899.640    23892902.140   125558032.09148  97837434.28646
  20717554.100    20717555.420   108871482.86349  84834924.57048
 18  3 26  7  3  0.0000000  0  6G02G09G07G05G06G30
  22406821.060    22406818.200   117748637.91848  91752168.78047
  21975364.120    21975365.720   115481313.71549  89985444.75647
  20760552.460    20760550.860   109097439.45649  85010983.88748
  21166379.340    21166377.780   111230072.43649  86672778.76448
  23913684.540    23913687.080   125667257.31848  97922544.80346
  20709066.140    20709067.420   108826878.56349  84800167.98748
 18  3 26  7  3 30.0000000  0  6G02G09G07G05G06G30
  22417598.000    22417595.220   117805270.92348  91796298.36847
  21990054.260    21990055.680   115558510.73049  90045598.24648
  20762786.280    20762785.000   109109179.41649  85020131.90348
  21155252.140    21155250.740   111171599.24149  86627215.23748
  23934487.360    23934489.700   125776576.12948  98007728.24745
  20700676.360    20700677.500   108782790.14849  84765813.37948
 18  3 26  7  4  0.0000000  0  7G13G02G09G07G05G06G30
  23858251.200                   125375956.229 4
  22428457.660    22428454.840   117862338.28148  91840766.41447
  22004781.480    22004782.760   115635901.86149  90105903.00048
  20765116.620    20765115.580   109121426.38649  85029674.99548
  21144202.140    21144200.780   111113531.74149  86581967.83248
  23955306.920    23955309.140   125885982.88248  98092980.19146
  20692384.380    20692385.440   108739215.67549  84731859.25548
 18  3 26  7  4 30.0000000  0  7G13G02G09G07G05G06G30
  23840225.220    23840231.480   125281233.89545  97621718.90243
  22439399.960    22439396.940   117919839.81748  91885572.81047
  22019545.880    22019547.180   115713488.57449  90166360.17348
  20767543.820    20767542.820   109134181.88149  85039614.35248
  21133230.340    21133228.940   111055874.85549  86537040.38548
  23976142.960    23976145.400   125995477.00647  98178300.26345
  20684190.860    20684191.940   108696158.51649  84698308.22449
 18  3 26  7  5  0.0000000  0  7G13G02G09G07G05G06G30
  23822223.420    23822226.980   125186633.44245  97548004.31141
  22450424.220    22450420.920   117977771.91948  91930714.66547
  22034346.960    22034348.200   115791268.43549  90226967.86947
  20770067.400    20770066.460   109147443.51249  85049948.09948
  21122336.840    21122335.460   110998629.27349  86492433.43848
  23996994.740    23996997.520   126105054.19147  98263685.06945
  20676095.720    20676096.820   108653618.10549  84665159.85849
 18  3 26  7  5 30.0000000  0  7G13G02G09G07G05G06G30
  23804244.780                   125092155.083 5
  22461529.820    22461526.600   118036132.34348  91976190.29947
  22049184.480    22049185.540   115869240.11349  90287725.00547
  20772687.180    20772686.340   109161210.71549  85060675.79148
  21111521.900    21111520.520   110941796.21449  86448147.92948
  24017861.900    24017864.760   126214711.26647  98349132.09345
  20668099.020    20668100.200   108611594.99549  84632414.58549
 18  3 26  7  6  0.0000000  0  7G13G02G09G07G05G06G30
  23786290.020    23786286.880   124997802.56944  97400858.38546
  22472717.140    22472713.980   118094921.88948  92022000.29847
  22064058.740    22064059.760   115947405.69249  90348633.22348
  20775403.520    20775402.800   109175485.10449  85071798.68248
  21100786.520    21100785.160   110885381.28349  86404188.24148
  24038744.300    24038747.040   126324448.37847  98434641.44444
  20660201.520    20660202.760   108570093.11549  84600075.47749
 18  3 26  7  6 30.0000000  0  7G13G02G09G07G05G06G30
  23768358.540    23768358.740   124903571.87645  97327442.86744
  22483984.920    22483981.360   118154133.30848  92068139.05447
  22078968.800    22078969.880   116025759.22749  90409687.88148
  20778215.360    20778214.480   109190260.82749  85083312.23448
  21090129.980    21090128.660   110829380.87949  86360551.56448
  24059640.400    24059642.840   126434257.63846  98520207.04944
  20652402.380    20652403.600   108529108.28749  84568139.25849
 18  3 26  7  7  0.0000000  0  7G13G02G09G07G05G06G30
  23750450.060    23750449.940   124809462.39445  97254110.76242
  22495332.140    22495328.280   118213762.57948  92114603.41547
  22093914.180    22093915.600   116104298.02649  90470886.92648
  20781122.120    20781121.080   109205535.28149  85095214.40048
  21079552.420    21079551.160   110773795.24549  86317238.07948
  24080549.080    24080552.040   126544139.45846  98605834.26045
  20644701.460    20644702.640   108488639.65649  84536605.26149
 18  3 26  7  7 30.0000000  0  7G13G02G09G07G05G06G30
  23732565.860    23732565.220   124715480.90946  97180878.49141
  22506759.540    22506755.580   118273813.79848  92161396.54447
  22108895.880    22108897.780   116183027.56749  90532234.61948
  20784124.740    20784123.540   109221313.94349  85107509.46948
  21069055.420    21069054.120   110718632.74949  86274254.32448
  24101471.260    24101474.720   126654085.30246  98691509.90744
  20637100.100    20637101.260   108448694.43149  84505479.12849
 18  3 26  7  8  0.0000000  0  7G13G02G09G07G05G06G30
  23714706.940    23714706.320   124621632.58145  97107749.88541
  22518267.800    22518263.780   118334289.51948  92208520.47647
  22123914.480    22123916.760   116261951.33949  90593733.62548
  20787223.920    20787222.760   109237600.37049  85120200.17748
  21058640.280    21058638.880   110663900.60949  86231605.90348
  24122407.720    24122410.720   126764105.87546  98777240.16244
  20629599.360    20629600.580   108409277.84249  84474764.91149
 18  3 26  7  8 30.0000000  0  7G13G02G09G07G05G06G30
  23696871.960    23696871.680   124527911.71245  97034720.72644
  22529855.040    22529851.000   118395180.68748  92255968.11347
  22138968.600    22138970.960   116341061.63449  90655377.98448
  20790418.340    20790417.360   109254387.10549  85133280.75048
  21048305.980    21048304.500   110609593.23349  86189288.46748
  24143356.080    24143358.760   126874189.50646  98863019.57845
  20622198.140    20622199.400   108370383.99249  84444458.02649
 18  3 26  7  9  0.0000000  0  7G13G02G09G07G05G06G30
  23679060.260    23679059.860   124434311.29346  96961785.38343
  22541519.300    22541515.580   118456477.40948  92303731.76247
  22154056.740    22154058.840   116420349.71449  90717160.89348
  20793706.380    20793705.440   109271665.39349  85146744.33748
  21038051.400    21038049.820   110555704.74149  86147297.43548
  24164314.340    24164317.060   126984325.56746  98948839.78344
  20614894.980    20614896.200   108332005.79849  84414552.94049
 18  3 26  7  9 30.0000000  0  7G13G02G09G07G05G06G30
  23661272.320    23661271.400   124340834.23046  96888946.07741
  22553260.620    22553257.200   118518178.95148  92351810.86547
  22169179.060    22169180.740   116499816.67349  90779083.17647
  20797088.180    20797087.040   109289435.85849  85160591.45748
  21027877.260    21027875.540   110502238.68649  86105635.56348
  24185282.560    24185285.040   127094513.22746  99034700.21544
  20607690.400    20607691.600   108294145.98549  84385051.79848
 18  3 26  7 10  0.0000000  0  7G13G02G09G07G05G06G30
  23643510.200    23643509.140   124247493.36046  96816212.99543
  22565080.880    22565077.720   118580295.18648  92400213.12446
  22184337.140    22184338.880   116579473.60949  90841153.45547
  20800565.720    20800564.420   109307709.68749  85174830.79448
  21017786.160    21017784.440   110449209.48549  86064314.11048
  24206262.480    24206264.700   127204761.62545  99120607.98446
  20600587.020    20600588.040   108256817.41349  84355964.60648
 18  3 26  7 10 30.0000000  0  7G13G02G09G07G05G06G30
  23625772.620    23625771.640   124154281.91946  96743580.76944
  22576978.380    22576975.000   118642817.06848  92448931.45346
  22199529.920    22199531.580   116659312.46749  90903365.56947
  20804137.500    20804136.060   109326479.03149  85189456.26948
  21007777.240    21007775.560   110396612.29749  86023329.28248
  24227251.860    24227254.000   127315060.85445  99206555.41945
  20593583.480    20593584.560   108220013.65749  84327286.35849
 18  3 26  7 11  0.0000000  0  6G13G02G09G07G05G30
  23608059.400    23608058.300   124061198.34847  96671047.99444
  22588952.160    22588948.280   118705739.13948  92497961.63447
  22214756.900    22214758.220   116739329.53649  90965716.50747
  20807802.760    20807801.240   109345739.99549  85204464.81448
  20997850.360    20997848.780   110344446.35649  85982680.49348
  20586679.340    20586680.540   108183732.60549  84299015.41549
 18  3 26  7 11 30.0000000  0  6G13G02G09G07G05G30
  23590371.800    23590370.900   123968249.21546  96598620.10843
  22601002.620    22600998.820   118769064.47148  92547305.98947
  22230018.300    22230019.740   116819529.33948  91028209.82747
  20811562.300    20811560.840   109365496.82149  85219859.73348
  20988006.880    20988005.440   110292718.73049  85942373.25648
  20579875.880    20579877.100   108147980.39549  84271156.56849
 18  3 26  7 12  0.0000000  0  7G13G02G09G07G05G06G30
  23572710.020    23572709.120   123875435.36247  96526297.60843
  22613129.560    22613125.920   118832791.50048  92596963.39647
  22245314.280    22245316.000   116899911.56549  91090845.28947
  20815416.100    20815414.680   109385749.21049  85235640.81448
  20978247.260    20978245.920   110241431.65949  85902409.30548
  24290272.200    24290274.300   127646240.38145  99464611.34043
  20573173.360    20573174.560   108112758.28349  84243710.77549
 18  3 26  7 12 30.0000000  0  7G13G02G09G07G05G06G30
  23555072.640    23555071.640   123782748.95447  96454074.46044
  22625330.900    22625327.340   118896909.36348  92646925.33047
  22260643.520    22260645.140   116980466.69749  91153615.49547
  20819362.380    20819360.860   109406487.64849  85251800.63548
  20968570.140    20968568.800   110190578.13549  85862783.18248
  24311294.120    24311295.980   127756715.40545  99550696.45843
  20566570.220    20566571.320   108078058.30949  84216671.83648
 18  3 26  7 13  0.0000000  0  7G13G02G09G07G05G06G30
  23537461.860    23537460.620   123690202.65347  96381960.46343
  22637608.160    22637604.620   118961426.60548  92697198.49847
  22276007.620    22276009.120   117061204.97049  91216528.44147
  20823403.020    20823401.480   109427722.10149  85268346.95848
  20958978.160    20958976.620   110140171.92149  85823505.61748
  24332325.620    24332325.720   127867225.07245  99636804.60341
  20560068.580    20560069.780   108043892.29949  84190048.98849
 18  3 26  7 13 30.0000000  0  6G13G02G09G07G05G30
  23519876.060    23519874.500   123597788.08048  96309949.13444
  22649959.300    22649955.740   119026332.27348  92747774.29247
  22291404.540    22291406.140   117142116.54949  91279576.41047
  20827536.060    20827534.540   109449442.22949  85285271.72748
  20949469.980    20949468.260   110090206.08049  85784571.19348
  20553667.020    20553668.180   108010251.88249  84163835.67449
 18  3 26  7 14  0.0000000  0  6G13G02G09G07G05G30
  23502316.440    23502314.880   123505511.38947  96238045.20144
  22662384.860    22662381.480   119091629.34748  92798655.07847
  22306835.380    22306836.900   117223206.15049  91342763.04947
  20831762.480    20831761.100   109471652.96549  85302578.79048
  20940046.940    20940045.240   110040687.78849  85745985.50548
  20547366.680    20547367.800   107977143.24649  84138036.74549
 18  3 26  7 14 30.0000000  0  7G13G02G09G07G05G06G30
  23484782.080    23484780.880   123413368.60447  96166245.65844
  22674883.740    22674880.320   119157310.96349  92849835.55647
  22322299.120    22322300.320   117304468.22949  91406084.13947
  20836081.360    20836080.000   109494348.91149  85320263.94548
  20930708.540    20930706.800   109991614.11549  85707746.28548
  24395451.420    24395451.520   128198961.32044  99895288.78441
  20541166.840    20541167.880   107944562.45749  84112649.12749
 18  3 26  7 15  0.0000000  0  6G13G02G09G07G05G30
  23467274.840    23467273.900   123321368.21747  96094557.07044
  22687456.580    22687453.040   119223381.20848  92901318.84747
  22337796.900    22337798.000   117385908.79849  91469544.31947
  20840493.580    20840492.280   109517535.28449  85338331.25148
  20921456.480    20921454.620   109942993.92349  85669860.40748
  20535068.780    20535069.740   107912516.85449  84087678.52949
 18  3 26  7 15 30.0000000  0  7G13G02G09G07G05G06G30
  23449791.480    23449790.540   123229492.29647  96022965.45145
  22700099.340    22700095.980   119289819.66048  92953089.04847
  22353324.940    22353326.240   117467508.76649  91533128.65847
  20844995.480    20844994.140   109541192.85249  85356765.70148
  20912287.480    20912285.600   109894810.32949  85632314.74948
  24437560.560    24437564.220   128420243.33645 100067769.67843
  20529069.180    20529070.160   107880988.80949  84063111.23448
 18  3 26  7 16  0.0000000  0  7G13G02G09G07G05G06G30
  23432339.600    23432338.780   123137782.27647  95951503.14744
  22712819.320    22712816.280   119356665.03048  93005176.29947
  22368890.860    22368892.220   117549308.20449  91596868.44947
  20849594.760    20849593.260   109565361.73549  85375598.59948
  20903209.940    20903208.000   109847107.41449  85595143.64648
  24458624.480                   128530935.487 4
  20523175.980    20523176.920   107850019.85549  84038979.58548
 18  3 26  7 16 30.0000000  0  6G13G02G09G07G05G30
  23414911.000    23414910.140   123046194.03947  95880135.68045
  22725607.940    22725604.820   119423869.35348  93057543.30047
  22384485.980    22384487.260   117631260.74249  91660727.55647
  20854282.500    20854280.860   109589995.10549  85394793.41248
  20894215.460    20894213.480   109799840.65549  85558312.40448
  20517380.640    20517381.520   107819564.96949  84015248.51049
 18  3 26  7 17  0.0000000  0  6G13G02G09G07G05G30
  23397509.460    23397508.540   122954748.87547  95808879.73145
  22738468.360    22738465.100   119491450.75748  93110204.09747
  22400114.000    22400115.220   117713385.89849  91724721.16147
  20859062.180    20859060.580   109615111.93149  85414364.96248
  20885308.200    20885306.280   109753032.37849  85521838.41248
  20511687.040    20511687.960   107789645.02549  83991934.27849
 18  3 26  7 17 30.0000000  0  6G13G02G09G07G05G30
  23380134.340    23380133.320   122863442.15648  95737731.63645
  22751399.080    22751395.600   119559401.24048  93163152.52147
  22415773.700    22415774.720   117795677.56449  91788844.52347
  20863932.680    20863931.060   109640706.09549  85434308.48748
  20876487.420    20876485.680   109706679.09249  85485718.97048
  20506094.260    20506095.300   107760255.27849  83969033.18649
 18  3 26  7 18  0.0000000  0  7G13G02G09G07G05G06G30
  23362786.480    23362785.380   122772277.79048  95666694.45345
  22764399.960    22764396.460   119627721.52048  93216389.05446
  22431465.560    22431466.080   117878137.74249  91853099.17247
  20868894.380    20868892.740   109666779.27449  85454625.24648
  20867754.080    20867752.540   109660785.71949  85449957.90048
  24542894.260                   128973788.049 4
  20500603.020    20500604.240   107731399.12149  83946547.87449
 18  3 26  7 18 30.0000000  0  6G13G02G09G07G05G30
  23345466.200    23345465.260   122681259.04948  95595770.79445
  22777471.220    22777467.800   119696411.92248  93269914.03747
  22447189.640    22447190.120   117960768.42148  91917486.69647
  20873947.560    20873945.940   109693333.32549  85475316.71348
  20859109.220    20859107.700   109615356.91849  85414558.82648
  20495214.000    20495215.420   107703079.76149  83924480.85049
 18  3 26  7 19  0.0000000  0  6G13G02G09G07G05G30
  23328173.740    23328172.720   122590386.48848  95524960.97144
  22790612.340    22790608.940   119765468.71448  93323724.48747
  22462945.660    22462946.660   118043567.80348  91982005.67047
  20879091.820    20879090.120   109720365.85949  85496381.01848
  20850552.900    20850551.380   109570393.45249  85379522.35948
  20489927.140    20489928.540   107675296.74649  83902831.75649
 18  3 26  7 19 30.0000000  0  6G13G02G09G07G05G30
  23310908.780    23310907.700   122499658.73147  95454264.02644
  22803822.420    22803818.980   119834887.67748  93377817.13447
  22478733.460    22478734.640   118126533.14449  92046653.94947
  20884326.480    20884324.680   109747873.79949  85517815.76948
  20842085.220    20842083.760   109525895.58049  85344848.69548
  20484742.020    20484743.280   107648048.53349  83881599.39249
 18  3 26  7 20  0.0000000  0  6G13G02G09G07G05G30
  23293671.320    23293669.900   122409075.58548  95383679.75644
  22817100.540    22817097.120   119904665.42848  93432189.35046
  22494552.460    22494553.520   118209662.63248  92111430.12247
  20889651.040    20889649.320   109775854.86649  85539619.20648
  20833706.240    20833704.820   109481863.81149  85310538.22048
  20479658.540    20479659.700   107621334.61149  83860783.34949
 18  3 26  7 20 30.0000000  0  7G13G28G02G09G07G05G30
  23276461.240    23276459.860   122318636.04448  95313207.37645
  24302392.020    24302390.820   127709926.86846  99514235.77744
  22830446.140    22830442.560   119974797.48248  93486837.68346
  22510402.040    22510403.200   118292953.32349  92176331.93947
  20895064.920    20895063.360   109804305.87049  85561788.80748
  20825415.880    20825414.580   109438297.82349  85276590.70648
  20474676.440    20474677.500   107595153.27849  83840382.31649
 18  3 26  7 21  0.0000000  0  7G13G28G02G09G07G05G30
  23259278.580    23259277.500   122228340.72248  95242847.41145
  24283967.000    24283965.740   127613103.65746  99438789.11544
  22843858.780    22843855.060   120045281.19948  93541760.08946
  22526282.380    22526283.620   118376404.48749  92241358.77947
  20900568.000    20900566.740   109833225.81249  85584323.83348
  20817214.540    20817213.240   109395199.38549  85243007.51048
  20469795.760    20469796.660   107569504.89549  83820396.57549
 18  3 26  7 21 30.0000000  0  7G13G28G02G09G07G05G30
  23242124.120    23242123.220   122138193.52348  95172602.84745
  24265553.620    24265552.940   127516342.20546  99363390.65344
  22857338.420    22857334.740   120116116.69948  93596956.59146
  22542193.560    22542194.900   118460018.09749  92306512.23347
  20906160.640    20906159.660   109862616.37649  85607225.55748
  20809103.120    20809101.660   109352573.40749  85209792.45048
  20465017.000    20465017.980   107544392.74949  83800828.66949
 18  3 26  7 22  0.0000000  0  7G13G28G02G09G07G05G30
  23224998.560    23224997.680   122048197.83848  95102476.34345
  24247153.120    24247152.840   127419648.50746  99288044.92444
  22870885.080    22870881.660   120187305.10947  93652427.99147
  22558135.940    22558137.320   118543796.31449  92371793.92847
  20911843.180    20911842.260   109892478.85649  85630495.02048
  20801082.400    20801080.860   109310424.23349  85176948.92848
  20460340.820    20460341.960   107519820.01449  83781681.10049
 18  3 26  7 22 30.0000000  0  7G13G28G02G09G07G05G30
  23207901.580    23207900.620   121958352.49748  95032467.03345
  24228765.600    24228765.580   127323022.83247  99212752.30844
  22884497.860    22884494.640   120258840.83548  93708170.06047
  22574109.160    22574110.280   118627735.61549  92437201.12347
  20917614.980    20917613.920   109922809.50049  85654129.27948
  20793152.300    20793150.800   109268751.38449  85144476.57648
  20455766.880    20455768.260   107495784.38049  83762952.05149
 18  3 26  7 23  0.0000000  0  7G13G28G02G09G07G05G30
  23190832.840    23190831.740   121868655.19548  94962573.02045
  24210391.160    24210391.520   127226465.21347  99137512.64944
  22898175.840    22898172.620   120330718.48548  93764178.58646
  22590112.260    22590113.380   118711832.37648  92502731.06847
  20923475.040    20923473.980   109953604.37849  85678125.27848
  20785312.560    20785311.180   109227553.47049  85112374.29848
  20451294.760    20451296.280   107472283.42349  83744639.61949
 18  3 26  7 23 30.0000000  0  7G13G28G02G09G07G05G30
  23173792.680    23173791.600   121779109.23848  94892796.96246
  24192030.880    24192031.360   127129981.19647  99062330.39144
  22911918.880    22911915.400   120402937.97048  93820453.52946
  22606145.780    22606146.860   118796088.40749  92568385.08147
  20929423.640    20929422.620   109984864.73449  85702483.98748
  20777564.020    20777562.880   109186834.89049  85080645.54448
  20446924.940    20446926.460   107449319.87449  83726745.94549
 18  3 26  7 24  0.0000000  0  7G13G28G02G09G07G05G30
  23156781.580    23156780.520   121689715.56948  94823139.57046
  24173685.080    24173685.600   127033573.47147  98987207.55245
  22925726.340    22925722.780   120475496.55748  93876992.66146
  22622209.280    22622210.220   118880502.35948  92634162.13147
  20935460.480    20935459.260   110016588.36949  85727203.70548
  20769906.960    20769905.880   109146597.08449  85049291.39448
  20442657.460    20442658.780   107426893.56649  83709270.91249
 18  3 26  7 24 30.0000000  0  7G13G28G02G09G07G05G30
  23139800.180    23139799.220   121600477.57648  94753603.45346
  24155354.800    24155355.120   126937247.55447  98912148.43745
  22939598.220    22939594.780   120548394.12848  93933795.92947
  22638302.980    22638304.400   118965076.03349  92700063.69947
  20941585.760    20941584.380   110048776.73649  85752285.56348
  20762342.160    20762341.080   109106843.93349  85018314.91548
  20438492.740    20438493.900   107405007.37649  83692216.75249
 18  3 26  7 25  0.0000000  0  7G13G28G02G09G07G05G30
  23122847.800    23122846.980   121511392.65448  94684186.65346
  24137040.000    24137040.300   126841003.20947  98837152.89645
  22953533.720    22953530.320   120621625.16248  93990859.05047
  22654426.500    22654428.440   119049805.63149  92766086.71447
  20947798.700    20947797.220   110081425.84349  85777726.41548
  20754869.440    20754868.500   109067574.64849  84987715.47048
  20434430.260    20434431.440   107383658.47149  83675581.23449
 18  3 26  7 25 30.0000000  0  7G13G28G02G09G07G05G30
  23105924.360    23105923.680   121422460.08948  94614888.56046
  24118741.060    24118741.300   126744841.57547  98762221.74945
  22967531.860    22967528.420   120695185.04348  94048178.38547
  22670579.000    22670580.880   119134688.31948  92832229.03847
  20954098.600    20954097.180   110114532.23849  85803523.60248
  20747488.800    20747487.680   109028788.78949  84957492.72148
  20430469.660    20430470.820   107362845.04749  83659362.98749
 18  3 26  7 26  0.0000000  0  7G13G28G02G09G07G05G30
  23089030.480    23089029.660   121333682.28748  94545711.05046
  24100458.800    24100458.880   126648767.33747  98687358.77045
  22981592.320    22981588.720   120769072.98948  94105753.38447
  22686760.760    22686762.440   119219725.19848  92898491.51847
  20960485.660    20960484.220   110148096.51749  85829677.57248
  20740200.800    20740199.500   108990489.75749  84927649.31648
  20426611.320    20426612.500   107342569.19949  83643563.62949
 18  3 26  7 26 30.0000000  0  7G13G28G02G09G07G05G30
  23072165.600    23072164.580   121245056.39248  94476651.92446
  24082193.000    24082192.960   126552779.81147  98612563.35645
  22995713.980    22995710.240   120843282.82648  94163579.20746
  22702971.340    22702973.100   119304911.66249  92964870.52547
  20966958.900    20966957.400   110182113.61049  85856184.40448
  20733005.000    20733003.540   108952675.50549  84898183.66648
  20422854.540    20422855.680   107322827.23749  83628180.29049
 18  3 26  7 27  0.0000000  0  7G13G28G02G09G07G05G30
  23055330.900    23055329.820   121156588.88448  94407716.24246
  24063945.260    24063945.120   126456887.08747  98537841.76645
  23009897.400    23009893.640   120917817.08848  94221657.86745
  22719211.320    22719213.280   119390252.22949  93031369.62247
  20973519.140    20973517.560   110216587.41549  85883047.11548
  20725902.940    20725901.260   108915353.22649  84869101.35548
  20419200.460    20419201.560   107303624.70749  83613217.28649
 18  3 26  7 27 30.0000000  0  7G13G28G02G09G07G05G30
  23038526.120    23038525.080   121068278.99148  94338903.35346
  24045716.020    24045715.780   126361090.96047  98463195.47545
  23024141.920    23024138.140   120992671.84748  94279986.21246
  22735480.140    22735481.700   119475744.64149  93097987.07347
  20980165.720    20980164.060   110251514.74549  85910263.21948
  20718894.440    20718892.700   108878522.72749  84840402.26048
  20415648.700    20415649.860   107284960.27649  83598673.58249
 18  3 26  7 28  0.0000000  0  7G13G28G02G09G07G05G30
  23021751.320    23021750.480   120980127.40548  94270213.84246
  24027505.680    24027505.340   126265394.11248  98388626.54745
  23038446.660    23038442.980   121067844.03448  94338561.89147
  22751777.640    22751779.000   119561387.99049  93164722.10147
  20986898.280    20986896.620   110286894.20949  85937831.62148
  20711979.780    20711978.040   108842185.40749  84812087.46048
  20412199.320    20412200.460   107266833.82549  83584549.07349
 18  3 26  7 28 30.0000000  0  7G13G28G02G09G07G05G30
  23005007.160    23005006.460   120892136.58748  94201649.58046
  24009315.060    24009314.520   126169801.07947  98314138.53644
  23052811.480    23052808.100   121143332.65348  94397384.16447
  22768103.920    22768105.560   119647182.88948  93231575.25147
  20993716.920    20993715.180   110322726.02349  85965752.51348
  20705159.500    20705157.920   108806344.86249  84784159.77048
  20408852.680    20408853.760   107249247.00349  83570845.05349
 18  3 26  7 29  0.0000000  0  7G13G28G02G09G07G05G30
  22988293.480    22988292.500   120804304.79648  94133209.22045
  23991144.220    23991143.600   126074312.54647  98239731.97344
  23067235.760    23067232.540   121219132.91148  94456449.21246
  22784458.400    22784459.920   119733126.40948  93298544.18247
  21000620.880    21000619.040   110359006.68549  85994023.15548
  20698433.660    20698432.120   108771000.49249  84756618.69248
  20405608.340    20405609.500   107232197.63749  83557559.84749
 18  3 26  7 29 30.0000000  0  7G13G28G02G09G07G05G30
  22971610.360    22971609.100   120716633.54448  94064893.98045
  23972993.740    23972992.980   125978931.46147  98165409.06244
  23081719.040    23081715.720   121295242.22048  94515755.14346
  22800840.940    22800841.980   119819217.79248  93365628.33847
  21007609.920    21007607.980   110395734.53549  86022642.26348
  20691802.440    20691800.980   108736153.76349  84729465.40148
  20402466.280    20402467.380   107215685.85849  83544693.52049
 18  3 26  7 30  0.0000000  0  7G13G28G02G09G07G05G30
  22954957.800    22954956.540   120629123.97448  93996704.72345
  23954864.340    23954863.500   125883661.47046  98091172.75144
  23096260.580    23096257.080   121371658.23948  94575300.10046
  22817251.700    22817252.600   119905456.72149  93432827.44647
  21014683.900    21014682.000   110432908.98249  86051609.35748
  20685266.380    20685264.960   108701806.77049  84702701.49848
  20399426.560    20399427.580   107199712.12449  83532246.46349
 18  3 26  7 30 30.0000000  0  7G13G28G02G09G07G05G30
  22938336.040    22938334.980   120541777.04748  93928642.13945
  23936756.400    23936755.860   125788505.52446  98017025.29745
  23110859.940    23110856.360   121448378.32048  94635081.94246
  22833690.440    22833691.420   119991842.31048  93500140.86147
  21021842.580    21021840.860   110470528.47249  86080923.24148
  20678825.700    20678824.380   108667961.04949  84676328.20948
  20396489.180    20396490.180   107184276.42949  83520218.65749
 18  3 26  7 31  0.0000000  0  7G13G28G02G09G07G05G30
  22921745.340    22921744.420   120454592.98548  93860706.50446
  23918670.760    23918670.040   125693466.43746  97942968.89244
  23125516.860    23125512.980   121525399.83848  94695098.70146
  22850156.780    22850157.640   120078373.72149  93567567.91447
  21029085.680    21029084.240   110508591.57249  86110582.79348
  20672480.660    20672479.340   108634617.77349  84650346.43148
  20393654.100    20393655.100   107169378.69849  83508610.02949
 18  3 26  7 31 30.0000000  0  7G13G28G02G09G07G05G30
  22905185.340    22905184.460   120367569.34548  93792895.89046
  23900607.260    23900606.420   125598543.18646  97869002.79445
  23140229.720    23140225.940   121602716.21148  94755345.17047
  22866650.160    22866650.980   120165046.26949  93635104.93247
  21036412.160    21036411.060   110547092.52149  86140583.51448
  20666230.920    20666229.480   108601774.94749  84624754.61748
  20390920.700    20390921.760   107155014.98449  83497417.53049
 18  3 26  7 32  0.0000000  0  7G13G28G02G09G07G05G30
  22888657.680    22888656.860   120280716.20848  93725218.16046
  23882568.300    23882567.640   125503748.34247  97795136.70945
  23154999.780    23154996.260   121680333.86248  94815826.41246
  22883171.900    22883173.040   120251868.61248  93702758.68947
  21043823.500    21043822.600   110586039.30549  86170931.65948
  20660078.440    20660076.900   108569443.20949  84599561.04748
  20388290.840    20388291.880   107141194.62149  83486648.41749
 18  3 26  7 32 30.0000000  0  7G13G28G02G09G07G05G30
  22872161.100    22872160.240   120194026.40748  93657667.69045
  23864552.900    23864552.400   125409076.64247  97721366.57144
  23169825.280    23169821.900   121758242.20248  94876534.14747
  22899720.320    22899721.380   120338831.71648  93770522.09646
  21051317.820    21051316.980   110625422.32549  86201619.71648
  20654021.920    20654020.400   108537616.16949  84574760.75648
  20385762.800    20385763.920   107127909.39049  83476296.29149
 18  3 26  7 33  0.0000000  0  7G13G28G02G09G07G05G30
  22855695.800    22855694.800   120107500.93248  93590245.26444
  23846561.660    23846561.140   125314531.41548  97647695.00144
  23184705.560    23184702.340   121836438.90548  94937466.62547
  22916295.740    22916296.660   120425935.39848  93838395.02347
  21058895.060    21058894.040   110665240.81149  86232647.09648
  20648061.800    20648060.280   108506295.56349  84550355.08548
  20383336.600    20383337.860   107115159.73649  83466361.49949
 18  3 26  7 33 30.0000000  0  7G13G28G02G09G07G05G30
  22839262.700    22839261.540   120021144.45648  93522954.51445
  23828595.840    23828595.360   125220119.49348  97574127.31045
  23199640.900    23199637.720   121914924.97848  94998624.57946
  22932898.340    22932899.700   120513182.32448  93906379.61047
  21066555.640    21066554.380   110705496.85249  86264015.45248
  20642199.100    20642197.580   108475486.97249  84526348.37448
  20381013.000    20381014.220   107102949.07249  83456846.70549
 18  3 26  7 34  0.0000000  0  7G13G28G02G09G07G05G30
  22822861.680    22822860.300   119934955.93948  93455794.64545
  23810655.520    23810655.200   125125841.84748  97500664.23345
  23214630.520    23214627.320   121993695.53748  95060004.22546
  22949527.580    22949529.240   120600569.85449  93974473.78347
  21074298.760    21074297.360   110746186.95549  86295722.01948
  20636433.680    20636432.260   108445189.42549  84502739.89848
  20378791.640    20378792.740   107091275.39249  83447750.33549
 18  3 26  7 34 30.0000000  0  7G13G28G02G09G07G05G30
  22806492.460    22806490.980   119848934.34848  93388764.82645
  23792740.820    23792740.660   125031699.13747  97427306.35445
  23229673.460    23229670.280   122072745.90348  95121601.87847
  22966183.280    22966184.520   120688095.25749  94042675.32247
  21082123.760    21082122.280   110787307.46349  86327763.96648
  20630765.440    20630764.080   108415402.53949  84479529.33948
  20376671.980    20376673.060   107080136.56949  83439070.73249
 18  3 26  7 35  0.0000000  0  7G13G28G02G09G07G05G30
  22790155.860    22790154.360   119763084.68348  93321869.01246
  23774853.100    23774853.100   124937698.87047  97354059.42546
  23244769.680    23244766.760   122152077.78948  95183418.89647
  22982865.780    22982866.900   120775762.07148  94110987.07047
  21090031.220    21090029.700   110828861.15149  86360143.45548
  20625195.460    20625194.140   108386132.09449  84456721.19848
  20374654.840    20374655.980   107069536.75049  83430811.14149
 18  3 26  7 35 30.0000000  0  7G13G28G02G09G07G05G30
  22773851.700    22773850.180   119677405.76848  93255106.23545
  23756992.660    23756992.760   124843841.84047  97280924.15945
  23259918.660    23259915.840   122231686.12548  95245451.31446
  22999574.400    22999575.920   120863567.07948  94179406.54747
  21098020.420    21098018.840   110870844.29949  86392857.59748
  20619723.600    20619722.300   108357377.30949  84434314.86748
  20372739.720    20372741.000   107059473.42849  83422969.59049
 18  3 26  7 36  0.0000000  0  7G13G28G02G09G07G05G30
  22757579.840    22757578.300   119591896.60648  93188475.71746
  23739159.720    23739159.820   124750129.23747  97207901.44145
  23275119.440    23275116.720   122311566.63748  95307695.84246
  23016309.020    23016310.600   120951508.08048  94247931.93447
  21106090.760    21106089.120   110913253.84149  86425903.99148
  20614349.840    20614348.400   108329138.01549  84412310.21248
  20370926.400    20370927.860   107049944.84549  83415544.72049
 18  3 26  7 36 30.0000000  0  7G13G28G02G09G07G05G30
  22741341.440    22741340.060   119506563.57148  93121982.46046
  23721355.660    23721355.680   124656569.48646  97134997.78145
  23290372.320    23290369.740   122391721.84848  95370154.41946
  23033070.460    23033071.880   121039589.59048  94316566.81647
  21114243.000    21114241.300   110956093.52649  86459285.55548
  20609075.420    20609074.000   108301420.55449  84390712.18648
  20369215.980    20369217.360   107040956.11349  83408540.52349
 18  3 26  7 37  0.0000000  0  7G13G28G02G09G07G05G30
  22725135.620    22725134.300   119421401.04248  93055622.04346
  23703579.940    23703579.980   124563158.93246  97062210.35045
  23305675.860    23305673.180   122472142.38548  95432819.75146
  23049857.180    23049858.760   121127804.27248  94385305.46447
  21122475.520    21122473.700   110999355.19649  86492995.95148
  20603899.300    20603898.040   108274219.99949  84369516.94048
  20367607.000    20367608.260   107032500.44049  83401951.68949
 18  3 26  7 37 30.0000000  0  7G13G28G02G09G07G05G30
  22708962.420    22708961.180   119336410.01648  92989395.28046
  23685833.380    23685833.320   124469900.63147  96989541.56944
  23321029.560    23321026.640   122552825.53047  95495689.70746
  23066669.080    23066670.560   121216151.43248  94454147.38846
  21130787.900    21130786.080   111043037.52349  86527034.11848
  20598821.940    20598820.760   108247538.10049  84348725.84448
  20366099.280    20366100.620   107024577.70449  83395778.12549
 18  3 26  7 38  0.0000000  0  7G13G28G02G09G07G05G30
  22692822.700    22692821.620   119251595.55448  92923306.11946
  23668117.240    23668117.060   124376801.84847  96916997.13244
  23336433.280    23336430.580   122633772.85747  95558765.52546
  23083507.020    23083507.980   121304634.65048  94523095.33446
  21139180.840    21139178.940   111087143.28849  86561402.24548
  20593844.320    20593843.160   108221380.27849  84328343.11648
  20364693.780    20364695.140   107017191.91549  83390022.95649
 18  3 26  7 38 30.0000000  0  7G13G28G02G09G07G05G30
  22676716.100    22676715.060   119166955.42548  92857352.79046
  23650431.480    23650431.140   124283862.64147  96844576.98344
  23351886.300    23351883.580   122714978.59947  95622042.68045
  23100370.160    23100370.740   121393249.99849  94592146.19546
  21147653.440    21147651.400   111131667.31549  86596096.29348
  20588966.040    20588964.840   108195744.84749  84308367.45048
  20363389.880    20363391.220   107010339.60649  83384683.50749
 18  3 26  7 39  0.0000000  0  7G13G28G02G09G07G05G30
  22660643.760    22660642.620   119082495.12648  92791539.56646
  23632777.500    23632777.100   124191090.41647  96772287.00744
  23367388.680    23367385.900   122796444.61047  95685522.67946
  23117259.080    23117260.000   121482001.33548  94661303.06147
  21156206.340    21156204.260   111176612.80849  86631118.75848
  20584188.320    20584187.060   108170637.66149  84288803.40248
  20362188.360    20362189.500   107004025.15549  83379763.16049
 18  3 26  7 39 30.0000000  0  7G13G28G02G09G07G05G30
  22644604.420    22644603.160   118998207.52348  92725860.92546
  23615154.440    23615153.940   124098480.20848  96700123.21945
  23382938.620    23382935.580   122878160.14447  95749197.02446
  23134172.240    23134173.460   121570880.06349  94730559.14247
  21164837.640    21164835.620   111221970.54849  86666462.43548
  20579509.780    20579508.620   108146052.05949  84269645.78848
  20361087.540    20361088.640   106998240.36249  83375255.53349
 18  3 26  7 40  0.0000000  0  7G13G28G02G09G07G05G30
  22628598.800    22628597.520   118914097.53048  92660320.69945
  23597563.600    23597562.860   124006039.05848  96628091.19344
  23398536.200    23398533.060   122960126.00147  95813066.50746
  23151110.400    23151111.200   121659889.29149  94799916.91346
  21173547.880    21173545.860   111267742.65949  86702129.02548
  20574931.560    20574930.380   108121993.48549  84250898.83248
  20360088.200    20360089.340   106992988.75649  83371163.37249
 18  3 26  7 40 30.0000000  0  7G13G28G02G09G07G05G30
  22612628.320    22612627.080   118830172.38848  92594924.50146
  23580006.600    23580005.740   123913776.04848  96556197.99044
  23414182.140    23414179.020   123042345.81347  95877133.80746
  23168074.100    23168074.820   121749034.39748  94869380.61347
  21182337.800    21182335.640   111313933.80649  86738122.13048
  20570455.060    20570453.860   108098469.26149  84232568.27448
  20359191.460    20359192.580   106988276.17749  83367491.23449
 18  3 26  7 41  0.0000000  0  7G13G28G02G09G07G05G30
  22596692.000    22596690.960   118746426.93248  92529668.31246
  23562482.780    23562481.900   123821688.01847  96484441.09545
  23429874.400    23429871.420   123124810.92846  95941392.29545
  23185062.220    23185063.400   121838308.75548  94938944.97846
  21191206.000    21191203.880   111360536.57449  86774435.97648
  20566079.280    20566078.080   108075474.32649  84214650.13548
  20358396.100    20358397.140   106984096.26949  83364234.15549
 18  3 26  7 41 30.0000000  0  7G13G28G02G09G07G05G30
  22580789.340    22580788.380   118662858.28348  92464549.89746
  23544992.120    23544991.400   123729774.32347  96412820.04945
  23445612.380    23445609.140   123207514.43747  96005836.53046
  23202074.280    23202075.840   121927707.80448  95008606.53146
  21200151.380    21200149.360   111407545.26349  86811066.10748
  20561803.820    20561802.640   108053006.43849  84197142.69048
  20357701.240    20357702.240   106980444.86849  83361388.90649
 18  3 26  7 42  0.0000000  0  7G13G28G02G09G07G05G30
  22564921.940    22564920.900   118579474.59748  92399575.60846
  23527536.680    23527536.160   123638045.47247  96341343.07345
  23461396.840    23461393.480   123290461.77947  96070470.81146
  23219111.100    23219113.180   122017238.48248  95078370.66646
  21209175.080    21209173.200   111454965.65749  86848017.05348
  20557630.500    20557629.280   108031074.98449  84180053.22248
  20357108.280    20357109.320   106977329.33349  83358961.22049
 18  3 26  7 42 30.0000000  0  7G13G28G02G09G07G05G30
  22549088.340    22549087.300   118496268.98748  92334740.10546
  23510115.420    23510114.840   123546496.17547  96270006.01044
  23477225.560    23477222.280   123373641.60248  96135286.22946
  23236171.480    23236173.600   122106891.76548  95148230.32046
  21218275.280    21218273.720   111502788.34349  86885281.46348
  20553557.820    20553556.520   108009672.40749  84163375.88548
  20356615.620    20356616.680   106974740.83949  83356944.22049
 18  3 26  7 43  0.0000000  0  7G13G28G02G09G07G05G30
  22533290.140    22533289.160   118413249.35148  92270049.48946
  23492730.080    23492729.660   123455136.86647  96198817.00544
  23493099.280    23493096.260   123457058.18548  96200286.15545
  23253256.340    23253258.660   122196673.99148  95218190.44746
  21227453.120    21227451.700   111551018.71949  86922863.55648
  20549587.380    20549585.940   107988807.33049  84147117.37848
  20356224.620    20356225.780   106972686.15549  83355343.17649
 18  3 26  7 43 30.0000000  0  7G13G28G02G09G07G05G30
  22517526.860    22517525.780   118330412.08648  92205500.96746
  23475380.280    23475380.200   123363965.42146  96127774.38946
  23509016.680    23509013.580   123540704.00948  96265464.70745
  23270364.620    23270367.520   122286579.81348  95288246.89146
  21236707.440    21236705.960   111599650.40549  86960758.38048
  20545718.400    20545716.960   107968475.96949  84131274.75048
  20355934.260    20355935.500   106971160.12749  83354154.06749
 18  3 26  7 44  0.0000000  0  7G13G28G02G09G07G05G30
  22501797.780    22501796.660   118247754.49848  92141092.46545
  23458066.320    23458066.600   123272981.54247  96056877.91745
  23524976.480    23524973.420   123624572.63648  96330816.90646
  23287495.980    23287498.960   122376605.07148  95358396.39945
  21246037.120    21246035.540   111648678.38349  86998961.99748
  20541950.500    20541949.200   107948676.13349  84115846.29948
  20355743.820    20355745.060   106970158.88249  83353373.87049
 18  3 26  7 44 30.0000000  0  7G13G28G02G09G07G05G30
  22486104.260    22486102.960   118165284.26748  92076829.93146
  23440790.240    23440790.740   123182194.83548  95986135.06145
  23540979.500    23540976.660   123708668.10948  96396345.79946
  23304651.360    23304653.700   122466755.69648  95428643.58446
  21255443.080    21255441.340   111698107.57249  87037478.25147
  20538285.220    20538284.000   107929415.75249  84100838.20648
  20355654.380    20355655.520   106969688.59849  83353007.42049
 18  3 26  7 45  0.0000000  0  7G13G28G02G09G07G05G30
  22470447.140    22470445.880   118083005.81448  92012716.88046
  23423553.200    23423553.720   123091612.47248  95915551.43445
  23557025.900    23557023.040   123792991.85647  96462052.59546
  23321830.980    23321832.880   122557035.11348  95498991.17846
  21264925.920    21264924.220   111747940.60049  87076309.18048
  20534723.700    20534722.600   107910700.25949  84086254.70748
  20355666.680    20355667.720   106969753.00249  83353057.60649
 18  3 26  7 45 30.0000000  0  7G13G28G02G09G07G05G30
  22454824.260    22454822.880   118000906.44548  91948743.34546
  23406352.760    23406353.180   123001222.77548  95845117.94345
  23573112.460    23573109.500   123877526.73547  96527923.90846
  23339032.280    23339033.960   122647427.92248  95569427.10646
  21274482.620    21274481.140   111798161.25649  87115442.13848
  20531263.280    20531262.260   107892515.90249  84072085.07248
  20355777.800    20355778.720   106970336.82349  83353512.52749
 18  3 26  7 46  0.0000000  0  7G13G28G02G09G07G05G30
  22439237.920    22439236.520   117918999.66048  91884919.90146
  23389192.020    23389192.200   122911042.09948  95774847.30746
  23589241.120    23589237.960   123962282.80548  96593967.56346
  23356257.740    23356259.260   122737946.73848  95639961.18346
  21284115.240    21284113.900   111848780.94049  87154886.02848
  20527906.720    20527905.740   107874877.08949  84058340.52248
  20355990.140    20355991.140   106971452.85149  83354382.16349
 18  3 26  7 46 30.0000000  0  7G13G28G02G09G07G05G30
  22423688.400    22423686.820   117837286.33448  91821247.16346
  23372071.320    23372071.300   122821072.45248  95704741.15245
  23605411.260    23605407.840   124047256.80248  96660180.97946
  23373506.620    23373508.340   122828590.32748  95710592.52946
  21293823.400    21293822.140   111899797.48649  87194639.18248
  20524654.200    20524653.160   107857784.85849  84045021.89848
  20356303.560    20356304.760   106973100.18949  83355665.79749
 18  3 26  7 47  0.0000000  0  7G13G28G02G09G07G05G30
  22408174.860    22408173.240   117755762.42549  91757722.04346
  23354990.680    23354990.280   122731312.91848  95634798.68045
  23621621.400    23621617.840   124132441.50547  96726558.65746
  23390778.340    23390780.140   122919353.79748  95781317.21246
  21303605.880    21303604.640   111951205.07349  87234697.03947
  20521505.000    20521504.000   107841235.69849  84032126.44248
  20356717.160    20356718.460   106975273.85049  83357359.55349
 18  3 26  7 47 30.0000000  0  7G13G28G02G09G07G05G30
  22392696.920    22392695.420   117674425.52548  91694342.65546
  23337949.860    23337949.060   122641762.24748  95565018.96144
  23637870.300    23637866.880   124217830.27548  96793095.32846
  23408072.080    23408073.740   123010232.14448  95852131.45646
  21313461.780    21313460.560   112002998.12749  87275055.25748
  20518458.580    20518457.580   107825226.66049  84019651.86448
  20357230.080    20357231.300   106977969.26549  83359459.88349
 18  3 26  7 48  0.0000000  0  7G13G28G02G09G07G05G30
  22377256.380    22377254.840   117593284.49548  91631115.89346
  23320950.980    23320949.740   122552431.53248  95495410.60344
  23654158.840    23654155.900   124303428.13448  96859794.90746
  23425388.800    23425390.760   123101232.86048  95923041.07046
  21323392.220    21323391.120   112055182.64749  87315718.50548
  20515516.720    20515515.640   107809766.75349  84007605.16948
  20357843.740    20357844.700   106981193.75849  83361972.47549
 18  3 26  7 48 30.0000000  0  7G13G28G02G09G07G05G30
  22361852.540    22361850.920   117512336.80448  91568039.77246
  23303993.760    23303992.300   122463320.36647  95425973.30944
  23670486.160    23670483.260   124389228.88548  96926652.60846
  23442727.880    23442730.280   123192351.90748  95994042.86346
  21333396.320    21333395.220   112107753.71449  87356682.97548
  20512678.940    20512677.820   107794853.65649  83995984.56148
  20358557.280    20358558.160   106984943.48649  83364894.33849
 18  3 26  7 49  0.0000000  0  7G13G28G02G09G07G05G30
  22346485.560    22346484.160   117431583.34148  91505115.01246
  23287078.740    23287077.380   122374431.60647  95356709.37944
  23686851.540    23686848.920   124475229.70248  96993666.19447
  23460089.780    23460091.880   123283588.72948  96065136.39646
  21343473.720    21343472.540   112160709.94449  87397947.56048
  20509945.420    20509944.160   107780488.55249  83984790.96948
  20359370.660    20359371.600   106989217.95849  83368225.09249
 18  3 26  7 49 30.0000000  0  7G13G28G02G09G07G05G30
  22331154.040    22331152.720   117351016.17748  91442335.40446
  23270204.900    23270203.660   122285759.38648  95287614.17745
  23703252.840    23703250.360   124561419.20247  97060826.79447
  23477472.480    23477474.100   123374933.52948  96136314.09547
  21353622.260    21353620.880   112214040.22349  87439503.61748
  20507314.660    20507313.340   107766663.70949  83974018.35348
  20360282.060    20360283.140   106994007.54449  83371957.23749
 18  3 26  7 50  0.0000000  0  7G13G28G02G09G07G05G30
  22315859.540    22315858.260   117270642.72248  91379706.74846
  23253374.040    23253373.020   122197313.09848  95218695.02345
  23719690.640    23719688.320   124647800.87147  97128137.15246
  23494876.640    23494878.300   123466392.00148  96207580.43346
  21363842.840    21363841.320   112267749.90949  87481355.31248
  20504788.060    20504786.660   107753386.20849  83963672.24148
  20361292.620    20361293.820   106999317.97349  83376095.23449
 18  3 26  7 50 30.0000000  0  7G13G28G02G09G07G05G30
  22300603.780    22300602.580   117190473.40948  91317237.16746
  23236588.680    23236587.880   122109105.50948  95149961.86145
  23736166.400    23736164.140   124734381.33047  97195602.39046
  23512304.220    23512305.760   123557973.26748  96278942.38946
  21374136.920    21374135.380   112321846.62149  87523508.57848
  20502367.620    20502366.300   107740666.98149  83953761.15148
  20362404.020    20362405.260   107005158.28349  83380646.12449
 18  3 26  7 51  0.0000000  0  7G13G28G02G09G07G05G30
  22285384.260    22285383.040   117110494.44948  91254915.90646
  23219846.440    23219845.660   122021124.41047  95081405.18745
  23752676.660    23752674.360   124821143.09047  97263208.87446
  23529752.120    23529753.640   123649661.66548  96350387.80346
  21384501.540    21384499.980   112376313.65549  87565950.42348
  20500050.740    20500049.620   107728491.90249  83944274.07048
  20363613.260    20363614.380   107011512.87149  83385597.75449
 18  3 26  7 51 30.0000000  0  7G13G28G02G09G07G05G30
  22270203.920    22270202.480   117030721.21148  91192754.93546
  23203150.580    23203149.720   121933387.49447  95013038.80245
  23769223.640    23769221.180   124908097.78647  97330965.75246
  23547222.620    23547224.480   123741471.23948  96421927.70646
  21394939.260    21394937.640   112431164.49949  87608691.32847
  20497840.480    20497839.340   107716876.75249  83935223.29448
  20364923.060    20364924.020   107018395.83849  83390961.10449
 18  3 26  7 52  0.0000000  0  7G13G28G02G09G07G05G30
  22255060.560    22255059.020   116951142.44948  91130745.53246
  23186499.220    23186498.440   121845884.91848  94944855.00645
  23785804.400    23785801.840   124995230.06647  97398860.98146
  23564713.840    23564715.680   123833388.56448  96493551.57445
  21405447.200    21405445.540   112486384.12049  87651719.60447
  20495734.500    20495733.440   107705809.71049  83926599.60748
  20366330.840    20366331.840   107025793.70949  83396725.67549
 18  3 26  7 52 30.0000000  0  7G13G28G02G09G07G05G30
  22239955.840    22239954.240   116871766.24448  91068893.94046
  23169894.540    23169893.800   121758627.01748  94876861.84445
  23802419.680    23802417.260   125082544.26247  97466897.99246
  23582226.900    23582228.580   123925420.23248  96565264.49846
  21416026.440    21416024.780   112541978.24149  87695039.68848
  20493734.320    20493733.400   107695298.73049  83918409.22548
  20367837.820    20367838.840   107033713.03449  83402896.57249
 18  3 26  7 53  0.0000000  0  7G13G28G02G09G07G05G30
  22224888.580    22224887.000   116792587.09849  91007195.91146
  23153335.840    23153335.160   121671609.91848  94809056.35146
  23819067.760    23819065.400   125170031.00447  97535069.45546
  23599760.240    23599762.400   124017559.00248  96637060.92846
  21426675.520    21426673.920   112597939.02749  87738645.47548
  20491839.020    20491838.000   107685338.49949  83910647.99948
  20369442.660    20369443.720   107042146.66249  83409468.23249
 18  3 26  7 53 30.0000000  0  7G13G28G02G09G07G05G30
  22209859.560    22209858.020   116713608.80748  90945654.37946
  23136824.260    23136823.420   121584840.04148  94741443.49545
  23835748.900    23835746.260   125257690.62647  97603375.61345
  23617314.620    23617317.740   124109807.34848  96708942.71546
  21437394.520    21437393.040   112654267.66349  87782537.89448
  20490049.180    20490048.180   107675932.83749  83903318.90648
  20371145.760    20371146.780   107051096.68149  83416442.26849
 18  3 26  7 54  0.0000000  0  7G13G28G02G09G07G05G30
  22194868.800    22194867.380   116634832.07649  90884269.92246
  23120360.180    23120359.020   121498320.14648  94674025.40745
  23852462.420    23852459.620   125345520.10447  97671814.13346
  23634889.720    23634893.220   124202164.50248  96780909.23046
  21448183.120    21448181.580   112710961.94949  87826715.25248
  20488365.060    20488363.920   107667082.40949  83896422.45848
  20372947.000    20372947.960   107060562.34549  83423818.11149
 18  3 26  7 54 30.0000000  0  7G13G28G02G09G07G05G30
  22179916.500    22179915.080   116556257.40648  90823042.91046
  23103943.900    23103942.740   121412052.15248  94606803.62646
  23869207.580    23869204.500   125433515.77147  97740382.16045
  23652484.900    23652487.940   124294628.74248  96852959.28246
  21459040.860    21459039.220   112768019.69349  87871175.83347
  20486786.500    20486785.380   107658787.36149  83889958.76248
  20374846.100    20374847.080   107070542.12049  83431594.54449
 18  3 26  7 55  0.0000000  0  7G13G28G02G09G07G05G30
  22165004.280    22165002.560   116477893.31949  90761979.96146
  23087577.560    23087576.640   121326046.86248  94539786.55445
  23885985.360    23885982.060   125521682.61447  97809083.56446
  23670102.000    23670104.600   124387207.34948  96925098.38645
  21469968.880    21469967.020   112825446.70449  87915924.15447
  20485315.280    20485314.140   107651056.14549  83883934.43648
  20376844.320    20376845.420   107081042.74049  83439776.83949
 18  3 26  7 55 30.0000000  0  7G13G28G02G09G07G05G30
  22150129.700    22150127.940   116399726.62148  90701070.85646
  23071258.880    23071258.200   121240292.71647  94472965.17845
  23902792.400    23902789.040   125610003.40947  97877904.87945
  23687738.320    23687740.760   124479885.37248  96997314.97246
  21480964.180    21480962.320   112883227.16549  87960947.86647
  20483948.820    20483947.660   107643875.60449  83878339.20148
  20378938.840    20378939.980   107092049.30649  83448353.37949
 18  3 26  7 56  0.0000000  0  7G13G28G02G09G07G05G30
  22135294.780    22135293.000   116321768.61448  90640324.37346
  23054990.680    23054990.000   121154803.43348  94406350.15745
  23919630.180    23919626.800   125698486.01047  97946852.32545
  23705395.160    23705397.840   124572672.82947  97069616.83046
  21492028.460    21492026.740   112941370.00449  88006253.94948
  20482689.280    20482688.140   107637256.98249  83873181.82348
  20381131.540    20381132.700   107103571.71349  83457331.88549
 18  3 26  7 56 30.0000000  0  7G13G28G02G09G07G05G30
  22120499.300    22120497.620   116244017.91349  90579739.42946
  23038773.020    23038772.220   121069579.17848  94339941.65346
  23936497.720    23936494.300   125787125.08747  98015921.69645
  23723072.140    23723074.820   124665566.28648  97142001.33346
  21503160.840    21503159.200   112999870.87749  88051839.02847
  20481536.400    20481535.160   107631198.28849  83868460.73848
  20383421.700    20383422.960   107115606.35949  83466709.53149
 18  3 26  7 57  0.0000000  0  7G13G28G02G09G07G05G30
  22105743.620    22105741.880   116166476.41748  90519317.47046
  23022606.380    23022605.500   120984623.49848  94273742.44845
  23953394.600    23953391.000   125875918.33647  98085111.22346
  23740769.420    23740771.880   124758565.84948  97214468.42146
  21514361.120    21514359.460   113058728.92549  88097702.43847
  20480490.340    20480489.000   107625701.06749  83864177.18948
  20385809.260    20385810.620   107128153.11049  83476486.21149
 18  3 26  7 57 30.0000000  0  7G13G28G02G09G07G05G30
  22091025.960    22091024.320   116089134.77148  90459051.26946
  23006489.440    23006488.580   120899929.41048  94207747.11045
  23970318.140    23970314.720   125964853.01146  98154410.95347
  23758485.020    23758486.800   124851660.71048  97287009.80946
  21525627.040    21525625.300   113117931.74249  88143834.48947
  20479549.340    20479548.080   107620755.95249  83860323.84748
  20388292.220    20388293.480   107141200.97249  83486653.37649
 18  3 26  7 58  0.0000000  0  7G13G28G02G09G07G05G30
  22076349.600    22076348.200   116012010.18648  90398954.19647
  22990425.980    22990425.260   120815516.01548  94141970.47145
  23987271.040    23987268.240   126053942.64747  98223831.38346
  23776221.820    23776223.240   124944866.70448  97359637.75747
  21536961.420    21536959.580   113177494.44249  88190246.97847
  20478716.680    20478715.400   107616380.02449  83856914.02448
  20390873.480    20390874.680   107154765.58049  83497223.19449
 18  3 26  7 58 30.0000000  0  7G13G28G02G09G07G05G30
  22061713.940    22061712.760   115935099.59748  90339023.86946
  22974415.860    22974415.040   120731381.98848  94076411.45945
  24004252.180    24004249.720   126143179.98347  98293366.89646
  23793978.360    23793979.920   125038178.67547  97432348.33247
  21548363.140    21548361.400   113237410.83849  88236935.07547
  20477991.660    20477990.300   107612569.71649  83853944.94948
  20393552.080    20393553.220   107168841.61549  83508191.51749
 18  3 26  7 59  0.0000000  0  7G13G28G02G09G07G05G30
  22047117.680    22047116.400   115858395.50148  90279254.43546
  22958457.620    22958456.840   120647521.52247  94011065.70345
  24021259.420    24021257.040   126232553.73047  98363008.72846
  23811753.140    23811755.040   125131587.59748  97505134.49546
  21559830.100    21559828.600   113297670.67649  88283890.76447
  20477372.720    20477371.560   107609317.31949  83851410.60448
  20396326.300    20396327.360   107183419.75949  83519551.10349
 18  3 26  7 59 30.0000000  0  7G13G28G02G09G07G05G30
  22032561.640    22032560.340   115781902.93748  90219649.87947
  22942552.980    22942552.240   120563942.00448  93945938.84245
  24038292.940    24038290.580   126322065.23547  98432757.92245
  23829547.380    23829549.620   125225097.25748  97577999.04846
  21571362.940    21571361.580   113358276.65449  88331116.18747
  20476860.900    20476859.860   107606627.74549  83849314.82548
  20399196.700    20399197.660   107198503.39849  83531304.58849
 18  3 26  8  0  0.0000000  0  7G13G28G02G09G07G05G30
  22018046.000    22018044.620   115705622.82148  90160210.83146
  22926702.300    22926701.520   120480645.56748  93881032.55645
  24055352.100    24055349.640   126411711.48947  98502612.11546
  23847360.660    23847363.500   125318706.43848  97650941.26546
  21582961.240    21582959.960   113419226.57349  88378609.62647
  20476456.180    20476455.160   107604501.05349  83847657.65348
  20402162.960    20402164.000   107214091.22549  83543450.93749
 18  3 26  8  0 30.0000000  0  7G13G28G02G09G07G05G30
  22003570.780    22003569.440   115629554.74849  90100937.00846
  22910905.740    22910905.140   120397634.22547  93816348.41945
  24072436.200    24072433.680   126501488.31547  98572568.05747
  23865192.740    23865195.940   125412413.30649  97723959.58146
  21594624.440    21594623.340   113480517.11849  88426368.48148
  20476158.480    20476157.520   107602937.00749  83846438.90548
  20405224.740    20405225.860   107230180.99649  83555988.42449
 18  3 26  8  1  0.0000000  0  7G13G28G02G09G07G05G30
  21989135.820    21989134.540   115553698.15849  90041827.97947
  22895163.700    22895163.020   120314909.18448  93751887.33745
  24089544.360    24089541.540   126591391.24947  98642622.23646
  23883043.120    23883045.820   125506215.45348  97797052.10146
  21606351.940    21606351.000   113542145.42149  88474390.51448
  20475967.620    20475966.620   107601934.06349  83845657.37048
  20408381.520    20408382.500   107246770.02149  83568914.92749
 18  3 26  8  1 30.0000000  0  7G13G28G02G09G07G05G30
  21974742.800    21974741.580   115478062.10748  89982890.80547
  22879478.340    22879477.640   120232481.78048  93687658.20746
  24106677.340    24106674.600   126681425.61447  98712778.82946
  23900912.940    23900914.720   125600120.41448  97870224.75246
  21618145.000    21618144.140   113604118.04649  88522680.86348
  20475885.280    20475884.080   107601501.13749  83845320.01748
  20411634.620    20411635.640   107263865.63149  83582236.17649
 18  3 26  8  2  0.0000000  0  7G13G28G02G09G07G05G30
  21960391.640    21960390.380   115402646.28949  89924125.22847
  22863849.920    22863849.240   120150353.17448  93623661.91246
  24123834.460    24123831.900   126771587.29347  98783034.64345
  23918801.640    23918803.440   125694126.40948  97943476.12346
  21630003.020    21630002.140   113666431.78449  88571237.00447
  20475911.340    20475909.980   107601637.45049  83845426.23148
  20414983.660    20414984.760   107281465.54949  83595950.39749
 18  3 26  8  2 30.0000000  0  7G13G28G02G09G07G05G30
  21946081.100    21946079.740   115327443.79149  89865525.88346
  22848277.200    22848276.680   120068518.21748  93559894.45845
  24141013.920    24141011.640   126861866.05247  98853381.71645
  23936707.860    23936710.560   125788224.93748  98016799.59646
  21641924.000    21641923.100   113729076.42649  88620050.99847
  20476044.340    20476043.080   107602336.27849  83845970.75648
  20418426.960    20418428.240   107299561.00349  83610050.74149
 18  3 26  8  3  0.0000000  0  7G13G28G02G09G07G05G30
  21931811.980    21931810.740   115252459.63249  89807096.68946
  22832761.640    22832761.060   119986983.43148  93496360.83146
  24158215.840    24158213.440   126952262.19447  98923820.21545
  23954632.380    23954635.400   125882418.88048  98090197.38646
  21653908.340    21653907.340   113792054.05849  88669124.46647
  20476285.080    20476283.860   107603601.30949  83846956.48248
  20421965.100    20421966.560   107318154.48349  83624539.16149
 18  3 26  8  3 30.0000000  0  7G13G28G02G09G07G05G30
  21917584.700    21917583.500   115177694.83249  89748838.39146
  22817304.000    22817303.340   119905752.38048  93433063.92946
  24175439.560    24175437.220   127042773.63247  98994348.58445
  23972575.000    23972577.820   125976708.23248  98163669.53646
  21665955.860    21665954.840   113855363.95349  88718456.83847
  20476633.820    20476632.560   107605433.74049  83848384.34248
  20425597.980    20425599.560   107337245.63549  83639415.37949
 18  3 26  8  4  0.0000000  0  7G13G28G02G09G07G05G30
  21903399.340    21903398.220   115103150.30949  89690751.74846
  22801904.420    22801903.760   119824827.15648  93370005.37945
  24192684.640    24192682.280   127133396.88247  99064964.04245
  23990535.600    23990538.140   126071091.70148  98237215.03546
  21678066.160    21678065.060   113919003.62949  88768046.18747
  20477090.420    20477089.240   107607833.31649  83850254.13348
  20429325.240    20429326.800   107356832.74049  83654678.05449
 18  3 26  8  4 30.0000000  0  7G13G28G02G09G07G05G30
  21889256.560    21889255.340   115028829.02049  89632839.04746
  22786563.840    22786563.080   119744212.35048  93307188.67345
  24209950.900    24209948.300   127224131.19947  99135666.04045
  24008514.260    24008516.780   126165570.65448  98310834.93146
  21690239.120    21690238.060   113982973.28649  88817892.65847
  20477655.500    20477654.360   107610802.64449  83852567.88148
  20433147.100    20433148.560   107376916.74449  83670327.91749
 18  3 26  8  5  0.0000000  0  7G13G28G02G09G07G05G30
  21875155.100    21875153.840   114954725.38749  89575095.97147
  22771281.800    22771280.620   119663904.53848  93244611.09246
  24227236.620    24227233.900   127314967.33647  99206447.39546
  24026509.860    24026512.060   126260138.05048  98384523.77045
  21702473.260    21702472.320   114047264.45649  88867989.64847
  20478327.820    20478326.680   107614335.61849  83855320.82948
  20437062.160    20437063.480   107397490.25349  83686359.22349
 18  3 26  8  5 30.0000000  0  7G13G28G02G09G07G05G30
  21861096.400    21861095.060   114880846.63348  89517528.09046
  22756059.660    22756058.700   119583912.66247  93182279.86246
  24244542.160    24244539.360   127405908.46046  99277310.62545
  24044523.520    24044525.680   126354799.46048  98458285.83645
  21714769.520    21714768.580   114111881.94149  88918340.92847
  20479108.720    20479107.560   107618438.93949  83858518.22448
  20441071.320    20441072.580   107418558.31349  83702775.89149
 18  3 26  8  6  0.0000000  0  7G13G28G02G09G07G05G30
  21847080.560    21847079.240   114807193.47549  89460136.03747
  22740898.440    22740897.700   119504239.80048  93120197.18246
  24261867.000    24261864.260   127496951.90246  99348253.51045
  24062554.860    24062557.380   126449554.07448  98532120.54145
  21727127.480    21727126.640   114176824.04849  88968945.13747
  20479998.120    20479996.960   107623113.00149  83862160.33048
  20445174.320    20445175.660   107440119.72349  83719576.98049
 18  3 26  8  6 30.0000000  0  8G13G28G02G15G09G07G05G30
  21833107.980    21833106.680   114733767.40849  89402920.92146
  22725798.520    22725797.680   119424888.70748  93058365.12045
  24279210.960    24279208.320   127588095.13746  99419274.17645
  24520184.780    24520182.640   128854431.64745 100406047.66345
  24080603.440    24080606.080   126544401.41347  98606027.53246
  21739546.780    21739546.040   114242088.54049  89019800.56747
  20480996.240    20480995.080   107628358.19449  83866247.48148
  20449371.060    20449372.380   107462173.52049  83736761.75449
 18  3 26  8  7  0.0000000  0  8G13G28G02G15G09G07G05G30
  21819176.520    21819175.300   114660557.50648  89345874.24947
  22710757.720    22710757.120   119345850.00147  92996776.54445
  24296571.160    24296568.440   127679323.08146  99490360.81844
  24501022.600    24501021.580   128753734.45045 100327582.39945
  24098667.520    24098669.780   126639329.04948  98679997.05145
  21752024.940    21752024.120   114307662.31849  89070896.99747
  20482100.880    20482099.760   107634163.00349  83870770.70348
  20453659.120    20453660.220   107484706.82649  83754320.17449
 18  3 26  8  7 30.0000000  0  8G13G28G02G15G09G07G05G30
  21805289.380    21805288.360   114587580.54248  89289009.06847
  22695780.060    22695779.720   119267142.40348  92935446.01346
  24313949.940    24313946.880   127770648.74246  99561523.62443
  24481873.680    24481872.860   128653106.09947 100249170.70945
  24116749.980    24116751.780   126734351.98547  98754040.82545
  21764564.700    21764563.720   114373559.10449  89122245.14047
  20483315.000    20483313.900   107640543.56049  83875742.54948
  20458041.220    20458042.080   107507734.17049  83772263.55049
 18  3 26  8  8  0.0000000  0  8G13G28G02G15G09G07G05G30
  21791445.920    21791445.040   114514833.24549  89232322.88047
  22680865.460    22680864.840   119188764.45348  92874372.28745
  24331345.880    24331342.820   127862065.29546  99632757.21145
  24462737.160    24462736.700   128552543.67047 100170810.39946
  24134849.660    24134851.720   126829465.45847  98828155.19545
  21777164.880    21777163.780   114439772.94349  89173840.32847
  20484638.020    20484636.820   107647496.04349  83881160.05848
  20462516.280    20462517.040   107531250.28949  83790587.78349
 18  3 26  8  8 30.0000000  0  8G13G28G02G15G09G07G05G30
  21777645.920    21777644.920   114442313.21149  89175813.76146
  22666013.000    22666012.160   119110715.18948  92813554.70445
  24348757.880    24348755.220   127953566.39045  99704056.80244
  24443612.840    24443612.340   128452044.51148 100092499.37546
  24152965.600    24152968.140   126924665.22047  98902336.74045
  21789824.380    21789823.160   114506298.49449  89225678.40447
  20486069.240    20486068.100   107655017.04449  83887020.57248
  20467083.320    20467084.060   107555250.29849  83809289.08749
 18  3 26  8  9  0.0000000  0  8G13G28G02G15G09G07G05G30
  21763889.160    21763887.980   114370020.56849  89119481.84247
  22651223.720    22651222.580   119032996.99348  92752995.07545
  24366185.720    24366182.620   128045148.76246  99775419.61044
  24424500.840    24424500.060   128351609.15448 100014238.05145
  24171097.780    24171100.440   127019950.07548  98976584.60345
  21802542.640    21802541.480   114573133.43649  89277757.57147
  20487608.640    20487607.540   107663106.57749  83893324.08648
  20471742.160    20471742.860   107579732.66249  83828366.24249
 18  3 26  8  9 30.0000000  0  8G13G28G02G15G09G07G05G30
  21750176.320    21750175.040   114297959.17649  89063330.11446
  22636498.640    22636497.380   118955615.26948  92692697.66446
  24383628.840    24383625.420   128136811.97045  99846845.48442
  24405401.620    24405400.580   128251240.86248  99936029.01745
  24189246.680    24189249.020   127115322.08048  99050900.42444
  21815319.900    21815318.980   114640278.97449  89330078.73947
  20489256.720    20489255.520   107671767.12549  83900072.55348
  20476493.060    20476493.760   107604698.75849  83847820.33649
 18  3 26  8 10  0.0000000  0  8G13G28G02G15G09G07G05G30
  21736507.960    21736506.580   114226131.48349  89007360.47147
  22621838.120    22621836.820   118878573.45148  92632665.14645
  24401086.800    24401083.240   128228554.38245  99918332.96944
  24386315.620    24386314.600   128150942.69047  99857874.64845
  24207412.320    24207414.400   127210781.66548  99125284.38744
  21828156.080    21828155.340   114707734.02849  89382641.09247
  20491013.740    20491012.660   107681000.32849  83907267.24248
  20481336.060    20481336.680   107630148.48549  83867651.28049
 18  3 26  8 10 30.0000000  0  7G13G28G15G09G07G05G30
  21722882.660    21722881.300   114154530.00949  88951567.11047
  22607241.380    22607239.820   118801866.46348  92572893.39445
  24367241.480    24367240.480   128050707.34748  99779769.21544
  24225592.940    24225594.780   127306319.98646  99199729.77545
  21841049.340    21841048.780   114775488.89749  89435437.08447
  20492878.160    20492877.120   107690798.14449  83914901.88448
  20486269.280    20486269.880   107656072.51849  83887851.82549
 18  3 26  8 11  0.0000000  0  7G13G28G15G09G07G05G30
  21709303.900    21709302.700   114083173.06249  88895964.30547
  22592711.900    22592710.560   118725513.80148  92513397.84846
  24348182.700    24348181.580   127950552.99848  99701726.84243
  24243790.900    24243793.380   127401953.60946  99274249.42945
  21854002.540    21854002.140   114843558.61249  89488478.40047
  20494853.400    20494852.300   107701177.96149  83922990.04548
  20491295.720    20491296.400   107682486.79649  83908434.37049
 18  3 26  8 11 30.0000000  0  7G13G28G15G09G07G05G30
  21695768.700    21695767.500   114012044.47649  88840539.42647
  22578246.940    22578246.060   118649501.12148  92454167.28046
  24329136.300    24329134.560   127850463.62148  99623735.01444
  24262003.840    24262006.800   127497664.55347  99348829.34843
  21867012.060    21867011.800   114911924.21149  89541750.28347
  20496936.040    20496934.980   107712122.46449  83931518.21848
  20496411.900    20496412.620   107709372.73749  83929384.44749
 18  3 26  8 12  0.0000000  0  7G13G28G15G09G07G05G30
  21682278.180    21682276.980   113941151.10749  88785297.83647
  22563848.640    22563847.700   118573837.32648  92395208.44845
  24310103.620    24310101.520   127750446.34248  99545799.43944
  24280232.800    24280235.940   127593458.44745  99423473.81645
  21880078.860    21880078.680   114980590.65449  89595256.60247
  20499127.400    20499126.340   107723638.37749  83940491.63848
  20501618.680    20501619.600   107736735.30249  83950705.92749
 18  3 26  8 12 30.0000000  0  7G13G28G15G09G07G05G30
  21668832.000    21668830.680   113870490.79949  88730237.86047
  22549516.480    22549515.380   118498521.49848  92336520.78246
  24291084.120    24291082.180   127650498.98047  99467918.44445
  24298476.980    24298479.840   127689331.03647  99498179.72143
  21893201.940    21893201.920   115049552.66849  89648993.21247
  20501426.900    20501425.820   107735722.13449  83949907.54748
  20506915.280    20506916.420   107764569.83349  83972395.16549
 18  3 26  8 13  0.0000000  0  7G13G28G15G09G07G05G30
  21655432.100    21655430.660   113800074.04949  88675367.66946
  22535252.880    22535251.880   118423565.72948  92278113.77146
  24272079.860    24272078.100   127550631.84747  99390099.98242
  24316737.800    24316739.700   127785291.29246  99572953.88744
  21906382.580    21906382.640   115118817.15449  89702965.50447
  20503836.200    20503835.120   107748382.93349  83959773.08248
  20512303.260    20512304.540   107792884.46849  83994458.50549
 18  3 26  8 13 30.0000000  0  7G13G28G15G09G07G05G30
  21642076.560    21642075.180   113729890.43149  88620679.13347
  22521056.140    22521054.940   118348961.00248  92219980.20645
  24253088.960    24253087.320   127450835.14047  99312336.34944
  24335013.060    24335014.140   127881327.08347  99647786.92043
  21919618.380    21919618.340   115188371.43049  89757163.61247
  20506353.380    20506352.160   107761610.35449  83970080.15948
  20517780.120    20517781.580   107821666.64449  84016886.16049
 18  3 26  8 14  0.0000000  0  7G13G28G15G09G07G05G30
  21628766.720    21628765.400   113659946.63149  88566177.47347
  22506927.540    22506926.240   118274715.82548  92162126.83946
  24234112.680    24234111.380   127351115.15947  99234632.53544
  24353303.800    24353304.940   127977443.42447  99722682.60444
  21932910.180    21932909.860   115258219.23549  89811590.47347
  20508979.320    20508978.040   107775409.24249  83980832.52748
  20523346.780    20523348.320   107850920.48149  84039681.36049
 18  3 26  8 14 30.0000000  0  8G13G28G20G15G09G07G05G30
  21615502.240    21615500.900   113590240.95349  88511861.34847
  22492867.420    22492866.460   118200830.51048  92104553.90946
  23889133.000                   125538237.450 4
  24215150.840    24215149.620   127251470.55648  99156987.32043
  24371609.040    24371610.980   128073636.89345  99797638.53144
  21946256.920    21946256.460   115328356.17149  89866242.62247
  20511713.480    20511712.280   107789777.38949  83992028.47848
  20529002.500    20529004.060   107880642.11349  84062841.07149
 18  3 26  8 15  0.0000000  0  7G13G28G15G09G07G05G30
  21602284.280    21602282.960   113520780.30749  88457736.17447
  22478877.480    22478876.740   118127313.33948  92047267.82846
  24196204.860    24196203.720   127151908.64848  99079406.60342
  24389929.360    24389932.240   128169912.88445  99872658.70244
  21959659.360    21959659.000   115398786.35349  89921123.27847
  20514557.100    20514555.880   107804720.58749  84003672.50148
  20534748.200    20534749.900   107910836.16549  84086368.89549
 18  3 26  8 15 30.0000000  0  6G13G28G15G07G05G30
  21589111.220    21589109.800   113451555.58549  88403794.84646
  22464956.180    22464955.420   118054156.16948  91990262.23346
  24177272.840    24177271.660   127052419.72348  99001882.78444
  21973115.200    21973115.100   115469497.68449  89976223.00047
  20517508.220    20517506.940   107820228.44449  84015756.54848
  20540581.740    20540583.420   107941490.97349  84110255.75949
 18  3 26  8 16  0.0000000  0  6G13G28G15G07G05G30
  21575985.960    21575984.320   113382581.84949  88350049.06847
  22451106.680    22451105.780   117981375.99848  91933550.43546
  24158357.620    24158356.460   126953019.38748  98924428.03644
  21986626.800    21986626.960   115540502.44649  90031551.35447
  20520569.400    20520568.260   107836315.14549  84028291.61948
  20546505.340    20546507.020   107972619.35949  84134511.63849
 18  3 26  8 16 30.0000000  0  6G13G28G15G07G05G30
  21562905.340    21562903.900   113313843.06149  88296486.40947
  22437326.280    22437325.400   117908958.92448  91877121.57646
  24139456.260    24139455.140   126853692.04148  98847030.12446
  22000190.780    22000190.940   115611782.00549  90087093.85047
  20523737.540    20523736.540   107852963.76749  84041264.56348
  20552515.620    20552517.140   108004202.96349  84159122.23749
 18  3 26  8 17  0.0000000  0  6G13G28G15G07G05G30
  21549872.320    21549871.020   113245354.28149  88243118.49947
  22423618.040    22423617.020   117836920.89648  91820988.01545
  24120571.820    24120570.720   126754452.98749  98769701.02046
  22013809.500    22013809.500   115683348.57349  90142860.00147
  20527015.180    20527014.140   107870187.90349  84054685.94948
  20558615.040    20558616.300   108036254.32849  84184097.31449
 18  3 26  8 17 30.0000000  0  6G13G28G15G07G05G30
  21536886.020    21536884.840   113177110.83849  88189941.80747
  22409981.160    22409980.420   117765258.77648  91765147.43946
  24101703.220    24101702.100   126655297.30549  98692436.81545
  22027481.540    22027481.320   115755194.69549  90198843.96647
  20530401.360    20530400.300   107887982.34449  84068551.73748
  20564802.100    20564803.120   108068766.57849  84209431.54149
 18  3 26  8 18  0.0000000  0  6G13G28G15G07G05G30
  21523946.240    21523945.040   113109112.11349  88136955.78647
  22396416.040    22396415.360   117693973.28248  91709600.32146
  24082850.320    24082849.240   126556224.37148  98615237.14145
  22041206.080    22041205.640   115827316.77049  90255042.94647
  20533895.660    20533894.560   107906344.82849  84082860.13548
  20571076.240    20571077.180   108101736.55049  84235122.41649
 18  3 26  8 18 30.0000000  0  6G13G28G15G07G05G30
  21511054.220    21511053.000   113041364.38349  88084165.34247
  22382924.040    22382923.240   117623072.47748  91654352.93746
  24064014.440    24064013.180   126457240.75949  98538107.03545
  22054983.760    22054983.180   115899718.24749  90311459.66747
  20537499.020    20537497.800   107925280.42349  84097615.14548
  20577438.100    20577439.120   108135167.94549  84261172.85249
 18  3 26  8 19  0.0000000  0  7G13G28G15G09G07G05G30
  21498209.220    21498208.000   112973863.27949  88031567.09147
  22369504.680    22369503.740   117552553.51148  91599403.11846
  24045194.700    24045193.360   126358342.24049  98461043.28645
  24537005.460    24537012.340   128942850.06845 100474961.68943
  22068813.140    22068812.500   115972391.94549  90368088.50347
  20541210.360    20541209.040   107944783.72349  84112812.51948
  20583886.480    20583887.580   108169054.09349  84287577.62849
 18  3 26  8 19 30.0000000  0  6G13G28G15G07G05G30
  21485413.420    21485412.120   112906620.71749  87979170.29047
  22356160.460    22356159.440   117482429.62748  91544761.11845
  24026393.420    24026392.180   126259540.90949  98384055.27045
  22082696.080    22082695.300   116045347.08349  90424936.65547
  20545031.780    20545030.520   107964865.36849  84128460.52548
  20590423.240    20590424.220   108203404.46849  84314344.14749
 18  3 26  8 20  0.0000000  0  6G13G28G15G07G05G30
  21472663.340    21472662.100   112839618.39749  87926960.69047
  22342888.300    22342887.140   117412684.16849  91490414.00546
  24007607.260    24007606.240   126160818.77348  98307128.95646
  22096628.620    22096627.640   116118562.93849  90481987.94446
  20548959.660    20548958.400   107985506.14349  84144544.24148
  20597044.340    20597045.200   108238198.48349  84341456.35948
 18  3 26  8 20 30.0000000  0  6G13G28G15G07G05G30
  21459961.120    21459959.960   112772868.10949  87874947.48947
  22329690.760    22329689.620   117343330.07848  91436371.88646
  23988838.340    23988837.500   126062187.20448  98230273.21545
  22110612.200    22110611.020   116192047.64649  90539248.73347
  20552995.800    20552994.560   108006716.12349  84161071.48548
  20603751.500    20603752.420   108273445.15249  84368921.29249
 18  3 26  8 21  0.0000000  0  6G13G28G15G07G05G30
  21447308.200    21447307.080   112706376.38749  87823135.74947
  22316568.960    22316567.980   117274375.00648  91382640.69946
  23970087.820    23970087.040   125963652.97148  98153493.31644
  22124647.720    22124646.400   116265805.10349  90596722.04847
  20557141.180    20557140.060   108028500.44249  84178046.26748
  20610545.580    20610546.580   108309148.49449  84396742.07549
 18  3 26  8 21 30.0000000  0  6G13G28G15G07G05G30
  21434703.660    21434702.480   112640138.48949  87771521.81147
  22303522.720    22303521.660   117205816.27348  91329218.29046
  23951354.840    23951354.260   125865212.03947  98076786.11944
  22138733.860    22138732.500   116339828.25049  90654402.40847
  20561394.740    20561393.740   108050853.42949  84195464.16948
  20617425.240    20617426.380   108345301.66449  84424913.36449
 18  3 26  8 22  0.0000000  0  6G13G28G15G07G05G30
  21422147.120    21422145.920   112574152.97949  87720104.54147
  22290551.620    22290550.700   117137653.63448  91276104.61546
  23932639.480    23932638.940   125766862.82647  98000150.44244
  22152869.780    22152868.380   116414112.47549  90712286.18747
  20565755.960    20565755.100   108073772.31549  84213323.03748
  20624389.680    20624390.840   108381900.44749  84453431.89549
 18  3 26  8 22 30.0000000  0  6G13G28G15G07G05G30
  21409638.820    21409637.520   112508421.69249  87668885.34247
  22277656.540    22277655.580   117069890.14948  91223301.89946
  23913941.900    23913941.540   125668607.09547  97923587.63245
  22167055.220    22167053.660   116488656.69149  90770372.56047
  20570224.920    20570224.140   108097257.47349  84231623.13748
  20631438.860    20631439.980   108418944.08849  84482297.06249
 18  3 26  8 23  0.0000000  0  6G13G28G15G07G05G30
  21397179.760    21397178.520   112442949.19749  87617867.81947
  22264838.420    22264837.540   117002531.74048  91170814.82746
  23895263.100    23895262.960   125570449.81448  97847101.49144
  22181290.440    22181288.620   116563462.48649  90828662.77447
  20574802.300    20574801.320   108121311.51049  84250366.54548
  20638573.040    20638574.120   108456434.51049  84511510.37949
 18  3 26  8 23 30.0000000  0  6G13G28G15G07G05G30
  21384770.440    21384769.140   112377737.97549  87567053.88447
  22252098.320    22252097.780   116935582.33148  91118646.47246
  23876603.780    23876603.360   125472393.95848  97770694.29143
  22195575.480    22195573.420   116638530.05849  90887157.00846
  20579488.400    20579487.360   108145936.57549  84269554.87448
  20645792.300    20645793.420   108494372.10949  84541072.13848
 18  3 26  8 24  0.0000000  0  6G13G28G15G07G05G30
  21372407.760    21372406.580   112312771.73449  87516430.84247
  22239433.300    22239432.780   116869026.97548  91066785.17346
  23857960.720    23857959.380   125374423.03348  97694353.18244
  22209906.700    22209904.660   116713840.52049  90945840.47547
  20584279.660    20584278.600   108171114.45849  84289173.99648
  20653093.080    20653094.260   108532738.02249  84570967.65149
 18  3 26  8 24 30.0000000  0  6G13G28G15G07G05G30
  21360096.280    21360095.120   112248074.48649  87466017.39547
  22226848.140    22226847.520   116802890.96448  91015250.63747
  23839338.280    23839336.540   125276561.15148  97618097.14844
  22224287.920    22224286.120   116789414.24749  91004729.07347
  20589180.380    20589179.320   108196867.48049  84309241.27748
  20660479.360    20660480.620   108571553.16949  84601213.22049
 18  3 26  8 25  0.0000000  0  6G13G28G15G07G05G30
  21347835.620    21347834.380   112183644.29349  87415812.05947
  22214342.680    22214341.940   116737173.61348  90964042.35546
  23820736.120    23820734.600   125178806.75848  97541924.94445
  22238718.380    22238716.880   116865247.03449  91063819.52947
  20594190.020    20594188.820   108223192.66149  84329754.39448
  20667950.460    20667951.580   108610813.47149  84631805.64949
 18  3 26  8 25 30.0000000  0  6G13G28G15G07G05G30
  21335622.860    21335621.560   112119465.90949  87365802.94247
  22201914.260    22201913.320   116671861.20848  90913149.57246
  23802151.680    23802150.300   125081145.06448  97465824.91944
  22253194.600    22253193.380   116941320.76949  91123097.72447
  20599305.180    20599303.900   108250073.05149  84350700.13948
  20675502.900    20675503.700   108650501.14949  84662731.11449
 18  3 26  8 26  0.0000000  0  6G13G28G15G07G05G30
  21323460.920    21323459.660   112055554.55649  87316001.88047
  22189565.860    22189564.840   116606969.96748  90862584.97346
  23783587.700    23783586.640   124983590.90648  97389808.68445
  22267718.960    22267717.920   117017647.51349  91182573.09747
  20604528.580    20604527.380   108277522.23249  84372089.09148
  20683138.960    20683139.540   108690628.57149  84693999.22348
 18  3 26  8 26 30.0000000  0  6G13G28G15G07G05G30
  21311348.640    21311347.460   111991904.18549  87266404.19247
  22177296.600    22177295.680   116542495.11548  90812344.85746
  23765043.200    23765042.440   124886138.69048  97313871.90546
  22282289.860    22282289.060   117094218.90349  91242239.09647
  20609858.800    20609857.740   108305532.87749  84393915.55148
  20690857.060    20690857.500   108731187.34249  84725603.45448
 18  3 26  8 27  0.0000000  0  6G13G28G15G07G05G30
  21299285.200    21299284.020   111928509.97849  87217006.11547
  22165105.940    22165104.960   116478433.24248  90762426.51646
  23746517.280    23746516.600   124788783.62048  97238010.81546
  22296905.820    22296905.180   117171026.76149  91302089.35747
  20615294.640    20615293.660   108334098.39049  84416174.38148
  20698655.800    20698656.100   108772169.93749  84757537.93548
 18  3 26  8 27 30.0000000  0  6G13G28G15G07G05G30
  21287276.460    21287275.100   111865403.33949  87167832.11547
  22153000.080    22152999.180   116414816.92649  90712855.39146
  23728015.740    23728015.200   124691557.54148  97162250.26946
  22311572.300    22311571.740   117248099.93649  91362146.37647
  20620841.700    20620840.760   108363248.60049  84438888.81648
  20706540.620    20706540.940   108813605.01949  84789825.01649
 18  3 26  8 28  0.0000000  0  6G13G28G15G07G05G30
  21275315.800    21275314.360   111802549.81049  87118855.35547
  22140972.720    22140971.680   116351612.51048  90663605.18746
  23709532.180    23709531.640   124594425.63147  97086563.10347
  22326282.180    22326281.620   117325401.26449  91422381.15447
  20626493.220    20626492.240   108392947.57249  84462030.86048
  20714504.500    20714504.880   108855455.63049  84822435.86848
 18  3 26  8 28 30.0000000  0  6G13G28G15G07G05G30
  21263404.880    21263403.400   111739957.87849  87070082.42147
  22129025.680    22129024.700   116288830.08349  90614683.82446
  23691068.220    23691067.720   124497397.16848  97010956.54346
  22341036.640    22341036.060   117402936.48549  91482798.18347
  20632250.460    20632249.460   108423201.88649  84485605.62748
  20722548.480    20722549.020   108897727.69549  84855375.13148
 18  3 26  8 29  0.0000000  0  6G13G28G15G07G05G30
  21251546.800    21251545.360   111677643.00649  87021525.36948
  22117162.120    22117161.020   116226486.21648  90566104.18946
  23672626.980    23672626.320   124400487.67548  96935442.64246
  22355837.940    22355837.460   117480717.99449  91543407.12347
  20638116.080    20638115.000   108454025.76549  84509624.21548
  20730675.020    20730675.700   108940433.91349  84888652.68548
 18  3 26  8 29 30.0000000  0  6G13G28G15G07G05G30
  21239741.180    21239739.780   111615603.37849  86973182.82147
  22105381.900    22105380.560   116164580.36649  90517865.85046
  23654207.980    23654207.160   124303695.23748  96860019.95946
  22370685.260    22370684.920   117558741.54249  91604204.68247
  20644089.360    20644088.260   108485415.41349  84534083.67948
  20738883.420    20738884.240   108983569.84849  84922265.10048
 18  3 26  8 30  0.0000000  0  6G13G28G15G07G05G30
  21227985.240    21227983.680   111553824.76149  86925043.63747
  22093682.380    22093681.100   116103099.45748  90469958.69146
  23635808.520    23635807.760   124207006.24448  96784677.92846
  22385575.400    22385575.180   117636989.66949  91665177.23046
  20650167.220    20650166.240   108517355.01449  84558971.65848
  20747170.500    20747171.520   109027118.66649  84956199.25248
 18  3 26  8 30 30.0000000  0  6G13G28G15G07G05G30
  21216281.220    21216279.640   111492319.77149  86877117.67247
  22082066.440    22082064.980   116042057.16848  90422393.24846
  23617431.320    23617430.600   124110433.60148  96709426.53846
  22400510.240    22400510.020   117715472.35449  91726332.55946
  20656351.860    20656350.900   108549855.93449  84584297.03448
  20755538.040    20755539.320   109071090.50149  84990463.00749
 18  3 26  8 31  0.0000000  0  6G13G28G15G07G05G30
  21204629.360    21204627.840   111431089.27749  86829405.60047
  22070534.240    22070532.960   115981455.39248  90375171.13247
  23599076.420    23599075.720   124013977.78748  96634266.14546
  22415489.420    22415489.100   117794187.77049  91787669.24747
  20662643.140    20662642.100   108582916.83449  84610058.75948
  20763985.780    20763987.140   109115483.48749  85025054.92849
 18  3 26  8 31 30.0000000  0  6G13G28G15G07G05G30
  21193029.160    21193027.700   111370130.06449  86781904.91447
  22059085.540    22059084.500   115921292.13648  90328290.70247
  23580743.360    23580742.540   123917636.59748  96559195.09846
  22430511.740    22430511.340   117873129.63849  91849182.36447
  20669039.980    20669038.960   108616532.56349  84636252.81748
  20772512.620    20772513.920   109160291.60449  85059970.34449
 18  3 26  8 32  0.0000000  0  6G13G28G15G07G05G30
  21181481.960    21181480.500   111309448.95349  86734620.95247
  22047721.820    22047720.820   115861575.33948  90281758.12547
  23562433.300    23562432.420   123821416.46948  96484218.38146
  22445578.020    22445577.420   117952302.16049  91910875.21647
  20675543.400    20675542.380   108650708.23949  84662883.20248
  20781119.240    20781120.360   109205518.83349  85095212.34448
 18  3 26  8 32 30.0000000  0  6G13G28G15G07G05G30
  21169987.100    21169985.460   111249043.33049  86687551.62147
  22036442.700    22036441.800   115802303.35549  90235572.21246
  23544145.700    23544145.000   123725315.15048  96409334.28446
  22460687.200    22460686.420   118031700.06249  91972743.68147
  20682152.580    20682151.520   108685439.41549  84689946.44448
  20789804.720    20789805.680   109251160.21949  85130777.05749
 18  3 26  8 33  0.0000000  0  6G13G28G15G07G05G30
  21158544.400    21158542.900   111188912.08449  86640696.11547
  22025248.160    22025247.160   115743475.88248  90189732.60846
  23525880.520    23525879.860   123629331.58548  96334541.90446
  22475838.480    22475837.560   118111319.13649  92034784.49346
  20688866.900    20688865.820   108720723.21349  84717440.29648
  20798568.120    20798568.960   109297211.62149  85166661.25848
 18  3 26  8 33 30.0000000  0  6G13G28G15G07G05G30
  21147154.620    21147153.300   111129059.03049  86594057.34947
  22014139.200    22014138.000   115685097.68849  90144243.10246
  23507638.740    23507637.980   123533470.34248  96259844.81746
  22491031.940    22491030.880   118191160.55649  92096998.58046
  20695686.760    20695685.780   108756561.96649  84745366.57348
  20807409.740    20807410.380   109343674.40349  85202866.01348
 18  3 26  8 34  0.0000000  0  6G13G28G15G07G05G30
  21135818.420    21135817.280   111069486.93749  86547637.55847
  22003116.560    22003115.320   115627173.09048  90099107.06847
  23489420.700    23489419.960   123437734.10949  96185245.17346
  22506267.580    22506266.520   118271224.44249  92159385.99347
  20702612.360    20702611.420   108792956.14349  84773725.66348
  20816329.580    20816330.020   109390548.47949  85239391.26548
 18  3 26  8 34 30.0000000  0  7G13G28G20G15G07G05G30
  21124536.080    21124534.900   111010197.86949  86501438.28747
  21992180.820    21992179.560   115569705.13649  90054326.84747
  23169893.260                   121758610.808 4
  23471226.980    23471226.140   123342125.27149  96110744.77747
  22521545.160    22521544.300   118351509.76549  92221945.97347
  20709643.680    20709642.760   108829906.04449  84802517.77648
  20825327.560    20825328.020   109437833.25449  85276236.53049
 18  3 26  8 35  0.0000000  0  7G13G28G20G15G07G05G30
  21113307.120    21113305.860   110951189.41449  86455457.68547
  21981331.520    21981330.240   115512691.98749  90009901.02647
  23153087.980                   121670301.590 5
  23453057.120    23453056.080   123246641.35249  96036341.73047
  22536863.720    22536863.200   118432011.52249  92284674.58847
  20716779.900    20716779.020   108867407.12849  84831739.38148
  20834402.560    20834403.220   109485523.48149  85313397.73048
 18  3 26  8 35 30.0000000  0  7G13G28G20G15G07G05G30
  21102130.420    21102128.940   110892455.71249  86409691.15547
  21970567.960    21970566.780   115456128.97649  89965825.97446
  23136345.820                   121582322.953 5
  23434910.000    23434909.000   123151277.21549  95962032.03547
  22552221.940    22552221.660   118512721.27149  92347565.29147
  20724019.640    20724018.760   108905452.37149  84861385.01548
  20843553.120    20843553.920   109533610.84549  85350868.39848
 18  3 26  8 36  0.0000000  0  7G13G28G20G15G07G05G30
  21091008.280    21091006.900   110834008.74249  86364148.07447
  21959892.540    21959891.460   115400029.00849  89922111.73347
  23119669.220    23119659.180   121494688.21545  94671155.10241
  23416787.840    23416786.900   123056044.68749  95887824.88547
  22567621.660    22567621.500   118593648.00849  92410625.04347
  20731364.760    20731363.840   108944051.30649  84891462.09248
  20852780.960    20852781.820   109582104.31249  85388655.51848
 18  3 26  8 36 30.0000000  0  7G13G28G20G15G07G05G30
  21079941.480    21079940.220   110775852.29749  86318831.35848
  21949306.000    21949305.000   115344396.77048  89878761.95647
  23103058.800                   121407393.500 5
  23398691.460    23398690.680   122960947.99649  95813723.58047
  22583063.020    22583062.740   118674792.56949  92473854.54447
  20738815.620    20738814.580   108983205.50049  84921971.83048
  20862086.280    20862087.320   109631005.04249  85426759.98348
 18  3 26  8 37  0.0000000  0  7G13G28G20G15G07G05G30
  21068927.380    21068926.360   110717973.20349  86273730.77547
  21938806.180    21938805.260   115289220.21649  89835767.26147
  23086512.180                   121320440.018 4
  23380618.560    23380617.820   122865974.41849  95739718.19347
  22598542.880    22598542.560   118756139.38349  92537241.63947
  20746369.320    20746368.260   109022900.21749  84952902.76048
  20871466.220    20871467.540   109680297.31749  85465169.52949
 18  3 26  8 37 30.0000000  0  6G13G28G15G07G05G30
  21057967.120    21057966.000   110660376.29549  86228850.07647
  21928394.120    21928393.100   115234504.51148  89793131.64947
  23362570.000    23362569.340   122771128.68749  95665812.44747
  22614061.580    22614061.200   118837690.15849  92600787.66346
  20754026.300    20754025.380   109063137.65949  84984256.59048
  20880921.140    20880922.540   109729982.83649  85503885.50848
 18  3 26  8 38  0.0000000  0  7G13G28G20G15G07G05G30
  21047063.220    21047061.860   110603075.05549  86184199.76547
  21918072.540    21918071.560   115180264.47149  89750866.70147
  23053619.540                   121147596.389 4
  23344548.440    23344547.780   122676424.73449  95592017.18147
  22629621.180    22629620.560   118919455.64849  92664501.03046
  20761788.740    20761787.900   109103929.43849  85016042.37948
  20890453.020    20890454.340   109780072.44749  85542916.35749
 18  3 26  8 38 30.0000000  0  7G13G28G20G15G07G05G30
  21036214.720    21036213.260   110546065.39049  86139776.64648
  21907840.920    21907840.080   115126496.68749  89708969.75347
  23037275.160                   121061706.757 5
  23326553.060    23326552.500   122581858.68449  95518329.38947
  22645220.340    22645219.480   119001429.05449  92728376.41646
  20769655.560    20769654.740   109145269.85649  85048255.67848
  20900060.440    20900061.640   109830559.30749  85582256.75548
 18  3 26  8 39  0.0000000  0  7G13G28G20G15G07G05G30
  21025418.160    21025416.760   110489329.25549  86095566.66448
  21897695.820    21897695.060   115073184.05349  89667427.44947
  23020996.320    23020998.020   120976156.96845  94267135.62942
  23308580.580    23308580.100   122487413.05949  95444735.42347
  22660855.060    22660854.180   119083589.81349  92792397.75946
  20777623.060    20777622.140   109187138.91249  85080880.90248
  20909739.620    20909740.560   109881422.87149  85621890.69148
 18  3 26  8 39 30.0000000  0  7G13G28G20G15G07G05G30
  21014680.600    21014679.360   110432903.18649  86051598.31348
  21887644.420    21887643.560   115020363.73449  89626268.76947
  23004789.060    23004791.940   120890984.94044  94200807.80842
  23290637.860    23290637.440   122393124.03649  95371263.48847
  22676531.780    22676530.960   119165971.31449  92856591.10046
  20785697.600    20785696.540   109229570.55449  85113944.50548
  20919496.700    20919497.620   109932696.53649  85661844.17848
 18  3 26  8 40  0.0000000  0  6G13G28G15G07G05G30
  21003996.900    21003995.660   110376759.55149  86007850.03648
  21877681.680    21877680.660   114968009.23249  89585473.07847
  23272719.880    23272719.560   122298964.86749  95297892.72647
  22692244.720    22692243.980   119248543.35849  92920932.92646
  20793873.620    20793872.540   109272535.61449  85147423.75648
  20929326.060    20929326.960   109984350.02449  85702093.64548
 18  3 26  8 40 30.0000000  0  8G13G28G21G20G15G07G05G30
  20993368.540    20993367.280   110320906.67449  85964328.32448
  21867809.360    21867808.080   114916129.53249  89545047.35447
  25457604.920    25457606.580   133780612.27545 104244658.43041
  22972574.100                   120721691.032 4
  23254828.260    23254827.980   122204943.86149  95224629.62147
  22707994.940    22707994.220   119331311.44149  92985427.50346
  20802152.180    20802151.060   109316039.46549  85181322.84248
  20939228.700    20939229.580   110036388.80449  85742643.35248
 18  3 26  8 41  0.0000000  0  7G13G28G21G15G07G05G30
  20982795.420    20982794.300   110265345.02149  85921033.51648
  21858027.520    21858026.100   114864725.73748  89504992.46147
  25452451.080                   133753528.313 4
  23236963.180    23236962.880   122111061.85149  95151474.83947
  22723782.040    22723781.280   119414273.48049  93050073.23546
  20810532.940    20810531.820   109360080.30449  85215640.35848
  20949204.220    20949205.180   110088810.56349  85783491.46348
 18  3 26  8 41 30.0000000  0  7G13G28G20G15G07G05G30
  20972277.480    20972276.400   110210073.36849  85877964.70948
  21848336.080    21848334.660   114813797.56249  89465308.19347
  22940639.460                   120553869.509 4
  23219124.440    23219123.880   122017317.71049  95078427.46847
  22739605.280    22739604.440   119497425.65149  93114867.11046
  20819015.360    20819014.240   109404655.81649  85250374.50748
  20959251.800    20959252.840   110141611.45149  85824635.00448
 18  3 26  8 42  0.0000000  0  6G13G28G15G07G05G30
  20961817.260    20961816.180   110155104.66449  85835131.96148
  21838737.800    21838736.280   114763358.38449  89426004.93847
  23201314.400    23201313.660   121923724.95049  95005498.04347
  22755466.620    22755465.760   119580777.76049  93179816.79646
  20827601.400    20827600.280   109449775.90549  85285533.01048
  20969373.520    20969374.460   110194801.47549  85866081.76848
 18  3 26  8 42 30.0000000  0  6G13G28G15G07G05G30
  20951413.500    20951412.280   110100432.17149  85792530.01448
  21829231.620    21829230.080   114713402.69749  89387078.46047
  23183531.880    23183530.960   121830277.04549  94932681.49847
  22771364.340    22771363.680   119664320.34849  93244914.91446
  20836289.520    20836288.480   109495431.92949  85321109.11948
  20979567.400    20979568.340   110248371.03349  85907824.27148
 18  3 26  8 43  0.0000000  0  6G13G28G15G07G05G30
  20941066.300    20941064.980   110046056.97449  85750159.74348
  21819817.720    21819816.140   114663931.77549  89348529.71647
  23165777.220    23165776.240   121736975.53049  94859979.03347
  22787298.100    22787297.680   119748052.08749  93310160.38846
  20845079.320    20845078.340   109541622.59049  85357101.81948
  20989833.240    20989834.160   110302318.54449  85949861.28648
 18  3 26  8 43 30.0000000  0  7G13G28G20G15G07G05G30
  20930776.220    20930774.900   109991982.06249  85708023.44848
  21810496.600    21810495.100   114614949.24049  89310361.52747
  22877622.080                   120222712.135 3
  23148050.880    23148049.860   121643823.37649  94787392.95946
  22803267.940    22803267.420   119831972.82749  93375553.15546
  20853970.880    20853969.940   109588348.20849  85393511.37748
  21000171.080    21000171.840   110356643.87749  85992192.71248
 18  3 26  8 44  0.0000000  0  7G13G28G20G15G07G05G30
  20920542.980    20920541.720   109938205.86349  85666119.92448
  21801268.200    21801266.840   114566454.27549  89272573.25147
  22862047.220                   120140868.697 4
  23130352.740    23130351.620   121550819.38849  94714922.31346
  22819272.840    22819271.980   119916078.33349  93441089.87546
  20862963.620    20862962.700   109635605.35049  85430335.10148
  21010580.140    21010580.740   110411342.75049  86034815.21748
 18  3 26  8 44 30.0000000  0  7G13G28G20G15G07G05G30
  20910367.340    20910366.040   109884732.52449  85624452.38448
  21792133.560    21792132.340   114518451.88649  89235168.81647
  22846546.040    22846542.940   120059408.64244  93552765.36443
  23112683.600    23112682.540   121457968.03849  94642570.61746
  22835313.040    22835311.800   120000370.29749  93506771.88847
  20872057.900    20872056.920   109683396.07449  85467574.61048
  21021060.540    21021061.160   110466416.81749  86077730.05448
 18  3 26  8 45  0.0000000  0  6G13G28G15G07G05G30
  20900248.760    20900247.400   109831559.15949  85583018.60348
  21783092.340    21783091.220   114470939.59449  89198146.27347
  23095043.060    23095042.140   121365266.94749  94570336.01146
  22851387.440    22851386.200   120084842.80449  93572594.59647
  20881252.660    20881251.740   109731714.94349  85505225.65748
  21031611.220    21031611.800   110521860.09549  86120932.60848
 18  3 26  8 45 30.0000000  0  6G13G28G15G07G05G30
  20890188.000    20890186.560   109778689.50049  85541821.47248
  21774145.080    21774144.220   114423921.84849  89161509.10247
  23077431.860    23077430.960   121272719.97648  94498221.48946
  22867496.460    22867495.400   120169496.81449  93638558.72946
  20890548.200    20890547.200   109780563.42049  85543289.39448
  21042232.140    21042232.820   110577673.49349  86164423.54348
 18  3 26  8 46  0.0000000  0  7G13G28G20G15G07G05G30
  20880187.160    20880185.600   109726134.59549  85500869.60448
  21765294.040    21765293.280   114377409.90249  89125266.02147
  22800486.000    22800479.600   119817358.29545  93364156.93443
  23059852.180    23059851.380   121180338.46848  94426235.92446
  22883641.800    22883641.020   120254340.80149  93704670.89246
  20899946.040    20899945.180   109829949.86249  85581772.30648
  21052924.980    21052925.740   110633865.06449  86208209.17948
 18  3 26  8 46 30.0000000  0  7G13G28G20G15G07G05G30
  20870240.280    20870238.720   109673863.54549  85460138.92248
  21756533.800    21756533.000   114331374.43949  89089394.24347
  22785279.140    22785276.280   119737446.42745  93301901.92743
  23042298.280    23042297.560   121088092.43249  94354355.90947
  22899817.020    22899816.440   120339341.75749  93770905.37246
  20909440.120    20909439.400   109879841.79149  85620649.12648
  21063683.400    21063684.260   110690401.82949  86252263.80648
 18  3 26  8 47  0.0000000  0  7G13G28G20G15G07G05G30
  20860352.940    20860351.440   109621905.26049  85419651.94648
  21747869.600    21747868.640   114285843.81549  89053915.86647
  22770148.960    22770145.120   119657936.57945  93239934.23644
  23024775.700    23024774.960   120996010.47649  94282603.74647
  22916027.000    22916026.360   120424525.13849  93837282.01546
  20919035.320    20919034.640   109930265.05549  85659939.95448
  21074512.300    21074513.200   110747309.04749  86296607.09348
 18  3 26  8 47 30.0000000  0  7G13G28G20G15G07G05G30
  20850522.840    20850521.300   109570247.62249  85379399.24248
  21739299.380    21739298.140   114240806.67249  89018821.99847
  22755093.520    22755089.900   119578818.66945  93178283.96041
  23007282.000    23007281.420   120904080.67548  94210970.18247
  22932268.960    22932268.020   120509876.37649  93903789.44246
  20928728.960    20928728.280   109981205.21749  85699633.58048
  21085408.820    21085409.700   110804571.95449  86341227.52448
 18  3 26  8 48  0.0000000  0  7G13G28G20G15G07G05G30
  20840754.880    20840753.300   109518916.74649  85339401.16148
  21730828.140    21730826.780   114196289.74249  88984133.51547
  22740117.580    22740115.540   119500120.33645  93116969.54741
  22989822.400    22989821.840   120812329.69549  94139475.93247
  22948547.120    22948545.780   120595418.45349  93970445.57545
  20938525.400    20938524.780   110032686.03049  85739748.47348
  21096377.560    21096378.380   110862213.73949  86386143.19748
 18  3 26  8 48 30.0000000  0  7G13G28G20G15G07G05G30
  20831042.820    20831041.320   109467879.95249  85299632.24348
  21722449.820    21722448.340   114152260.83049  88949825.27547
  22725215.420    22725213.640   119421810.36745  93055948.81344
  22972390.820    22972390.220   120720725.56449  94068096.09247
  22964854.840    22964853.180   120681116.56549  94037223.30846
  20948418.160    20948417.400   110084672.44649  85780257.36048
  21107411.760    21107412.720   110920199.19149  86431326.64948
 18  3 26  8 49  0.0000000  0  7G13G28G20G15G07G05G30
  20821391.540    20821390.120   109417162.69549  85260112.30748
  21714169.200    21714167.780   114108745.86749  88915917.52247
  22710392.200    22710391.500   119343915.43445  92995254.48841
  22954991.960    22954991.320   120629293.86449  93996850.64046
  22981196.580    22981194.740   120766993.28249  94104140.22346
  20958411.440    20958410.920   110137187.22649  85821177.93848
  21118515.760    21118516.740   110978550.70049  86476795.34948
 18  3 26  8 49 30.0000000  0  7G13G28G20G15G07G05G30
  20811798.860    20811797.420   109366752.95849  85220832.00048
  21705984.060    21705982.860   114065733.22949  88882401.20747
  22695646.240    22695645.540   119266425.04846  92934872.39243
  22937623.720    22937623.100   120538023.03449  93925730.54747
  22997569.700    22997567.800   120853033.99949  94171184.90146
  20968502.620    20968502.100   110190215.93649  85862498.99448
  21129686.540    21129687.520   111037253.38749  86522537.69148
 18  3 26  8 50  0.0000000  0  7G13G28G20G15G07G05G30
  20802265.080    20802263.660   109316652.69649  85181792.84148
  21697895.160    21697894.020   114023225.73349  88849278.50447
  22680978.120    22680976.540   119189342.78045  92874808.32443
  22920286.680    22920285.900   120446915.59949  93854737.74046
  23013974.020    23013972.240   120939238.14749  94238356.93846
  20978691.520    20978690.760   110243758.52149  85904220.46248
  21140924.040    21140925.000   111096306.72249  86568553.28148
 18  3 26  8 50 30.0000000  0  7G13G28G20G15G07G05G30
  20792791.580    20792790.220   109266869.30449  85143000.57948
  21689903.680    21689902.460   113981230.29549  88816554.81947
  22666389.120    22666387.660   119112676.91546  92815068.65041
  22902982.040    22902981.220   120355978.84449  93783877.93646
  23030410.040    23030408.700   121025610.01049  94305659.65346
  20988978.920    20988977.960   110297818.92649  85946345.44048
  21152228.900    21152229.960   111155714.69149  86614845.19448
 18  3 26  8 51  0.0000000  0  7G13G28G20G15G07G05G30
  20783377.840    20783376.480   109217399.47749  85104452.66648
  21682009.200    21682007.760   113939744.24749  88784228.02247
  22651878.980    22651877.140   119036425.97245  92755652.41943
  22885709.320    22885708.580   120265209.78649  93713148.83446
  23046876.680    23046875.860   121112143.71849  94373088.50846
  20999363.840    20999362.860   110352391.84449  85988869.77148
  21163600.140    21163601.340   111215471.39649  86661408.85648
 18  3 26  8 51 30.0000000  0  7G13G28G20G15G07G05G30
  20774024.740    20774023.360   109168248.25349  85066153.01948
  21674212.660    21674211.140   113898773.48749  88752302.76247
  22637449.020    22637446.580   118960596.50645  92696564.49343
  22868469.460    22868468.720   120174613.96548  93642554.69846
  23063374.780    23063374.020   121198842.29948  94440645.84445
  21009846.720    21009845.760   110407479.90249  86031795.51148
  21175038.180    21175039.480   111275579.18849  86708246.09548
 18  3 26  8 52  0.0000000  0  7G13G28G20G15G07G05G30
  20764732.140    20764730.720   109119415.06949  85028101.19148
  21666514.080    21666512.740   113858317.67049  88720778.78447
  22623099.460    22623097.240   118885188.75546  92637805.23941
  22851262.440    22851261.720   120084191.45549  93572095.62646
  23079903.520    23079902.580   121285701.71448  94508328.47245
  21020426.920    21020426.020   110463079.47049  86075119.83148
  21186542.420    21186543.760   111336034.29349  86755353.96948
 18  3 26  8 52 30.0000000  0  7G13G28G20G15G07G05G30
  20755498.680    20755497.260   109070893.27949  84990292.00748
  21658912.360    21658911.080   113818370.17549  88689650.86647
  22608829.140    22608827.400   118810197.78846  92579370.72541
  22834087.500    22834086.440   119993935.72249  93501766.45946
  23096461.120    23096460.040   121372712.59148  94576129.10745
  21031102.800    21031101.980   110519181.42249  86118835.61148
  21198111.100    21198112.300   111396827.21149  86802725.06548
 18  3 26  8 53  0.0000000  0  7G13G28G20G15G07G05G30
  20746329.380    20746327.960   109022708.57249  84952745.48548
  21651412.280    21651410.940   113778956.83349  88658939.17347
  22594642.880    22594642.580   118735650.45145  92521281.88141
  22816949.020    22816948.060   119903872.45148  93431587.33246
  23113051.800    23113050.760   121459898.13948  94644065.86046
  21041878.680    21041877.760   110575808.93849  86162960.93448
  21209748.440    21209749.400   111457980.73149  86850377.16548
 18  3 26  8 53 30.0000000  0  7G13G28G20G15G07G05G30
  20737218.480    20737216.980   108974830.15449  84915437.63148
  21644008.040    21644006.720   113740047.49749  88628620.22647
  22580535.660    22580535.140   118661517.35146  92463515.83344
  22799841.460    22799840.620   119813971.98748  93361535.04545
  23129669.420    23129668.560   121547225.14948  94712112.85646
  21052748.200    21052747.120   110632928.72849  86207469.83848
  21221447.960    21221448.820   111519461.44049  86898284.19148
 18  3 26  8 54  0.0000000  0  7G13G28G20G15G07G05G30
  20728168.180    20728166.660   108927269.94449  84878377.74048
  21636702.000    21636700.720   113701654.40049  88598703.54647
  22566510.380    22566509.400   118587812.04445  92406083.15544
  22782767.260    22782766.260   119724246.54248  93291619.10145
  23146315.860    23146315.380   121634703.13348  94780277.47346
  21063713.180    21063712.140   110690550.09249  86252369.58648
  21233211.420    21233212.320   111581278.49149  86946453.33148
 18  3 26  8 54 30.0000000  0  7G13G28G20G15G07G05G30
  20719179.220    20719177.760   108880032.53549  84841569.37848
  21629495.140    21629493.820   113663782.22949  88569192.79447
  22552567.700    22552566.720   118514540.28346  92348988.28244
  22765727.160    22765726.300   119634700.88048  93221843.31245
  23162991.560    23162991.380   121722333.70649  94848561.00346
  21074773.860    21074772.940   110748674.79949  86297661.53948
  21245039.100    21245040.220   111643433.45549  86994885.76148
 18  3 26  8 55  0.0000000  0  7G13G28G20G15G07G05G30
  20710250.720    20710249.320   108833113.19049  84805008.84148
  21622386.580    21622385.400   113626426.65449  88540084.57247
  22538706.440    22538705.340   118441698.62645  92292228.54544
  22748720.560    22748719.600   119545330.79848  93152204.28345
  23179695.100    23179694.940   121810109.59149  94916957.76146
  21085929.000    21085928.160   110807295.43949  86343339.95248
  21256929.660    21256930.900   111705918.75749  87043575.59648
 18  3 26  8 55 30.0000000  0  7G13G28G20G15G07G05G30
  20701386.460    20701385.080   108786531.28949  84768711.25448
  21615379.920    21615378.800   113589606.99149  88511393.94247
  22524930.680    22524929.500   118369307.59646  92235819.96344
  22731751.060    22731749.980   119456155.97348  93082717.40245
  23196429.440    23196429.120   121898047.44449  94985480.71846
  21097181.620    21097180.860   110866428.56949  86389417.69148
  21268886.200    21268887.560   111768750.76749  87092535.61048
 18  3 26  8 56  0.0000000  0  7G13G28G20G15G07G05G30
  20692583.040    20692581.560   108740268.90249  84732662.64548
  21608471.980    21608470.820   113553305.60349  88483107.15847
  22511237.500    22511236.540   118297350.89745  92179749.82644
  22714815.320    22714814.420   119367158.80048  93013368.99345
  23213190.380    23213189.820   121986126.49749  95054113.73746
  21108527.840    21108527.180   110926053.90749  86435878.96948
  21280904.720    21280906.220   111831908.76549  87141749.62748
 18  3 26  8 56 30.0000000  0  7G13G28G20G15G07G05G30
  20683841.940    20683840.440   108694334.15449  84696869.35148
  21601664.260    21601662.980   113517530.37749  88455230.35747
  22497628.700    22497628.040   118225837.88646  92124025.37643
  22697915.200    22697914.100   119278348.02048  92944165.78745
  23229979.020    23229978.260   122074352.66449  95122861.39446
  21119968.860    21119968.240   110986176.67949  86482727.85948
  21292986.200    21292987.940   111895398.07849  87191221.79648
 18  3 26  8 57  0.0000000  0  7G13G28G20G15G07G05G30
  20675161.220    20675159.700   108648716.83049  84661323.38448
  21594954.660    21594953.500   113482271.45149  88427755.89247
  22484102.600    22484102.060   118154759.21246  92068639.39443
  22681048.720    22681047.520   119189713.74648  92875100.12445
  23246793.300    23246792.260   122162712.91449  95191713.47946
  21131502.060    21131501.400   111046783.44949  86529953.91048
  21305128.300    21305130.120   111959205.35749  87240941.75448
 18  3 26  8 57 30.0000000  0  7G13G28G20G15G07G05G30
  20666544.780    20666543.380   108603437.36449  84626040.69148
  21588347.220    21588346.100   113447549.52549  88400699.85147
  22470663.320    22470662.920   118084137.02445  92013609.14044
  22664219.960    22664218.820   119101277.00448  92806188.36445
  23263636.860    23263635.480   122251225.34249  95260684.13746
  21143130.740    21143130.080   111107892.33349  86577571.20248
  21317334.440    21317336.100   112023348.37049  87290923.32048
 18  3 26  8 58  0.0000000  0  7G13G28G20G15G07G05G30
  20657990.520    20657989.180   108558484.21149  84591012.26548
  21581840.000    21581838.760   113413353.59349  88374053.68747
  22457309.280    22457308.980   118013961.28546  91958926.75744
  22647426.540    22647425.640   119013026.48948  92737421.76446
  23280506.780    23280505.180   122339875.74449  95329762.31046
  21154852.240    21154851.700   111169489.58149  86625569.01048
  21329601.780    21329603.220   112087812.93349  87341155.44748
 18  3 26  8 58 30.0000000  0  7G13G28G20G15G07G05G30
  20649498.740    20649497.380   108513859.96149  84556240.11448
  21575433.280    21575432.020   113379685.70749  88347819.00447
  22444041.180    22444040.260   117944235.38147  91904594.90145
  22630668.980    22630668.060   118924964.80448  92668802.26346
  23297402.700    23297401.220   122428663.83048  95398947.79745
  21166666.580    21166665.880   111231574.18649  86673946.61048
  21341930.060    21341931.400   112152598.35649  87391637.58448
 18  3 26  8 59  0.0000000  0  7G13G28G20G15G07G05G30
  20641070.740    20641069.400   108469570.79549  84521729.07948
  21569128.300    21569126.860   113346552.16249  88322000.66347
  22430860.160    22430858.560   117874966.94847  91850619.51544
  22613948.580    22613947.700   118837099.37148  92600335.69046
  23314325.120    23314324.040   122517593.28448  95468243.49845
  21178574.480    21178573.620   111294149.64849  86722706.70248
  21354319.900    21354321.360   112217708.17749  87442372.48948
 18  3 26  8 59 30.0000000  0  7G13G28G20G15G07G05G30
  20632705.840    20632704.480   108425612.94449  84487476.20848
  21562924.160    21562922.740   113313949.33949  88296595.86647
  22417765.820    22417763.720   117806153.68847  91796998.81445
  22597264.980    22597264.160   118749426.77149  92532019.39746
  23331273.200    23331272.520   122606657.99848  95537644.58645
  21190574.400    21190573.560   111357209.48849  86771844.21948
  21366770.140    21366771.880   112283135.92549  87493355.13848
 18  3 26  9  0  0.0000000  0  7G13G28G20G15G07G05G30
  20624403.980    20624402.500   108381986.07349  84453481.24848
  21556820.940    21556819.600   113281876.72549  88271604.23747
  22404758.220    22404755.680   117737796.35247  91743733.35744
  22580618.100    22580617.220   118661946.93448  92463853.31946
  23348246.540    23348246.080   122695854.82948  95607148.57145
  21202665.740    21202665.000   111420750.48149  86821356.65948
  21379280.260    21379282.120   112348878.09849  87544582.79948
 18  3 26  9  0 30.0000000  0  7G13G28G20G15G07G05G30
  20616166.860    20616165.340   108338699.76849  84419751.67648
  21550820.380    21550819.000   113250344.17149  88247033.43647
  22391838.740    22391836.400   117669905.59546  91690831.47745
  22564009.760    22564008.720   118574669.67648  92395845.07246
  23365246.400    23365245.860   122785190.78448  95676760.94445
  21214849.920    21214849.300   111484779.14249  86871249.09548
  21391851.680    21391853.500   112414941.36949  87596060.67348
 18  3 26  9  1  0.0000000  0  7G13G28G20G15G07G05G30
  20607993.560    20607992.040   108295749.01849  84386283.55148
  21544921.660    21544920.120   113219346.46449  88222879.41347
  22379007.240    22379005.620   117602477.63347  91638290.19145
  22547439.160    22547438.020   118487590.69048  92327991.33146
  23382271.380    23382270.820   122874658.39648  95746475.94845
  21227125.500    21227124.840   111549287.66649  86921515.45948
  21404482.860    21404484.540   112481318.02149  87647782.73148
 18  3 26  9  1 30.0000000  0  7G13G28G20G15G07G05G30
  20599883.080    20599881.600   108253128.35549  84353072.64648
  21539123.760    21539121.960   113188878.07149  88199137.81447
  22366263.360    22366262.200   117535508.28947  91586106.30145
  22530905.420    22530904.180   118400704.96749  92260288.17046
  23399320.100    23399319.520   122964249.67548  95816287.30445
  21239490.840    21239490.120   111614268.13749  86972149.56448
  21417172.140    21417173.540   112547999.71649  87699742.48148
 18  3 26  9  2  0.0000000  0  7G13G28G20G15G07G05G30
  20591837.400    20591835.920   108210848.26349  84320127.12648
  21533428.580    21533426.800   113158949.67249  88175817.00247
  22353608.900    22353608.100   117469009.33347  91534288.95646
  22514410.520    22514409.440   118314023.25948  92192744.00646
  23416394.020    23416393.400   123053972.16749  95886200.89345
  21251947.320    21251946.640   111679727.62349  87023156.92548
  21429920.880    21429921.960   112614993.97949  87751945.79348
 18  3 26  9  2 30.0000000  0  7G13G28G20G15G07G05G30
  20583856.380    20583854.860   108168907.37849  84287445.92148
  21527835.740    21527834.320   113129559.62449  88152915.68747
  22341044.000    22341043.360   117402980.59847  91482838.01845
  22497954.120    22497953.280   118227544.86148  92125358.27046
  23433492.300    23433491.700   123143822.59248  95956214.20545
  21264494.260    21264493.520   111745662.23549  87074534.53048
  21442728.220    21442729.140   112682296.69849  87804389.47048
 18  3 26  9  3  0.0000000  0  7G13G28G20G15G07G05G30
  20575940.800    20575939.260   108127310.40149  84255032.68948
  21522346.260    21522344.960   113100712.40449  88130437.33447
  22328569.880    22328568.720   117337427.75947  91431757.84544
  22481537.580    22481536.600   118141274.93848  92058134.93746
  23450614.820    23450614.560   123233802.68648  96026328.55645
  21277132.080    21277131.100   111812073.39549  87126283.47848
  21455594.520    21455595.460   112749909.64549  87857074.86648
 18  3 26  9  3 30.0000000  0  7G13G28G20G15G07G05G30
  20568090.000    20568088.540   108086053.94549  84222884.79948
  21516959.520    21516958.220   113072404.67649  88108379.38047
  22316185.920    22316184.060   117272348.66747  91381046.90245
  22465160.080    22465159.140   118055210.44749  91991071.72746
  23467760.920    23467761.140   123323906.90648  96096539.58146
  21289859.360    21289858.280   111878954.98049  87178398.97448
  21468518.680    21468519.680   112817826.67449  87909997.21148
 18  3 26  9  4  0.0000000  0  8G13G28G21G20G15G07G05G30
  20560303.120    20560301.680   108045133.36549  84190998.63748
  21511674.380    21511673.020   113044631.33649  88086737.85147
  25306590.240                   132987024.780 4
  22303891.440    22303889.380   117207740.24748  91330702.66145
  22448821.040    22448820.040   117969347.43549  91924165.49546
  23484929.680    23484930.000   123414127.92249  96166841.63347
  21302674.620    21302673.700   111946299.72349  87230875.37748
  21481499.380    21481500.340   112886040.29849  87963150.69648
 18  3 26  9  4 30.0000000  0  7G13G28G20G15G07G05G30
  20552582.160    20552580.760   108004559.47549  84159382.62748
  21506493.020    21506491.500   113017403.34749  88065521.24747
  22291688.620    22291686.580   117143614.21648  91280734.33545
  22432522.400    22432521.160   117883697.23648  91857425.08646
  23502122.420    23502122.460   123504473.90849  96237241.03946
  21315579.340    21315578.520   112014115.01349  87283718.43948
  21494538.080    21494539.020   112954558.41249  88016541.42848
 18  3 26  9  5  0.0000000  0  7G13G28G20G15G07G05G30
  20544926.460    20544925.100   107964328.72649  84128033.99348
  21501414.720    21501413.120   112990716.80849  88044726.54747
  22279577.080    22279575.320   117079967.79648  91231139.75945
  22416263.600    22416262.380   117798256.56249  91790847.95946
  23519337.420    23519337.080   123594938.99448  96307733.27946
  21328572.540    21328571.680   112082394.51649  87336923.23348
  21507633.500    21507634.480   113023374.41549  88070164.27348
 18  3 26  9  5 30.0000000  0  7G13G28G20G15G07G05G30
  20537337.620    20537336.140   107924448.91949  84096958.81948
  21496440.960    21496439.480   112964579.55949  88024359.86447
  22267558.560    22267557.140   117016810.36848  91181926.17845
  22400046.320    22400044.960   117713034.05249  91724440.79046
  23536575.720    23536575.020   123685528.00548  96378322.10445
  21341654.980    21341654.160   112151142.97449  87390493.44348
  21520786.600    21520787.580   113092493.52149  88124023.30648
 18  3 26  9  6  0.0000000  0  7G13G28G20G15G07G05G30
  20529813.660    20529812.100   107884910.05849  84066149.32148
  21491569.800    21491568.420   112938981.06849  88004413.02247
  22255631.300    22255630.200   116954132.95548  91133086.63045
  22383868.600    22383867.320   117628020.15649  91658196.21046
  23553835.760    23553834.720   123776228.76148  96448997.95445
  21354824.140    21354823.480   112220347.14349  87444418.73348
  21533994.800    21533995.840   113161902.76249  88178108.42448
 18  3 26  9  6 30.0000000  0  7G13G28G20G15G07G05G30
  20522355.360    20522353.780   107845716.37249  84035608.79548
  21486801.920    21486800.300   112913925.22749  87984889.02147
  22243796.480    22243795.420   116891940.68848  91084625.10345
  22367731.380    22367730.380   117543219.40749  91592117.73346
  23571117.660    23571116.820   123867043.25448  96519762.41945
  21368080.260    21368079.420   112290008.40849  87498700.23848
  21547258.280    21547259.480   113231603.50149  88232420.67948
 18  3 26  9  7  0.0000000  0  7G13G28G20G15G07G05G30
  20514964.860    20514963.300   107806879.17749  84005346.05348
  21482139.380    21482137.440   112889423.28549  87965796.60947
  22232056.420    22232055.200   116830245.88348  91036551.23946
  22351636.980    22351636.100   117458643.58149  91526214.50446
  23588421.960    23588422.400   123957979.91746  96590622.14246
  21381424.980    21381424.040   112360135.04349  87553344.35548
  21560578.720    21560580.220   113301604.21849  88286966.68448
 18  3 26  9  7 30.0000000  0  7G13G28G20G15G07G05G30
  20507642.320    20507640.820   107768399.31449  83975361.73648
  21477582.200    21477580.400   112865475.65049  87947136.11847
  22220411.400    22220409.960   116769050.60648  90988866.61846
  22335585.880    22335584.940   117374294.08249  91460487.62247
  23605748.000    23605750.380   124049037.22946  96661575.89846
  21394857.840    21394856.800   112430724.55049  87608349.14948
  21573955.860    21573957.660   113371902.90849  88341744.88048
 18  3 26  9  8  0.0000000  0  7G13G28G20G15G07G05G30
  20500384.480    20500382.860   107730259.10749  83945642.08448
  21473127.140    21473125.740   112842064.58549  87928893.75547
  22208858.240    22208856.820   116708338.67248  90941558.62946
  22319574.560    22319573.620   117290154.07549  91394923.99646
  23623093.880    23623096.600   124140195.28748  96732608.07045
  21408374.960    21408373.860   112501757.10949  87663699.18348
  21587385.860    21587387.920   113442479.30949  88396739.46848
 18  3 26  9  8 30.0000000  0  7G13G28G20G15G07G05G30
  20493192.800    20493191.120   107692466.33749  83916193.18148
  21468775.680    21468774.440   112819197.49849  87911075.26247
  22197398.720    22197397.320   116648118.41448  90894633.76146
  22303604.660    22303603.780   117206231.91049  91329530.10947
  23640461.020    23640462.820   124231459.41448  96803722.89145
  21421976.960    21421975.960   112573236.65849  87719397.51948
  21600869.800    21600871.900   113513338.24149  88451954.21448
 18  3 26  9  9  0.0000000  0  7G13G28G20G15G07G05G30
  20486067.720    20486066.040   107655023.43749  83887016.89348
  21464528.020    21464526.860   112796876.16249  87893682.01147
  22186033.500    22186032.040   116588393.36248  90848094.76846
  22287676.820    22287675.740   117122530.18149  91264307.97546
  23657848.860    23657850.100   124322829.23648  96874920.08345
  21435663.860    21435663.120   112645162.77549  87775443.80148
  21614407.640    21614409.540   113584479.14049  88507388.66948
 18  3 26  9  9 30.0000000  0  7G13G28G20G15G07G05G30
  20479010.860    20479009.100   107617939.06949  83858119.98148
  21460385.680    21460384.560   112775108.78049  87876720.42147
  22174764.400    22174762.660   116529173.42448  90801949.37246
  22271792.480    22271791.380   117039058.07349  91199264.80247
  23675257.700    23675259.420   124414311.02748  96946204.60645
  21449437.020    21449436.200   112717540.84749  87831842.28748
  21628000.380    21628002.020   113655907.80849  88563047.34648
 18  3 26  9 10  0.0000000  0  7G13G28G20G15G07G05G30
  20472021.880    20472020.120   107581211.77949  83829501.31948
  21456348.660    21456347.420   112753894.05749  87860189.48847
  22163591.360    22163589.460   116470458.30848  90756197.34646
  22255951.740    22255950.780   116955815.02449  91134400.09947
  23692687.000    23692689.180   124505901.18248  97017573.57245
  21463295.340    21463294.620   112790366.60249  87888589.61348
  21641647.100    21641648.480   113727620.29249  88618927.18648
 18  3 26  9 10 30.0000000  0  7G13G28G20G15G07G05G30
  20465099.620    20465098.080   107544835.42249  83801156.11348
  21452415.540    21452414.100   112733225.20749  87844083.89547
  22152513.200    22152511.260   116412242.59748  90710834.45246
  22240153.480    22240152.620   116872795.21449  91069709.34047
  23710135.320    23710136.780   124597590.96248  97089020.08644
  21477237.060    21477236.340   112863630.68349  87945678.49748
  21655345.800    21655346.940   113799607.42349  88675021.04048
 18  3 26  9 11  0.0000000  0  7G13G28G20G15G07G05G30
  20458245.420    20458244.100   107508816.81549  83773089.67048
  21448587.500    21448585.880   112713108.63449  87828408.66447
  22141531.640    22141529.700   116354534.45948  90665867.07246
  22224399.200    22224398.420   116790006.05349  91005198.32647
  23727603.340    23727603.360   124689384.88448  97160547.78745
  21491262.800    21491262.220   112937336.72349  88003111.74848
  21669097.340    21669098.460   113871873.24949  88731332.06748
 18  3 26  9 11 30.0000000  0  7G13G28G20G15G07G05G30
  20451459.860    20451458.680   107473158.84049  83745304.23548
  21444864.920    21444863.360   112693546.36349  87813165.35647
  22130647.400    22130645.540   116297337.42948  90621297.95746
  22208689.480    22208688.580   116707451.12849  90940869.82547
  23745091.340    23745090.440   124781283.42548  97232157.00145
  21505372.640    21505371.960   113011484.61649  88060889.29947
  21682901.840    21682903.220   113944417.77949  88787860.26448
 18  3 26  9 12  0.0000000  0  7G13G28G20G15G07G05G30
  20444741.980    20444740.740   107437856.13549  83717795.63548
  21441246.760    21441245.300   112674532.82449  87798349.62047
  22119859.520    22119857.620   116240646.99248  90577123.59546
  22193023.560    22193022.600   116625125.44049  90876719.94147
  23762597.900    23762596.820   124873278.64449  97303841.54645
  21519565.080    21519564.260   113086065.78249  88119004.47748
  21696757.980    21696759.540   114017232.81149  88844599.24248
 18  3 26  9 12 30.0000000  0  7G13G28G20G15G07G05G30
  20438093.080    20438091.740   107402915.89349  83690569.47548
  21437734.280    21437732.780   112656074.62049  87783966.62047
  22109169.680    22109167.780   116184471.44048  90533350.43846
  22177402.740    22177401.780   116543036.87049  90812754.85647
  23780123.580    23780122.820   124965375.47148  97375605.26946
  21533840.680    21533839.820   113161083.79149  88177460.06448
  21710666.620    21710668.180   114090322.65949  88901552.36048
 18  3 26  9 13  0.0000000  0  7G13G28G20G15G07G05G30
  20431514.100    20431512.660   107368343.08349  83663629.62148
  21434328.460    21434326.700   112638176.32449  87770019.91447
  22098579.080    22098577.120   116128816.87648  90489983.26147
  22161828.140    22161826.960   116461191.07449  90748978.90347
  23797668.240    23797668.260   125057575.92748  97447449.81546
  21548199.760    21548198.960   113236540.98849  88236257.85948
  21724628.000    21724629.620   114163689.72849  88958721.48048
 18  3 26  9 13 30.0000000  0  7G13G28G20G15G07G05G30
  20425003.220    20425001.640   107334127.71049  83636968.30148
  21431027.200    21431025.260   112620827.45049  87756501.33147
  22088085.860    22088083.920   116073674.21548  90447014.95646
  22146297.860    22146296.520   116379578.41949  90685384.63047
  23815230.900    23815230.720   125149868.02948  97519365.66145
  21562639.760    21562639.060   113312424.11749  88295387.54848
  21738639.620    21738641.460   114237321.11749  89016096.57648
 18  3 26  9 14  0.0000000  0  7G13G28G20G15G07G05G30
  20418559.980    20418558.380   107300267.95549  83610584.06748
  21427829.820    21427828.040   112604025.33049  87743408.77147
  22077689.700    22077687.920   116019042.25148  90404444.59346
  22130811.680    22130810.500   116298197.77849  90621971.16847
  23832810.820    23832809.920   125242247.79048  97591349.79046
  21577159.940    21577159.220   113388727.95049  88354845.06548
  21752700.580    21752702.620   114311212.08449  89073673.95548
 18  3 26  9 14 30.0000000  0  7G13G28G20G15G07G05G30
  20412187.420    20412185.780   107266779.59349  83584489.24348
  21424739.320    21424737.820   112587785.61049  87730754.46247
  22067393.880    22067392.160   115964938.26948  90362285.64747
  22115372.580    22115371.540   116217065.49349  90558751.22547
  23850409.760    23850408.480   125334728.93947  97663412.93245
  21591762.700    21591761.940   113465465.47849  88414640.51548
  21766813.420    21766815.420   114385375.96349  89131463.98548
 18  3 26  9 15  0.0000000  0  7G13G28G20G15G07G05G30
  20405886.660    20405885.060   107233668.73649  83558688.57648
  21421756.840    21421755.660   112572113.41849  87718542.36247
  22057199.820    22057198.100   115911368.80248  90320543.21246
  22099982.180    22099980.960   116136188.56349  90495730.22247
  23868026.880    23868026.840   125427314.37247  97735557.44245
  21606448.460    21606447.680   113542639.12949  88474775.81348
  21780978.780    21780980.540   114459815.71949  89189468.97348
 18  3 26  9 15 30.0000000  0  7G13G28G20G15G07G05G30
  20399652.860    20399651.380   107200909.97549  83533162.27648
  21418877.440    21418876.600   112556982.78949  87706752.27247
  22047102.880    22047101.180   115858309.50049  90279198.29546
  22084635.600    22084634.300   116055541.88849  90432888.68147
  23885659.440    23885659.880   125519976.69648  97807761.77845
  21621211.700    21621210.960   113620220.56349  88535228.86848
  21795191.560    21795192.820   114534503.38449  89247667.13648
 18  3 26  9 16  0.0000000  0  7G13G28G20G15G07G05G30
  20393487.540    20393486.000   107168511.24749  83507916.51848
  21416102.720    21416101.940   112542401.39549  87695390.14247
  22037104.920    22037103.160   115805769.55649  90238258.08747
  22069334.520    22069333.240   115975134.40749  90370233.50747
  23903308.720    23903309.360   125612722.06848  97880030.82045
  21636053.420    21636052.780   113698214.61949  88596003.43548
  21809452.620    21809453.320   114609444.42049  89306062.73448
 18  3 26  9 16 30.0000000  0  7G13G28G20G15G07G05G30
  20387393.480    20387391.800   107136486.85349  83482962.44148
  21413435.140    21413433.860   112528382.32449  87684466.21147
  22027208.480    22027206.780   115753763.61249  90197733.97347
  22054081.720    22054080.540   115894980.42049  90307775.88247
  23920975.800    23920977.140   125705561.47948  97952373.22245
  21650975.780    21650975.140   113776631.73049  88657107.65948
  21823763.840    21823764.220   114684649.70349  89364664.23548
 18  3 26  9 17  0.0000000  0  7G13G28G20G15G07G05G30
  20381370.960    20381369.240   107104838.35549  83458301.28148
  21410874.720    21410873.060   112514926.64049  87673981.28347
  22017414.280    22017412.640   115702294.12149  90157627.87247
  22038877.640    22038876.400   115815082.59049  90245517.82247
  23938660.020    23938662.220   125798494.55348  98024788.66644
  21665978.480    21665977.840   113855470.84949  88718540.72447
  21838125.100    21838125.500   114760118.41349  89423471.00648
 18  3 26  9 17 30.0000000  0  7G13G28G20G15G07G05G30
  20375417.180    20375415.460   107073551.15849  83433921.65448
  21408418.440    21408416.560   112502019.04649  87663923.43047
  22007719.560    22007717.880   115651347.44049  90117929.17047
  22023719.580    22023718.400   115735426.72049  90183448.32847
  23956359.540    23956360.220   125891504.79748  98097264.07744
  21681057.940    21681057.380   113934714.00649  88780288.61948
  21852533.040    21852533.820   114835833.10549  89482469.44148
 18  3 26  9 18  0.0000000  0  7G13G28G20G15G07G05G30
  20369533.260    20369531.440   107042630.65149  83409827.74448
  21406067.280    21406065.420   112489663.95349  87654296.09747
  21998125.420    21998123.740   115600929.64749  90078642.58847
  22008608.720    22008607.660   115656018.73949  90121571.99147
  23974074.560    23974072.820   125984594.72448  98169801.57944
  21696214.620    21696214.160   114014363.28449  88842352.95847
  21866988.160    21866989.440   114911796.33349  89541661.57548
 18  3 26  9 18 30.0000000  0  7G13G28G20G15G07G05G30
  20363723.420    20363721.500   107012099.56249  83386037.28948
  21403825.660    21403823.860   112477883.74349  87645116.70647
  21988636.320    21988634.640   115551064.14349  90039786.34347
  21993549.600    21993548.640   115576882.43449  90059907.35447
  23991807.620    23991806.220   126077785.02947  98242417.39546
  21711452.320    21711451.780   114094438.08249  88904748.87847
  21881494.380    21881496.040   114988028.34449  89601063.13448
 18  3 26  9 19  0.0000000  0  7G13G28G20G15G07G05G30
  20357983.540    20357981.620   106981936.52549  83362533.62648
  21401689.160    21401687.540   112466656.07049  87636367.88947
  21979248.340    21979246.580   115501730.43549  90001344.50547
  21978538.060    21978537.200   115497996.79849  89998438.04647
  24009555.340    24009555.600   126171052.14548  98315093.08045
  21726766.260    21726765.520   114174913.60649  88967457.07447
  21896047.340    21896049.020   115064504.86049  89660655.20748
 18  3 26  9 19 30.0000000  0  7G13G28G20G15G07G05G30
  20352312.680    20352310.840   106952136.23949  83339312.63248
  21399656.660    21399655.060   112455975.16949  87628045.11547
  21969960.780    21969958.840   115452924.40149  89963313.82747
  21963573.440    21963572.460   115419357.19449  89937160.42447
  24027317.080    24027318.080   126264388.20748  98387822.40344
  21742154.960    21742154.160   114255781.58149  89030471.06947
  21910645.420    21910646.940   115141217.79749  89720431.50348
 18  3 26  9 20  0.0000000  0  7G13G28G20G15G07G05G30
  20346713.780    20346712.020   106922713.85549  83316386.09348
  21397730.800    21397729.280   112445855.18249  87620159.41147
  21960776.680    21960774.640   115404661.75849  89925706.57147
  21948658.660    21948657.600   115340979.51549  89876086.93447
  24045094.560    24045094.720   126357806.22648  98460615.56744
  21757620.440    21757619.780   114337053.61849  89093799.88847
  21925290.780    21925292.200   115218179.73049  89780401.79648
 18  3 26  9 20 30.0000000  0  7G13G28G20G15G07G05G30
  20341188.840    20341187.120   106893679.88449  83293762.22548
  21395913.500    21395912.040   112436305.69749  87612718.26047
  21951698.180    21951696.280   115356953.70349  89888531.46947
  21933795.940    21933794.780   115262874.96649  89815226.25147
  24062888.080    24062887.460   126451314.37447  98533479.03345
  21773164.220    21773163.660   114418737.05249  89157449.28447
  21939984.920    21939986.140   115295398.32849  89840572.11548
 18  3 26  9 21  0.0000000  0  7G13G28G20G15G07G05G30
  20335734.080    20335732.320   106865014.81149  83271425.80748
  21394201.000    21394199.600   112427306.40249  87605705.83447
  21942721.580    21942719.880   115309781.36049  89851773.80547
  21918981.500    21918980.240   115185024.49549  89754563.55547
  24080694.800    24080693.940   126544890.88048  98606395.74344
  21788782.080    21788781.400   114500809.17349  89221401.57647
  21954723.900    21954724.840   115372851.37849  89900925.14848
 18  3 26  9 21 30.0000000  0  7G13G28G20G15G07G05G30
  20330350.820    20330349.040   106836725.48649  83249382.18148
  21392594.400    21392593.080   112418863.24149  87599126.76347
  21933848.360    21933846.760   115263152.29049  89815439.45947
  21904216.800    21904215.660   115107435.75149  89694104.82847
  24098516.000    24098515.400   126638540.39248  98679369.31345
  21804474.480    21804473.600   114583272.99849  89285659.08548
  21969508.260    21969509.200   115450542.98949  89961464.05848
 18  3 26  9 22  0.0000000  0  8G13G28G21G20G15G07G05G30
  20325039.600    20325037.820   106808814.91049  83227633.67748
  21391094.000    21391092.860   112410978.51249  87592982.83248
  25317951.480                   133046724.524 3
  21925079.260    21925077.600   115217070.52449  89779531.57947
  21889502.780    21889501.580   115030112.48149  89633852.92147
  24116351.080    24116351.280   126732263.55548  98752400.33145
  21820241.480    21820240.500   114666128.69049  89350221.93447
  21984338.040    21984339.240   115528473.60549  90022189.19448
 18  3 26  9 22 30.0000000  0  7G13G28G20G15G07G05G30
  20319802.120    20319800.400   106781291.77849  83206187.08448
  21389701.200    21389700.120   112403659.87749  87587279.99847
  21916416.120    21916414.220   115171545.24548  89744057.34247
  21874840.960    21874839.900   114953064.01149  89573815.17947
  24134200.900    24134202.220   126826067.09548  98825494.00845
  21836084.020    21836083.080   114749381.59749  89415094.31747
  21999214.460    21999215.900   115606649.11049  90083105.16048
 18  3 26  9 23  0.0000000  0  7G13G28G20G15G07G05G30
  20314635.380    20314633.840   106754140.79149  83185030.47948
  21388413.060    21388411.660   112396891.01849  87582005.57047
  21907856.080    21907854.120   115126561.80549  89709005.31947
  21860228.680    21860227.740   114876275.93249  89513980.31447
  24152063.420    24152064.440   126919933.79148  98898636.82345
  21851998.460    21851997.660   114833013.11249  89480261.71047
  22014134.120    22014135.640   115685051.63249  90144198.02847
 18  3 26  9 23 30.0000000  0  7G13G28G20G15G07G05G30
  20309541.140    20309539.700   106727370.55249  83164170.55748
  21387231.140    21387229.380   112390679.84249  87577165.70547
  21899400.860    21899399.040   115082129.44249  89674382.69647
  21845667.700    21845666.760   114799757.28749  89454355.40247
  24169939.580    24169939.080   127013869.42648  98971833.32644
  21867986.020    21867985.400   114917028.16749  89545727.96748
  22029097.900    22029099.520   115763686.90149  90205472.24948
 18  3 26  9 24  0.0000000  0  7G13G28G20G15G07G05G30
  20304521.280    20304519.820   106700990.85549  83143614.93848
  21386157.080    21386155.140   112385034.88349  87572767.04847
  21891052.580    21891050.740   115038258.84349  89640197.82447
  21831160.020    21831159.040   114723518.67049  89394948.69347
  24187829.760    24187828.400   127107881.57247  99045089.46745
  21884047.960    21884047.340   115001433.61949  89611498.42247
  22044107.280    22044108.920   115842562.28549  90266933.56948
 18  3 26  9 24 30.0000000  0  7G13G28G20G15G07G05G30
  20299576.580    20299575.060   106675006.26349  83123367.21448
  21385191.260    21385189.560   112379960.06149  87568812.65048
  21882812.100    21882810.300   114994954.76849  89606454.39147
  21816706.580    21816705.660   114647565.29049  89335764.23647
  24205733.620    24205733.820   127201972.58847  99118407.22645
  21900184.260    21900183.600   115086230.33049  89677573.77947
  22059162.720    22059164.280   115921679.56049  90328583.38247
 18  3 26  9 25  0.0000000  0  7G13G28G20G15G07G05G30
  20294701.560    20294699.960   106649387.83149  83103404.80448
  21384328.140    21384326.820   112375425.39949  87565279.14547
  21874674.180    21874672.440   114952189.33149  89573130.68447
  21802302.060    21802301.160   114571869.02249  89276780.15747
  24223647.900    24223649.020   127296112.01948  99191762.56144
  21916388.800    21916388.420   115171386.62449  89743929.30447
  22074258.300    22074259.540   116001007.12749  90390397.04547
 18  3 26  9 25 30.0000000  0  7G13G28G20G15G07G05G30
  20289899.600    20289897.940   106624153.29549  83083741.52948
  21383571.060    21383570.000   112371447.42149  87562179.42847
  21866642.160    21866640.480   114909980.54748  89540240.71947
  21787949.920    21787948.900   114496448.20149  89218010.67647
  24241575.300    24241575.920   127390315.08848  99265167.42344
  21932664.440    21932664.220   115256915.99749  89810575.55547
  22089396.760    22089397.780   116080559.99849  90452386.27748
 18  3 26  9 26  0.0000000  0  7G13G28G20G15G07G05G30
  20285171.400    20285169.680   106599306.40749  83064380.32448
  21382920.680    21382919.600   112368029.05049  87559515.77047
  21858716.900    21858715.180   114868332.97249  89507788.06347
  21773650.940    21773649.920   114421307.22949  89159459.27347
  24259515.520    24259514.040   127484583.54547  99338623.26244
  21949011.320    21949011.060   115342819.23749  89877513.10547
  22104578.380    22104579.420   116160339.33549  90514551.98648
 18  3 26  9 26 30.0000000  0  7G13G28G20G15G07G05G30
  20280523.160    20280521.560   106574879.88849  83045346.66948
  21382382.760    21382381.480   112365201.43149  87557312.45947
  21850904.740    21850902.920   114827279.79248  89475798.55947
  21759411.680    21759410.580   114346479.85449  89101152.22647
  24277470.420    24277469.940   127578947.01147  99412153.35444
  21965434.940    21965434.600   115429125.64849  89944764.82647
  22119808.760    22119810.040   116240375.16749  90576917.55148
 18  3 26  9 27  0.0000000  0  7G13G28G20G15G07G05G30
  20275942.300    20275940.840   106550807.64349  83026589.09248
  21381944.320    21381943.060   112362897.65549  87555517.31547
  21843193.220    21843191.260   114786755.37548  89444221.10847
  21745219.520    21745218.560   114271900.32549  89043038.31347
  24295432.200    24295431.720   127673337.84349  99485704.53845
  21981922.040    21981921.640   115515765.77849  90012276.59947
  22135074.780    22135076.320   116320598.73349  90639429.39848
 18  3 26  9 27 30.0000000  0  7G13G28G20G15G07G05G30
  20271436.000    20271434.640   106527126.98749  83008136.62448
  21381612.520    21381611.240   112361154.60749  87554159.09447
  21835589.460    21835587.540   114746797.75748  89413085.30847
  21731081.820    21731080.900   114197606.86449  88985147.31347
  24313407.140    24313406.020   127767791.60649  99559304.74645
  21998479.180    21998478.740   115602773.73749  90080075.00447
  22150383.120    22150384.680   116401045.03149  90702114.80147
 18  3 26  9 28  0.0000000  0  7G13G28G20G15G07G05G30
  20267004.700    20267003.300   106503840.34349  82989991.19248
  21381387.660    21381386.200   112359973.05949  87553238.42247
  21828094.040    21828092.420   114707409.73248  89382393.35047
  21716999.200    21716998.340   114123602.87249  88927481.87548
  24331393.940    24331392.260   127862308.53447  99632954.25245
  22015106.060    22015105.600   115690148.21349  90148158.96447
  22165733.820    22165735.100   116481713.71949  90764973.51547
 18  3 26  9 28 30.0000000  0  7G13G28G20G15G07G05G30
  20262652.940    20262651.460   106480971.78249  82972171.53848
  21381274.180    21381272.460   112359375.96949  87552773.16947
  21820711.780    21820710.340   114668615.94848  89352164.43247
  21702976.480    21702975.700   114049913.24649  88870061.39048
  24349394.300    24349394.320   127956910.12748  99706669.88545
  22031806.680    22031806.260   115777910.28749  90216544.97847
  22181130.900    22181131.900   116562626.24149  90828022.23547
 18  3 26  9 29  0.0000000  0  7G13G28G20G15G07G05G30
  20258370.820    20258369.240   106458468.94749  82954636.85548
  21381261.620    21381259.880   112359309.64349  87552721.50047
  21813432.760    21813431.520   114630364.76148  89322358.29647
  21689003.800    21689002.960   113976486.06349  88812845.41947
  24367401.720    24367401.920   128051542.31749  99780409.15644
  22048570.400    22048569.800   115866003.89249  90285189.33747
  22196563.980    22196564.780   116643727.61649  90891218.08947
 18  3 26  9 29 30.0000000  0  7G13G28G20G15G07G05G30
  20254163.500    20254161.860   106436359.07949  82937408.39548
  21381354.860    21381353.400   112359800.64249  87553104.09547
  21806262.180    21806261.000   114592683.67148  89292996.41847
  21675086.400    21675085.580   113903349.34049  88755855.77748
  24385420.680    24385420.140   128146230.09049  99854191.73145
  22065401.740    22065401.140   115954453.16749  90354110.84247
  22212037.720    22212038.460   116725042.40349  90954580.23048
 18  3 26  9 30  0.0000000  0  7G13G28G20G15G07G05G30
  20250031.180    20250029.700   106414643.79949  82920487.40148
  21381554.160    21381552.940   112360849.10849  87553921.08248
  21799200.400    21799199.480   114555574.89148  89264080.46747
  21661224.900    21661223.900   113830505.67649  88699094.48447
  24403450.400    24403449.040   128240972.74848  99928017.09445
  22082300.260    22082299.820   116043256.05449  90423307.86847
  22227551.920    22227552.680   116806569.85149  91018108.08547
 18  3 26  9 30 30.0000000  0  7G13G28G20G15G07G05G30
  20245977.380    20245976.020   106393341.37049  82903888.10448
  21381863.080    21381861.840   112362471.90249  87555185.61148
  21792251.240    21792250.380   114519056.75948  89235624.79047
  21647422.660    21647421.680   113757973.90849  88642576.26048
  24421492.020    24421491.780   128335786.41847 100001897.93346
  22099268.820    22099268.480   116132427.04849  90492791.73147
  22243109.480    22243110.420   116888325.46049  91081813.74247
 18  3 26  9 31  0.0000000  0  7G13G28G20G15G07G05G30
  20241997.120    20241995.780   106372425.31449  82887589.87548
  21382276.220    21382274.780   112364641.60749  87556876.31647
  21785409.640    21785408.780   114483103.49549  89207609.27047
  21633674.960    21633673.920   113685728.64449  88586281.23548
  24439542.100    24439542.620   128430643.13548 100075812.23945
  22116302.100    22116301.640   116221937.03449  90562539.76847
  22258705.000    22258706.100   116970280.36049  91145674.68147
 18  3 26  9 31 30.0000000  0  7G13G28G20G15G07G05G30
  20238090.380    20238089.000   106351895.59349  82871592.69848
  21382792.980    21382791.460   112367357.34149  87558992.47947
  21778675.820    21778674.440   114447715.46949  89180034.18546
  21619981.800    21619980.840   113613770.39849  88530209.89547
  24457601.000    24457600.660   128525540.64649 100149758.23144
  22133399.200    22133398.540   116311782.32649  90632549.05347
  22274337.940    22274339.220   117052431.95749  91209688.91447
 18  3 26  9 32  0.0000000  0  7G13G28G20G15G07G05G30
  20234259.500    20234258.100   106331764.45149  82855906.09948
  21383415.480    21383414.100   112370629.60749  87561542.30547
  21772051.940    21772050.080   114412905.58149  89152909.59547
  21606345.740    21606344.760   113542112.36949  88474372.46848
  24475670.160    24475668.420   128620489.17448 100223743.99844
  22150561.880    22150560.940   116401971.86249  90702826.58947
  22290010.140    22290011.620   117134790.03649  91273864.03747
 18  3 26  9 32 30.0000000  0  7G13G28G20G15G07G05G30
  20230508.360    20230506.900   106312051.93349  82840545.68948
  21384147.600    21384146.240   112374477.12349  87564540.36348
  21765541.840    21765539.740   114378694.18349  89126251.36347
  21592770.700    21592769.800   113470775.11549  88418785.00048
  24493750.240    24493750.140   128715506.27146 100297783.38545
  22167793.240    22167792.060   116492522.02449  90773385.14147
  22305724.880    22305726.500   117217371.83949  91338213.48547
 18  3 26  9 33  0.0000000  0  7G13G28G20G15G07G05G30
  20226831.540    20226830.000   106292729.86449  82825489.53048
  21384983.840    21384982.440   112378870.65849  87567963.90747
  21759140.220    21759138.140   114345053.19149  89100037.59847
  21579251.460    21579250.500   113399731.30049  88363426.18347
  24511838.400    24511839.480   128810562.16248 100371852.87944
  22185087.080    22185085.720   116583401.30449  90844200.17547
  22321476.340    22321477.900   117300146.78549  91402713.42347
 18  3 26  9 33 30.0000000  0  7G13G28G20G15G07G05G30
  20223229.620    20223228.000   106273801.28149  82810739.98548
  21385924.220    21385922.640   112383811.64249  87571814.05247
  21752847.640    21752845.680   114311985.72549  89074270.73447
  21565788.840    21565787.740   113328984.88149  88308299.10347
  24529935.300    24529935.900   128905657.75748 100445953.21244
  22202443.240    22202441.980   116674609.03749  90915271.11947
  22337264.620    22337266.140   117383115.26149  91467364.15047
 18  3 26  9 34  0.0000000  0  7G13G28G20G15G07G05G30
  20219704.260    20219702.540   106255275.00349  82796303.92248
  21386970.040    21386968.360   112389308.03649  87576096.95047
  21746666.180    21746664.280   114279501.62949  89048958.44747
  21552384.560    21552383.420   113258545.43249  88253411.24547
  24548041.260    24548040.660   129000800.00047 100520089.89644
  22219863.020    22219861.960   116766150.86249  90986602.37847
  22353091.100    22353092.660   117466283.83049  91532170.79347
 18  3 26  9 34 30.0000000  0  7G13G28G20G15G07G05G30
  20216259.940    20216258.240   106237174.66149  82782199.76148
  21388125.680    21388124.080   112395381.77249  87580829.72347
  21740600.120    21740598.300   114247624.06349  89024118.78547
  21539043.420    21539042.220   113188437.29749  88198781.51147
  24566157.800    24566158.320   129096009.88247 100594279.48645
  22237350.160    22237349.240   116858046.89949  91058209.64947
  22368959.820    22368961.480   117549673.30849  91597149.59647
 18  3 26  9 35  0.0000000  0  6G13G28G20G15G05G30
  20212883.300    20212881.580   106219430.14349  82768372.87348
  21389377.680    21389376.260   112401961.38149  87585956.71848
  21734636.260    21734634.420   114216283.95149  88999697.91547
  21525752.140    21525751.080   113118591.59649  88144356.30347
  22254890.720    22254889.900   116950223.83249  91130035.81047
  22384856.780    22384858.640   117633211.36749  91662244.18747
 18  3 26  9 35 30.0000000  0  6G13G28G20G15G05G30
  20209590.940    20209589.200   106202128.59849  82754891.14748
  21390742.580    21390741.160   112409133.23649  87591545.18648
  21728791.100    21728789.360   114185568.54848  88975763.84247
  21512527.660    21512526.480   113049096.44249  88090204.22947
  22272500.720    22272500.180   117042765.57149  91202146.24447
  22400797.960    22400800.080   117716982.85949  91727520.66547
 18  3 26  9 36  0.0000000  0  6G13G28G20G15G05G30
  20206371.060    20206369.340   106185208.01749  82741706.27148
  21392207.960    21392206.560   112416833.48149  87597545.38547
  21723053.000    21723051.440   114155416.12949  88952268.43747
  21499358.040    21499356.920   112979890.27149  88036277.36147
  22290167.540    22290167.220   117135606.08049  91274489.46747
  22416771.300    22416773.520   117800923.25949  91792928.73447
 18  3 26  9 36 30.0000000  0  6G13G28G20G15G05G30
  20203231.240    20203229.540   106168708.31049  82728849.35448
  21393780.960    21393779.700   112425100.75349  87603987.40748
  21717429.900    21717428.360   114125866.54249  88929242.78047
  21486251.200    21486250.340   112911013.73849  87982607.35848
  22307898.200    22307897.960   117228781.86449  91347093.92447
  22432783.840    22432786.100   117885069.63049  91858497.29248
 18  3 26  9 37  0.0000000  0  6G13G28G20G15G05G30
  20200169.000    20200167.320   106152616.44849  82716310.24748
  21395459.220    21395457.840   112433920.48449  87610859.92747
  21711919.120    21711917.760   114096907.07949  88906676.96547
  21473204.800    21473203.840   112842454.42449  87929184.49847
  22325689.760    22325689.260   117322276.73849  91419947.06947
  22448832.580    22448834.800   117969406.53649  91924214.33647
 18  3 26  9 37 30.0000000  0  6G13G28G20G15G05G30
  20197184.480    20197182.760   106136932.81549  82704089.22648
  21397242.560    21397241.020   112443291.71249  87618162.19947
  21706520.840    21706519.580   114068538.39549  88884571.50847
  21460219.140    21460218.160   112774214.20249  87876010.32848
  22343541.460    22343540.720   117416087.60349  91493046.42847
  22464917.080    22464919.280   118053932.14949  91990078.42747
 18  3 26  9 38  0.0000000  0  6G13G28G20G15G05G30
  20194277.820    20194276.000   106121658.03849  82692186.80048
  21399130.660    21399129.100   112453213.66349  87625893.58947
  21701235.020    21701233.940   114040761.39548  88862927.06947
  21447294.460    21447293.380   112706294.39849  87823085.80748
  22361452.860    22361452.060   117510212.25949  91566390.30547
  22481037.200    22481039.080   118138644.72749  92056088.20147
 18  3 26  9 38 30.0000000  0  6G13G28G20G15G05G30
  20191449.380    20191447.520   106106793.97649  82680604.42248
  21401123.600    21401122.200   112463686.71349  87634054.41548
  21696062.100    21696060.880   114013577.83449  88841745.08647
  21434431.280    21434430.120   112638697.57649  87770412.96348
  22379423.460    22379422.820   117604648.16549  91639976.68747
  22497192.800    22497194.360   118223543.45648  92122243.04047
 18  3 26  9 39  0.0000000  0  6G13G28G20G15G05G30
  20188699.000    20188697.040   106092340.05849  82669341.62548
  21403220.960    21403219.520   112474708.42249  87642642.76647
  21691002.120    21691000.740   113986987.57649  88821025.39847
  21421629.680    21421628.460   112571424.24449  87717992.20148
  22397452.500    22397452.200   117699391.63049  91713802.74047
  22513383.400    22513384.940   118308625.53949  92188540.74247
 18  3 26  9 39 30.0000000  0  6G13G28G20G15G05G30
  20186027.020    20186025.040   106078298.31549  82658400.01148
  21405423.040    21405421.520   112486280.01849  87651659.60447
  21686055.520    21686054.060   113960993.09948  88800769.94547
  21408890.200    21408888.900   112504477.48649  87665825.90248
  22415539.780    22415539.580   117794441.27049  91787867.39447
  22529608.900    22529610.640   118393890.77549  92254981.17847
 18  3 26  9 40  0.0000000  0  6G13G28G20G15G05G30
  20183432.680    20183430.740   106064664.90349  82647776.56348
  21407728.740    21407727.140   112498396.11749  87661100.72948
  21681221.480    21681220.100   113935590.27048  88780975.54147
  21396212.160    21396210.820   112437853.75249  87613911.30048
  22433683.960    22433683.880   117889790.03749  91862165.09347
  22545868.160    22545869.900   118479332.75749  92321559.31947
 18  3 26  9 40 30.0000000  0  6G13G28G20G15G05G30
  20180917.360    20180915.500   106051447.02849  82637476.92648
  21410138.960    21410137.400   112511061.90349  87670970.17747
  21676501.460    21676500.140   113910786.32448  88761647.80147
  21383597.080    21383595.900   112371561.43549  87562254.95748
  22451885.760    22451885.660   117985441.65149  91936698.82547
  22562162.040    22562163.600   118564956.13249  92388278.81047
 18  3 26  9 41  0.0000000  0  6G13G28G20G15G05G30
  20178480.920    20178479.100   106038643.83049  82627500.40648
  21412653.320    21412652.040   112524275.24149  87681266.28448
  21671895.240    21671893.980   113886580.68248  88742786.26247
  21371045.060    21371044.060   112305600.66349  87510856.96548
  22470144.420    22470144.280   118081391.70749  92011465.06347
  22578489.680    22578491.160   118650757.91049  92455137.30347
 18  3 26  9 41 30.0000000  0  6G13G28G20G15G05G30
  20176122.640    20176120.860   106026251.37949  82617843.94348
  21415270.880    21415269.700   112538030.74049  87691984.85947
  21667402.180    21667400.660   113862969.64849  88724388.04547
  21358555.640    21358554.700   112239968.48449  87459715.00548
  22488458.560    22488458.440   118177632.61049  92086457.95047
  22594849.960    22594851.460   118736731.79349  92522129.93347
 18  3 26  9 42  0.0000000  0  6G13G28G20G15G05G30
  20173843.740    20173842.020   106014276.23649  82608512.65848
  21417992.600    21417991.240   112552333.25449  87703129.69447
  21663023.440    21663021.860   113839959.58948  88706458.12847
  21346130.100    21346129.160   112174672.10149  87408834.71148
  22506828.580    22506828.540   118274167.73349  92161680.08447
  22611243.660    22611245.440   118822881.93048  92589259.89647
 18  3 26  9 42 30.0000000  0  6G13G28G20G15G05G30
  20171644.400    20171642.680   106002718.70049  82599506.79048
  21420818.100    21420816.440   112567181.37049  87714699.67547
  21658759.040    21658757.680   113817550.98648  88688996.88447
  21333768.720    21333767.920   112109712.83649  87358217.11348
  22525254.120    22525254.080   118370993.94549  92237129.06247
  22627670.520    22627672.420   118909206.34848  92656525.64747
 18  3 26  9 43  0.0000000  0  6G13G28G20G15G05G30
  20169523.980    20169522.340   105991575.75749  82590823.97448
  21423746.480    21423744.900   112582570.74749  87726691.40347
  21654608.560    21654607.460   113795740.55248  88672001.73747
  21321470.980    21321470.300   112045088.17849  87307860.25548
  22543733.980    22543733.560   118468104.95349  92312799.97246
  22644129.600    22644131.260   118995699.52349  92723922.92547
 18  3 26  9 43 30.0000000  0  7G13G28G24G20G15G05G30
  20167482.900    20167481.260   105980849.70249  82582466.01248
  21426778.120    21426776.640   112598501.99649  87739105.37047
  24065398.600    24065400.060   126464522.35745  98543793.89644
  21650572.600    21650571.580   113774530.97448  88655474.80347
  21309237.620    21309236.920   111980801.62749  87257766.83248
  22562267.700    22562266.900   118565499.36148  92388691.73747
  22660620.840    22660622.360   119082361.56149  92791451.75147
 18  3 26  9 44  0.0000000  0  7G13G28G24G20G15G05G30
  20165523.260    20165521.660   105970551.66649  82574441.56548
  21429914.880    21429913.220   112614985.14849  87751949.39047
  24046323.580    24046325.220   126364280.54546  98465683.48144
  21646653.040    21646652.040   113753933.15148  88639424.56447
  21297071.020    21297070.380   111916866.01749  87207946.88948
  22580856.580    22580855.960   118663185.50748  92464810.71147
  22677146.200    22677147.800   119169201.87149  92859119.50447
 18  3 26  9 44 30.0000000  0  7G13G28G24G20G15G05G30
  20163641.940    20163640.240   105960665.03949  82566737.70048
  21433152.900    21433151.240   112632001.02949  87765208.53947
  24027272.800    24027274.940   126264166.88345  98387672.87245
  21642846.640    21642845.520   113733930.52348  88623838.08047
  21284968.120    21284967.500   111853264.90449  87158387.58348
  22599497.060    22599496.620   118761142.36649  92541140.70947
  22693701.740    22693703.480   119256200.75749  92926910.82547
 18  3 26  9 45  0.0000000  0  7G13G28G24G20G15G05G30
  20161840.820    20161839.080   105951199.78849  82559362.17948
  21436493.840    21436492.200   112649558.33149  87778889.54747
  24008248.120    24008250.420   126164190.95345  98309769.60345
  21639155.320    21639153.920   113714532.91548  88608723.04547
  21272930.940    21272930.280   111790009.16949  87109097.40948
  22618190.500    22618190.120   118859376.61749  92617686.86847
  22710288.740    22710290.480   119343365.92548  92994831.74247
 18  3 26  9 45 30.0000000  0  6G13G28G20G15G05G30
  20160118.640    20160116.800   105942149.32749  82552309.87448
  21439936.220    21439934.840   112667648.92049  87792986.11648
  21635578.000    21635576.520   113695733.65948  88594074.28247
  21260958.440    21260957.800   111727093.26849  87060072.02948
  22636934.860    22636934.420   118957878.73348  92694441.74846
  22726905.640    22726907.160   119430688.89749  93062875.62247
 18  3 26  9 46  0.0000000  0  6G13G28G20G15G05G30
  20158477.940    20158476.020   105933527.00149  82545591.17948
  21443482.420    21443481.200   112686284.46149  87807507.31047
  21632117.020    21632115.700   113677546.07348  88579902.13947
  21249053.360    21249052.660   111664531.45049  87011322.57748
  22655731.940    22655731.540   119056658.67348  92771413.09447
  22743554.700    22743556.080   119518180.64249  93131051.00347
 18  3 26  9 46 30.0000000  0  6G13G28G20G15G05G30
  20156916.720    20156914.720   105925322.63549  82539198.16048
  21447130.240    21447128.800   112705453.25349  87822444.05247
  21628770.500    21628769.360   113659959.91649  88566198.62347
  21237213.980    21237213.240   111602314.77349  86962842.05448
  22674579.540    22674579.220   119155702.86749  92848590.35847
  22760233.620    22760235.060   119605828.95349  93199348.36647
 18  3 26  9 47  0.0000000  0  7G13G28G24G20G15G05G30
  20155435.860    20155433.940   105917541.02349  82533134.57248
  21450880.200    21450878.360   112725158.42849  87837798.73447
  23932410.020    23932413.540   125765662.41845  97999230.90243
  21625539.520    21625538.160   113642980.06649  88552967.57647
  21225441.440    21225440.440   111540448.88849  86914634.86948
  22693477.820    22693477.480   119255012.71949  92925974.63647
  22776942.880    22776944.420   119693636.31848  93267769.64647
 18  3 26  9 47 30.0000000  0  7G13G28G24G20G15G05G30
  20154038.520    20154036.720   105910198.37249  82527413.02448
  21454734.740    21454732.900   112745414.24649  87853582.50247
  23913520.520    23913523.500   125666397.13745  97921881.38744
  21622426.820    21622425.220   113626622.26048  88540221.22947
  21213738.780    21213737.720   111478950.46449  86866714.02148
  22712428.640    22712428.580   119354600.72848  93003575.59246
  22793684.940    22793686.740   119781616.46648  93336325.59047
 18  3 26  9 48  0.0000000  0  7G13G28G24G20G15G05G30
  20152719.700    20152717.920   105903268.32849  82522012.98248
  21458688.700    21458687.020   112766192.73749  87869773.53947
  23894655.940    23894658.400   125567262.58746  97844633.73844
  21619427.340    21619425.620   113610860.17248  88527939.07347
  21202101.240    21202100.160   111417794.72149  86819060.20348
  22731426.740    22731426.520   119454437.21949  93081370.27845
  22810454.200    22810456.520   119869741.04848  93404994.07947
 18  3 26  9 48 30.0000000  0  7G13G28G24G20G15G05G30
  20151481.740    20151480.020   105896762.74949  82516943.69748
  21462744.020    21462742.380   112787503.80649  87886379.56847
  23875818.640    23875821.000   125468271.45146  97767497.82844
  21616543.480    21616541.800   113595705.43648  88516130.17747
  21190531.320    21190530.200   111356994.51749  86771683.41948
  22750473.940    22750473.260   119554530.77849  93159365.30746
  22827252.960    22827255.340   119958019.76448  93473782.67247
 18  3 26  9 49  0.0000000  0  7G13G28G24G20G15G05G30
  20150323.980    20150322.240   105890678.69549  82512202.88048
  21466899.840    21466898.180   112809343.14249  87903397.25347
  23857008.140    23857010.260   125369420.80745  97690471.41244
  21613774.660    21613773.060   113581154.94749  88504792.13347
  21179028.600    21179027.520   111296547.60049  86724581.93948
  22769569.020    22769568.060   119654874.79349  93237555.43947
  22844080.360    22844082.260   120046447.55748  93542687.40347
 18  3 26  9 49 30.0000000  0  7G13G28G24G20G15G05G30
  20149248.920    20149247.240   105885029.23049  82507800.69348
  21471158.320    21471156.700   112831721.88449  87920835.24648
  23838226.740    23838228.240   125270723.77945  97613564.61243
  21611123.180    21611121.720   113567221.59348  88493934.98347
  21167595.800    21167594.740   111236468.00149  86677766.65348
  22788713.280    22788712.660   119755479.25748  93315948.40347
  22860938.160    22860939.600   120135035.23448  93611716.70347
 18  3 26  9 50  0.0000000  0  7G13G28G24G20G15G05G30
  20148254.140    20148252.520   105879801.85949  82503727.41648
  21475516.720    21475515.300   112854625.79149  87938682.44648
  23819472.320    23819473.880   125172168.43446  97536768.29744
  21608586.720    21608585.340   113553892.46448  88483548.64247
  21156230.740    21156229.820   111176744.47049  86631228.85348
  22807903.920    22807903.760   119856328.30949  93394532.02946
  22877823.600    22877824.980   120223768.09849  93680859.15947
 18  3 26  9 50 30.0000000  0  7G13G28G24G20G15G05G30
  20147341.440    20147339.820   105875005.48949  82499989.98648
  21479976.540    21479975.240   112878062.19349  87956944.56747
  23800746.480    23800748.400   125073763.88346  97460089.47545
  21606166.860    21606165.560   113541176.38748  88473639.99247
  21144935.380    21144934.460   111117386.79049  86584976.12248
  22827142.520    22827142.340   119957427.28849  93473310.45846
  22894738.000    22894739.720   120312653.02449  93750120.12447
 18  3 26  9 51  0.0000000  0  7G13G28G24G20G15G05G30
  20146509.820    20146508.320   105870635.25149  82496584.60448
  21484536.480    21484535.120   112902024.24849  87975616.30947
  23782048.440    23782050.500   124975505.32246  97383524.38144
  21603862.840    21603861.380   113529068.61248  88464205.34647
  21133708.860    21133708.100   111058391.11849  86539005.48548
  22846427.380    22846426.760   120058768.12949  93552277.41846
  22911679.920    22911682.040   120401682.94149  93819494.09247
 18  3 26  9 51 30.0000000  0  7G13G28G24G20G15G05G30
  20145760.680    20145759.160   105866698.34249  82493516.88048
  21489197.460    21489195.820   112926517.30649  87994701.83147
  23763379.660    23763381.460   124877400.44445  97307079.07944
  21601675.900    21601674.220   113517575.56848  88455249.72647
  21122552.820    21122551.880   110999765.37349  86493323.08148
  22865758.660    22865758.000   120160354.42348  93631435.50746
  22928650.420    22928652.480   120490862.93549  93888984.97146
 18  3 26  9 52  0.0000000  0  7G13G28G24G20G15G05G30
  20145093.340    20145091.740   105863191.16049  82490783.99748
  21493958.240    21493956.560   112951535.85249  88014196.81347
  23744739.520    23744740.860   124779446.43645  97230751.28844
  21599605.160    21599603.360   113506693.14148  88446769.93147
  21111466.700    21111465.640   110941507.32449  86447927.19948
  22885134.820    22885134.840   120262179.60948  93710779.67747
  22945648.340    22945649.780   120580187.17149  93958588.24546
 18  3 26  9 52 30.0000000  0  7G13G28G24G20G15G05G30
  20144508.000    20144506.380   105860114.96249  82488386.96448
  21498818.880    21498817.280   112977079.32649  88034100.82747
  23726128.380    23726129.680   124681643.89346  97154541.50045
  21597650.680    21597649.220   113496422.85248  88438767.07747
  21100450.920    21100449.860   110883619.01749  86402819.42648
  22904556.420    22904556.600   120364240.91349  93790307.93547
  22962673.300    22962674.540   120669655.00748  94028303.43246
 18  3 26  9 53  0.0000000  0  7G13G28G24G20G15G05G30
  20144004.500    20144002.800   105857468.89449  82486325.09548
  21503779.080    21503777.600   113003145.46349  88054412.09647
  23707546.080    23707547.340   124583992.90446  97078449.84545
  21595812.340    21595811.220   113486763.24648  88431240.13847
  21089505.520    21089504.520   110826100.87549  86358000.10348
  22924022.560    22924022.440   120466534.52749  93870017.25346
  22979725.000    22979726.700   120759263.54648  94098128.29446
 18  3 26  9 53 30.0000000  0  7G13G28G24G20G15G05G30
  20143582.560    20143580.740   105855251.57449  82484597.30348
  21508838.160    21508836.740   113029730.87449  88075128.00348
  23688992.400    23688993.800   124486492.33946  97002475.42044
  21594090.040    21594089.140   113477712.81349  88424187.82447
  21078630.440    21078629.440   110768952.57549  86313468.95548
  22943532.020    22943531.440   120569055.96048  93949904.10046
  22996803.220    22996805.440   120849009.43849  94168060.11746
 18  3 26  9 54  0.0000000  0  7G13G28G24G20G15G05G30
  20143243.220    20143241.340   105853468.51749  82483207.90348
  21513996.660    21513995.300   113056839.03549  88096251.25848
  23670468.340    23670469.820   124389148.12546  96926622.75944
  21592484.700    21592483.620   113469276.22248  88417613.85747
  21067826.940    21067825.960   110712180.10749  86269230.68148
  22963085.000    22963084.400   120671807.38048  94029970.07646
  23013908.280    23013910.540   120938895.92448  94238101.50247
 18  3 26  9 54 30.0000000  0  7G13G28G24G20G15G05G30
  20142987.300    20142985.420   105852123.76649  82482160.04648
  21519255.040    21519253.660   113084472.22449  88117783.61247
  23651974.840    23651976.480   124291964.39246  96850895.20844
  21590996.940    21590995.580   113461457.31248  88411521.19247
  21057096.000    21057094.940   110655788.85249  86225289.44148
  22982681.920    22982681.280   120774788.92849  94110215.37047
  23031039.980    23031041.980   121028925.00548  94308253.97147
 18  3 26  9 55  0.0000000  0  7G13G28G24G20G15G05G30
  20142813.960    20142812.080   105851212.83549  82481450.23148
  21524612.240    21524610.580   113112624.14549  88139720.19347
  23633511.180    23633512.860   124194937.41746  96775289.84044
  21589625.700    21589624.300   113454251.44548  88405906.22847
  21046437.100    21046436.100   110599775.63649  86181642.79448
  23002321.340    23002320.580   120877993.04549  94190634.14047
  23048197.560    23048199.480   121119090.30448  94378512.60546
 18  3 26  9 55 30.0000000  0  7G13G28G24G20G15G05G30
  20142722.400    20142720.560   105850731.62349  82481075.26148
  21530067.000    21530065.360   113141288.91949  88162056.38447
  23615076.500    23615078.380   124098063.32646  96699803.53745
  21588370.200    21588368.880   113447653.86349  88400765.24847
  21035849.520    21035848.560   110544137.12149  86138288.09648
  23022001.620    23022000.720   120981412.30849  94271220.55746
  23065380.380    23065382.460   121209385.83448  94448872.71947
 18  3 26  9 56  0.0000000  0  7G13G28G24G20G15G05G30
  20142714.240    20142712.440   105850688.57949  82481041.70448
  21535620.440    21535619.100   113170473.02149  88184797.24347
  23596672.580    23596674.720   124001350.71546  96624443.11045
  21587232.240    21587230.820   113441672.94749  88396104.78147
  21025335.040    21025334.160   110488883.08749  86095233.01948
  23041723.700    23041722.620   121085052.12348  94351978.80946
  23082589.200    23082591.680   121299817.88448  94519339.23647
 18  3 26  9 56 30.0000000  0  7G13G28G24G20G15G05G30
  20142789.280    20142787.500   105851082.79949  82481348.89048
  21541272.040    21541270.960   113200173.14949  88207940.19047
  23578299.500    23578301.540   123904799.13946  96549208.09845
  21586211.320    21586209.660   113436306.87549  88391923.41847
  21014893.780    21014892.840   110434013.34649  86052477.36748
  23061486.520    23061485.560   121188907.87548  94432905.32844
  23099823.000    23099825.700   121390383.23748  94589909.63647
 18  3 26  9 57  0.0000000  0  7G13G28G24G20G15G05G30
  20142947.300    20142945.540   105851913.20549  82481995.94948
  21547021.620    21547020.280   113230387.17549  88231483.58347
  23559956.820    23559959.120   123808408.20946  96474098.30946
  21585307.060    21585305.400   113431554.60548  88388220.33447
  21004525.640    21004524.600   110379528.06449  86010021.30148
  23081289.760    23081289.060   121292975.57349  94513997.05746
  23117081.940    23117084.120   121481079.48148  94660581.94447
 18  3 26  9 57 30.0000000  0  7G13G28G24G20G15G05G30
  20143188.260    20143186.460   105853179.43749  82482982.61448
  21552868.520    21552866.780   113261112.24649  88255425.21447
  23541644.600    23541646.940   123712176.89647  96399112.91545
  21584519.220    21584517.500   113427414.99048  88384994.65647
  20994230.660    20994229.660   110325427.84449  85967865.29248
  23101132.680    23101132.360   121397251.10848  94595250.70247
  23134365.560    23134367.400   121571904.12748  94731354.31447
 18  3 26  9 58  0.0000000  0  7G13G28G24G20G15G05G30
  20143512.840    20143511.040   105854885.06749  82484311.67448
  21558813.060    21558811.220   113292350.64749  88279766.82547
  23523363.800    23523366.000   123616110.17147  96324255.76444
  21583848.500    21583846.880   113423891.20048  88382248.83747
  20984009.920    20984009.020   110271717.60849  85926013.16448
  23121015.080    23121015.220   121501734.91648  94676666.57946
  23151673.380    23151676.000   121662858.59148  94802227.93047
 18  3 26  9 58 30.0000000  0  7G13G28G24G20G15G05G30
  20143920.720    20143919.060   105857028.69649  82485982.02648
  21564854.440    21564852.760   113324098.55749  88304505.46547
  23505113.920    23505115.920   123520206.24746  96249525.45144
  21583294.660    21583293.040   113420980.93249  88379981.09447
  20973863.200    20973862.420   110218396.65549  85884464.37848
  23140936.200    23140936.740   121606422.77648  94758241.45746
  23169005.300    23169008.460   121753939.60749  94873200.16746
 18  3 26  9 59  0.0000000  0  7G13G28G24G20G15G05G30
  20144411.180    20144409.500   105859606.01749  82487990.32248
  21570991.520    21570990.000   113356349.86649  88329636.33147
  23486894.360    23486896.240   123424461.93146  96174919.52045
  21582856.880    21582855.240   113418679.90749  88378188.07847
  20963790.060    20963789.160   110165462.19449  85843216.74248
  23160894.940    23160895.360   121711306.58948  94839969.08345
  23186360.800    23186362.860   121845141.22149  94944266.27946
 18  3 26  9 59 30.0000000  0  7G13G28G24G20G15G05G30
  20144985.520    20144983.800   105862624.08949  82490342.05448
  21577225.480    21577223.840   113389109.48449  88355163.30347
  23468706.500    23468708.260   123328884.38946  96100443.51944
  21582536.040    21582534.380   113416993.93748  88376874.33247
  20953791.960    20953790.920   110112921.75149  85802276.13648
  23180892.000    23180892.060   121816390.43548  94921852.55746
  23203740.220    23203740.980   121936468.26448  95015430.15246
 18  3 26 10  0  0.0000000  0  7G13G28G24G20G15G05G30
  20145645.100    20145643.360   105866090.12149  82493042.85648
  21583557.380    21583555.580   113422382.97849  88381090.71047
  23450551.820    23450553.700   123233481.59545  96026103.73145
  21582333.500    21582332.000   113415930.22648  88376045.45847
  20943870.560    20943869.320   110060784.09249  85761649.39348
  23200927.840    23200927.620   121921677.97249  95003894.77046
  23221143.700    23221144.760   122027926.15048  95086696.08046
 18  3 26 10  0 30.0000000  0  7G13G28G24G20G15G05G30
  20146387.820    20146386.180   105869993.11549  82496084.14048
  21589984.340    21589982.760   113456156.99149  88407408.13347
  23432428.360    23432430.320   123138242.22346  95951891.25344
  21582247.080    21582245.760   113415476.83748  88375692.14647
  20934023.840    20934022.460   110009038.88549  85721328.45548
  23220999.700    23220999.280   122027154.71149  95086084.40846
  23238569.820    23238571.440   122119501.89548  95158053.78146
 18  3 26 10  1  0.0000000  0  7G13G28G24G20G15G05G30
  20147213.960    20147212.400   105874334.61049  82499467.12148
  21596506.500    21596505.320   113490431.94349  88434115.86947
  23414336.540    23414338.620   123043169.07546  95877808.28745
  21582277.280    21582275.940   113415635.37949  88375815.68747
  20924252.460    20924250.960   109957689.54049  85681315.97448
  23241107.440    23241106.860   122132819.66149  95168420.66146
  23256018.880    23256020.280   122211195.87448  95229503.55746
 18  3 26 10  1 30.0000000  0  7G13G28G24G20G15G05G30
  20148124.160    20148122.600   105879117.80449  82503194.27748
  21603124.080    21603123.000   113525208.25749  88461214.30247
  23396276.940    23396279.040   122948265.32646  95803857.28545
  21582424.360    21582422.980   113416408.07448  88376417.75847
  20914557.020    20914555.560   109906739.63349  85641614.75448
  23261250.760    23261250.120   122238672.44549  95250903.29347
  23273490.400    23273491.460   122303008.75648  95301046.01946
 18  3 26 10  2  0.0000000  0  7G13G28G24G20G15G05G30
  20149118.880    20149117.360   105884345.21149  82507267.57148
  21609837.340    21609836.080   113560486.66649  88488703.95547
  23378250.020    23378252.180   122853533.80547  95730040.57345
  21582688.560    21582687.180   113417796.32348  88377499.51547
  20904938.220    20904936.920   109856193.04449  85602227.80648
  23281429.500    23281428.720   122344712.29749  95333531.71246
  23290984.400    23290985.920   122394941.27448  95372681.71946
 18  3 26 10  2 30.0000000  0  7G13G28G24G20G15G05G30
  20150197.420    20150195.960   105890013.10049  82511684.11048
  21616645.280    21616643.760   113596261.67349  88516580.59847
  23360255.300    23360257.440   122758971.77846  95656355.93245
  21583069.120    21583067.820   113419796.24849  88379057.87547
  20895395.700    20895394.540   109806047.38849  85563153.26448
  23301642.520    23301641.440   122450932.62148  95416300.77546
  23308500.560    23308502.780   122486988.26548  95444406.59846
 18  3 26 10  3  0.0000000  0  7G13G28G24G20G15G05G30
  20151360.300    20151358.780   105896124.12049  82516445.93648
  21623547.760    21623546.200   113632533.98349  88544844.73147
  23342293.380    23342295.480   122664582.20546  95582805.61946
  21583566.580    21583565.160   113422409.81849  88381094.40247
  20885930.120    20885929.140   109756306.18449  85524393.89048
  23321889.620    23321888.400   122557332.29148  95499209.56446
  23326038.780    23326041.160   122579150.46048  95516221.24646
 18  3 26 10  3 30.0000000  0  7G13G28G24G20G15G05G30
  20152608.280    20152606.680   105902682.28949  82521556.18548
  21630545.000    21630543.700   113669305.03249  88573497.47947
  23324364.980    23324367.240   122570368.74646  95509392.59046
  21584181.400    21584179.760   113425639.99948  88383611.43046
  20876542.500    20876541.560   109706974.16849  85485953.35048
  23342170.820    23342170.020   122663912.08048  95582258.70746
  23343598.780    23343600.900   122671429.52648  95588127.01646
 18  3 26 10  4  0.0000000  0  7G13G28G24G20G15G05G30
  20153940.340    20153938.780   105909682.34649  82527010.77048
  21637635.840    21637634.600   113706568.07349  88602533.61947
  23306469.380    23306471.780   122476327.03346  95436113.37446
  21584912.320    21584910.680   113429481.17848  88386604.53447
  20867232.120    20867231.140   109658047.71749  85447828.84948
  23362484.820    23362484.460   122770664.04548  95665442.01446
  23361179.860    23361181.620   122763819.15948  95660118.88746
 18  3 26 10  4 30.0000000  0  7G13G28G24G20G15G05G30
  20155356.540    20155355.000   105917124.40949  82532809.77248
  21644820.100    21644818.680   113744321.20249  88631951.63747
  23288606.920    23288609.400   122382458.72647  95362969.24546
  21585759.280    21585757.940   113433932.67748  88390073.22547
  20857999.160    20857998.180   109609527.92549  85410021.20748
  23382831.160    23382830.960   122877584.78148  95748756.81146
  23378781.960    23378783.680   122856317.52649  95732195.48147
 18  3 26 10  5  0.0000000  0  7G13G28G24G20G15G05G30
  20156857.840    20156856.280   105925013.61549  82538957.19948
  21652098.260    21652096.700   113782567.43249  88661753.89447
  23270778.100    23270780.900   122288768.13347  95289963.63946
  21586723.200    21586722.100   113438998.74149  88394020.81847
  20848844.820    20848843.840   109561421.24449  85372535.48348
  23403210.120    23403209.920   122984676.46048  95832204.81846
  23396405.260    23396406.980   122948927.92348  95804359.38147
 18  3 26 10  5 30.0000000  0  7G13G28G24G20G15G05G30
  20158444.640    20158443.120   105933352.40549  82545454.95048
  21659470.160    21659468.600   113821307.40649  88691940.88347
  23252983.800    23252986.780   122195258.86547  95217099.29546
  21587804.560    21587803.440   113444681.15048  88398448.63347
  20839769.740    20839768.840   109513731.26649  85335374.46848
  23423621.440    23423621.280   123091938.29248  95915785.39746
  23414049.580    23414051.380   123041651.22448  95876611.30647
 18  3 26 10  6  0.0000000  0  7G13G28G24G20G15G05G30
  20160115.180    20160113.780   105942131.11349  82552295.49948
  21666933.520    21666932.140   113860529.12049  88722503.25347
  23235222.260    23235225.000   122101920.95647  95144368.45945
  21589001.320    21589000.020   113450969.75948  88403348.83747
  20830772.220    20830771.380   109466449.05849  85298531.19148
  23444062.500    23444062.640   123199357.31848  95999488.50746
  23431713.560    23431715.260   123134475.98949  95948942.22947
 18  3 26 10  6 30.0000000  0  7G13G28G24G20G15G05G30
  20161870.160    20161868.760   105951353.57149  82559481.82648
  21674489.100    21674487.820   113900234.35049  88753442.37147
  23217494.360    23217496.720   122008759.38347  95071775.03945
  21590313.820    21590312.520   113457866.94948  88408723.25847
  20821853.280    20821852.420   109419579.69149  85262009.61148
  23464533.540    23464534.100   123306934.21948  96083314.63746
  23449397.680    23449399.280   123227404.20548  96021353.76246
 18  3 26 10  7  0.0000000  0  7G13G28G24G20G15G05G30
  20163710.400    20163708.960   105961024.17949  82567017.34648
  21682137.420    21682136.040   113940425.66849  88784760.28747
  23199801.000    23199802.880   121915778.98748  94999322.80545
  21591742.780    21591741.500   113465376.41048  88414574.77247
  20813014.000    20813013.100   109373129.05349  85225814.29848
  23485035.080    23485035.740   123414670.34948  96167264.79346
  23467101.860    23467103.340   123320438.73048  96093848.15247
 18  3 26 10  7 30.0000000  0  7G13G28G24G20G15G05G30
  20165636.980    20165635.520   105971148.22649  82574906.21448
  21689878.900    21689877.420   113981106.43449  88816459.58347
  23182143.280    23182144.840   121822985.68148  94927016.35846
  21593289.220    21593287.940   113473502.98948  88420907.15147
  20804255.600    20804254.660   109327103.27449  85189950.05348
  23505567.420    23505568.080   123522567.82848  96251340.70546
  23484826.480    23484827.840   123413583.23848  96166428.27846
 18  3 26 10  8  0.0000000  0  7G13G28G24G20G15G05G30
  20167647.380    20167646.020   105981712.89449  82583138.41748
  21697710.500    21697708.980   114022261.28949  88848528.28947
  23164518.520    23164520.000   121730366.48247  94854845.56046
  21594950.540    21594949.120   113482232.74849  88427709.55947
  20795575.740    20795574.820   109281490.36349  85154407.52848
  23526127.360    23526128.220   123630610.88748  96335530.06546
  23502569.500    23502570.660   123506822.84648  96239082.44246
 18  3 26 10  8 30.0000000  0  7G13G28G24G20G15G05G30
  20169743.960    20169742.700   105992730.53349  82591723.57848
  21705634.320    21705632.660   114063901.32149  88880975.06147
  23146929.320    23146931.020   121637935.29647  94782821.29145
  21596728.960    21596727.440   113491577.59649  88434991.24947
  20786977.200    20786976.300   109236304.57249  85119197.80948
  23546716.660    23546717.860   123738808.60248  96419839.91746
  23520332.700    23520334.340   123600168.98748  96311819.63146
 18  3 26 10  9  0.0000000  0  7G13G28G24G20G15G05G30
  20171926.780    20171925.440   106004201.00149  82600661.60148
  21713649.960    21713648.220   114106023.92449  88913797.87747
  23129375.900    23129377.780   121545691.89048  94710943.31346
  21598624.100    21598622.660   113501536.33848  88442751.29047
  20778460.100    20778459.380   109191546.86549  85084321.68448
  23567334.740    23567336.140   123847157.44648  96504267.51846
  23538114.980    23538117.720   123693619.52448  96384638.24846
 18  3 26 10  9 30.0000000  0  7G13G28G24G20G15G05G30
  20174193.560    20174192.100   106016112.75049  82609943.47748
  21721754.840    21721753.200   114148615.31449  88946985.96147
  23111856.200    23111858.180   121453625.48948  94639203.27046
  21600633.700    21600632.240   113512096.55848  88450980.01947
  20770022.380    20770021.740   109147206.30549  85049770.60048
  23587978.940    23587980.240   123955643.18148  96588801.80246
  23555915.120    23555917.620   123787161.33948  96457527.90145
 18  3 26 10 10  0.0000000  0  7G13G28G24G20G15G05G30
  20176545.360    20176543.800   106028471.17549  82619573.41448
  21729949.660    21729948.180   114191679.34249  88980542.33247
  23094371.440    23094373.420   121361742.48148  94567606.12846
  21602758.600    21602757.200   113523262.83049  88459680.99447
  20761665.380    20761664.640   109103289.87449  85015550.00248
  23608649.660    23608650.700   124064268.32248  96673444.69346
  23573734.060    23573735.860   123880798.58848  96530491.88046
 18  3 26 10 10 30.0000000  0  7G13G28G24G20G15G05G30
  20178983.500    20178981.980   106041283.70249  82629557.18248
  21738235.340    21738234.060   114235220.96049  89014470.87047
  23076922.940    23076924.840   121270050.10847  94496157.51546
  21605000.000    21604998.600   113535041.32549  88468859.02147
  20753390.700    20753389.900   109059806.10049  84981666.54448
  23629347.580    23629348.620   124173036.58648  96758199.15046
  23591572.000    23591573.900   123974536.72647  96603534.54846
 18  3 26 10 11  0.0000000  0  7G13G28G24G20G15G05G30
  20181507.680    20181506.240   106054548.47149  82639893.36748
  21746611.220    21746609.780   114279236.53149  89048768.70447
  23059510.440    23059512.420   121178547.60747  94424856.89146
  21607357.420    21607356.000   113547429.54349  88478512.16847
  20745198.240    20745197.280   109016754.29149  84948119.67448
  23650071.900    23650073.140   124281943.72348  96843061.80146
  23609427.900    23609430.300   124068372.42848  96676653.26945
 18  3 26 10 11 30.0000000  0  7G13G28G24G20G15G05G30
  20184116.660    20184115.260   106068258.99549  82650576.87648
  21755075.560    21755073.920   114323717.01449  89083428.82747
  23042132.720    23042134.780   121087228.27547  94353698.96046
  21609829.300    21609827.820   113560419.51048  88488634.21447
  20737086.820    20737085.840   108974128.39649  84914904.69148
  23670820.860    23670822.140   124390979.69248  96928024.82446
  23627301.280    23627303.020   124162297.29148  96749841.38145
 18  3 26 10 12  0.0000000  0  7G13G28G24G20G15G05G30
  20186811.520    20186810.000   106082420.26549  82661611.61948
  21763629.100    21763627.420   114368666.00249  89118454.00947
  23024791.180    23024793.260   120996098.31248  94282688.64247
  21612416.500    21612415.100   113574015.84448  88499228.76047
  20729057.800    20729056.840   108931935.49649  84882027.10248
  23691594.800    23691595.820   124500146.63448  97013089.90446
  23645192.680    23645193.580   124256315.30148  96823102.08045
 18  3 26 10 12 30.0000000  0  7G13G28G24G20G15G05G30
  20189592.500    20189590.920   106097034.65049  82672999.44148
  21772271.880    21772270.200   114414083.97049  89153844.61547
  23007486.380    23007488.460   120905160.79347  94211828.26047
  21615119.380    21615118.120   113588220.04848  88510296.95047
  20721111.900    20721110.860   108890179.15549  84849489.68548
  23712393.480    23712394.240   124609444.11248  97098256.73146
  23663101.660    23663102.980   124350427.33248  96896436.12445
 18  3 26 10 13  0.0000000  0  7G13G28G24G20G15G05G30
  20192458.760    20192457.100   106112096.96649  82684736.29348
  21781002.320    21781000.720   114459962.72149  89189594.27047
  22990217.380    22990219.440   120814410.86848  94141114.03947
  21617936.700    21617935.500   113603025.33248  88521833.51547
  20713248.120    20713247.100   108848854.75149  84817288.86048
  23733215.360    23733216.020   124718863.46248  97183518.50545
  23681027.400    23681029.060   124444626.30749  96969837.90345
 18  3 26 10 13 30.0000000  0  7G13G28G24G20G15G05G30
  20195410.960    20195409.280   106127610.84549  82696825.01748
  21789820.860    21789819.240   114506304.12549  89225704.45947
  22972984.900    22972986.980   120723853.02548  94070549.51346
  21620869.020    21620867.900   113618434.81549  88533840.87347
  20705467.640    20705466.540   108807967.71149  84785428.81248
  23754060.580    23754061.340   124828405.68848  97268876.03345
  23698970.280    23698971.620   124538914.84948  97043309.43145
 18  3 26 10 14  0.0000000  0  7G13G28G24G20G15G05G30
  20198450.000    20198448.260   106143581.21349  82709269.45848
  21798728.000    21798726.380   114553111.32549  89262177.60247
  22955789.880    22955791.940   120633492.52748  94000138.76447
  21623917.020    21623915.860   113634452.25748  88546322.01447
  20697771.480    20697770.340   108767524.00249  84753914.23748
  23774929.480    23774930.180   124938072.43048  97354330.57546
  23716930.180    23716931.420   124633296.11448  97116853.26746
 18  3 26 10 14 30.0000000  0  7G13G28G24G20G15G05G30
  20201574.580    20201572.840   106160001.18949  82722064.22648
  21807721.940    21807720.280   114600375.32949  89299006.68847
  22938631.100    22938633.120   120543323.07148  93929876.89347
  21627079.220    21627078.120   113651069.95448  88559270.85247
  20690158.580    20690157.460   108727517.89549  84722740.64248
  23795820.280    23795820.720   125047854.12848  97439874.70245
  23734906.540    23734907.680   124727761.97248  97190462.98145
 18  3 26 10 15  0.0000000  0  8G13G28G24G20G15G17G05G30
  20204784.440    20204782.740   106176869.14349  82735208.07848
  21816802.040    21816800.380   114648092.13749  89336188.58347
  22921508.640    22921510.540   120453344.00748  93859763.33947
  21630355.000    21630354.000   113668284.52048  88572684.77347
  20682628.760    20682627.700   108687948.54249  84691907.38048
  24789079.660    24789082.560   130267515.91146 101507150.46644
  23816732.160    23816732.380   125157746.11048  97525504.74245
  23752898.780    23752899.520   124822309.19648  97264136.05946
 18  3 26 10 15 30.0000000  0  8G13G28G24G20G15G17G05G30
  20208081.660    20208080.020   106194196.36949  82748709.81148
  21825970.220    21825968.640   114696271.22449  89373730.71547
  22904424.860    22904426.600   120363567.26548  93789807.44647
  21633746.620    21633745.280   113686106.63149  88586572.11847
  20675184.400    20675183.440   108648828.80249  84661424.47348
  24772612.080    24772613.180   130180971.85647 101439713.62344
  23837666.520    23837666.780   125267756.60548  97611227.08746
  23770907.860    23770908.720   124916947.69248  97337880.29646
 18  3 26 10 16  0.0000000  0  8G13G28G24G20G15G17G05G30
  20211462.380    20211460.760   106211962.40749  82762553.46648
  21835222.280    21835220.640   114744890.37649  89411615.77147
  22887375.780    22887377.380   120273973.15648  93719993.87646
  21637249.840    21637248.100   113704515.23148  88600916.47347
  20667822.100    20667821.260   108610139.71249  84631277.12348
  24756165.160    24756165.120   130094537.43247 101372362.19343
  23858618.980    23858619.460   125377862.43047  97697023.78346
  23788930.060    23788931.340   125011655.92748  97411678.87746
 18  3 26 10 16 30.0000000  0  8G13G28G24G20G15G17G05G30
  20214931.540    20214930.040   106230193.08649  82776759.16648
  21844562.600    21844560.740   114793972.77549  89449861.79047
  22870366.540    22870367.920   120184588.25648  93650343.30847
  21640869.080    21640867.320   113723534.42648  88615736.62147
  20660546.840    20660546.000   108571908.01049  84601486.18048
  24739743.500    24739743.140   130008241.23946 101305118.43343
  23879593.920    23879594.560   125488086.31148  97782912.43745
  23806970.580    23806972.000   125106458.17848  97485550.66446
 18  3 26 10 17  0.0000000  0  8G13G28G24G20G15G17G05G30
  20218487.340    20218485.860   106248878.79249  82791319.45248
  21853988.800    21853986.720   114843506.97349  89488459.85247
  22853395.160    22853396.520   120095402.74748  93580848.13147
  21644602.320    21644600.680   113743153.10049  88631023.87947
  20653357.080    20653356.160   108534125.10149  84572044.95048
  24723346.600    24723345.780   129922075.50347 101237976.47442
  23900588.940    23900589.520   125598415.45548  97868883.13546
  23825026.520    23825027.900   125201343.05447  97559486.84747
 18  3 26 10 17 30.0000000  0  8G13G28G24G20G15G17G05G30
  20222129.400    20222127.960   106268017.93349  82806233.04848
  21863499.800    21863497.980   114893488.94049  89527406.82747
  22836461.620    22836462.980   120006416.22648  93511507.98846
  21648449.360    21648447.780   113763368.93249  88646776.46347
  20646252.620    20646251.680   108496790.63949  84542953.16148
  24706974.760    24706974.020   129836042.12247 101170937.52241
  23921603.220    23921603.580   125708845.56148  97954932.49145
  23843097.320    23843098.840   125296307.85348  97633485.32346
 18  3 26 10 18  0.0000000  0  8G13G28G24G20G15G17G05G30
  20225857.060    20225855.700   106287606.51149  82821496.86748
  21873094.860    21873093.560   114943913.34949  89566698.53547
  22819565.360    22819566.760   119917625.92748  93442320.77446
  21652409.160    21652407.540   113784177.22849  88662990.69147
  20639233.000    20639232.060   108459902.19749  84514208.91548
  24690627.960    24690627.720   129750140.14147 101104001.03041
  23942635.420    23942635.540   125819369.94548  98041055.32645
  23861182.920    23861184.540   125391347.51148  97707542.12546
 18  3 26 10 18 30.0000000  0  8G13G28G24G20G15G17G05G30
  20229671.460    20229670.160   106307651.13549  82837116.05248
  21882775.180    21882774.000   114994784.32349  89606338.25547
  22802707.600    22802709.000   119829038.47348  93373291.61346
  21656482.580    21656481.040   113805583.20548  88679670.64947
  20632299.660    20632298.640   108423467.23749  84485818.03448
  24674307.820    24674308.380   129664378.21446 101037173.60344
  23963686.120    23963686.000   125929992.15948  98127254.42744
  23879283.820    23879285.780   125486467.12148  97781661.22646
 18  3 26 10 19  0.0000000  0  8G13G28G24G20G15G17G05G30
  20233572.900    20233571.540   106328153.29349  82853091.73548
  21892540.600    21892539.220   115046101.20849  89646325.42247
  22785888.920    22785890.320   119740656.33448  93304422.42646
  21660669.760    21660668.340   113827587.12648  88696816.54347
  20625453.080    20625452.220   108387488.60549  84457782.72948
  24658015.260    24658015.720   129578760.72846 100970458.72441
  23984755.300    23984754.920   126040711.39348  98213529.09745
  23897399.200    23897401.780   125581666.86848  97855842.85545
 18  3 26 10 19 30.0000000  0  8G13G28G24G20G15G17G05G30
  20237559.820    20237558.600   106349104.81549  82869417.57648
  21902388.900    21902387.300   115097853.57849  89686651.93547
  22769107.840    22769109.280   119652472.15448  93235707.51146
  21664968.980    21664967.680   113850179.55949  88714421.01747
  20618692.020    20618691.200   108351959.19749  84430097.48248
  24641748.940    24641749.540   129493282.10545 100903852.11644
  24005840.800    24005840.260   126151515.61348  98299869.97844
  23915528.600    23915530.940   125676937.29549  97930079.47645
 18  3 26 10 20  0.0000000  0  8G13G28G24G20G15G17G05G30
  20241632.560    20241631.440   106370507.28149  82886094.81848
  21912319.900    21912318.420   115150041.41949  89727317.75347
  22752364.880    22752366.340   119564488.24848  93167148.67146
  21669380.320    21669378.960   113873360.85549  88732484.35547
  20612016.980    20612016.260   108316882.12749  84402764.70248
  24625510.240    24625510.840   129407947.65745 100837357.87643
  24026942.440    24026942.040   126262404.37648  98386276.72544
  23933672.080    23933673.940   125772278.89748  98004371.53945
 18  3 26 10 20 30.0000000  0  8G13G28G24G20G15G17G05G30
  20245792.920    20245791.740   106392369.92449  82903130.62948
  21922335.300    21922333.780   115202672.10749  89768328.65047
  22735662.000    22735663.580   119476714.69748  93098753.73047
  21673905.200    21673903.900   113897139.27648  88751012.96647
  20605430.100    20605429.360   108282267.87349  84375792.55048
  24609301.580    24609301.880   129322768.94546 100770984.90441
  24048061.240    24048061.260   126373383.75948  98472754.10745
  23951829.800    23951832.140   125867699.63947  98078725.32546
 18  3 26 10 21  0.0000000  0  8G13G28G24G20G15G17G05G30
  20250040.320    20250039.000   106414690.25349  82920523.08148
  21932433.960    21932432.240   115255740.33049  89809680.50047
  22718998.840    22719000.600   119389149.52048  93030521.14246
  21678542.980    21678541.640   113921510.83549  88770003.76447
  20598931.020    20598930.260   108248114.97249  84349179.88948
  24593122.300                   129237746.260 4
  24069196.200    24069196.520   126484448.28248  98559297.80745
  23970001.380    23970004.620   125963195.46548  98153137.68645
 18  3 26 10 21 30.0000000  0  7G13G28G24G20G15G05G30
  20254373.140    20254371.720   106437459.27649  82938265.16348
  21942613.880    21942611.980   115309235.41449  89851364.97147
  22702373.620    22702375.640   119301784.08348  92962444.20047
  21683291.700    21683290.420   113946465.47449  88789448.92047
  20592518.220    20592517.500   108214415.40449  84322920.48848
  24090345.120    24090345.280   126595586.30048  98645898.77444
  23988186.480    23988189.500   126058756.48049  98227600.70245
 18  3 26 10 22  0.0000000  0  7G13G28G24G20G15G05G30
  20258792.200    20258790.740   106460681.43049  82956360.33248
  21952875.340    21952873.580   115363159.67149  89893383.86447
  22685787.620    22685789.860   119214624.21748  92894527.46047
  21688151.960    21688150.700   113972006.25049  88809350.82147
  20586192.820    20586192.160   108181175.18249  84297019.01248
  24111508.260    24111508.040   126706799.35948  98732558.18845
  24006385.140    24006387.420   126154385.89248  98302117.02245
 18  3 26 10 22 30.0000000  0  7G13G28G24G20G15G05G30
  20263299.680    20263298.060   106484368.06149  82974817.43048
  21963220.080    21963218.600   115417522.34149  89935744.35547
  22669243.180    22669245.200   119127681.92348  92826780.24046
  21693125.660    21693124.280   113998143.09149  88829717.16247
  20579957.180    20579956.560   108148406.63849  84271485.08848
  24132687.420    24132687.020   126818096.17047  98819282.90045
  24024597.080    24024600.040   126250093.42547  98376694.36546
 18  3 26 10 23  0.0000000  0  7G13G28G24G20G15G05G30
  20267892.240    20267890.560   106508501.91249  82993623.01848
  21973644.660    21973643.220   115472304.03649  89978431.38247
  22652736.960    22652738.500   119040940.43948  92759189.49446
  21698209.320    21698207.860   114024857.49249  88850533.55847
  20573808.260    20573807.680   108116093.88049  84246306.30748
  24153878.680    24153878.680   126929456.64448  98906057.19945
  24042821.140    24042823.900   126345861.09248  98451318.46845
 18  3 26 10 23 30.0000000  0  7G13G28G24G20G15G05G30
  20272571.140    20272569.480   106533089.55249  83012782.20248
  21984149.940    21984148.300   115527509.27949  90021448.44347
  22636270.420    22636271.720   118954407.53848  92691761.26247
  21703403.880    21703402.480   114052154.96649  88871804.28447
  20567747.600    20567746.980   108084244.62649  84221488.70548
  24175082.800    24175083.260   127040884.93348  98992884.35245
  24061058.440    24061060.200   126441694.42548  98525993.65145
 18  3 26 10 24  0.0000000  0  7G13G28G24G20G15G05G30
  20277337.420    20277335.760   106558136.20849  83032299.06848
  21994736.500    21994734.660   115583141.61049  90064798.29647
  22619844.560    22619845.980   118868089.37148  92624500.37347
  21708710.160    21708708.860   114080039.55849  88893532.52547
  20561776.380    20561775.680   108052865.39849  84197037.36048
  24196300.280    24196300.920   127152383.25948  99079766.08045
  24079308.740    24079309.660   126537597.33347  98600723.12646
 18  3 26 10 24 30.0000000  0  8G13G28G24G20G15G17G05G30
  20282191.740    20282190.100   106583645.59849  83052176.49648
  22005404.420    22005402.600   115639202.44949  90108482.06347
  22603460.420    22603462.080   118781990.25348  92557410.20647
  21714128.560    21714127.460   114108513.68148  88915720.12947
  20555895.540    20555894.720   108021961.29149  84172956.23048
  24480723.760                   128647070.286 5
  24217531.420    24217531.840   127263952.60248  99166703.14845
  24097571.600    24097573.080   126633572.32348  98675508.87645
 18  3 26 10 25  0.0000000  0  8G13G28G24G20G15G17G05G30
  20287130.140    20287128.520   106609596.93949  83072398.30648
  22016149.420    22016147.800   115695668.83049  90152481.81847
  22587114.200    22587115.960   118696089.99048  92490474.94547
  21719654.840    21719653.820   114137554.83149  88938349.56547
  20550101.400    20550100.580   107991512.71249  84149230.06048
  24464795.600    24464797.660   128563368.08945 100179263.67443
  24238771.680    24238771.740   127375569.77648  99253677.45945
  24115844.840    24115846.320   126729597.69748  98750333.71446
 18  3 26 10 25 30.0000000  0  8G13G28G24G20G15G17G05G30
  20292156.240    20292154.720   106636009.43049  83092979.45648
  22026975.120    22026973.800   115752558.21549  90196811.19247
  22570809.520    22570811.320   118610408.55748  92423710.21947
  21725292.640    21725291.360   114167181.23449  88961435.06847
  20544397.760    20544396.980   107961539.94749  84125874.65148
  24448902.540    24448903.020   128479851.12446 100114185.55243
  24260024.020    24260024.000   127487250.96448  99340701.67845
  24134131.060    24134132.660   126825691.43647  98825211.84746
 18  3 26 10 26  0.0000000  0  8G13G28G24G20G15G17G05G30
  20297270.460    20297269.000   106662884.73249  83113921.22548
  22037881.340    22037880.100   115809869.96349  90241469.66647
  22554547.040    22554548.840   118524949.13448  92357118.49747
  21731041.860    21731040.420   114197393.05348  88984976.72547
  20538785.260    20538784.400   107932045.94249  84102892.31648
  24433046.000    24433046.080   128396523.94046 100049255.42043
  24281288.100    24281288.300   127598995.04048  99427774.92645
  24152429.600    24152432.080   126921854.13148  98900143.81046
 18  3 26 10 26 30.0000000  0  8G13G28G24G20G15G17G05G30
  20302469.720    20302468.380   106690207.49149  83135211.67848
  22048864.580    22048863.220   115867586.61649  90286443.68047
  22538324.060    22538325.780   118439696.84948  92290688.18447
  21736899.160    21736897.840   114228173.36949  89008961.34847
  20533261.220    20533260.280   107903016.61949  84080272.04748
  24417223.420    24417223.480   128313374.45445  99984463.61141
  24302560.820    24302561.140   127710784.16648  99514883.23046
  24170738.600    24170741.360   127018069.53748  98975116.76746
 18  3 26 10 27  0.0000000  0  8G13G28G24G20G15G17G05G30
  20307755.440    20307754.200   106717984.38149  83156855.99048
  22059925.620    22059924.300   115925713.07649  90331737.01347
  22522141.960    22522143.740   118354659.34248  92224425.20647
  21742865.740    21742864.460   114259527.68649  89033393.27747
  20527827.020    20527826.040   107874459.90049  84058020.06748
  24401436.040    24401436.220   128230412.02145  99919817.67841
  24323842.960    24323843.480   127822622.29448  99602029.74145
  24189058.860    24189061.780   127114343.07248  99050135.02646
 18  3 26 10 27 30.0000000  0  8G13G28G24G20G15G17G05G30
  20313128.580    20313127.420   106746220.41449  83178858.07548
  22071065.200    22071063.940   115984252.09849  90377351.80547
  22506001.820    22506003.660   118269842.31648  92158334.03747
  21748942.180    21748940.960   114291459.35249  89058275.08247
  20522483.960    20522483.000   107846382.18549  84036141.32848
  24385685.480    24385686.120   128147644.88746  99855323.63742
  24345135.040    24345135.600   127934512.13148  99689216.52246
  24207390.800    24207394.140   127210678.78748  99125201.77246
 18  3 26 10 28  0.0000000  0  8G13G28G24G20G15G17G05G30
  20318588.240    20318587.080   106774911.04849  83201214.40348
  22082282.180    22082280.960   116043197.38949  90423283.19747
  22489902.900    22489904.720   118185242.05448  92092411.77147
  21755127.400    21755126.240   114323962.88649  89083602.49547
  20517231.380    20517230.460   107818779.86449  84014633.00548
  24369971.580    24369972.240   128065071.05145  99790980.70643
  24366435.580    24366436.080   128046446.18648  99776437.75546
  24225733.640    24225737.200   127307071.29348  99200312.74646
 18  3 26 10 28 30.0000000  0  7G13G28G24G20G15G05G30
  20324134.200    20324133.040   106804055.33549  83223924.22948
  22093575.920    22093574.360   116102545.59849  90469528.55447
  22473845.120    22473847.220   118100858.70448  92026658.53547
  21761420.980    21761419.740   114357035.66549  89109373.46747
  20512069.400    20512068.460   107791653.41349  83993495.51948
  24387743.760    24387744.320   128158421.38648  99863691.06446
  24244087.100    24244090.480   127403518.53548  99275466.36446
 18  3 26 10 29  0.0000000  0  8G13G28G24G20G15G17G05G30
  20329767.280    20329766.160   106833657.63349  83246990.93048
  22104946.640    22104944.720   116162299.11349  90516089.72747
  22457829.540    22457831.780   118016697.42548  91961078.36247
  21767823.440    21767822.120   114390680.60449  89135590.26247
  20506999.000    20506997.980   107765008.05849  83972732.88848
  24338657.820    24338659.600   127900507.40046  99662743.05743
  24409059.920    24409060.580   128270438.37148  99950976.92445
  24262451.640    24262454.500   127500023.68348  99350665.10046
 18  3 26 10 29 30.0000000  0  8G13G28G24G20G15G17G05G30
  20335487.560    20335486.460   106863718.01349  83270414.58448
  22116393.840    22116392.300   116222456.08249  90562965.24447
  22441856.560    22441858.680   117932759.36148  91895672.09547
  21774334.500    21774333.180   114424896.41649  89162251.92547
  20502020.500    20502019.400   107738845.53549  83952346.50948
  24323059.980    24323061.020   127818538.08846  99598870.89944
  24430383.700    24430384.360   128382495.56248 100038294.11945
  24280826.660    24280829.340   127596586.06348  99425908.49946
 18  3 26 10 30  0.0000000  0  8G13G28G24G20G15G17G05G30
  20341293.600    20341292.420   106894229.01449  83294189.37448
  22127916.040    22127915.000   116283006.99449  90610147.75647
  22425924.920    22425926.840   117849037.65448  91830434.41847
  21780952.440    21780951.200   114459674.31148  89189351.54947
  20497132.620    20497131.480   107713159.63749  83932331.51748
  24307500.580    24307500.940   127736770.54547  99535155.98243
  24451713.260    24451713.700   128494582.86748 100125634.77645
  24299211.160    24299214.040   127693197.51048  99501190.05645
 18  3 26 10 30 30.0000000  0  8G13G28G24G20G15G17G05G30
  20347186.180    20347184.980   106925194.56549  83318318.35848
  22139514.020    22139512.920   116343953.86349  90657638.82747
  22410035.340    22410037.180   117765537.15148  91765369.12147
  21787677.780    21787676.560   114495016.59549  89216890.97947
  20492336.480    20492335.320   107687955.54949  83912691.96248
  24291980.740    24291981.120   127655211.53147  99471603.55644
  24473048.860    24473048.900   128606701.52748 100212999.87345
  24317606.000    24317609.320   127789860.84548  99576512.06146
 18  3 26 10 31  0.0000000  0  8G13G28G24G20G15G17G05G30
  20353166.380    20353165.140   106956620.51849  83342806.10448
  22151188.220    22151186.840   116405300.44349  90705441.33447
  22394189.240    22394191.080   117682265.43048  91700482.08747
  21794511.420    21794510.120   114530927.59248  89244873.57247
  20487633.360    20487632.120   107663240.19249  83893433.23448
  24276501.740    24276502.320   127573869.54347  99408220.15444
  24494391.180    24494391.060   128718855.33748 100300392.32445
  24336011.300    24336015.080   127886580.90247  99651878.30546
 18  3 26 10 31 30.0000000  0  8G13G28G24G20G15G17G05G30
  20359233.540    20359232.280   106988503.52549  83367649.98748
  22162937.160    22162935.480   116467041.16649  90753550.96647
  22378386.160    22378387.840   117599219.20448  91635770.75147
  21801452.360    21801451.200   114567402.63348  89273295.64547
  20483022.780    20483021.500   107639011.29449  83874553.57148
  24261064.060    24261065.000   127492744.63947  99345006.00644
  24515738.920    24515738.760   128831037.44648 100387806.85045
  24354425.900    24354428.980   127983353.38447  99727285.39745
 18  3 26 10 32  0.0000000  0  8G13G28G24G20G15G17G05G30
  20365385.800    20365384.540   107020833.57849  83392842.21548
  22174758.820    22174756.740   116529164.43549  90801958.72046
  22362624.340    22362626.020   117516389.97148  91571228.49047
  21808498.480    21808497.320   114604430.18848  89302148.25947
  20478503.140    20478501.800   107615260.27649  83856046.27048
  24245666.320    24245667.160   127411829.71346  99281955.43344
  24537089.640    24537089.620   128943235.83748 100475234.09445
  24372849.240    24372850.800   128080167.70648  99802725.01645
 18  3 26 10 32 30.0000000  0  8G13G28G24G20G15G17G05G30
  20371624.460    20371623.260   107053617.94249  83418388.46548
  22186654.240    22186652.320   116591675.69149  90850668.77047
  22346905.300    22346907.120   117433785.65048  91506861.50947
  21815650.880    21815649.740   114642015.98348  89331435.85647
  20474076.080    20474074.700   107591995.76649  83837918.06648
  24230310.640    24230311.180   127331135.46647  99219076.82445
  24558444.400    24558444.580   129055455.78248 100562678.10745
  24391282.180    24391283.720   128177030.20747  99878202.17745
 18  3 26 10 33  0.0000000  0  8G13G28G24G20G15G17G05G30
  20377951.580    20377950.360   107086866.71449  83444296.57948
  22198624.920    22198623.380   116654582.41249  90899686.97347
  22331231.280    22331233.120   117351417.68848  91442678.69647
  21822911.100    21822909.900   114680168.44248  89361165.04547
  20469743.680    20469742.300   107569228.90349  83820177.65548
  24214999.440    24214999.780   127250674.15847  99156379.77844
  24579804.700    24579805.080   129167704.43348 100650144.47945
  24409724.680    24409728.360   128273949.67546  99953723.93846
 18  3 26 10 33 30.0000000  0  8G13G28G24G20G15G17G05G30
  20384363.720    20384362.540   107120562.56449  83470553.05848
  22210667.240    22210666.040   116717865.70948  90948998.61746
  22315599.040    22315600.800   117269269.56048  91378667.18247
  21830275.580    21830274.480   114718869.13348  89391321.40947
  20465503.020    20465501.660   107546943.87149  83802812.68348
  24199729.980    24199730.320   127170432.30447  99093853.69945
  24601166.680    24601167.180   129279961.78648 100737617.65345
  24428175.160    24428179.020   128370908.74248 100029276.28844
 18  3 26 10 34  0.0000000  0  8G13G28G24G20G15G17G05G30
  20390862.060    20390860.920   107154711.56849  83497162.66448
  22222781.920    22222780.840   116781529.79948  90998606.96046
  22300009.960    22300011.460   117187348.23448  91314832.39947
  21837745.120    21837744.220   114758122.20348  89421908.17046
  20461355.380    20461354.120   107525147.76849  83785828.69748
  24184503.800    24184504.420   127090418.98747  99031505.67644
  24622531.180    24622531.680   129392231.80148 100825100.63944
  24446634.860    24446637.160   128467912.35648 100104863.39744
 18  3 26 10 34 30.0000000  0  8G13G28G24G20G15G17G05G30
  20397446.920    20397445.780   107189315.35749  83524126.62448
  22234969.180    22234967.840   116845574.03349  91048511.54347
  22284464.540    22284465.900   117105656.51148  91251176.50547
  21845319.900    21845318.960   114797927.93348  89452925.61146
  20457301.360    20457300.100   107503843.61849  83769228.05848
  24169322.040    24169322.840   127010639.07247  98969339.53644
  24643897.900    24643898.520   129504513.85848 100912593.04444
  24465103.260    24465104.760   128564961.37446 100180485.90245
 18  3 26 10 35  0.0000000  0  8G13G28G24G20G15G17G05G30
  20404120.540    20404119.280   107224385.24949  83551453.79848
  22247230.780    22247229.080   116910007.97049  91098719.81846
  22268965.020    22268966.520   117024206.63048  91187709.06347
  21853001.660    21853000.620   114838295.89648  89484381.11847
  20453343.280    20453342.000   107483043.77249  83753020.38048
  24154187.500    24154188.020   126931106.60647  98907366.27444
  24665268.280    24665269.120   129616816.63848 101000101.57345
  24483580.760    24483583.880   128662066.04745 100256151.93646
 18  3 26 10 35 30.0000000  0  8G13G28G24G20G15G17G05G30
  20410878.520    20410877.240   107259898.65549  83579126.57048
  22259561.680    22259559.960   116974807.02749  91149212.57547
  22253507.500    22253509.220   116942977.45648  91124413.62147
  21860785.780    21860784.640   114879202.00448  89516255.96846
  20449477.180    20449475.740   107462727.00149  83737189.12048
  24139096.540    24139096.340   126851801.96847  98845570.44744
  24686637.680    24686638.900   129729114.98647 101087606.69745
  24502065.420    24502068.960   128759203.28948 100331843.19544
 18  3 26 10 36  0.0000000  0  8G13G28G24G20G15G17G05G30
  20417721.740    20417720.380   107295859.93249  83607148.32048
  22271962.400    22271960.940   117039973.38449  91199991.55147
  22238092.940    22238094.760   116861973.85348  91061293.92947
  21868672.900    21868671.720   114920649.09948  89548552.39247
  20445704.020    20445702.440   107442898.69949  83721738.49448
  24124050.200    24124049.600   126772732.66847  98783958.03043
  24708006.960    24708008.340   129841411.20548 101175110.07445
  24520558.000    24520560.920   128856376.74148 100407562.61444
 18  3 26 10 36 30.0000000  0  8G13G28G24G20G15G17G05G30
  20424652.000    20424650.620   107332278.67849  83635526.53748
  22284434.500    22284433.340   117105514.74949  91251062.71847
  22222723.360    22222725.260   116781206.92548  90998358.65147
  21876664.560    21876663.320   114962645.37548  89581276.73446
  20442025.920    20442024.320   107423570.15549  83706677.28248
  24109051.000    24109050.800   126693911.68146  98722539.14146
  24729377.220    24729378.760   129953712.76147 101262617.67044
  24539059.480    24539061.100   128953595.29445 100483317.22044
 18  3 26 10 37  0.0000000  0  7G13G28G24G20G15G17G05
  20431671.580    20431670.200   107369166.61049  83664270.37048
  22296979.960    22296978.880   117171441.17949  91302433.93747
  22207401.260    22207403.220   116700689.44548  90935617.79747
  21884762.680    21884761.340   115005200.95448  89614436.91146
  20438445.280    20438443.740   107404754.07849  83692015.39748
  24094101.820    24094102.240   126615353.80646  98661325.21344
  24750750.280    24750751.960   130066028.88647 101350136.58144
 18  3 26 10 37 30.0000000  0  7G13G28G24G20G15G05G30
  20438776.280    20438774.900   107406502.32849  83693363.11148
  22309594.180    22309593.020   117237729.18249  91354086.92047
  22192122.740    22192124.660   116620400.23849  90873054.78547
  21892962.820    21892961.520   115048292.62348  89648014.80947
  20434958.220    20434956.920   107386430.16649  83677737.02248
  24772121.520    24772123.080   130178335.01447 101437647.76744
  24576084.480    24576088.240   129148194.12347 100634971.17243
 18  3 26 10 38  0.0000000  0  8G13G28G24G20G15G17G05G30
  20445965.400    20445964.060   107444281.25949  83722801.22248
  22322275.800    22322274.540   117304372.11249  91406016.43347
  22176887.140    22176889.120   116540336.55748  90810667.51347
  21901263.740    21901262.560   115091914.28948  89682005.68046
  20431564.220    20431563.000   107368595.03849  83663839.51348
  24064342.820    24064344.140   126458975.06544  98539466.69846
  24793489.880    24793491.260   130290625.02147 101525146.34145
  24594607.820    24594611.060   129245531.31947 100710818.22343
 18  3 26 10 38 30.0000000  0  8G13G28G24G20G15G17G05G30
  20453240.780    20453239.560   107482513.47449  83752592.53848
  22335026.560    22335025.140   117371378.19749  91458228.94546
  22161696.500    22161698.540   116460509.37848  90748464.53747
  21909667.120    21909666.020   115136074.19748  89716415.96546
  20428265.400    20428264.220   107351259.91949  83650331.61848
  24049535.160    24049535.800   126381160.81546  98478829.03145
  24814856.320    24814857.840   130402906.45047 101612638.24743
  24613138.820    24613141.800   129342906.54647 100786694.89443
 18  3 26 10 39  0.0000000  0  7G13G28G24G20G15G17G05
  20460603.660    20460602.500   107521205.36449  83782742.04948
  22347847.540    22347845.780   117438752.41349  91510728.34046
  22146552.500    22146554.560   116380927.08749  90686452.36647
  21918173.880    21918172.780   115180777.53548  89751249.72146
  20425063.340    20425062.140   107334432.98549  83637219.72048
  24034778.320    24034778.980   126303614.07746  98418403.03944
  24836222.080    24836223.720   130515183.82047 101700126.94543
 18  3 26 10 39 30.0000000  0  6G13G28G24G20G15G17
  20468051.180    20468050.060   107560342.26549  83813238.32048
  22360735.380    22360733.620   117506477.66549  91563501.25347
  22131452.340    22131454.500   116301575.24248  90624619.80348
  21926781.040    21926779.760   115226007.82848  89786494.07246
  20421955.500    20421954.360   107318100.94249  83624493.44248
  24020070.080    24020070.480   126226321.74146  98358175.33545
 18  3 26 10 40  0.0000000  0  6G13G28G24G20G15G17
  20475586.120    20475585.100   107599938.62349  83844092.60748
  22373692.440    22373690.820   117574566.38249  91616557.37447
  22116398.840    22116401.060   116222468.67849  90562978.34547
  21935490.880    21935489.560   115271777.74748  89822158.92447
  20418944.680    20418943.580   107302278.64049  83612164.37148
  24005413.600    24005414.160   126149301.46147  98298159.53245
 18  3 26 10 40 30.0000000  0  6G13G28G24G20G15G17
  20483205.820    20483204.820   107639980.36249  83875293.94648
  22386715.680    22386714.180   117643003.23749  91669884.77547
  22101389.980    22101392.040   116143596.25349  90501519.29847
  21944300.480    21944299.200   115318072.04848  89858232.35346
  20416028.480    20416027.280   107286953.56449  83600222.75248
  23990807.040    23990807.700   126072542.50647  98238347.46345
 18  3 26 10 41  0.0000000  0  6G13G28G24G20G15G17
  20490910.900    20490909.880   107680470.92849  83906845.01748
  22399805.160    22399803.820   117711789.34749  91723484.31046
  22086426.360    22086428.320   116064961.19849  90440245.26247
  21953210.080    21953208.820   115364891.97548  89894715.40246
  20413207.720    20413206.580   107272130.43649  83588672.25648
  23976251.620    23976252.240   125996051.56348  98178744.16845
 18  3 26 10 41 30.0000000  0  6G13G28G24G20G15G17
  20498702.760    20498701.720   107721417.48449  83938751.40848
  22412962.020    22412960.840   117780930.01448  91777360.13547
  22071509.680    22071511.420   115986572.64549  90379163.27547
  21962220.620    21962219.480   115412243.21948  89931612.44846
  20410484.060    20410483.000   107257817.86649  83577519.60048
  23961748.980    23961749.100   125919838.92648  98119357.74345
 18  3 26 10 42  0.0000000  0  6G13G28G24G20G15G17
  20506579.480    20506578.400   107762809.76649  83971005.11048
  22426184.100    22426182.920   117850413.15248  91831502.79847
  22056637.900    22056639.480   115908421.03049  90318265.92647
  21971330.140    21971329.040   115460114.03348  89968914.35047
  20407855.840    20407854.900   107244006.52449  83566757.50548
  23947297.760    23947297.440   125843897.49548  98060182.64045
 18  3 26 10 42 30.0000000  0  6G13G28G24G20G15G17
  20514543.180    20514541.940   107804659.12449  84003614.97748
  22439473.360    22439471.960   117920248.24149  91885919.74047
  22041813.600    22041815.140   115830519.17349  90257563.17448
  21980540.440    21980539.240   115508514.16348  90006628.68847
  20405325.440    20405324.480   107230709.04349  83556395.81948
  23932900.760    23932900.260   125768242.00547  98001230.32945
 18  3 26 10 43  0.0000000  0  6G13G28G24G20G15G17
  20522592.060    20522590.720   107846956.14849  84036573.68548
  22452827.660    22452826.140   117990424.28949  91940602.37346
  22027035.380    22027036.920   115752859.17149  90197048.90648
  21989849.280    21989847.900   115557431.96648  90044746.44546
  20402891.280    20402890.200   107217917.27249  83546428.20248
  23918557.120    23918556.680   125692866.16747  97942495.93945
 18  3 26 10 43 30.0000000  0  6G13G28G24G20G15G17
  20530726.180    20530724.740   107889700.98749  84069881.32548
  22466246.460    22466245.160   118060939.80549  91995549.50246
  22012303.360    22012305.040   115675441.72549  90136723.64647
  21999256.380    21999254.920   115606866.46848  90083266.79546
  20400553.640    20400552.520   107205632.76049  83536855.84648
  23904267.400    23904267.240   125617773.48447  97883982.18645
 18  3 26 10 44  0.0000000  0  6G13G28G24G20G15G17
  20538946.140    20538944.740   107932897.34549  84103540.80648
  22479729.860    22479728.800   118131796.18348  92050762.23446
  21997618.480    21997620.240   115598272.15049  90076591.53448
  22008762.160    22008760.700   115656819.40648  90122191.15246
  20398313.480    20398312.320   107193860.43749  83527682.60449
  23890032.720    23890032.980   125542970.46148  97825694.16544
 18  3 26 10 44 30.0000000  0  7G13G28G24G20G15G17G19
  20547251.700    20547250.420   107976543.65749  84137550.90348
  22493277.160    22493276.320   118202989.60748  92106237.59446
  21982980.560    21982982.340   115521349.84449  90016652.09347
  22018365.880    22018364.480   115707287.31748  90161516.75946
  20396170.560    20396169.340   107182599.02049  83518907.45748
  23875853.480    23875853.980   125468458.39648  97767632.86944
  24748162.980    24748152.580   130052485.06546 101339604.57543
 18  3 26 10 45  0.0000000  0  6G13G28G24G20G15G17
  20555641.180    20555640.020   108020631.10549  84171904.73448
  22506886.900    22506886.020   118274509.93849  92161967.70846
  21968388.260    21968389.920   115444667.17649  89956899.33747
  22028065.680    22028064.180   115758259.88448  90201235.62046
  20394123.540    20394122.360   107171841.51849  83510524.98249
  23861728.780    23861729.600   125394232.37348  97709794.44345
 18  3 26 10 45 30.0000000  0  7G13G28G24G20G15G17G19
  20564117.660    20564116.580   108065175.46149  84206614.58948
  22520561.880    22520560.680   118346371.74149  92217963.90646
  21953844.840    21953846.620   115368241.56749  89897346.96947
  22037864.180    22037862.620   115809751.39348  90241358.85246
  20392175.680    20392174.520   107161605.22449  83502548.64748
  23847661.960    23847662.840   125320311.39748  97652193.74644
  24708290.040    24708289.980   129842938.18945 101176333.75643
 18  3 26 10 46  0.0000000  0  7G13G28G24G20G15G17G19
  20572678.280    20572677.220   108110161.48949  84241668.62448
  22534298.540    22534296.900   118418557.36349  92274212.43046
  21939347.660    21939349.560   115292058.81049  89837983.82347
  22047758.140    22047756.540   115861744.44948  90281872.90946
  20390324.340    20390323.100   107151876.03349  83494967.44948
  23833651.020    23833651.420   125246683.40848  97594821.28044
  24688377.280    24688374.920   129738294.75744 101094756.65043
 18  3 26 10 46 30.0000000  0  7G13G28G24G20G15G17G19
  20581324.240    20581323.220   108155596.02949  84277072.14448
  22548097.760    22548095.980   118491072.18648  92330717.46446
  21924898.300    21924900.140   115216126.80649  89778816.02347
  22057748.480    22057747.000   115914244.16348  90322781.74746
  20388570.900    20388569.680   107142661.60749  83487787.36448
  23819697.720    23819697.480   125173358.11448  97537684.73144
  24668481.160    24668477.840   129633743.32545 101013290.44245
 18  3 26 10 47  0.0000000  0  7G13G28G24G20G15G17G19
  20590052.740    20590051.740   108201464.33049  84312813.65048
  22561956.420    22561954.900   118563899.52848  92387466.00447
  21910494.120    21910495.860   115140432.30849  89719833.29347
  22067832.120    22067830.880   115967234.57548  90364072.94046
  20386912.960    20386911.760   107133948.98949  83480998.30348
  23805800.040    23805799.500   125100324.65848  97480775.63044
  24648600.340    24648597.980   129529268.49347 100931881.59644
 18  3 26 10 47 30.0000000  0  7G13G28G24G20G15G17G19
  20598868.540    20598867.540   108247791.64349  84348912.84148
  22575878.820    22575877.800   118637062.78048  92444476.29946
  21896140.240    21896142.080   115065002.40749  89661056.77148
  22078013.640    22078012.560   116020739.11548  90405764.75946
  20385355.400    20385354.240   107125764.28749  83474620.60348
  23791963.040    23791963.000   125027611.21648  97424115.85845
  24628740.140    24628738.140   129424901.54747 100850556.75244
 18  3 26 10 48  0.0000000  0  7G13G28G24G20G15G17G19
  20607768.840    20607767.780   108294563.00949  84385358.03648
  22589861.940    22589861.160   118710545.53148  92501735.54746
  21881834.100    21881835.940   114989822.92949  89602475.36848
  22088289.860    22088288.880   116074741.10248  90447844.19046
  20383895.720    20383894.620   107118094.02149  83468643.76048
  23778184.720    23778185.460   124955206.79948  97367696.80745
  24608898.360    24608896.460   129320631.73846 100769307.59345
 18  3 26 10 48 30.0000000  0  7G13G28G24G20G15G17G19
  20616754.840    20616753.780   108341784.43449  84422153.93248
  22603906.900    22603905.900   118784351.75549  92559246.88446
  21867576.980    21867578.780   114914901.05549  89544094.71247
  22098661.620    22098660.580   116129244.53648  90490314.35546
  20382535.280    20382534.280   107110945.02949  83463073.10948
  23764466.820    23764468.080   124883119.27648  97311524.75145
  24589076.800    24589075.080   129216468.36947 100688141.34245
 18  3 26 10 49  0.0000000  0  7G13G28G24G20G15G17G19
  20625824.500    20625823.380   108389445.65949  84459292.54548
  22618011.340    22618009.760   118858469.41749  92617000.89846
  21853367.200    21853368.880   114840227.92649  89485907.85448
  22109126.500    22109125.400   116184237.24448  90533165.76746
  20381272.300    20381271.280   107104308.14349  83457901.49948
  23750808.220    23750809.100   124811342.23948  97255594.63145
  24569274.120    24569272.480   129112404.60745 100607052.73745
 18  3 26 10 49 30.0000000  0  6G13G28G24G20G15G17
  20634981.120    20634979.960   108437563.84649  84496787.20148
  22632177.900    22632175.960   118932914.13849  92675009.77046
  21839208.340    21839210.040   114765822.37049  89427929.52748
  22119687.400    22119686.260   116239734.82848  90576410.61946
  20380110.300    20380109.400   107098201.88649  83453143.37349
  23737212.660    23737212.900   124739896.29848  97199922.50645
 18  3 26 10 50  0.0000000  0  7G13G28G24G20G15G17G19
  20644219.880    20644218.760   108486113.83149  84534618.32748
  22646401.300    22646399.540   119007659.09148  92733252.56746
  21825095.860    21825097.520   114691660.40349  89370140.97648
  22130339.280    22130338.140   116295710.53648  90620028.01947
  20379044.700    20379043.840   107092602.47249  83448780.17749
  23723675.820    23723676.000   124668759.55048  97144491.33946
  24529733.060    24529732.760   128904615.46846 100445154.30445
 18  3 26 10 50 30.0000000  0  7G13G28G24G20G15G17G19
  20653543.100    20653541.860   108535107.54349  84572795.24048
  22660683.640    22660682.400   119082714.45348  92791737.23046
  21811032.280    21811033.940   114617755.54749  89312552.79148
  22141084.120    22141083.020   116352174.34948  90664025.76346
  20378078.120    20378077.180   107087522.92649  83444822.07949
  23710200.620    23710200.940   124597947.21948  97089312.90846
  24509994.600    24509994.460   128800888.41146 100364328.04544
 18  3 26 10 51  0.0000000  0  7G13G28G24G20G15G17G19
  20662950.780    20662949.580   108584545.43049  84611318.24248
  22675024.960    22675024.140   119158078.82948  92850462.68846
  21797017.780    21797019.280   114544108.72449  89255165.66648
  22151921.520    22151920.440   116409124.88448  90708402.78346
  20377210.680    20377209.680   107082964.46949  83441270.03048
  23696787.760    23696788.300   124527463.08948  97034390.26445
  24490278.940    24490279.040   128697281.35145 100283595.31846
 18  3 26 10 51 30.0000000  0  7G13G28G24G20G15G17G19
  20672441.940    20672440.780   108634421.55549  84650182.73948
  22689423.780    22689422.960   119233744.75848  92909423.14546
  21783051.660    21783053.100   114470716.39449  89197976.84147
  22162849.940    22162849.000   116466554.44548  90753153.04347
  20376441.580    20376440.480   107078922.69549  83438120.58448
  23683437.020    23683437.220   124457304.34648  96979721.12045
  24470585.660    24470585.600   128593792.29345 100202954.52244
 18  3 26 10 52  0.0000000  0  6G13G28G24G20G15G17
  20682018.560    20682017.440   108684746.74649  84689397.15148
  22703881.660    22703880.660   119309720.97649  92968625.37546
  21769136.100    21769137.540   114397590.13249  89140995.35148
  22173871.180    22173870.340   116524472.16148  90798283.73346
  20375773.060    20375771.800   107075409.33149  83435382.88348
  23670150.920    23670150.720   124387484.82848  96925316.37445
 18  3 26 10 52 30.0000000  0  6G13G28G24G20G15G17
  20691677.600    20691676.560   108735505.48149  84728949.37548
  22718395.600    22718394.300   119385991.12348  93028056.64446
  21755268.620    21755270.200   114324716.54849  89084210.73448
  22184982.140    22184981.280   116582861.00848  90843781.47046
  20375202.460    20375201.180   107072410.47749  83433046.10548
  23656927.100    23656926.820   124317992.91448  96871166.87245
 18  3 26 10 53  0.0000000  0  7G13G28G24G20G15G17G19
  20701421.000    20701419.980   108786707.25149  84768846.85248
  22732966.720    22732965.360   119462562.81348  93087722.87946
  21741451.260    21741452.920   114252105.75549  89027630.90748
  22196184.300    22196183.300   116641728.42248  90889652.14147
  20374731.740    20374730.460   107069936.55349  83431118.36849
  23643767.900    23643767.920   124248841.27948  96817282.51445
  24411652.220    24411651.400   128284093.90945  99961642.89244
 18  3 26 10 53 30.0000000  0  7G13G28G24G20G15G17G19
  20711248.620    20711247.640   108838351.84849  84809089.36248
  22747594.700    22747593.560   119539434.34148  93147622.74146
  21727684.160    21727685.880   114179759.22749  88971257.02448
  22207477.160    22207476.220   116701072.42448  90935894.17346
  20374361.080    20374359.900   107067988.66949  83429600.53349
  23630674.120    23630674.560   124180033.28748  96763665.91845
  24392059.420    24392058.960   128181131.88145  99881412.87244
 18  3 26 10 54  0.0000000  0  7G13G28G24G20G15G17G19
  20721159.060    20721158.060   108890431.66449  84849671.01948
  22762278.040    22762277.040   119616596.07648  93207748.74446
  21713966.260    21713967.940   114107671.20749  88915084.51948
  22218858.740    22218858.080   116760883.50848  90982500.20546
  20374089.220    20374088.080   107066560.33249  83428487.53748
  23617644.840    23617645.300   124111563.93048  96710313.21945
  24372492.300    24372491.580   128078304.78945  99801288.01641
 18  3 26 10 54 30.0000000  0  7G13G28G24G20G15G17G19
  20731152.120    20731150.980   108942945.21849  84890590.64648
  22777016.080    22777015.040   119694044.80248  93268098.38046
  21700297.340    21700299.120   114035841.16849  88859113.07248
  22230328.720    22230328.120   116821158.34248  91029467.58446
  20373916.140    20373914.980   107065651.08249  83427779.01848
  23604680.320    23604680.300   124043435.11548  96657225.84945
  24352951.480                   127975615.047 7
 18  3 26 10 55  0.0000000  0  7G13G28G24G20G15G17G19
  20741230.220    20741228.960   108995905.52349  84931858.38848
  22791810.920    22791809.660   119771792.22448  93328680.76846
  21686680.280    21686682.100   113964283.63949  88803353.99747
  22241889.140    22241888.440   116881908.24248  91076805.12746
  20373844.520    20373843.380   107065274.92949  83427485.90248
  23591783.640    23591783.260   123975663.30048  96604416.66946
  24333439.940    24333435.500   127873079.64747  99641352.04643
 18  3 26 10 55 30.0000000  0  7G13G28G24G20G15G17G19
  20751390.600    20751389.280   109049298.22149  84973463.06948
  22806659.520    22806658.000   119849822.49948  93389483.55946
  21673112.800    21673114.420   113892985.91949  88747797.32048
  22253536.920    22253536.040   116943117.33748  91124500.49946
  20373871.980    20373870.740   107065418.99649  83427598.15549
  23578952.820    23578952.500   123908237.70348  96551877.27645
  24313955.660    24313952.440   127770688.49747  99561566.78743
 18  3 26 10 56  0.0000000  0  7G13G28G24G20G15G17G19
  20761634.200    20761632.860   109103128.75249  85015408.91148
  22821562.520    22821561.060   119928139.35148  93450509.66946
  21659595.960    21659597.640   113821954.65649  88692448.31848
  22265272.580    22265271.580   117004788.95948  91172556.28846
  20373999.640    20373998.400   107066089.66549  83428120.74849
  23566189.540    23566189.460   123841166.82149  96499614.28345
  24294500.480    24294498.200   127668450.64147  99481901.06144
 18  3 26 10 56 30.0000000  0  7G13G28G24G20G15G17G19
  20771960.280    20771958.900   109157392.85849  85057692.60748
  22836518.900    22836517.840   120006736.95148  93511754.50346
  21646129.320    21646131.040   113751187.43449  88637305.02348
  22277095.160    22277094.020   117066917.17848  91220967.85846
  20374226.920    20374225.640   107067283.96949  83429051.35848
  23553493.800    23553493.720   123774449.90049  96447627.09845
  24275074.480    24275072.440   127566366.20746  99402354.83644
 18  3 26 10 57  0.0000000  0  7G13G28G24G20G15G17G19
  20782367.320    20782366.040   109212082.44849  85100307.85648
  22851527.080    22851526.460   120085605.98248  93573210.85846
  21632711.680    21632713.480   113680677.66249  88582362.35348
  22289002.820    22289001.460   117129492.01048  91269727.44146
  20374552.520    20374551.360   107068994.90349  83430384.54849
  23540864.420    23540864.280   123708082.25449  96395912.09345
  24255676.900    24255674.580   127464431.47547  99322925.24342
 18  3 26 10 57 30.0000000  0  7G13G28G24G20G15G17G19
  20792858.980    20792857.900   109267216.79049  85143269.66148
  22866590.500    22866589.920   120164763.67949  93634892.17346
  21619347.040    21619348.860   113610445.95549  88527636.36448
  22300998.920    22300997.300   117192530.87948  91318848.61146
  20374980.340    20374979.220   107071242.63449  83432136.01049
  23528305.800    23528305.840   123642086.30348  96344486.65045
  24236312.240    24236309.780   127362669.88945  99243630.42044
 18  3 26 10 58  0.0000000  0  7G13G28G24G20G15G17G19
  20803433.120    20803431.980   109322784.11649  85186568.85148
  22881706.620    22881705.660   120244197.15348  93696788.37446
  21606033.420    21606035.260   113540481.97149  88473118.99348
  22313080.660    22313079.160   117256020.32848  91368320.88146
  20375508.320    20375507.200   107074017.00449  83434297.85549
  23515816.260    23515816.620   123576453.54849  96293344.27845
  24216979.040    24216976.540   127261073.18745  99164464.32544
 18  3 26 10 58 30.0000000  0  7G13G28G24G20G15G17G19
  20814089.900    20814088.760   109378785.76049  85230206.47748
  22896875.020    22896873.760   120323906.04948  93758899.17746
  21592771.260    21592773.120   113470789.00549  88418812.79948
  22325248.000    22325246.560   117319959.71448  91418143.74646
  20376136.860    20376135.780   107077320.05749  83436871.64949
  23503396.800    23503397.320   123511188.59349  96242488.53645
  24197677.960    24197676.160   127159646.81744  99085430.92744
 18  3 26 10 59  0.0000000  0  7G13G28G24G20G15G17G19
  20824829.240    20824828.180   109435221.19749  85274182.11548
  22912095.060    22912093.800   120403887.90248  93821222.67246
  21579560.780    21579562.660   113401367.66649  88364718.26448
  22337500.400    22337499.160   117384346.61348  91468315.33546
  20376866.080    20376865.000   107081152.19949  83439857.72949
  23491047.940    23491047.980   123446294.19448  96191921.53846
  24178409.860    24178408.960   127058394.95644  99006533.43745
 18  3 26 10 59 30.0000000  0  7G13G28G24G20G15G17G19
  20835650.480    20835649.460   109492087.43049  85318493.44448
  22927366.220    22927364.980   120484138.90448  93883755.90846
  21566401.760    21566403.560   113332216.78849  88310834.46148
  22349837.100    22349835.920   117449176.29948  91518831.95146
  20377695.720    20377694.640   107085512.00549  83443254.96649
  23478769.500    23478769.200   123381770.88548  96141643.64746
  24159175.320    24159174.560   126957318.66044  98927772.77343
 18  3 26 11  0  0.0000000  0  6G13G28G24G20G15G17
  20846555.080    20846554.040   109549391.14649  85363145.66748
  22942689.740    22942688.320   120564664.35948  93946503.00246
  21553295.840    21553297.620   113263344.37749  88257167.66448
  22362259.040    22362257.880   117514453.99248  91569697.63846
  20378627.180    20378626.180   107090407.31849  83447069.49549
  23466563.400    23466563.420   123317628.94448  96091662.92846
 18  3 26 11  0 30.0000000  0  7G13G28G24G20G15G17G19
  20857538.560    20857537.540   109607109.34549  85408120.86948
  22958060.800    22958059.240   120645439.26748  94009444.46846
  21540238.840    21540240.560   113194729.02249  88203701.16448
  22374761.360    22374760.360   117580154.30848  91620892.66146
  20379656.420    20379655.520   107095816.02649  83451284.05949
  23454426.400    23454426.460   123253848.05049  96041963.54146
  24120809.800    24120809.280   126755709.12746  98770680.25644
 18  3 26 11  1  0.0000000  0  7G13G28G24G20G15G17G19
  20868605.240    20868604.220   109665264.96249  85453436.90148
  22973483.400    22973481.960   120726485.53048  94072597.37846
  21527235.360    21527237.100   113126395.16849  88150454.02548
  22387348.200    22387347.380   117646298.68048  91672433.73146
  20380787.900    20380787.000   107101762.09149  83455917.34149
  23442363.360    23442363.300   123190454.72649  95992566.22346
  24101679.920    24101679.740   126655181.32644  98692346.91346
 18  3 26 11  1 30.0000000  0  6G13G28G24G20G15G17
  20879754.340    20879753.300   109723853.41849  85499090.22948
  22988956.380    22988955.260   120807797.18548  94135957.07646
  21514284.960    21514286.660   113058340.48649  88097424.40548
  22400018.380    22400017.600   117712881.08848  91724316.11046
  20382021.020    20382020.180   107108242.16749  83460966.74749
  23430373.860    23430373.580   123127448.36748  95943470.40046
 18  3 26 11  2  0.0000000  0  7G13G28G24G20G15G17G19
  20890984.380    20890983.380   109782867.90849  85545075.51348
  23004478.260    23004477.280   120889365.60148  94199516.86346
  21501386.640    21501388.360   112990559.19149  88044607.83248
  22412770.000    22412769.420   117779892.62348  91776532.84946
  20383354.620    20383353.900   107115250.33849  83466427.64749
  23418456.660    23418456.740   123064824.63248  95894672.68646
  24063528.900    24063530.160   126454697.38045  98536131.91343
 18  3 26 11  2 30.0000000  0  7G13G28G24G20G15G17G19
  20902294.840    20902293.920   109842304.75049  85591389.90948
  23020048.180    23020047.120   120971185.36848  94263272.51346
  21488539.940    21488541.520   112923049.23249  87992002.65348
  22425602.300    22425601.700   117847327.28548  91829079.28046
  20384788.220    20384787.420   107122783.92849  83472297.97149
  23406612.240    23406612.800   123002583.32248  95846172.97046
  24044509.460    24044509.600   126354748.21145  98458249.31745
 18  3 26 11  3  0.0000000  0  7G13G28G24G20G15G17G19
  20913685.240    20913684.380   109902162.07949  85638031.95748
  23035665.420    23035664.200   121053253.99048  94327222.07046
  21475744.820    21475746.460   112855810.53849  87939608.88848
  22438514.740    22438513.940   117915181.63548  91881952.78546
  20386321.740    20386320.980   107130842.55449  83478577.40748
  23394841.220    23394841.700   122940726.11849  95797972.60746
  24025527.280    24025526.480   126254993.93044  98380518.78844
 18  3 26 11  3 30.0000000  0  7G13G28G24G20G15G17G19
  20925158.060    20925157.180   109962452.07449  85685011.16348
  23051331.940    23051330.660   121135582.47948  94391374.10246
  21463003.980    21463005.820   112788857.38249  87887437.61848
  22451509.060    22451508.260   117983466.43848  91935161.64746
  20387957.700    20387956.960   107139439.68949  83485276.46648
  23383146.160    23383146.100   122879268.48948  95750083.56445
  24006584.940    24006583.080   126155450.51745  98302944.65143
 18  3 26 11  4  0.0000000  0  8G13G28G24G20G15G17G19G12
  20936711.660    20936710.860   110023166.67049  85732321.18948
  23067045.920    23067044.520   121218160.66148  94455720.72146
  21450316.080    21450317.940   112722182.25749  87835482.98148
  22464583.160    22464582.540   118052171.43948  91988698.01346
  20389694.720    20389693.880   107148567.64449  83492389.14348
  23371526.220    23371525.580   122818205.83848  95702502.27445
  23987682.220    23987680.460   126056114.60046  98225539.97543
  24185238.560    24185237.020   127094314.29046  99034521.93241
 18  3 26 11  4 30.0000000  0  8G13G28G24G20G15G17G19G12
  20948345.400    20948344.420   110084302.02949  85779959.12748
  23082806.440    23082805.120   121300983.43848  94520257.94446
  21437680.860    21437682.720   112655783.57549  87783743.76148
  22477736.200    22477735.620   118121290.89548  92042557.30546
  20391532.220    20391531.300   107158223.47249  83499913.15948
  23359981.400    23359980.480   122757537.32149  95655228.08845
  23968818.900    23968817.780   125956986.38945  98148297.22543
  24162524.620                   126974954.092 6
 18  3 26 11  5  0.0000000  0  7G13G28G24G20G15G17G19
  20960059.900    20960058.820   110145861.89549  85827927.82748
  23098614.080    23098612.960   121384053.53148  94584987.87445
  21425099.280    21425101.100   112589666.93949  87732224.31048
  22490968.480    22490968.060   118190827.11348  92096741.34146
  20393471.200    20393470.200   107168412.64449  83507852.75748
  23348513.100    23348512.440   122697270.24448  95608266.74546
  23949996.680    23949995.940   125858074.36446  98071223.08544
 18  3 26 11  5 30.0000000  0  8G13G28G24G20G15G17G19G12
  20971854.660    20971853.620   110207843.70949  85876225.30248
  23114468.080    23114467.300   121467366.84248  94649907.30946
  21412571.200    21412573.040   112523831.84249  87680924.24248
  22504279.220    22504278.880   118260775.50648  92151246.53447
  20395511.340    20395510.240   107179133.44549  83516206.62048
  23337121.060    23337121.140   122637405.07748  95561618.57546
  23931215.980    23931215.200   125759379.89746  97994318.37444
  24117164.100    24117166.020   126736547.96745  98755733.73441
 18  3 26 11  6  0.0000000  0  8G13G28G24G20G15G17G19G12
  20983726.060    20983725.060   110270228.69749  85924836.97447
  23130364.820    23130364.000   121550903.59748  94715000.87846
  21400093.300    21400095.120   112458260.29749  87629829.54948
  22517664.540    22517664.120   118331115.28048  92206056.70546
  20397649.240    20397648.120   107190368.14849  83524960.92048
  23325802.680    23325803.200   122577926.92748  95515271.98046
  23912473.960    23912472.980   125660889.04045  97917572.21044
  24094513.700    24094513.320   126617521.19345  98662980.69944
 18  3 26 11  6 30.0000000  0  8G13G28G24G20G15G17G19G12
  20995681.840    20995680.800   110333056.80549  85973793.90548
  23146311.360    23146310.160   121634702.12248  94780298.41145
  21387673.560    21387675.280   112392993.90849  87578972.62848
  22531131.500    22531130.840   118401884.31748  92261201.39146
  20399892.680    20399891.560   107202157.61049  83534147.50748
  23314566.240    23314566.300   122518878.70849  95469260.40946
  23893779.080    23893777.640   125562645.49846  97841018.91944
  24071889.960    24071889.940   126498637.97445  98570344.49144
 18  3 26 11  7  0.0000000  0  8G13G28G24G20G15G17G19G12
  21007716.200    21007715.280   110396297.89449  86023072.63448
  23162301.640    23162300.160   121718731.13748  94845775.51946
  21375306.580    21375308.200   112328004.96349  87528331.90648
  22544674.060    22544673.520   118473051.43448  92316656.22446
  20402236.260    20402235.200   107214473.20949  83543744.05748
  23303406.600    23303406.260   122460233.87148  95423563.12146
  23875126.360    23875124.260   125464623.99646  97764638.60944
  24049288.720    24049289.520   126379871.76545  98477799.38743
 18  3 26 11  7 30.0000000  0  8G13G28G24G20G15G17G19G12
  21019830.600    21019829.520   110459959.22249  86072678.84247
  23178336.760    23178335.160   121802996.44348  94911436.78846
  21362994.080    21362995.740   112263302.37849  87477914.30448
  22558293.480    22558292.920   118544621.61448  92372425.17146
  20404681.340    20404680.400   107227322.38049  83553756.39448
  23292325.500    23292325.680   122402002.80249  95378188.25246
  23856517.660    23856515.660   125366836.00244  97688440.07644
  24026712.180    24026712.660   126261232.63947  98385353.30343
 18  3 26 11  8  0.0000000  0  8G13G28G24G20G15G17G19G12
  21032024.340    21032023.220   110524037.52449  86122609.96048
  23194415.920    23194414.420   121887493.26748  94977278.43146
  21350735.620    21350737.320   112198884.08549  87427718.25248
  22571988.680    22571987.920   118616589.51748  92428504.06446
  20407227.600    20407226.760   107240703.14049  83564182.94648
  23281323.140    23281324.020   122344185.24349  95333135.62146
  23837953.140    23837951.820   125269282.09146  97612424.17843
  24004159.980    24004160.560   126142720.41247  98293006.17943
 18  3 26 11  8 30.0000000  0  8G13G28G24G20G15G17G19G12
  21044297.040    21044296.060   110588530.78049  86172864.41648
  23210538.580    23210537.480   121972218.75448  95043298.26346
  21338531.320    21338533.040   112134750.19549  87377743.79648
  22585758.780    22585758.060   118688951.56648  92484890.04546
  20409874.920    20409874.120   107254614.84349  83575023.22248
  23270399.880    23270400.720   122286782.81549  95288406.44046
  23819433.920    23819432.980   125171965.55345  97536593.19445
  23981632.060    23981632.840   126024336.50247  98200759.02343
 18  3 26 11  9  0.0000000  0  8G13G28G24G20G15G17G19G12
  21056648.040    21056647.140   110653435.38949  86223439.39847
  23226703.840    23226703.280   122057168.14948  95109492.56146
  21326380.820    21326382.640   112070898.70049  87327989.40548
  22599602.980    22599602.160   118761702.70548  92541579.18746
  20412622.780    20412621.960   107269054.90849  83586275.22349
  23259555.600    23259555.600   122229795.28949  95244000.59646
  23800960.480    23800959.420   125074886.92345  97460947.50444
  23959128.760    23959129.260   125906080.52147  98108611.61043
 18  3 26 11  9 30.0000000  0  8G13G28G24G20G15G17G19G12
  21069078.360    21069077.380   110718756.98649  86274339.31647
  23242912.560    23242912.440   122142345.95548  95175864.84046
  21314285.540    21314287.300   112007337.06349  87278460.85448
  22613521.860    22613520.880   118834846.50048  92598574.31446
  20415472.420    20415471.640   107284029.88049  83597944.01049
  23248792.020    23248791.120   122173231.50949  95199924.96246
  23782534.120    23782532.940   124978055.94844  97385494.89045
  23936651.400    23936652.160   125787961.45247  98016570.83644
 18  3 26 11 10  0.0000000  0  8G13G28G24G20G15G17G19G12
  21081586.680    21081585.580   110784488.33849  86325558.53048
  23259163.120    23259163.200   122227743.48448  95242408.34146
  21302244.380    21302245.980   111944059.90949  87229153.98548
  22627513.700    22627512.600   118908373.74848  92655868.27346
  20418422.700    20418421.840   107299533.43349  83610024.69649
  23238108.160    23238107.540   122117087.76948  95156176.64446
  23764154.740    23764153.360   124881470.22246  97310233.26744
  23914199.460    23914200.180   125669975.04947  97924633.39744
 18  3 26 11 10 30.0000000  0  8G13G28G24G20G15G17G19G12
  21094173.800    21094172.680   110850634.06649  86377100.62747
  23275456.260    23275456.220   122313364.07248  95309125.65146
  21290258.520    21290260.120   111881073.88449  87180073.98648
  22641578.920    22641577.820   118982287.40448  92713463.27246
  20421474.620    20421473.780   107315571.19749  83622521.63948
  23227505.540    23227505.900   122061371.62948  95112761.43946
  23745823.380    23745822.160   124785138.45444  97235169.72745
  23891774.180    23891774.860   125552128.78948  97832805.19545
 18  3 26 11 11  0.0000000  0  8G13G28G24G20G15G17G19G12
  21106839.440    21106838.220   110917192.20749  86428964.08647
  23291791.420    23291790.940   122399204.73248  95376014.46545
  21278328.020    21278329.480   111818378.61249  87131220.52648
  22655716.940    22655715.920   119056583.56548  92771356.37946
  20424628.080    20424627.160   107332142.27649  83635434.16248
  23216984.620    23216985.660   122006084.72749  95069680.70245
  23727540.840    23727539.420   124689063.17345  97160305.83144
  23869375.860    23869376.380   125434424.56948  97741087.66944
 18  3 26 11 11 30.0000000  0  8G13G28G24G20G15G17G19G12
  21119582.780    21119581.520   110984158.79549  86481145.82247
  23308167.400    23308166.440   122485260.31848  95443070.77845
  21266452.320    21266453.800   111755971.25949  87082591.45048
  22669926.800    22669925.580   119131256.40848  92829542.96145
  20427882.300    20427881.360   107349243.22349  83648759.55448
  23206545.320    23206545.980   121951226.08049  95026933.72746
  23709307.240    23709306.060   124593245.04546  97085642.34544
  23847004.300    23847004.740   125316860.86748  97649479.66244
 18  3 26 11 12  0.0000000  0  8G13G28G24G20G15G17G19G12
  21132404.280    21132403.080   111051536.02249  86533647.52747
  23324584.360    23324583.020   122571531.69148  95510295.22944
  21254632.160    21254633.760   111693856.36949  87034190.23348
  22684208.480    22684206.940   119206306.35248  92888023.41845
  20431238.020    20431237.040   107366877.55949  83662500.60148
  23196188.740    23196188.820   121896801.53348  94984525.05646
  23691123.940    23691123.360   124497690.56246  97011184.36644
  23824660.460    23824660.600   125199443.47947  97557985.64945
 18  3 26 11 12 30.0000000  0  8G13G28G24G20G15G17G19G12
  21145304.240    21145303.080   111119325.88049  86586470.76047
  23341042.540    23341041.220   122658019.90848  95577688.66745
  21242868.440    21242870.180   111632038.05349  86986020.12648
  22698561.620    22698560.380   119281733.80547  92946798.00545
  20434695.880    20434694.840   107385048.42549  83676659.70248
  23185915.660    23185915.700   121842816.18348  94942458.56046
  23672992.140    23672991.400   124402406.34647  96936936.93943
  23802345.220    23802345.500   125082177.83347  97466609.88044
 18  3 26 11 13  0.0000000  0  8G13G28G24G20G15G17G19G12
  21158280.400    21158279.280   111187516.06649  86639605.95847
  23357539.420    23357538.380   122744711.41648  95645240.46545
  21231159.200    21231160.900   111570505.61549  86938072.77948
  22712983.860    22712983.020   119357524.55748  93005855.68545
  20438253.580    20438252.560   107403744.43149  83691227.99748
  23175724.460    23175724.780   121789261.00249  94900727.26146
  23654910.240    23654909.000   124307384.59546  96862894.06944
  23780057.220    23780057.880   124965054.76747  97375345.21844
 18  3 26 11 13 30.0000000  0  8G13G28G24G20G15G17G19G12
  21171334.360    21171333.320   111256114.81049  86693059.50047
  23374076.360    23374075.720   122831613.51848  95712956.34745
  21219506.360    21219507.880   111509268.81349  86890355.81548
  22727476.620    22727476.120   119433684.91348  93065201.40546
  20441912.940    20441911.820   107422974.43449  83706212.41848
  23165617.320    23165617.840   121736147.88048  94859340.46246
  23636880.600    23636878.840   124212638.11646  96789065.70144
  23757798.560    23757799.520   124848085.88047  97284200.65644
 18  3 26 11 14  0.0000000  0  8G13G28G24G20G15G17G19G12
  21184465.120    21184464.260   111325117.43849  86746827.74947
  23390652.120    23390651.820   122918720.23748  95780831.67245
  21207909.300    21207910.840   111448325.55249  86842867.57348
  22742038.680    22742038.320   119510208.46148  93124830.10946
  20445673.220    20445672.080   107442734.99149  83721610.24648
  23155593.960    23155594.160   121683475.00548  94818296.63246
  23618903.160    23618900.920   124118166.43346  96715451.47645
  23735568.920    23735569.320   124731269.62947  97193175.05143
 18  3 26 11 14 30.0000000  0  8G13G28G24G20G15G17G19G12
  21197672.960    21197672.060   111394524.44649  86800911.11248
  23407266.740    23407266.640   123006031.39548  95848866.32446
  21196368.320    21196369.840   111387677.77649  86795609.56048
  22756669.600    22756669.220   119587093.94748  93184740.81446
  20449534.780    20449533.620   107463027.72649  83737422.75048
  23145655.120    23145654.980   121631246.16949  94777598.85447
  23600978.940    23600976.740   124023974.81746  96642055.45944
  23713369.520    23713369.340   124614610.65646  97102272.04044
 18  3 26 11 15  0.0000000  0  8G13G28G24G20G15G17G19G12
  21210957.580    21210956.880   111464335.65949  86855309.42048
  23423919.760    23423919.940   123093545.46648  95917059.06646
  21184883.820    21184885.380   111327326.93149  86748582.94248
  22771368.900    22771368.420   119664339.14848  93244931.81845
  20453497.680    20453496.600   107483852.88549  83753650.14148
  23135801.600    23135801.200   121579464.66549  94737249.62646
  23583108.840    23583107.420   123930067.50145  96568881.00944
  23691200.660    23691200.180   124498110.63746  97011492.83144
 18  3 26 11 15 30.0000000  0  8G13G28G24G20G15G17G19G12
  21224318.020    21224317.360   111534544.81949  86910017.83647
  23440609.900    23440610.420   123181254.94848  95985404.09445
  21173455.180    21173456.700   111267268.90749  86701784.47948
  22786135.320    22786134.620   119741936.04548  93305396.91645
  20457560.860    20457559.800   107505205.14849  83770288.24348
  23126032.560    23126032.200   121528127.35749  94697246.53746
  23565292.480    23565291.560   123836442.98345  96495926.87441
  23669061.380    23669060.820   124381766.80544  96920835.41544
 18  3 26 11 16  0.0000000  0  8G13G28G24G20G15G17G19G12
  21237755.680    21237754.800   111605159.78949  86965042.46847
  23457338.760    23457339.520   123269166.85248  96053906.86046
  21162084.060    21162085.620   111207513.13949  86655221.56848
  22800969.780    22800968.840   119819890.88948  93366140.97446
  20461726.040    20461725.020   107527093.38549  83787344.00848
  23116350.040    23116349.880   121477245.39448  94657598.25947
  23547532.200    23547531.220   123743113.40846  96423202.62241
  23646953.420    23646953.060   124265590.91745  96830308.83744
 18  3 26 11 16 30.0000000  0  8G13G28G24G20G15G17G19G12
  21251267.920    21251267.080   111676167.32349  87020372.96947
  23474103.740    23474104.420   123357266.73648  96122556.10046
  21150768.320    21150769.880   111148048.35349  86608885.37748
  22815869.420    22815868.380   119898188.73648  93427152.22746
  20465990.900    20465989.960   107549505.53649  83804808.00548
  23106752.100    23106752.240   121426808.96249  94618297.14446
  23529826.620    23529825.300   123650070.27045  96350701.64243
  23624875.620    23624875.920   124149573.14446  96739905.50744
 18  3 26 11 17  0.0000000  0  8G13G28G24G20G15G17G19G12
  21264856.080    21264855.340   111747573.63649  87076014.22947
  23490905.880    23490906.080   123445560.24748  96191356.22446
  21139509.560    21139511.100   111088883.25749  86562782.71548
  22830834.980    22830834.220   119976833.81647  93488434.01946
  20470356.840    20470355.820   107572448.81349  83822685.87448
  23097240.700    23097240.840   121376827.26648  94579350.42646
  23512177.500    23512175.800   123557324.11845  96278431.86944
  23602830.100    23602830.320   124033722.33546  96649632.25744
 18  3 26 11 17 30.0000000  0  8G13G28G24G20G15G17G19G12
  21278519.560    21278518.820   111819376.10749  87131964.15547
  23507744.240    23507743.740   123534043.52248  96260304.21046
  21128307.720    21128309.320   111030017.34549  86516913.18048
  22845865.920    22845865.400   120055822.27248  93549983.38846
  20474823.460    20474822.440   107595921.40649  83840976.19448
  23087816.120    23087816.060   121327301.32349  94540758.78846
  23494585.520    23494583.240   123464877.44745  96206395.52344
  23580816.700    23580816.640   123918040.09946  96559490.26644
 18  3 26 11 18  0.0000000  0  8G13G28G24G20G15G17G19G12
  21292258.920    21292257.900   111891576.53249  87188224.21847
  23524618.800    23524617.760   123622717.53248  96329400.80645
  21117163.400    21117164.960   110971453.53349  86471279.04448
  22860962.380    22860961.680   120135153.64948  93611800.02446
  20479391.300    20479390.360   107619925.83049  83859680.92748
  23078479.300    23078479.240   121278236.11949  94502526.18446
  23477051.700    23477049.320   123372736.30945  96134597.31244
  23558836.040    23558835.700   123802531.24847  96469483.43042
 18  3 26 11 18 30.0000000  0  8G13G28G24G20G15G17G19G12
  21306073.920    21306072.780   111964174.30149  87244793.88247
  23541529.180    23541527.800   123711580.16648  96398644.37245
  21106076.740    21106078.320   110913192.88649  86425881.14248
  22876123.580    22876122.560   120214825.20548  93673881.76445
  20484060.360    20484059.480   107644461.86149  83878799.90348
  23069230.640    23069230.660   121229633.56548  94464654.05246
  23459576.640    23459575.640   123280904.52545  96063040.13345
  23536888.940    23536888.240   123687197.92347  96379613.36041
 18  3 26 11 19  0.0000000  0  8G13G28G24G20G15G17G19G12
  21319962.540    21319961.620   112037159.42349  87301665.35047
  23558473.300    23558471.860   123800620.83348  96468026.66346
  21095046.380    21095047.900   110855227.87649  86380713.61448
  22891347.340    22891346.360   120294825.61848  93736219.74346
  20488829.000    20488828.140   107669521.13649  83898326.59248
  23060068.800    23060068.960   121181487.42949  94427137.61346
  23442159.580    23442158.860   123189376.69044  95991719.79245
  23514974.020    23514973.120   123572034.18146  96289875.39643
 18  3 26 11 19 30.0000000  0  7G13G28G24G20G15G17G12
  21333927.700    21333926.720   112110546.48549  87358850.05547
  23575453.840    23575452.440   123889853.40348  96537558.49946
  21084075.420    21084076.920   110797575.20849  86335789.46948
  22906635.980    22906635.160   120375167.91448  93798824.02946
  20493700.280    20493699.380   107695119.51349  83918273.36248
  23050997.220    23050997.180   121133815.61849  94389990.76446
  23493094.660    23493093.800   123457057.85246  96200283.44343
 18  3 26 11 20  0.0000000  0  8G13G28G24G20G15G17G19G12
  21347966.480    21347965.360   112184320.31449  87416336.11147
  23592467.520    23592466.260   123979261.54448  96607227.13745
  21073161.440    21073162.840   110740221.49349  86291098.26548
  22921986.340    22921985.660   120455834.80748  93861681.27546
  20498671.200    20498670.160   107721241.47949  83938628.13348
  23042013.660    23042013.240   121086606.03549  94353204.07946
  23407508.460    23407504.300   123007287.15944  95849821.40944
  23471248.820    23471248.040   123342256.95147  96110828.28143
 18  3 26 11 20 30.0000000  0  8G13G28G24G20G15G17G19G12
  21362079.800    21362078.800   112258486.64049  87474128.02747
  23609515.380    23609514.320   124068849.92448  96677036.25145
  21062305.720    21062307.300   110683174.36049  86246645.97848
  22937399.200    22937398.720   120536830.08348  93924794.43646
  20503743.020    20503741.920   107747893.96049  83959396.28448
  23033119.600    23033119.000   121039867.37949  94316784.35446
  23390273.680    23390270.080   122916718.02645  95779248.03245
  23449437.980    23449437.260   123227640.49747  96021516.81043
 18  3 26 11 21  0.0000000  0  8G13G28G24G20G15G17G19G12
  21376267.060    21376266.260   112333041.56249  87532222.74547
  23626596.640    23626595.820   124158613.94248  96746982.18945
  21051507.940    21051509.600   110626431.72249  86202430.93448
  22952873.740    22952873.100   120618148.43648  93988159.37245
  20508915.260    20508914.320   107775074.35249  83980575.78348
  23024314.960    23024314.800   120993599.47949  94280731.43346
  23373100.120    23373097.700   122826472.62745  95708926.99544
  23427661.960    23427661.040   123113208.33747  95932348.93443
 18  3 26 11 21 30.0000000  0  8G13G28G24G20G15G17G19G12
  21390527.720    21390527.100   112407982.13349  87590617.95247
  23643710.840    23643709.920   124248550.13248  96817062.31545
  21040768.060    21040769.820   110569993.76649  86158453.32848
  22968408.840    22968407.760   120699785.45948  94051772.63244
  20514187.620    20514186.620   107802780.66449  84002165.12048
  23015600.000    23015600.260   120947802.61249  94245045.60146
  23355988.660    23355987.120   122736553.17645  95638859.83343
  23405921.420    23405920.360   122998961.14447  95843325.21144
