     2.11           OBSERVATION DATA    G (GPS)             RINEX VERSION / TYPE
teqc  2016Nov7      IGN-RGP             20180327 16:10:03UTCPGM / RUN BY / DATE
Linux 2.4.21-27.ELsmp|Opteron|gcc|Linux x86_64|=+           COMMENT
teqc  2016Nov7      Administrateur RGP  20180327 16:10:02UTCCOMMENT
teqc  2013Mar15     Observatoire de Pari20180327 00:52:40UTCCOMMENT
BIT 2 OF LLI FLAGS DATA COLLECTED UNDER A/S CONDITION       COMMENT
OPMT                                                        MARKER NAME
10001S006                                                   MARKER NUMBER
Automatic           OP                                      OBSERVER / AGENCY
02942               ASHTECH Z-XII3T     1L01-1D04           REC # / TYPE / VERS
00019               3S-02-TSADM     NONE                    ANT # / TYPE
  4202777.6220   171367.7610  4778659.9840                  APPROX POSITION XYZ
        0.0000        0.0000        0.0000                  ANTENNA: DELTA H/E/N
     1     1                                                WAVELENGTH FACT L1/2
     7    L1    L2    C1    P1    P2    S1    S2            # / TYPES OF OBSERV
    30.0000                                                 INTERVAL
 SNR is mapped to RINEX snr flag value [0-9]                COMMENT
  L1 & L2: min(max(int(snr_dBHz/6), 0), 9)                  COMMENT
pseudorange smoothing corrections not applied               COMMENT
Forced Modulo Decimation to 30 seconds                      COMMENT
teqc_2016 edited: GLONASS # 25 - 30 excluded                COMMENT
  2018     3    26     0     0    0.0000000     GPS         TIME OF FIRST OBS
                                                            END OF HEADER
 18  3 26  0  0  0.0000000  0 11G14G18G10G22G11G03G32G28G08G27G01
  -5796514.80644  -4496795.05746  22628450.679    22628449.6814   22628452.5574
        43.0004         40.2004
 -17042935.86246 -13262670.83747  19881505.056    19881505.5604   19881507.8854
        48.8004         45.9004
  -2861429.00043  -2199792.85346  23731639.155    23731638.8374   23731643.0164
        39.9004         37.4004
 -14840159.11246 -11539525.78147  21335823.871    21335822.7214   21335823.6014
        47.2004         44.2004
 -12213559.59546  -9504162.39547  20286487.408    20286487.0034   20286488.1514
        48.6004         45.8004
  -7861764.97945  -6101311.10846  22640614.147    22640613.0704   22640619.5594
        43.6004         40.9004
 -10855200.28145  -8441921.40447  22477838.857    22477839.4174   22477843.7324
        45.1004         42.3004
  -7161227.19542  -5569604.68345  23046910.897    23046910.8274   23046910.0224
        36.4004         34.3004
 -13674244.18747 -10634870.70647  21017863.302    21017863.3044   21017869.0944
        49.6004         46.6004
    892155.53943    706962.91146  23686414.887    23686408.4684   23686413.6044
        38.7004         36.4004
 -16099723.53946 -12527708.77547  20776056.278    20776056.3024   20776061.2914
        49.5004         46.5004
 18  3 26  0  0 30.0000000  0 11G14G18G10G22G11G03G32G28G08G27G01
  -5849062.37644  -4537741.19746  22618451.097    22618449.9234   22618453.7374
        43.0004         40.4004
 -17046104.94546 -13265140.24947  19880901.973    19880902.4844   19880904.8754
        48.8004         45.9004
  -2762249.68843  -2122510.30346  23750513.192    23750513.3224   23750517.9874
        39.9004         37.4004
 -14900554.68646 -11586587.25147  21324331.035    21324330.1964   21324330.5174
        47.0004         44.0004
 -12251775.70846  -9533941.19147  20279215.008    20279214.5924   20279215.8444
        48.6004         45.8004
  -7957829.66245  -6176166.69446  22622333.055    22622333.5324   22622339.3974
        43.7004         40.9004
 -10858901.48245  -8444805.43747  22477134.659    22477134.2934   22477139.2804
        45.3004         42.5004
  -7169872.02842  -5576340.89845  23045264.845    23045264.3014   23045265.9154
        36.6004         34.6004
 -13614510.16546 -10588324.71247  21029229.494    21029230.0844   21029236.2994
        49.5004         46.5004
   1001358.02543    792055.73346  23707192.065    23707190.4564   23707193.7304
        38.7004         36.4004
 -16147598.82646 -12565014.19647  20766945.728    20766946.0824   20766950.6814
        49.5004         46.6004
 18  3 26  0  1  0.0000000  0 11G14G18G10G22G11G03G32G28G08G27G01
  -5901150.34844  -4578329.23146  22608538.304    22608538.6494   22608541.4954
        43.2004         40.6004
 -17048836.80846 -13267268.97547  19880382.912    19880382.5354   19880384.7564
        48.8004         45.9004
  -2662933.65443  -2045121.16946  23769411.204    23769410.6184   23769415.9024
        39.9004         37.4004
 -14960563.35346 -11633347.24847  21312911.111    21312910.6874   21312910.9674
        47.0004         44.2004
 -12289525.24146  -9563356.41347  20272031.194    20272030.9584   20272032.3294
        48.6004         45.8004
  -8053627.20545  -6250814.10846  22604104.182    22604104.4064   22604109.8644
        43.7004         40.9004
 -10862004.15945  -8447223.09447  22476543.760    22476545.2844   22476549.0604
        45.3004         42.5004
  -7177981.23042  -5582659.74845  23043724.095    23043723.2554   23043723.8124
        37.1004         35.2004
 -13554308.97146 -10541414.71247  21040687.015    21040686.4554   21040691.9334
        49.5004         46.6004
   1110715.69243    877269.51546  23727998.880    23727999.4194   23728004.5734
        39.0004         36.6004
 -16195150.21246 -12602067.22947  20757896.878    20757897.0814   20757901.9914
        49.5004         46.5004
 18  3 26  0  1 30.0000000  0 11G14G18G10G22G11G03G32G28G08G27G01
  -5952776.80544  -4618557.62846  22598716.359    22598715.8344   22598716.4934
        43.4004         40.9004
 -17051131.50746 -13269057.05447  19879946.222    19879945.9614   19879948.1094
        48.9004         46.1004
  -2563482.83343  -1967627.02246  23788334.882    23788336.0214   23788340.7294
        39.9004         37.4004
 -15020184.27346 -11679805.09647  21301565.824    21301564.9264   21301566.0964
        47.0004         44.2004
 -12326806.43446  -9592406.70147  20264937.017    20264936.9284   20264938.1564
        48.6004         45.9004
  -8149156.03145  -6325252.13446  22585925.551    22585925.1064   22585930.7314
        43.7004         40.9004
 -10864508.08845  -8449174.18747  22476067.742    22476067.4874   22476073.2094
        45.3004         42.1004
  -7185554.81842  -5588561.24845  23042281.567    23042280.7064   23042282.0254
        37.5004         35.5004
 -13493641.75547 -10494141.56747  21052230.759    21052231.0084   21052236.7604
        49.6004         46.6004
   1220226.74843    962602.79946  23748835.945    23748838.1204   23748845.2784
        39.0004         36.7004
 -16242376.91846 -12638867.26747  20748909.835    20748910.1854   20748915.0904
        49.5004         46.5004
 18  3 26  0  2  0.0000000  0 11G14G18G10G22G11G03G32G28G08G27G01
  -6003939.93245  -4658424.98546  22588980.317    22588978.3814   22588981.1814
        43.6004         41.1004
 -17052988.76546 -13270504.26047  19879592.304    19879592.6574   19879594.6284
        48.9004         46.1004
  -2463899.14843  -1890029.34946  23807287.496    23807288.1244   23807289.9184
        39.6004         36.7004
 -15079416.46846 -11725960.04247  21290294.294    21290293.3294   21290294.5214
        47.2004         44.4004
 -12363618.04146  -9621091.06447  20257931.533    20257931.3984   20257933.4294
        48.6004         45.9004
  -8244414.56645  -6399479.57046  22567798.784    22567798.8744   22567804.0794
        43.9004         41.1004
 -10866412.85545  -8450658.40947  22475704.507    22475704.8104   22475709.8264
        45.1004         42.3004
  -7192592.37343  -5594045.07945  23040941.506    23040940.6554   23040942.1804
        37.6004         35.7004
 -13432509.42947 -10446506.00047  21063865.290    21063864.5754   21063869.6094
        49.6004         46.6004
   1329889.23043   1048054.06346  23769709.123    23769708.0834   23769714.5544
        39.2004         36.9004
 -16289278.14347 -12675413.67147  20739984.537    20739985.0764   20739990.2574
        49.6004         46.6004
 18  3 26  0  2 30.0000000  0 11G14G18G10G22G11G03G32G28G08G27G01
  -6054637.50345  -4697929.58546  22579329.607    22579330.7554   22579334.5144
        43.6004         40.9004
 -17054408.33746 -13271610.42947  19879322.423    19879322.4504   19879324.5434
        48.9004         46.1004
  -2364184.64243  -1812329.73746  23826262.871    23826261.7724   23826265.8714
        39.6004         37.1004
 -15138259.13446 -11771811.46747  21279096.729    21279096.3624   21279097.2994
        47.2004         44.4004
 -12399958.76246  -9649408.50847  20251016.732    20251016.1864   20251017.7894
        48.6004         45.9004
  -8339401.28645  -6473495.16346  22549723.247    22549722.4934   22549727.6954
        43.7004         40.7004
 -10867718.33845  -8451675.65047  22475456.992    22475457.3874   22475461.5794
        45.1004         42.5004
  -7199094.21743  -5599111.47646  23039705.603    23039705.0064   23039706.3024
        38.2004         36.2004
 -13370913.84446 -10398509.45347  21075585.129    21075585.4194   21075590.6104
        49.5004         46.5004
   1439701.20943   1133621.82146  23790607.453    23790604.1774   23790609.4924
        39.0004         36.6004
 -16335853.07047 -12711705.80947  20731121.845    20731122.0364   20731127.4924
        49.6004         46.8004
 18  3 26  0  3  0.0000000  0 11G14G18G10G22G11G03G32G28G08G27G01
  -6104867.14545  -4737069.56246  22569771.295    22569772.0994   22569775.3694
        43.7004         40.9004
 -17055389.97146 -13272375.33747  19879135.987    19879135.7184   19879138.0934
        48.9004         46.1004
  -2264341.28743  -1734529.74146  23845261.360    23845262.2634   23845263.8914
        39.2004         36.9004
 -15196711.37946 -11817358.65547  21267974.090    21267973.0334   21267974.0844
        47.2004         44.4004
 -12435826.97346  -9677357.75447  20244190.954    20244190.7904   20244192.1964
        48.6004         45.8004
  -8434114.61745  -6547297.75746  22531698.912    22531699.5074   22531703.8774
        43.7004         40.9004
 -10868424.27945  -8452225.70547  22475322.486    22475322.9344   22475326.1424
        45.1004         42.3004
  -7205060.20643  -5603760.32446  23038568.818    23038569.8594   23038570.0744
        39.0004         36.7004
 -13308855.81847 -10350152.55447  21087395.370    21087394.8654   21087400.3404
        49.6004         46.6004
   1549660.71543   1219304.54046  23811527.990    23811528.0254   23811531.6084
        38.7004         36.2004
 -16382100.94247 -12747743.10247  20722321.412    20722321.4744   20722327.0404
        49.8004         47.0004
 18  3 26  0  3 30.0000000  0 11G14G18G10G22G11G03G32G28G08G27G01
  -6154627.20745  -4775843.60746  22560305.250    22560303.6044   22560306.9184
        43.9004         41.2004
 -17055933.62446 -13272798.97047  19879032.025    19879032.3994   19879034.6044
        48.9004         46.1004
  -2164371.05343  -1656630.80346  23864284.283    23864284.5864   23864287.6584
        38.9004         36.2004
 -15254772.47246 -11862601.05947  21256925.059    21256924.3004   21256925.0124
        47.2004         44.4004
 -12471221.11246  -9704937.60147  20237455.895    20237455.4994   20237456.8374
        48.6004         45.6004
  -8528553.01345  -6620886.11346  22513728.979    22513729.8794   22513733.0624
        43.9004         41.2004
 -10868530.42045  -8452308.38647  22475301.212    22475302.1054   22475306.5354
        44.9004         42.1004
  -7210490.30743  -5607991.55546  23037536.264    23037535.6254   23037537.7194
        39.6004         37.3004
 -13246336.91747 -10301436.52547  21099291.663    21099291.8554   21099297.4454
        49.6004         46.6004
   1659765.87943   1305100.75445  23832476.176    23832479.4674   23832483.3954
        38.3004         35.9004
 -16428020.95047 -12783524.92347  20713582.825    20713583.1314   20713588.4254
        49.8004         46.8004
 18  3 26  0  4  0.0000000  0 11G14G18G10G22G11G03G32G28G08G27G01
  -6203915.59345  -4814250.12746  22550924.895    22550924.5024   22550928.1314
        44.1004         41.2004
 -17056039.16646 -13272881.20747  19879011.850    19879011.9354   19879014.4904
        48.9004         46.1004
  -2064275.85443  -1578634.58046  23883331.725    23883331.5764   23883336.2024
        38.9004         36.4004
 -15312442.11946 -11907538.43447  21245950.916    21245950.3254   21245950.9174
        47.2004         44.4004
 -12506140.22446  -9732147.29247  20230810.676    20230810.4974   20230812.3944
        48.4004         45.6004
  -8622714.93645  -6694259.03846  22495810.519    22495810.7794   22495814.0264
        44.1004         41.1004
 -10868036.56645  -8451923.55047  22475396.013    22475396.9364   22475401.0494
        45.1004         42.3004
  -7215384.42843  -5611805.15046  23036604.631    23036604.8024   23036606.0714
        40.1004         37.8004
 -13183358.51347 -10252362.44947  21111276.670    21111276.4044   21111281.5394
        49.6004         46.6004
   1770014.71043   1391008.93545  23853456.456    23853459.2034   23853462.3664
        38.2004         35.9004
 -16473612.30647 -12819050.65747  20704906.810    20704907.4924   20704912.3814
        49.6004         46.6004
 18  3 26  0  4 30.0000000  0 11G14G18G10G22G11G03G32G28G08G27G01
  -6252730.61145  -4852287.80146  22541635.852    22541635.1984   22541638.2494
        43.9004         41.1004
 -17055706.40346 -13272621.91647  19879075.452    19879075.3964   19879077.8514
        48.9004         46.1004
  -1964057.68943  -1500542.48645  23902403.335    23902403.5004   23902406.0094
        38.3004         35.9004
 -15369719.23846 -11952169.95247  21235051.123    21235050.7754   21235051.7744
        47.2004         44.2004
 -12540582.77146  -9758985.64447  20224256.567    20224256.5504   20224257.8064
        48.4004         45.8004
  -8716598.87445  -6767415.34946  22477944.370    22477945.3784   22477948.8674
        44.1004         41.2004
 -10866942.65845  -8451071.13947  22475604.414    22475604.6924   22475607.8304
        44.9004         42.1004
  -7219742.35143  -5615200.94346  23035775.521    23035774.7234   23035776.7184
        40.3004         37.8004
 -13119921.76146 -10202931.22447  21123348.466    21123347.8004   21123353.4244
        49.5004         46.5004
   1880405.34043   1477027.57646  23874468.263    23874466.3354   23874471.1624
        38.2004         36.0004
 -16518874.24747 -12854319.71147  20696294.158    20696294.5204   20696299.5744
        49.8004         46.8004
 18  3 26  0  5  0.0000000  0 11G14G18G10G22G11G03G32G28G08G27G01
  -6301069.87945  -4889954.75546  22532436.836    22532436.7054   22532439.1214
        43.9004         40.9004
 -17054935.18546 -13272020.96947  19879222.203    19879222.6574   19879224.7614
        48.9004         46.1004
  -1863718.50043  -1422356.09546  23921497.611    23921497.5904   23921501.3994
        38.3004         36.0004
 -15426603.09446 -11996495.01947  21224226.697    21224226.3044   21224227.2964
        47.2004         44.4004
 -12574547.07946  -9785451.34347  20217793.329    20217793.3804   20217794.5924
        48.6004         45.8004
  -8810203.27945  -6840353.82546  22460132.878    22460133.4184   22460138.4574
        44.4004         41.8004
 -10865248.49245  -8449751.00047  22475926.737    22475927.4934   22475930.8084
        44.9004         42.1004
  -7223564.47543  -5618179.23846  23035047.453    23035046.9634   23035048.5444
        40.3004         37.8004
 -13056027.87946 -10153143.78947  21135506.182    21135506.3344   21135511.8084
        49.3004         46.3004
   1990935.77443   1563155.16245  23895501.104    23895499.9984   23895504.5504
        38.2004         35.9004
 -16563805.96947 -12889331.44647  20687743.809    20687744.1414   20687749.4974
        49.8004         47.0004
 18  3 26  0  5 30.0000000  0 11G14G18G10G22G11G03G32G28G08G27G01
  -6348931.67345  -4927249.64246  22523329.277    22523329.0254   22523331.3984
        43.9004         41.1004
 -17053725.47046 -13271078.33247  19879452.210    19879452.4784   19879454.8914
        48.9004         46.1004
  -1763260.18743  -1344076.93146  23940613.657    23940613.0914   23940618.0744
        38.5004         36.4004
 -15483092.87646 -12040513.01247  21213477.210    21213476.6094   21213477.3654
        47.2004         44.5004
 -12608032.11046  -9811543.57247  20211421.138    20211420.6874   20211422.9524
        48.4004         45.8004
  -8903526.65045  -6913073.32046  22442373.501    22442373.0354   22442379.3484
        44.6004         41.8004
 -10862954.00245  -8447963.06046  22476362.452    22476362.9534   22476368.0144
        44.9004         41.9004
  -7226851.09344  -5620740.23946  23034422.399    23034421.8834   23034424.4074
        40.8004         38.3004
 -12991678.58546 -10103001.49547  21147751.621    21147751.4184   21147756.7574
        49.3004         46.3004
   2101604.05543   1649390.17146  23916562.483    23916559.9294   23916564.6264
        38.5004         36.2004
 -16608406.67047 -12924085.22947  20679257.007    20679257.2384   20679262.3514
        50.0004         47.2004
 18  3 26  0  6  0.0000000  0 11G14G18G10G22G11G03G32G28G08G27G01
  -6396314.17645  -4964171.05246  22514312.158    22514311.5694   22514315.3224
        43.7004         40.9004
 -17052077.04446 -13269793.85247  19879766.220    19879765.9754   19879768.6754
        48.9004         46.1004
  -1662684.74543  -1265706.43946  23959751.756    23959752.9904   23959756.4124
        38.7004         36.4004
 -15539188.06246 -12084223.53247  21202803.204    21202802.1354   21202803.1724
        47.4004         44.5004
 -12641036.37546  -9837261.17647  20205141.207    20205140.9074   20205142.4234
        48.6004         45.9004
  -8996567.41345  -6985572.59246  22424668.211    22424668.8534   22424673.3894
        44.4004         41.6004
 -10860059.11845  -8445707.29046  22476914.347    22476914.6414   22476918.9324
        44.8004         41.9004
  -7229601.95144  -5622883.76746  23033899.292    23033898.9894   23033900.9544
        41.1004         38.5004
 -12926875.04846 -10052505.24147  21160083.377    21160083.3544   21160088.9664
        49.1004         46.3004
   2212408.30143   1735731.13546  23937645.882    23937644.4384   23937648.7914
        38.3004         36.0004
 -16652675.58347 -12958580.48447  20670832.961    20670833.2944   20670837.9724
        50.2004         47.2004
 18  3 26  0  6 30.0000000  0 11G14G18G10G22G11G03G32G28G08G27G01
  -6443215.59745  -5000717.60946  22505386.263    22505386.0824   22505390.0704
        43.9004         41.1004
 -17049989.70546 -13268167.35247  19880162.776    19880162.8544   19880165.7634
        48.9004         45.9004
  -1561994.01543  -1187246.15345  23978913.161    23978912.4204   23978917.4184
        38.5004         35.9004
 -15594888.05146 -12127626.12147  21192203.086    21192202.6364   21192203.2894
        47.4004         44.5004
 -12673558.60646  -9862603.17547  20198952.032    20198951.8274   20198953.8374
        48.6004         45.8004
  -9089324.15045  -7057850.53146  22407017.593    22407017.9214   22407022.2864
        44.4004         41.6004
 -10856563.72745  -8442983.59646  22477579.547    22477579.9834   22477582.9864
        44.8004         41.8004
  -7231816.81444  -5624609.63646  23033477.922    23033477.4844   23033478.9504
        41.5004         39.0004
 -12861618.56346 -10001656.03847  21172501.602    21172501.2264   21172506.7944
        49.1004         46.1004
   2323346.51443   1822176.52146  23958753.672    23958754.8924   23958759.0854
        38.3004         36.0004
 -16696611.90547 -12992816.58247  20662472.369    20662472.5404   20662477.3294
        50.2004         47.2004
 18  3 26  0  7  0.0000000  0 11G14G18G10G22G11G03G32G28G08G27G01
  -6489634.00045  -5036887.78146  22496554.411    22496554.0554   22496556.5254
        43.9004         41.2004
 -17047463.50946 -13266198.89647  19880643.536    19880643.8354   19880646.1344
        48.8004         45.9004
  -1461189.96843  -1108697.52746  23998096.030    23998095.9384   23998101.1124
        38.3004         36.2004
 -15650191.81546 -12170719.95247  21181679.711    21181678.8454   21181679.2364
        47.5004         44.7004
 -12705597.22346  -9887568.32647  20192855.273    20192855.3394   20192856.6904
        48.4004         45.6004
  -9181795.29245  -7129905.95146  22389420.400    22389420.4774   22389425.4224
        44.4004         41.4004
 -10852467.87645  -8439792.00146  22478358.725    22478358.8004   22478361.8544
        44.6004         41.8004
  -7233496.23644  -5625918.26246  23033157.182    23033157.7124   23033159.8904
        41.8004         39.3004
 -12795910.64346  -9950455.06347  21185005.132    21185004.9554   21185010.4524
        49.1004         46.1004
   2434416.78943   1908724.77746  23979891.180    23979891.5404   23979895.9704
        38.3004         36.2004
 -16740214.87047 -13026792.90447  20654174.494    20654174.7674   20654179.9624
        50.2004         47.2004
 18  3 26  0  7 30.0000000  0 11G14G18G10G22G11G03G32G28G08G27G01
  -6535567.54345  -5072680.13546  22487812.357    22487812.7224   22487815.6764
        43.9004         41.2004
 -17044498.38346 -13263888.40647  19881207.909    19881208.3954   19881210.5574
        48.8004         45.9004
  -1360274.54243  -1030062.12646  24017297.453    24017299.0854   24017303.6634
        38.5004         36.2004
 -15705099.00946 -12213504.76847  21171231.506    21171230.3484   21171230.8864
        47.5004         44.7004
 -12737151.00046  -9912155.68547  20186850.704    20186850.3874   20186852.2754
        48.4004         45.6004
  -9273979.38045  -7201737.70446  22371877.001    22371878.4754   22371882.7914
        44.2004         41.2004
 -10847771.48945  -8436132.46946  22479251.118    22479251.8014   22479256.3564
        44.6004         41.8004
  -7234640.56944  -5626809.95146  23032941.584    23032940.5094   23032941.9664
        42.2004         39.7004
 -12729752.62846  -9898903.36847  21197595.241    21197594.6694   21197599.6794
        48.9004         45.9004
   2545617.13143   1995374.39546  24001050.617    24001051.3184   24001057.1844
        38.5004         36.0004
 -16783483.69247 -13060508.86447  20645941.030    20645941.1144   20645946.1094
        50.2004         47.2004
 18  3 26  0  8  0.0000000  0 11G14G18G10G22G11G03G32G28G08G27G01
  -6581014.13845  -5108093.05946  22479165.498    22479165.0064   22479167.7204
        44.1004         41.2004
 -17041093.94646 -13261235.59747  19881855.943    19881855.9414   19881858.5654
        48.8004         45.9004
  -1259249.57943   -951341.35546  24036524.936    24036523.5994   24036528.4084
        38.5004         36.2004
 -15759608.85946 -12255979.97247  21160858.482    21160857.7594   21160857.9954
        47.7004         44.7004
 -12768218.67546  -9936364.26147  20180938.828    20180938.6564   20180940.3564
        48.4004         45.6004
  -9365874.91945  -7273344.56946  22354392.086    22354391.5904   22354396.5854
        44.2004         41.6004
 -10842474.65345  -8432005.04247  22480259.961    22480259.8354   22480265.2454
        44.6004         42.1004
  -7235249.79544  -5627284.66246  23032824.754    23032824.8254   23032826.8134
        42.5004         40.2004
 -12663145.97346  -9847002.08347  21210269.495    21210268.9534   21210275.0054
        48.9004         45.9004
   2656945.64043   2082123.87846  24022240.815    24022237.2594   24022242.8784
        38.3004         36.2004
 -16826417.60047 -13093963.85447  20637770.928    20637770.8854   20637776.2084
        50.2004         47.2004
 18  3 26  0  8 30.0000000  0 11G14G18G10G22G11G03G32G28G08G27G01
  -6625972.22445  -5143125.31646  22470609.034    22470609.4534   22470612.0204
        43.9004         41.2004
 -17037250.50846 -13258240.71247  19882587.024    19882587.4724   19882589.9374
        48.8004         45.9004
  -1158116.98243   -872536.74646  24055765.411    24055767.6314   24055773.0884
        38.3004         36.0004
 -15813720.57346 -12298144.93447  21150561.527    21150560.7814   21150560.5464
        47.7004         44.7004
 -12798798.83346  -9960192.95347  20175119.672    20175119.8034   20175121.2654
        48.4004         45.6004
  -9457480.41245  -7344725.45846  22336959.764    22336959.6294   22336964.9074
        44.6004         41.8004
 -10836577.38345  -8427409.74747  22481382.598    22481382.6214   22481387.7404
        44.8004         42.1004
  -7235323.93744  -5627342.45046  23032810.993    23032810.5274   23032812.5504
        43.0004         40.4004
 -12596092.22246  -9794752.41547  21223029.494    21223028.9504   21223034.6464
        48.9004         45.9004
   2768400.33043   2168971.68945  24043450.321    24043446.1414   24043453.4774
        38.3004         35.9004
 -16869015.80547 -13127157.27347  20629664.954    20629665.2354   20629669.8334
        50.2004         47.2004
 18  3 26  0  9  0.0000000  0 11G14G18G10G22G11G03G32G28G08G27G01
  -6670439.55345  -5177775.14846  22462147.752    22462147.6174   22462150.7954
        43.9004         41.1004
 -17032967.62146 -13254903.39747  19883401.673    19883402.3004   19883404.9454
        48.8004         45.9004
  -1056878.70543   -793649.77646  24075034.258    24075034.0214   24075038.8824
        38.7004         36.4004
 -15867433.49246 -12339999.15147  21140340.176    21140339.2944   21140339.2904
        47.7004         44.7004
 -12828890.44946  -9983640.96847  20169393.820    20169393.3734   20169395.0124
        48.4004         45.6004
  -9548794.38445  -7415879.19246  22319583.036    22319583.5864   22319588.2094
        44.8004         41.9004
 -10830079.72245  -8422346.61947  22482617.581    22482618.6534   22482623.8014
        44.9004         42.1004
  -7234863.35544  -5626983.56746  23032898.723    23032898.3634   23032899.7934
        43.0004         40.2004
 -12528592.78646  -9742155.46447  21235873.499    21235874.0364   21235879.5384
        48.9004         45.9004
   2879979.23243   2255916.28845  24064680.254    24064678.6264   24064684.3394
        38.2004         35.9004
 -16911277.50547 -13160088.46947  20621622.837    20621622.7814   20621627.7664
        50.2004         47.2004
 18  3 26  0  9 30.0000000  0 11G14G18G10G22G11G03G32G28G08G27G01
  -6714414.47345  -5212041.29946  22453780.399    22453779.6504   22453783.0304
        43.9004         41.1004
 -17028245.32246 -13251223.68347  19884301.086    19884301.3344   19884303.6074
        48.9004         46.1004
   -955536.55843   -714681.88046  24094316.644    24094317.5864   24094324.0464
        38.3004         36.0004
 -15920746.97046 -12381542.11947  21130194.647    21130193.5894   21130194.4934
        47.5004         44.7004
 -12858491.93746 -10006707.05847  20163760.340    20163759.9924   20163761.6844
        48.4004         45.6004
  -9639815.38845  -7486804.62746  22302262.396    22302262.8214   22302267.5244
        44.8004         41.9004
 -10822981.80745  -8416815.76747  22483969.395    22483969.7704   22483974.8474
        44.9004         42.5004
  -7233868.30444  -5626208.20746  23033087.451    23033087.5344   23033088.5874
        42.9004         40.2004
 -12460648.98646  -9689212.24947  21248802.730    21248802.9244   21248808.8524
        48.9004         45.9004
   2991680.41443   2342956.17345  24085933.689    24085935.8304   24085939.0934
        38.0004         35.7004
 -16953201.97347 -13192756.88347  20613644.082    20613644.6764   20613649.9314
        50.3004         47.3004
 18  3 26  0 10  0.0000000  0 11G14G18G10G22G11G03G32G28G08G27G01
  -6757895.53945  -5245922.64346  22445504.292    22445504.2464   22445507.6454
        43.9004         40.9004
 -17023083.57146 -13247201.54347  19885283.490    19885283.3354   19885285.9754
        48.9004         46.1004
   -854092.43843   -635634.50945  24113621.521    24113620.9784   24113627.0514
        38.2004         35.7004
 -15973660.70346 -12422773.58947  21120125.057    21120124.2564   21120125.1564
        47.5004         44.5004
 -12887601.99546 -10029390.21747  20158220.977    20158220.6554   20158222.6864
        48.2004         45.6004
  -9730541.93345  -7557500.62246  22284997.183    22284997.5874   22285002.7864
        44.8004         41.9004
 -10815283.77145  -8410817.28347  22485434.861    22485435.1594   22485439.9114
        45.1004         42.5004
  -7232338.78044  -5625016.38346  23033378.953    23033378.4234   23033379.8044
        42.7004         40.0004
 -12392262.43046  -9635924.02947  21261817.257    21261816.7074   21261822.6414
        48.9004         46.1004
   3103501.89843   2430089.80245  24107210.779    24107214.7974   24107218.9864
        37.8004         35.7004
 -16994788.38247 -13225161.87447  20605731.175    20605731.3214   20605736.5114
        50.3004         47.5004
 18  3 26  0 10 30.0000000  0 11G14G18G10G22G11G03G32G28G08G27G01
  -6800881.01645  -5279417.81646  22437326.176    22437325.8954   22437328.0464
        43.7004         41.1004
 -17017482.38546 -13242836.98747  19886349.221    19886349.2874   19886351.9804
        48.9004         46.3004
   -752548.21243   -556509.12445  24132944.400    24132944.2864   24132948.7644
        37.8004         35.5004
 -16026174.00346 -12463693.03747  21110132.431    21110131.0884   21110132.3394
        47.5004         44.5004
 -12916219.40146 -10051689.49647  20152775.045    20152775.0614   20152776.9504
        48.2004         45.6004
  -9820972.59745  -7627966.06547  22267788.548    22267789.2974   22267795.0694
        44.9004         42.1004
 -10806985.71545  -8404351.26547  22487012.579    22487014.0324   22487019.3414
        45.1004         42.3004
  -7230275.48844  -5623408.64646  23033771.646    23033770.7644   23033772.5294
        42.9004         40.2004
 -12323434.80746  -9582292.12747  21274914.522    21274914.5004   21274919.9084
        48.9004         45.9004
   3215441.73643   2517315.65345  24128511.948    24128515.2834   24128520.3454
        37.6004         35.5004
 -17036036.00947 -13257302.88347  20597882.549    20597882.2864   20597887.2014
        50.5004         47.5004
 18  3 26  0 11  0.0000000  0 11G14G18G10G22G11G03G32G28G08G27G01
  -6843368.80545  -5312525.17146  22429240.729    22429240.6044   22429243.1684
        43.9004         41.2004
 -17011441.68946 -13238129.95547  19887498.906    19887498.8794   19887501.1854
        49.1004         46.3004
   -650905.75343   -477307.21145  24152284.983    24152285.4844   24152291.8544
        37.8004         35.7004
 -16078285.81246 -12504299.63947  21100215.716    21100215.0004   21100215.6674
        47.5004         44.7004
 -12944343.32946 -10073604.24447  20147423.323    20147423.2534   20147424.9564
        48.2004         45.6004
  -9911105.91945  -7698199.81747  22250637.815    22250638.0044   22250642.8224
        44.9004         42.1004
 -10798087.84345  -8397417.84447  22488706.682    22488706.8914   22488712.0804
        45.1004         42.1004
  -7227678.84244  -5621385.28446  23034264.135    23034264.7154   23034266.3944
        42.7004         39.5004
 -12254167.47146  -9528317.58647  21288095.619    21288095.2584   21288100.7894
        48.8004         45.8004
   3327497.96042   2604632.23445  24149837.503    24149840.0674   24149844.8074
        37.5004         35.2004
 -17076944.04947 -13289179.28347  20590097.660    20590097.7784   20590102.6784
        50.5004         47.5004
 18  3 26  0 11 30.0000000  0 11G14G18G10G22G11G03G32G28G08G27G01
  -6885357.20345  -5345243.38746  22421251.399    22421250.4454   22421252.9634
        43.9004         41.2004
 -17004961.29746 -13233080.29847  19888731.861    19888731.6974   19888734.4074
        49.1004         46.3004
   -549166.92243   -398030.18646  24171648.016    24171647.3404   24171653.6074
        38.3004         36.0004
 -16129995.88046 -12544593.18847  21090375.780    21090375.1394   21090375.4114
        47.7004         44.9004
 -12971971.87646 -10095132.98447  20142166.008    20142165.8304   20142167.3154
        48.4004         45.6004
 -10000940.47045  -7768200.73247  22233541.894    22233542.3234   22233546.9324
        44.9004         42.1004
 -10788590.35045  -8390017.18046  22490513.906    22490514.2134   22490518.2544
        44.8004         41.8004
  -7224548.28744  -5618945.89446  23034861.193    23034861.0384   23034862.5324
        42.5004         39.9004
 -12184461.82746  -9474001.51247  21301359.903    21301359.8174   21301365.3224
        48.8004         45.8004
   3439668.63342   2692037.94745  24171183.452    24171183.4664   24171189.2234
        37.3004         35.2004
 -17117511.70947 -13320790.44647  20582377.751    20582377.9334   20582382.8064
        50.5004         47.5004
 18  3 26  0 12  0.0000000  0 11G14G18G10G22G11G03G32G28G08G27G01
  -6926844.63345  -5377571.24646  22413355.668    22413354.8854   22413357.8934
        43.7004         41.1004
 -16998041.27846 -13227688.08047  19890048.361    19890048.5634   19890051.4134
        49.1004         46.3004
   -447333.48843   -318679.46545  24191022.046    24191024.6944   24191031.2374
        38.2004         35.9004
 -16181303.75346 -12584573.34747  21080612.171    21080611.5034   21080612.1124
        47.7004         44.9004
 -12999103.46646 -10116274.48247  20137002.682    20137002.5024   20137004.3544
        48.2004         45.6004
 -10090474.78445  -7837967.70947  22216505.127    22216505.3344   22216508.9454
        45.1004         42.3004
 -10778493.44045  -8382149.43146  22492435.925    22492435.5944   22492440.0104
        44.8004         41.8004
  -7220884.67644  -5616091.12946  23035559.055    23035557.4854   23035559.2974
        42.3004         39.5004
 -12114319.35546  -9419345.04547  21314706.812    21314707.3204   21314713.0264
        48.8004         45.6004
   3551951.73342   2779531.29545  24192551.641    24192549.8734   24192555.3284
        37.3004         35.2004
 -17157738.26847 -13352135.80647  20574722.535    20574722.8924   20574728.0134
        50.5004         47.7004
 18  3 26  0 12 30.0000000  0 11G14G18G10G22G11G03G32G28G08G27G01
  -6967829.67645  -5409507.62146  22405556.651    22405556.5054   22405559.0764
        43.7004         41.1004
 -16990681.69146 -13221953.33747  19891448.601    19891448.9374   19891451.5714
        49.1004         46.3004
   -345407.36443   -239256.50945  24210421.488    24210420.2044   24210427.4194
        38.0004         35.9004
 -16232208.72346 -12624239.55147  21070925.702    21070924.3554   21070925.5694
        47.7004         44.9004
 -13025737.27746 -10137028.11047  20131934.905    20131934.5914   20131936.5324
        48.2004         45.6004
 -10179707.45345  -7907499.65547  22199524.628    22199525.4234   22199529.2884
        45.5004         42.8004
 -10767797.36945  -8373814.82447  22494470.551    22494471.1374   22494476.3414
        44.9004         42.1004
  -7216688.43944  -5612821.34146  23036356.634    23036356.7334   23036358.1594
        42.0004         38.8004
 -12043741.81546  -9364349.56547  21328138.915    21328138.4414   21328142.8654
        48.6004         45.6004
   3664345.34742   2867110.72245  24213939.910    24213938.9764   24213942.3284
        37.0004         34.8004
 -17197622.91147 -13383214.74647  20567132.507    20567132.6934   20567138.2004
        50.5004         47.5004
 18  3 26  0 13  0.0000000  0 11G14G18G10G22G11G03G32G28G08G27G01
  -7008310.45245  -5441051.06246  22397853.328    22397853.3144   22397855.6744
        43.7004         40.9004
 -16982882.19746 -13215875.81547  19892933.251    19892933.0674   19892936.0674
        49.1004         46.3004
   -243390.32843   -159762.71145  24229833.668    24229835.7444   24229840.6414
        38.2004         35.9004
 -16282709.90946 -12663591.12047  21061314.566    21061314.0964   21061315.1884
        47.7004         44.9004
 -13051872.43846 -10157393.18047  20126962.105    20126961.6824   20126962.7404
        48.4004         45.6004
 -10268637.07745  -7976795.44747  22182601.095    22182601.9704   22182606.5234
        45.5004         42.6004
 -10756502.40945  -8365013.55747  22496620.117    22496620.6044   22496625.4134
        45.1004         42.3004
  -7211959.96844  -5609136.81346  23037255.229    23037255.2744   23037257.2294
        41.1004         38.3004
 -11972730.65546  -9309016.19647  21341650.629    21341650.6184   21341656.0704
        48.6004         45.4004
   3776847.46642   2954774.72045  24235348.394    24235348.1834   24235350.1254
        36.8004         34.6004
 -17237164.89947 -13414026.68847  20559607.867    20559608.1334   20559613.6184
        50.3004         47.3004
 18  3 26  0 13 30.0000000  0 11G14G18G10G22G11G03G32G28G08G27G01
  -7048285.41945  -5472200.36146  22390247.190    22390245.9594   22390248.1684
        43.6004         40.7004
 -16974643.02346 -13209455.68447  19894501.263    19894500.9934   19894503.6784
        49.1004         46.3004
   -141284.26843    -80199.55046  24249266.677    24249265.2544   24249271.6914
        38.3004         36.0004
 -16332807.04946 -12702627.85047  21051782.527    21051781.3044   21051781.8274
        47.7004         44.9004
 -13077507.54346 -10177368.59047  20122083.652    20122083.1354   20122084.8434
        48.4004         45.6004
 -10357262.20845  -8045853.97547  22165734.603    22165735.7784   22165741.4684
        45.3004         42.3004
 -10744608.85945  -8355745.84447  22498884.074    22498884.6644   22498888.5644
        45.1004         42.5004
  -7206699.86844  -5605038.01846  23038257.207    23038257.6194   23038258.4094
        40.6004         37.9004
 -11901287.31646  -9253346.06847  21355246.293    21355246.5084   21355251.1284
        48.4004         45.4004
   3889456.12542   3042521.68445  24256776.251    24256777.1574   24256779.7824
        36.3004         34.1004
 -17276363.48047 -13444571.03147  20552148.493    20552148.7184   20552154.5204
        50.3004         47.3004
 18  3 26  0 14  0.0000000  0 11G14G18G10G22G11G03G32G28G08G27G01
  -7087752.39545  -5502953.82946  22382734.716    22382735.4004   22382738.7134
        43.6004         40.7004
 -16965963.87846 -13202692.71447  19896152.025    19896152.5974   19896155.1534
        49.1004         46.3004
    -39090.98043      -568.42746  24268712.073    24268712.0534   24268716.6124
        38.3004         36.0004
 -16382499.72046 -12741349.39747  21042326.056    21042325.2764   21042325.4234
        47.7004         44.9004
 -13102641.46246 -10196953.46247  20117300.049    20117300.0834   20117301.7424
        48.2004         45.4004
 -10445581.44045  -8114674.13647  22148930.473    22148929.9374   22148934.6624
        45.1004         42.3004
 -10732117.01245  -8346011.93647  22501261.421    22501260.9144   22501265.7364
        45.1004         42.1004
  -7200908.15044  -5600525.00546  23039360.481    23039359.9664   23039361.0784
        40.6004         37.9004
 -11829413.59446  -9197340.57547  21368923.640    21368923.1994   21368928.9044
        48.4004         45.4004
   4002169.34442   3130350.17045  24278219.860    24278223.2714   24278228.7904
        36.3004         34.3004
 -17315217.85047 -13474847.16447  20544755.144    20544755.1164   20544760.7194
        50.3004         47.3004
 18  3 26  0 14 30.0000000  0 11G14G18G10G22G11G03G32G28G08G27G01
  -7126710.51044  -5533310.77546  22375323.076    22375321.9794   22375324.9444
        43.4004         40.6004
 -16956845.13046 -13195587.19747  19897887.412    19897888.0124   19897890.5094
        49.1004         46.3004
     63187.75343     79129.28046  24288176.671    24288176.0314   24288180.3944
        38.3004         36.0004
 -16431787.34146 -12779755.32647  21032946.680    21032945.9124   21032946.3974
        47.9004         45.1004
 -13127272.87646 -10216146.77047  20112613.092    20112612.8574   20112614.3294
        48.2004         45.6004
 -10533593.42645  -8183254.88247  22132182.914    22132182.1374   22132187.1654
        45.3004         42.5004
 -10719027.22245  -8335812.10647  22503750.147    22503751.5704   22503756.1684
        44.9004         42.1004
  -7194585.53143  -5595598.26246  23040562.515    23040562.8624   23040564.2664
        40.3004         37.8004
 -11757110.81546  -9141000.74847  21382681.518    21382681.8174   21382687.8204
        48.4004         45.6004
   4114985.19842   3218258.62345  24299685.421    24299691.0164   24299696.0584
        35.9004         34.1004
 -17353727.26547 -13504854.49847  20537426.817    20537426.8564   20537432.7014
        50.3004         47.3004
 18  3 26  0 15  0.0000000  0 11G14G18G10G22G11G03G32G28G08G27G01
  -7165157.81144  -5563269.68346  22368004.225    22368003.9474   22368007.3404
        43.2004         40.2004
 -16947286.55546 -13188138.95847  19899706.260    19899706.4054   19899709.7164
        49.1004         46.3004
    165550.12643    158892.16646  24307655.331    24307656.1034   24307659.5654
        38.7004         36.4004
 -16480669.30246 -12817845.16447  21023645.492    21023644.6864   21023644.7754
        48.1004         45.1004
 -13151400.58446 -10234947.58247  20108021.219    20108020.8934   20108023.3274
        48.2004         45.4004
 -10621296.70045  -8251595.07447  22115492.145    22115492.5914   22115497.2244
        45.1004         42.3004
 -10705339.87945  -8325146.62847  22506355.687    22506356.3264   22506361.3324
        45.1004         42.3004
  -7187732.36543  -5590258.13446  23041867.332    23041866.7064   23041867.6424
        39.7004         37.1004
 -11684381.10346  -9084328.24947  21396522.674    21396522.2664   21396528.0504
        48.6004         45.6004
   4227901.69442   3306245.47145  24321177.693    24321178.6554   24321185.1974
        36.3004         34.3004
 -17391890.96847 -13534592.44147  20530164.403    20530164.5484   20530170.1324
        50.2004         47.2004
 18  3 26  0 15 30.0000000  0 11G14G18G10G22G11G03G32G28G08G27G01
  -7203092.85444  -5592829.45446  22360786.397    22360786.7414   22360790.1374
        43.0004         40.0004
 -16937288.13946 -13180347.98947  19901609.960    19901609.5214   19901612.1654
        49.1004         46.3004
    267994.34843    238718.83646  24327149.135    24327149.6764   24327153.8634
        38.9004         36.6004
 -16529145.10346 -12855618.50847  21014420.510    21014419.3384   21014420.2514
        48.1004         45.1004
 -13175023.47446 -10253355.03447  20103526.431    20103526.4614   20103527.3244
        48.1004         45.4004
 -10708689.93245  -8319693.69447  22098862.045    22098862.6154   22098866.8464
        45.3004         42.5004
 -10691055.37245  -8314015.82147  22509074.761    22509074.2934   22509078.9734
        45.1004         42.3004
  -7180349.36243  -5584505.14146  23043272.576    23043271.9974   23043273.7184
        39.4004         36.9004
 -11611225.68446  -9027324.04747  21410443.667    21410443.5494   21410448.6694
        48.6004         45.8004
   4340916.92742   3394309.22745  24342690.212    24342685.0314   24342690.8484
        36.3004         34.5004
 -17429708.18147 -13564060.39847  20522968.121    20522967.9744   20522973.7004
        50.2004         47.2004
 18  3 26  0 16  0.0000000  0 11G14G18G10G22G11G03G32G28G08G27G01
  -7240513.98044  -5621988.73846  22353667.730    22353666.0894   22353668.4014
        43.0004         40.2004
 -16926850.09546 -13172214.45147  19903595.715    19903595.7694   19903598.9114
        49.1004         46.5004
    370518.66243    318607.92946  24346661.015    24346661.0014   24346664.4004
        38.9004         36.6004
 -16577214.38946 -12893075.09047  21005272.289    21005271.5544   21005272.5664
        47.9004         44.9004
 -13198140.26346 -10271368.12947  20099127.521    20099127.0224   20099128.8174
        48.2004         45.4004
 -10795771.73245  -8387549.62747  22082291.244    22082290.5604   22082295.9744
        45.3004         42.5004
 -10676174.07745  -8302419.99946  22511904.555    22511905.3864   22511911.0634
        44.9004         41.9004
  -7172436.69243  -5578339.45146  23044778.273    23044777.3804   23044777.5524
        38.7004         36.2004
 -11537646.41346  -8969989.55547  21424444.270    21424444.3494   21424450.0374
        48.6004         45.6004
   4454028.81242   3482448.32745  24364220.084    24364210.4634   24364215.2174
        36.6004         34.6004
 -17467178.19447 -13593257.80947  20515837.395    20515837.7354   20515843.4794
        50.2004         47.2004
 18  3 26  0 16 30.0000000  0 11G14G18G10G22G11G03G32G28G08G27G01
  -7277419.98244  -5650746.63246  22346641.901    22346642.0494   22346644.6274
        42.9004         40.2004
 -16915972.28846 -13163738.24347  19905665.571    19905665.6884   19905668.7294
        49.1004         46.3004
    473121.21143    398557.95746  24366185.322    24366185.2714   24366188.4554
        38.5004         36.0004
 -16624876.35146 -12930214.27247  20996202.884    20996202.0564   20996202.8114
        47.9004         45.1004
 -13220749.83046 -10288985.97447  20094824.911    20094824.9594   20094826.1334
        48.2004         45.4004
 -10882540.69545  -8455161.79547  22065778.829    22065779.2514   22065784.8584
        45.5004         42.6004
 -10660696.47645  -8290359.52946  22514849.048    22514850.1984   22514855.5024
        44.8004         41.8004
  -7163995.11143  -5571761.61945  23046382.492    23046383.5694   23046384.9034
        38.2004         35.9004
 -11463644.78346  -8912325.95147  21438527.380    21438526.8524   21438532.3864
        48.4004         45.4004
   4567235.40142   3570661.21445  24385760.018    24385754.6394   24385757.4174
        36.6004         34.6004
 -17504300.18647 -13622184.03847  20508773.338    20508773.6934   20508779.1304
        50.2004         47.3004
 18  3 26  0 17  0.0000000  0 11G14G18G10G22G11G03G32G28G08G27G01
  -7313808.84344  -5679101.57346  22339717.533    22339717.7734   22339721.2134
        43.0004         40.2004
 -16904654.67346 -13154919.32647  19907819.105    19907819.2994   19907822.3614
        49.1004         46.3004
    575800.28443    478567.63145  24385722.450    24385723.7094   24385725.3574
        38.2004         35.7004
 -16672131.08346 -12967036.13047  20987210.947    20987209.9704   20987210.8824
        48.1004         45.2004
 -13242851.06646 -10306207.72247  20090619.943    20090619.4854   20090620.6174
        48.2004         45.6004
 -10968995.51145  -8522529.16247  22049327.606    22049328.1194   22049332.7434
        45.6004         42.8004
 -10644623.02145  -8277834.75246  22517908.939    22517909.5504   22517914.4984
        44.6004         41.9004
  -7155025.07243  -5564772.01045  23048091.428    23048090.7784   23048089.8754
        38.2004         35.9004
 -11389222.57346  -8854334.62147  21452689.634    21452689.0974   21452694.3314
        48.4004         45.4004
   4680534.77742   3658946.43045  24407317.089    24407314.7434   24407317.8034
        36.8004         34.8004
 -17541073.40647 -13650838.48847  20501776.004    20501776.3984   20501781.6894
        50.3004         47.5004
 18  3 26  0 17 30.0000000  0 11G14G18G10G22G11G03G32G28G08G27G01
  -7349679.39844  -5707052.64846  22332893.261    22332893.1854   22332895.9574
        43.2004         40.6004
 -16892897.48846 -13145757.88947  19910056.605    19910056.6944   19910059.2864
        49.1004         46.3004
    678554.15543    558635.58646  24405276.906    24405276.8154   24405280.4024
        38.3004         36.0004
 -16718977.68246 -13003539.96247  20978296.544    20978295.5814   20978296.2354
        48.1004         45.2004
 -13264443.13246 -10323032.71447  20086510.627    20086510.4534   20086512.1094
        48.2004         45.4004
 -11055134.82245  -8589650.68347  22032935.292    22032935.8334   22032940.4914
        45.6004         42.8004
 -10627954.22545  -8264846.07446  22521082.808    22521082.0704   22521086.3064
        44.8004         41.9004
  -7145527.48743  -5557371.33946  23049897.351    23049897.5834   23049898.1284
        38.5004         36.4004
 -11314381.32046  -8796016.76347  21466930.396    21466930.6034   21466936.1714
        48.2004         45.2004
   4793924.88642   3747302.36745  24428889.444    24428890.5364   24428896.7614
        36.6004         34.6004
 -17577497.12547 -13679220.60647  20494844.875    20494845.1494   20494850.4004
        50.3004         47.3004
 18  3 26  0 18  0.0000000  0 11G14G18G10G22G11G03G32G28G08G27G01
  -7385030.15244  -5734598.66646  22326164.758    22326164.2664   22326167.5194
        43.2004         40.4004
 -16880700.61946 -13136253.83447  19912377.751    19912377.9914   19912380.1664
        49.1004         46.3004
    781380.95843    638760.38246  24424844.840    24424844.6514   24424847.7214
        38.3004         36.2004
 -16765415.38946 -13039725.17747  20969459.652    20969458.5494   20969459.0844
        48.1004         45.2004
 -13285524.57446 -10339459.81347  20082499.082    20082498.7064   20082500.2774
        48.2004         45.4004
 -11140957.23145  -8656525.27247  22016604.065    22016604.1284   22016609.1284
        45.6004         42.8004
 -10610690.56545  -8251393.87046  22524366.151    22524367.4594   22524371.4984
        44.8004         41.8004
  -7135502.69043  -5549559.81646  23051804.406    23051804.2764   23051807.1694
        39.0004         36.9004
 -11239122.80546  -8737373.77947  21481252.561    21481252.3204   21481257.5184
        48.1004         45.1004
   4907403.81042   3835727.48445  24450481.915    24450484.8124   24450487.7674
        36.8004         34.8004
 -17613570.57547 -13707329.78247  20487980.457    20487980.5444   20487985.5884
        50.3004         47.3004
 18  3 26  0 18 30.0000000  0 11G14G18G10G22G11G03G32G28G08G27G01
  -7419859.48144  -5761738.39646  22319537.067    22319537.2494   22319539.5174
        43.0004         40.4004
 -16868064.21946 -13126407.28747  19914782.629    19914782.4614   19914784.8624
        49.1004         46.3004
    884279.05443    718940.68145  24444426.303    24444425.5664   24444427.2644
        38.2004         35.9004
 -16811444.26146 -13075591.82047  20960700.438    20960699.9954   20960700.3204
        48.1004         45.2004
 -13306094.18646 -10355488.08647  20078584.802    20078584.5664   20078585.9134
        48.2004         45.6004
 -11226461.43145  -8723151.90247  22000334.470    22000334.1764   22000339.0104
        46.0004         43.3004
 -10592832.60145  -8237478.56846  22527764.591    22527766.2134   22527770.0394
        44.6004         41.9004
  -7124951.48543  -5541338.09746  23053813.035    23053813.0424   23053815.4884
        39.7004         37.6004
 -11163448.55346  -8678406.83947  21495652.275    21495651.9444   21495657.6624
        48.1004         45.1004
   5020969.50242   3924220.24045  24472094.908    24472095.8164   24472102.8234
        36.6004         34.5004
 -17649293.03647 -13735165.46247  20481182.678    20481182.8454   20481187.9014
        50.3004         47.5004
 18  3 26  0 19  0.0000000  0 11G14G18G10G22G11G03G32G28G08G27G01
  -7454166.03644  -5788470.74146  22313010.167    22313009.5514   22313012.4694
        43.2004         40.6004
 -16854988.27746 -13116218.24747  19917270.042    19917270.6444   19917273.3274
        49.1004         46.3004
    987246.63143    799175.15345  24464019.977    24464018.8924   24464020.6214
        37.6004         35.3004
 -16857063.72446 -13111139.45447  20952019.082    20952018.6124   20952019.0834
        48.1004         45.2004
 -13326151.23046 -10371116.95647  20074768.020    20074767.6014   20074769.7504
        48.2004         45.6004
 -11311646.07745  -8789529.52647  21984123.302    21984124.0174   21984129.0924
        46.3004         43.3004
 -10574380.89045  -8223100.59346  22531276.260    22531276.4394   22531281.1804
        44.6004         41.8004
  -7113874.08843  -5532706.38546  23055921.508    23055921.4124   23055923.3424
        40.3004         37.9004
 -11087360.29646  -8619117.29847  21510131.347    21510131.5154   21510136.9324
        48.1004         45.1004
   5134620.02942   4012779.06845  24493722.508    24493723.5374   24493727.9854
        36.8004         34.6004
 -17684663.73947 -13762727.04947  20474451.660    20474452.0594   20474457.2614
        50.3004         47.5004
 18  3 26  0 19 30.0000000  0 11G14G18G10G22G11G03G32G28G08G27G01
  -7487948.50044  -5814794.71646  22306582.009    22306580.1184   22306583.2774
        43.4004         40.6004
 -16841472.78846 -13105686.70847  19919842.276    19919842.2424   19919845.0554
        49.1004         46.3004
   1090282.02342    879462.49745  24483627.205    24483626.9254   24483628.6424
        37.5004         35.5004
 -16902273.83246 -13146368.10347  20943416.129    20943415.0004   20943416.2604
        48.1004         45.2004
 -13345694.19046 -10386345.24247  20071049.099    20071048.8724   20071050.5504
        48.2004         45.6004
 -11396509.84945  -8855657.12747  21967973.979    21967974.2744   21967979.7204
        46.2004         43.2004
 -10555335.99845  -8208260.42946  22534899.740    22534900.6514   22534905.7024
        44.6004         41.8004
  -7102271.52644  -5523665.46046  23058129.975    23058129.6034   23058131.4414
        40.6004         38.3004
 -11010859.81246  -8559506.54047  21524689.492    21524689.5544   21524694.5244
        48.2004         45.2004
   5248353.40142   4101402.43445  24515365.897    24515365.5364   24515371.6724
        37.1004         35.2004
 -17719681.93547 -13790013.95547  20467787.908    20467787.9674   20467793.3844
        50.3004         47.3004
 18  3 26  0 20  0.0000000  0 11G14G18G10G22G11G03G32G28G08G27G01
  -7521205.41544  -5840709.18246  22300250.491    22300252.1164   22300253.7274
        43.2004         40.4004
 -16827517.95746 -13094812.81547  19922497.937    19922497.8544   19922500.9654
        49.1004         46.3004
   1193383.43143    959801.23445  24503244.378    24503245.7204   24503248.8294
        37.6004         35.7004
 -16947073.38746 -13181276.84247  20934890.692    20934890.3644   20934890.9204
        48.1004         45.2004
 -13364722.36746 -10401172.39947  20067428.066    20067427.8604   20067429.3744
        48.2004         45.6004
 -11481051.45445  -8921533.66947  21951886.051    21951886.4264   21951890.7984
        46.0004         43.0004
 -10535698.56945  -8192958.53946  22538637.062    22538638.2284   22538642.2844
        44.6004         41.9004
  -7090144.34544  -5514215.72946  23060437.200    23060436.7214   23060438.6074
        40.8004         38.3004
 -10933948.98246  -8499576.02647  21539325.681    21539325.2464   21539330.0924
        48.2004         45.2004
   5362167.61842   4190088.83145  24537026.131    24537024.5514   24537029.9584
        37.1004         35.0004
 -17754346.89847 -13817025.60547  20461191.159    20461191.5334   20461197.0934
        50.3004         47.3004
 18  3 26  0 20 30.0000000  0 11G14G18G10G22G11G03G32G28G08G27G01
  -7553935.50744  -5866213.13846  22294024.982    22294024.2064   22294025.8634
        43.2004         40.7004
 -16813123.86446 -13083596.64147  19925236.967    19925236.9154   19925240.2864
        49.1004         46.3004
   1296549.19243   1040190.12745  24522876.640    24522877.0354   24522879.3844
        37.8004         35.5004
 -16991462.31946 -13215865.61047  20926444.631    20926443.2904   20926443.8904
        48.2004         45.2004
 -13383234.72246 -10415597.60947  20063904.729    20063904.6924   20063906.9014
        48.2004         45.4004
 -11565269.52545  -8987158.13047  21935859.489    21935860.1534   21935865.7234
        46.0004         43.2004
 -10515469.22445  -8177195.39247  22542486.787    22542487.2184   22542492.4754
        44.8004         42.1004
  -7077493.58844  -5504358.01646  23062844.100    23062843.8044   23062846.7774
        40.8004         38.3004
 -10856629.64546  -8439327.19847  21554038.283    21554038.7584   21554043.3234
        48.2004         45.1004
   5476060.74542   4278836.72745  24558697.989    24558697.9144   24558701.6284
        37.5004         35.3004
 -17788657.86947 -13843761.43547  20454662.451    20454662.6684   20454667.8634
        50.3004         47.5004
 18  3 26  0 21  0.0000000  0 11G14G18G10G22G11G03G32G28G08G27G01
  -7586137.09344  -5891305.27346  22287897.255    22287896.8234   22287898.0274
        43.4004         40.9004
 -16798290.39846 -13072038.10247  19928059.675    19928060.0174   19928062.5424
        49.1004         46.3004
   1399777.56743   1120627.81345  24542519.727    24542521.9134   24542523.6034
        37.8004         35.5004
 -17035440.13846 -13250134.04047  20918075.623    20918074.9934   20918075.1514
        48.2004         45.4004
 -13401229.88746 -10429619.82647  20060481.310    20060480.6834   20060482.2124
        48.2004         45.6004
 -11649162.82245  -9052529.51547  21919896.292    21919896.4444   21919900.5284
        46.2004         43.3004
 -10494648.60245  -8160971.52247  22546449.327    22546449.5834   22546454.9384
        44.9004         42.3004
  -7064319.68144  -5494092.62046  23065351.043    23065350.7644   23065354.3074
        40.9004         38.3004
 -10778903.07046  -8378761.04547  21568829.244    21568829.3534   21568834.3104
        48.1004         45.1004
   5590030.77142   4367644.53745  24580385.222    24580385.0954   24580390.2194
        37.5004         35.3004
 -17822614.09347 -13870220.82647  20448200.660    20448200.9794   20448206.2284
        50.5004         47.5004
 18  3 26  0 21 30.0000000  0 11G14G18G10G22G11G03G32G28G08G27G01
  -7617809.28845  -5915984.91546  22281869.075    22281868.8534   22281871.0874
        43.6004         40.7004
 -16783017.80046 -13060137.38547  19930966.181    19930966.3764   19930968.8344
        49.1004         46.3004
   1503066.90842   1201113.02545  24562176.834    24562176.0334   24562178.2454
        37.3004         35.2004
 -17079006.84946 -13284082.12047  20909785.312    20909784.5114   20909784.8974
        48.4004         45.6004
 -13418707.08146 -10443238.41947  20057155.053    20057154.8334   20057156.6524
        48.2004         45.6004
 -11732730.02645  -9117646.80247  21903994.098    21903993.5954   21903998.1704
        46.2004         43.2004
 -10473237.39145  -8144287.46847  22550522.951    22550524.3314   22550528.9174
        44.9004         42.1004
  -7050623.19644  -5483420.04146  23067957.703    23067957.4344   23067959.4024
        40.6004         38.1004
 -10700771.31446  -8317879.16447  21583697.234    21583697.4774   21583702.4924
        48.1004         45.1004
   5704075.76242   4456510.74445  24602087.660    24602087.8554   24602094.1494
        37.5004         35.3004
 -17856214.85347 -13896403.22947  20441806.550    20441806.6024   20441812.3674
        50.5004         47.5004
 18  3 26  0 22  0.0000000  0 11G14G18G10G22G11G03G32G28G08G27G01
  -7648950.31145  -5940250.62746  22275943.330    22275943.6184   22275945.4504
        43.6004         40.7004
 -16767306.10946 -13047894.51147  19933955.670    19933955.8434   19933958.3214
        49.1004         46.1004
   1606415.50542   1281644.36945  24581841.602    24581840.6884   24581844.9684
        36.8004         34.8004
 -17122161.72246 -13317709.28847  20901572.758    20901572.4114   20901572.7404
        48.4004         45.6004
 -13435665.27146 -10456452.60547  20053927.653    20053927.7914   20053929.3694
        48.2004         45.4004
 -11815969.83745  -9182508.96947  21888153.561    21888154.0404   21888159.0714
        46.2004         43.5004
 -10451236.35345  -8127143.76747  22554710.875    22554710.6954   22554715.8454
        44.8004         42.1004
  -7036405.27844  -5472341.13746  23070664.279    23070663.0384   23070664.9014
        40.8004         38.1004
 -10622236.29546  -8256683.04447  21598641.511    21598641.9214   21598647.0924
        47.9004         45.1004
   5818193.64942   4545433.77845  24623804.037    24623803.0254   24623808.1394
        37.3004         35.2004
 -17889459.41147 -13922308.08147  20435480.501    20435480.7944   20435486.0054
        50.5004         47.5004
 18  3 26  0 22 30.0000000  0 11G14G18G10G22G11G03G32G28G08G27G01
  -7679559.33045  -5964101.79146  22270118.171    22270118.4794   22270120.7524
        43.6004         40.7004
 -16751155.66546 -13035309.75847  19937029.105    19937029.3764   19937032.1284
        49.1004         46.3004
   1709821.62042   1362220.57245  24601517.459    24601519.4714   24601522.4074
        37.1004         35.5004
 -17164904.37946 -13351015.25747  20893439.589    20893438.3084   20893438.5844
        48.4004         45.4004
 -13452103.45046 -10469261.57747  20050800.014    20050799.6604   20050801.6024
        48.2004         45.6004
 -11898881.00046  -9247115.05347  21872376.525    21872376.7874   21872382.3684
        46.5004         43.9004
 -10428646.11645  -8109540.97546  22559009.281    22559009.3544   22559013.7994
        44.8004         41.8004
  -7021666.51844  -5460856.39446  23073468.484    23073467.9004   23073469.9274
        40.8004         38.5004
 -10543299.58146  -8195173.92547  21613662.661    21613662.7314   21613668.4444
        47.9004         44.9004
   5932382.52642   4634412.11645  24645532.919    24645531.5754   24645537.7304
        37.1004         35.2004
 -17922347.02547 -13947934.79647  20429222.076    20429222.2204   20429227.4744
        50.5004         47.5004
 18  3 26  0 23  0.0000000  0 11G14G18G10G22G11G03G32G28G08G27G01
  -7709634.87745  -5987537.27246  22264395.701    22264395.7764   22264397.4514
        43.6004         40.9004
 -16734566.34346 -13022383.00947  19940185.567    19940185.7494   19940188.9644
        49.1004         46.1004
   1813283.60742   1442840.28945  24621207.468    24621208.0854   24621211.3924
        37.3004         35.2004
 -17207234.66946 -13383999.89147  20885383.843    20885383.3574   20885383.8354
        48.4004         45.6004
 -13468020.54046 -10481664.50847  20047771.165    20047770.7654   20047772.4894
        48.2004         45.6004
 -11981462.23246  -9311464.04647  21856660.959    21856661.1254   21856666.8754
        46.5004         43.3004
 -10405467.49145  -8091479.70646  22563418.042    22563419.2304   22563424.1614
        44.6004         41.6004
  -7006407.79044  -5448966.48746  23076372.017    23076370.8334   23076372.6074
        40.8004         38.1004
 -10463963.42546  -8133353.55147  21628760.467    21628760.1784   21628765.7524
        47.9004         45.1004
   6046640.34742   4723444.19645  24667274.572    24667273.6854   24667280.7254
        37.0004         34.8004
 -17954876.95147 -13973282.77847  20423031.385    20423032.1164   20423037.1834
        50.5004         47.5004
 18  3 26  0 23 30.0000000  0 11G14G18G10G22G11G03G32G28G08G27G01
  -7739175.85645  -6010556.21446  22258773.202    22258772.2524   22258775.9674
        43.6004         40.7004
 -16717538.29546 -13009114.40947  19943426.067    19943426.1774   19943429.1424
        49.1004         46.3004
   1916799.85842   1523502.28445  24640906.234    24640906.7454   24640910.1144
        37.0004         34.8004
 -17249152.36346 -13416663.01747  20877408.064    20877407.0594   20877407.0524
        48.2004         45.4004
 -13483415.65346 -10493660.70847  20044841.920    20044841.5144   20044843.1044
        48.2004         45.6004
 -12063712.25945  -9375554.96847  21841009.791    21841010.1404   21841015.1804
        46.3004         43.3004
 -10381701.24045  -8072960.54646  22567942.080    22567942.0954   22567946.3424
        44.6004         41.8004
  -6990629.87044  -5436672.01546  23079374.190    23079373.8234   23079375.0354
        40.6004         37.9004
 -10384229.12546  -8071222.93447  21643933.307    21643933.4154   21643939.0424
        47.9004         44.9004
   6160965.20842   4812528.49845  24689029.674    24689029.8184   24689035.3834
        36.6004         34.5004
 -17987048.48547 -13998351.51847  20416910.157    20416910.3534   20416915.3264
        50.7004         47.7004
 18  3 26  0 24  0.0000000  0 11G14G18G10G22G11G03G32G28G08G27G01
  -7768180.88845  -6033157.52846  22253254.512    22253253.3934   22253256.8684
        43.7004         40.9004
 -16700071.70546 -12995504.08747  19946749.963    19946750.0834   19946753.1394
        49.1004         46.3004
   2020368.67542   1604205.18445  24660615.759    24660617.3134   24660617.8614
        36.6004         34.6004
 -17290656.78346 -13449004.11347  20869509.125    20869508.4024   20869509.0104
        48.2004         45.2004
 -13498287.78646 -10505249.38647  20042011.498    20042010.8624   20042013.0024
        48.2004         45.6004
 -12145629.83045  -9439386.82047  21825420.667    21825421.1414   21825427.2274
        46.3004         43.5004
 -10357348.16045  -8053984.11146  22572575.022    22572576.8244   22572581.1404
        44.6004         41.8004
  -6974333.74544  -5423973.73746  23082475.199    23082475.2294   23082476.7024
        40.8004         38.3004
 -10304098.37946  -8008783.39947  21659181.331    21659181.5754   21659186.6694
        47.9004         44.9004
   6275355.00242   4901663.37845  24710795.129    24710798.1854   24710802.4074
        36.6004         34.6004
 -18018860.87847 -14023140.40047  20410856.333    20410856.6114   20410861.7084
        50.7004         47.7004
 18  3 26  0 24 30.0000000  0 11G14G18G10G22G11G03G32G28G08G27G01
  -7796648.79845  -6055340.30746  22247837.138    22247836.3674   22247839.4244
        43.7004         40.9004
 -16682166.76546 -12981552.19347  19950157.242    19950157.2714   19950160.4904
        49.1004         46.3004
   2123988.33942   1684947.80845  24680333.313    24680332.3754   24680336.1684
        36.6004         34.6004
 -17331747.70046 -13481022.99947  20861690.079    20861688.5264   20861689.7564
        48.2004         45.2004
 -13512635.89646 -10516429.73347  20039280.826    20039280.7874   20039282.7314
        48.2004         45.6004
 -12227213.70145  -9502958.64747  21809895.921    21809896.2314   21809901.2644
        46.3004         43.3004
 -10332409.06745  -8034551.03546  22577322.653    22577322.5624   22577327.6464
        44.6004         41.9004
  -6957520.26044  -5410872.32846  23085674.374    23085673.6954   23085677.3464
        40.8004         37.9004
 -10223573.31646  -7946036.59847  21674504.773    21674504.6664   21674510.4414
        47.7004         44.7004
   6389807.76142   4990847.34845  24732577.395    24732576.9564   24732581.9654
        36.6004         34.6004
 -18050313.39647 -14047648.85247  20404871.081    20404871.1004   20404876.2884
        50.7004         47.7004
 18  3 26  0 25  0.0000000  0 11G14G18G10G22G11G03G32G28G08G27G01
  -7824578.39145  -6077103.61446  22242521.477    22242521.4614   22242524.4694
        43.7004         41.1004
 -16663823.34546 -12967258.62647  19953647.701    19953647.7834   19953650.9224
        49.1004         46.3004
   2227657.17342   1765728.73345  24700061.312    24700061.0454   24700063.2934
        37.0004         35.0004
 -17372424.76946 -13512719.41747  20853949.413    20853948.2704   20853948.7174
        48.2004         45.4004
 -13526459.08746 -10527201.06347  20036650.585    20036650.5414   20036651.9094
        48.2004         45.6004
 -12308462.65745  -9566269.48947  21794434.930    21794435.4364   21794440.3634
        46.3004         43.5004
 -10306884.81645  -8014662.00847  22582179.543    22582179.4464   22582183.6664
        44.8004         42.1004
  -6940190.27543  -5397368.45946  23088972.624    23088971.7974   23088974.6484
        40.4004         37.4004
 -10142656.03546  -7882984.17747  21689902.843    21689902.5634   21689908.5934
        47.5004         44.7004
   6504321.58642   5080078.92945  24754366.676    24754367.7394   24754373.3064
        36.8004         34.8004
 -18081405.31547 -14071876.32247  20398954.568    20398954.6314   20398959.6604
        50.7004         47.7004
 18  3 26  0 25 30.0000000  0 11G14G18G10G22G11G03G32G28G08G27G01
  -7851968.44045  -6098446.49446  22237310.191    22237309.7424   22237312.3884
        43.7004         41.1004
 -16645041.90546 -12952623.74147  19957221.937    19957222.1714   19957225.3274
        49.1004         46.3004
   2331373.72542   1846546.80445  24719795.784    24719795.9004   24719800.1184
        36.6004         34.5004
 -17412688.34846 -13544093.63147  20846287.528    20846286.8734   20846286.8344
        48.2004         45.4004
 -13539756.59546 -10537562.75947  20034120.102    20034119.8444   20034121.6254
        48.2004         45.6004
 -12389375.42846  -9629318.37847  21779038.392    21779038.2134   21779043.5004
        46.5004         43.5004
 -10280776.27245  -7994317.67946  22587148.260    22587147.6914   22587151.9624
        44.8004         41.9004
  -6922344.60543  -5383462.74946  23092368.156    23092367.3834   23092369.7324
        39.9004         37.3004
 -10061347.67646  -7819627.01947  21705375.250    21705375.4054   21705381.2354
        47.5004         44.7004
   6618894.42842   5169356.46045  24776169.685    24776170.9734   24776175.5184
        37.0004         34.8004
 -18112135.96547 -14095822.29747  20393106.601    20393106.8674   20393111.7354
        50.7004         47.7004
 18  3 26  0 26  0.0000000  0 11G14G18G10G22G11G03G32G28G08G27G01
  -7878817.95045  -6119368.18046  22232201.383    22232200.8464   22232203.1744
        43.9004         41.1004
 -16625822.45046 -12937647.55147  19960879.865    19960879.6684   19960882.1404
        49.3004         46.5004
   2435136.24442   1927400.68545  24739543.020    24739543.2264   24739545.4144
        36.4004         34.5004
 -17452537.47646 -13575144.90047  20838704.551    20838703.7424   20838704.1234
        48.2004         45.4004
 -13552527.45546 -10547514.09047  20031689.739    20031689.9314   20031691.3194
        48.2004         45.6004
 -12469950.82546  -9692104.38647  21763705.217    21763705.4094   21763710.1774
        46.7004         43.7004
 -10254084.30745  -7973518.74246  22592225.998    22592226.9464   22592231.2824
        44.6004         41.6004
  -6903984.24843  -5369156.01446  23095862.701    23095861.9694   23095863.1844
        40.1004         37.8004
  -9979650.89946  -7755967.20047  21720921.911    21720921.6834   21720926.8794
        47.5004         44.7004
   6733524.29942   5258678.42945  24797984.710    24797983.9394   24797988.8634
        37.3004         35.3004
 -18142504.58647 -14119486.16547  20387327.977    20387328.2024   20387332.9124
        50.8004         47.8004
 18  3 26  0 26 30.0000000  0 11G14G18G10G22G11G03G32G28G08G27G01
  -7905125.70845  -6139867.71246  22227193.097    22227193.2454   22227196.7514
        43.7004         40.9004
 -16606165.21546 -12922330.23147  19964620.041    19964620.4544   19964622.9454
        49.3004         46.5004
   2538943.08842   2008289.14345  24759298.546    24759298.6334   24759299.5504
        36.3004         34.6004
 -17491971.84046 -13605872.97347  20831199.600    20831199.1874   20831200.2594
        48.4004         45.4004
 -13564770.57246 -10557054.17747  20029360.160    20029359.8874   20029361.4994
        48.2004         45.6004
 -12550187.59846  -9754626.52447  21748436.498    21748436.7564   21748441.8854
        46.7004         43.7004
 -10226809.85545  -7952265.91946  22597417.716    22597418.2774   22597421.2404
        44.6004         41.8004
  -6885110.23244  -5354448.97446  23099453.920    23099453.5864   23099456.9234
        40.6004         38.3004
  -9897567.10346  -7692005.79447  21736542.351    21736541.6914   21736547.1614
        47.5004         44.4004
   6848209.20742   5348043.29545  24819811.028    24819809.4814   24819812.9094
        37.3004         35.2004
 -18172510.43847 -14142867.35047  20381617.500    20381617.8224   20381623.1524
        50.8004         47.8004
 18  3 26  0 27  0.0000000  0 11G14G18G10G22G11G03G32G28G08G27G01
  -7930890.42345  -6159944.10946  22222291.122    22222291.6964   22222293.1834
        43.7004         41.1004
 -16586070.29346 -12906671.85847  19968444.488    19968444.3304   19968446.2474
        49.1004         46.3004
   2642792.66242   2089210.91045  24779057.385    24779057.6814   24779061.0154
        36.4004         34.5004
 -17530991.48246 -13636277.87947  20823774.564    20823774.0794   20823774.7664
        48.4004         45.6004
 -13576485.21446 -10566182.47547  20027130.751    20027130.6984   20027132.4124
        48.2004         45.8004
 -12630084.53546  -9816883.87247  21733232.922    21733233.0424   21733237.1054
        46.7004         43.9004
 -10198953.85445  -7930559.93846  22602718.279    22602717.5644   22602721.9634
        44.4004         41.4004
  -6865723.57444  -5339342.50446  23103143.780    23103143.0384   23103145.5944
        40.9004         38.3004
  -9815098.33746  -7627744.41947  21752234.557    21752234.9454   21752240.1734
        47.4004         44.0004
   6962947.20742   5437449.54845  24841643.445    24841641.6154   24841645.7594
        37.5004         35.3004
 -18202152.80747 -14165965.29347  20375976.901    20375976.8564   20375982.4894
        50.7004         47.7004
 18  3 26  0 27 30.0000000  0 11G14G18G10G22G11G03G32G28G08G27G01
  -7956111.35845  -6179596.77046  22217493.446    22217492.0934   22217495.0554
        43.9004         41.2004
 -16565537.84946 -12890672.55447  19972350.814    19972351.3354   19972353.6514
        49.1004         46.3004
   2746683.38042   2170164.75445  24798826.284    24798829.1014   24798830.6714
        36.4004         34.5004
 -17569595.99346 -13666359.31147  20816428.955    20816428.3194   20816428.6544
        48.4004         45.6004
 -13587670.79746 -10574898.51647  20025002.098    20025001.9404   20025004.0864
        48.2004         45.6004
 -12709640.46246  -9878875.48947  21718094.284    21718094.0524   21718098.7894
        46.9004         44.0004
 -10170517.23845  -7908401.51546  22608128.335    22608129.1084   22608133.0934
        44.2004         41.4004
  -6845825.43244  -5323837.47846  23106929.961    23106929.4424   23106931.8724
        40.8004         37.9004
  -9732246.65346  -7563184.66847  21768000.196    21768000.4414   21768006.3194
        47.0004         43.9004
   7077736.28143   5526895.57145  24863486.799    24863486.6714   24863491.0094
        37.6004         35.5004
 -18231431.00647 -14188779.47647  20370405.134    20370405.3854   20370410.7774
        50.7004         47.7004
 18  3 26  0 28  0.0000000  0 11G14G18G10G22G11G03G32G28G08G27G01
  -7980787.25845  -6198824.74046  22212795.797    22212796.2014   22212799.3544
        44.1004         41.2004
 -16544568.20746 -12874332.57947  19976341.648    19976341.7644   19976344.5494
        49.1004         46.3004
   2850613.68742   2251149.37745  24818606.847    24818605.5834   24818610.1324
        36.4004         34.5004
 -17607785.27346 -13696117.17547  20809162.393    20809161.1504   20809161.7334
        48.6004         45.8004
 -13598326.00746 -10583201.27947  20022974.811    20022974.3874   20022976.6894
        48.4004         45.8004
 -12788854.20946  -9940600.47047  21703019.091    21703019.6794   21703024.4434
        47.0004         44.0004
 -10141500.98645  -7885791.43646  22613650.318    22613651.2454   22613654.8364
        44.2004         41.2004
  -6825416.45043  -5307934.36446  23110812.605    23110813.1094   23110814.1794
        40.1004         37.4004
  -9649013.67846  -7498327.81547  21783840.640    21783840.0474   21783845.1514
        46.9004         43.9004
   7192574.44042   5616379.86645  24885336.086    24885338.6464   24885345.2324
        37.5004         35.3004
 -18260344.34547 -14211309.35747  20364903.030    20364903.3804   20364908.8264
        50.7004         47.7004
 18  3 26  0 28 30.0000000  0 11G14G18G10G22G11G03G32G28G08G27G01
  -8004917.11445  -6217627.19446  22208204.966    22208204.5344   22208207.7844
        44.2004         41.4004
 -16523161.39346 -12857651.94547  19980415.263    19980415.4354   19980418.1404
        49.1004         46.3004
   2954581.95342   2332163.55245  24838390.616    24838388.9174   24838392.1744
        35.7004         33.8004
 -17645559.00546 -13725551.25447  20801973.257    20801972.6534   20801973.4984
        48.8004         45.8004
 -13608449.94346 -10591090.06347  20021048.156    20021047.6514   20021049.7064
        48.4004         45.6004
 -12867724.57846 -10002057.89347  21688010.989    21688011.0344   21688016.1594
        46.9004         43.9004
 -10111906.09345  -7862730.48546  22619282.271    22619282.2344   22619286.7784
        44.1004         41.4004
  -6804497.95943  -5291634.23046  23114794.692    23114793.9294   23114795.2544
        40.3004         37.8004
  -9565401.57946  -7433175.54547  21799751.676    21799751.2294   21799755.8894
        46.9004         43.9004
   7307459.78642   5705900.93845  24907198.551    24907200.7184   24907207.7374
        37.1004         34.8004
 -18288892.09447 -14233554.36047  20359470.375    20359470.6534   20359476.2244
        50.7004         47.7004
 18  3 26  0 29  0.0000000  0 11G14G18G10G22G11G03G32G28G08G27G01
  -8028500.11545  -6236003.54946  22203716.909    22203716.3834   22203719.9724
        44.2004         41.4004
 -16501317.93246 -12840631.07147  19984572.194    19984572.1654   19984574.9734
        49.1004         46.3004
   3058586.60642   2413206.14545  24858180.033    24858181.3134   24858185.5654
        35.6004         33.6004
 -17682916.91046 -13754661.31247  20794864.892    20794864.1984   20794864.4534
        48.8004         45.8004
 -13618042.16846 -10598564.53147  20019222.760    20019222.4574   20019224.3434
        48.2004         45.8004
 -12946250.39746 -10063246.81947  21673067.324    21673067.7684   21673073.4704
        46.7004         43.7004
 -10081733.59645  -7839219.45246  22625023.767    22625024.4104   22625027.3224
        44.2004         41.4004
  -6783070.85443  -5274937.78646  23118871.947    23118871.2304   23118873.5564
        40.4004         37.9004
  -9481411.92246  -7367729.06247  21815733.751    21815733.9534   21815739.1094
        46.7004         43.9004
   7422390.23342   5795457.12945  24929069.218    24929071.7404   24929078.5214
        37.0004         34.8004
 -18317073.52047 -14255513.92047  20354108.046    20354108.3354   20354113.4854
        50.7004         47.7004
 18  3 26  0 29 30.0000000  0 11G14G18G10G22G11G03G32G28G08G27G01
  -8051535.22045  -6253952.97146  22199333.421    22199332.7474   22199337.1584
        44.2004         41.4004
 -16479037.65746 -12823269.82447  19988812.169    19988812.0324   19988814.4754
        49.1004         46.3004
   3162626.02442   2494275.78845  24877979.259    24877977.5714   24877982.3394
        35.9004         34.1004
 -17719858.93346 -13783447.30047  20787835.210    20787834.1714   20787834.7034
        48.8004         45.8004
 -13627101.57946 -10605623.81747  20017498.772    20017498.8434   20017500.6534
        48.4004         45.9004
 -13024430.49746 -10124166.36747  21658189.703    21658190.6294   21658195.4754
        46.7004         43.7004
 -10050984.55845  -7815259.16746  22630875.868    22630876.2644   22630878.9124
        44.1004         41.2004
  -6761136.38644  -5257846.01146  23123045.399    23123045.5594   23123047.8454
        40.6004         38.1004
  -9397046.94746  -7301990.13847  21831787.443    21831787.1644   21831792.7994
        46.9004         43.9004
   7537363.84642   5885046.96645  24950951.815    24950949.5284   24950957.5124
        37.0004         35.0004
 -18344887.94747 -14277187.50547  20348815.282    20348815.4134   20348820.5704
        50.7004         47.7004
 18  3 26  0 30  0.0000000  0 11G14G18G10G22G11G03G32G28G08G27G01
  -8074021.13445  -6271474.44746  22195054.841    22195054.7074   22195057.1914
        44.4004         41.6004
 -16456321.09046 -12805568.60447  19993134.187    19993134.4574   19993137.4574
        49.1004         46.1004
   3266698.68942   2575371.38645  24897785.208    24897785.9234   24897784.8904
        35.7004         34.0004
 -17756384.72146 -13811908.94547  20780883.686    20780883.1704   20780883.9464
        48.6004         45.8004
 -13635627.42746 -10612267.33147  20015876.536    20015876.3564   20015878.2344
        48.4004         45.8004
 -13102263.68246 -10184815.58647  21643378.722    21643379.5214   21643384.2154
        46.7004         43.9004
 -10019660.02045  -7790850.42946  22636836.119    22636836.7904   22636840.6564
        44.1004         41.2004
  -6738695.56443  -5240359.68446  23127316.110    23127315.6314   23127317.4624
        40.4004         37.8004
  -9312308.41846  -7235960.11347  21847912.455    21847912.6894   21847918.6334
        46.9004         44.2004
   7652378.62842   5974668.86445  24972839.016    24972837.5684   24972842.6834
        37.0004         34.8004
 -18372334.65847 -14298574.55647  20343592.856    20343592.8384   20343597.9074
        50.7004         47.8004
 18  3 26  0 30 30.0000000  0 11G14G18G10G22G11G03G32G28G08G27G01
  -8095957.07645  -6288567.37446  22190881.708    22190880.7134   22190883.1234
        44.4004         41.6004
 -16433168.08346 -12787527.30647  19997540.841    19997540.6354   19997543.4144
        49.1004         46.3004
   3370803.03742   2656491.65945  24917596.077    24917597.1914   24917595.6684
        36.1004         34.3004
 -17792494.49146 -13840046.42247  20774012.672    20774011.9994   20774012.2094
        48.6004         45.6004
 -13643619.23246 -10618494.71547  20014355.970    20014355.6324   20014357.5264
        48.4004         45.9004
 -13179748.85046 -10245193.62047  21628633.978    21628634.5004   21628639.9744
        46.9004         44.0004
  -9987761.09645  -7765994.11746  22642905.303    22642905.9204   22642910.2184
        43.9004         41.1004
  -6715749.10143  -5222479.35346  23131682.544    23131682.2394   23131683.5134
        40.3004         37.8004
  -9227198.42546  -7169640.65147  21864109.709    21864109.1214   21864114.6724
        47.0004         44.2004
   7767432.53842   6064321.24145  24994731.974    24994732.6214   24994736.9424
        37.0004         35.0004
 -18399412.97547 -14319674.54447  20338439.240    20338439.6964   20338444.8394
        50.7004         47.7004
 18  3 26  0 31  0.0000000  0 11G14G18G10G22G11G03G32G28G08G27G01
  -8117342.39745  -6305231.24746  22186810.978    22186810.9314   22186813.5244
        44.4004         41.6004
 -16409579.19646 -12769146.36347  20002029.195    20002029.8114   20002031.7334
        49.1004         46.3004
   3474937.52342   2737635.36945  24937409.297    24937410.7204   24937413.6074
        36.3004         34.5004
 -17828187.69146 -13867859.30447  20767220.246    20767219.5134   20767220.3024
        48.6004         45.6004
 -13651075.86846 -10624305.08647  20012937.111    20012936.8254   20012938.2994
        48.6004         45.8004
 -13256884.86346 -10305299.59447  21613956.303    21613956.7294   21613961.9744
        47.0004         44.4004
  -9955288.87045  -7740691.06546  22649085.208    22649086.0814   22649089.4154
        43.9004         41.2004
  -6692298.86443  -5204206.49446  23136144.643    23136144.7344   23136146.8414
        40.3004         37.6004
  -9141719.05446  -7103033.35747  21880375.366    21880375.0814   21880380.3924
        47.0004         44.0004
   7882523.63342   6154002.62245  25016633.087    25016632.3084   25016636.8254
        36.8004         34.8004
 -18426122.18847 -14340486.92147  20333356.884    20333356.8994   20333362.0154
        50.7004         47.7004
 18  3 26  0 31 30.0000000  0 11G14G18G10G22G11G03G32G28G08G27G01
  -8138175.85545  -6321465.10746  22182845.917    22182845.8054   22182849.2734
        44.2004         41.2004
 -16385554.57046 -12750425.87947  20006601.256    20006601.1634   20006603.7744
        49.3004         46.5004
   3579100.60742   2818801.39745  24957232.017    24957231.3644   24957232.6654
        36.1004         34.3004
 -17863464.18046 -13895347.47447  20760507.730    20760506.6284   20760507.0764
        48.6004         45.6004
 -13657996.80946 -10629698.03647  20011619.452    20011619.6314   20011621.1484
        48.4004         45.6004
 -13333670.54046 -10365132.56747  21599344.434    21599344.9534   21599349.5604
        47.2004         44.2004
  -9922244.48445  -7714942.19546  22655372.837    22655373.2404   22655378.2564
        44.1004         41.1004
  -6668345.80343  -5185541.76546  23140701.909    23140701.9404   23140705.9094
        40.4004         37.9004
  -9055872.04946  -7036139.60147  21896710.889    21896711.1214   21896716.4454
        46.9004         43.9004
   7997649.94942   6243711.45145  25038537.635    25038540.9374   25038544.4444
        36.8004         34.8004
 -18452461.61947 -14361011.16047  20328344.372    20328344.8084   20328349.8544
        50.7004         47.7004
 18  3 26  0 32  0.0000000  0 11G14G18G10G22G11G03G32G28G08G27G01
  -8158456.52445  -6337268.20646  22178987.955    22178986.9964   22178989.2494
        44.2004         41.4004
 -16361094.48646 -12731366.08047  20011255.920    20011255.8184   20011258.2724
        49.1004         46.3004
   3683290.69742   2899988.44745  24977059.916    24977058.5824   24977064.9994
        36.4004         34.6004
 -17898323.94946 -13922510.92647  20753873.695    20753873.0334   20753873.7334
        48.6004         45.8004
 -13664381.23346 -10634672.90947  20010404.292    20010404.1594   20010406.8074
        48.4004         45.8004
 -13410104.82446 -10424691.73147  21584799.258    21584799.4104   21584804.5884
        47.0004         44.0004
  -9888629.06945  -7688748.35146  22661769.891    22661770.3174   22661774.9814
        43.9004         40.9004
  -6643890.83843  -5166485.93446  23145356.458    23145355.7324   23145358.5404
        40.4004         37.9004
  -8969659.57946  -6968961.05647  21913117.028    21913116.4614   21913121.9904
        46.7004         43.5004
   8112809.55742   6333446.19445  25060452.925    25060454.0794   25060459.7034
        37.1004         35.0004
 -18478430.57647 -14381246.71347  20323402.892    20323403.1534   20323408.3314
        50.7004         47.8004
 18  3 26  0 32 30.0000000  0 11G14G18G10G22G11G03G32G28G08G27G01
  -8178183.70345  -6352640.02646  22175233.347    22175232.9714   22175236.1124
        44.4004         41.6004
 -16336199.04746 -12711967.03747  20015993.167    20015993.0574   20015995.7664
        49.1004         46.3004
   3787506.37842   2981195.44245  24996889.600    24996890.7614   24996893.9874
        36.6004         34.8004
 -17932766.55246 -13949349.31147  20747319.571    20747318.7424   20747319.8344
        48.8004         45.9004
 -13670228.19546 -10639228.98647  20009291.808    20009291.8064   20009294.1744
        48.4004         45.8004
 -13486186.56846 -10483976.20147  21570321.312    21570321.8214   21570326.8884
        47.2004         44.2004
  -9854443.84445  -7662110.50446  22668275.276    22668276.0554   22668280.3534
        43.9004         41.2004
  -6618935.52043  -5147040.24046  23150105.120    23150105.3904   23150108.2904
        40.4004         37.8004
  -8883083.58446  -6901499.24147  21929591.796    21929591.1394   21929596.8534
        46.5004         43.5004
   8228000.34542   6423205.26945  25082374.733    25082373.0274   25082377.2334
        36.8004         34.8004
 -18504028.36347 -14401193.04347  20318532.022    20318532.2724   20318537.2214
        50.7004         47.8004
 18  3 26  0 33  0.0000000  0 11G14G18G10G22G11G03G32G28G08G27G01
  -8197356.52845  -6367579.89246  22171585.484    22171584.9694   22171587.0754
        44.2004         41.2004
 -16310868.61846 -12692229.04847  20020813.191    20020813.2544   20020816.1134
        49.1004         46.3004
   3891746.06042   3062421.12645  25016725.878    25016725.7754   25016730.7394
        36.6004         34.6004
 -17966792.09946 -13975862.71447  20740845.040    20740844.0284   20740844.9794
        48.8004         45.9004
 -13675537.18846 -10643365.87047  20008281.690    20008281.5454   20008283.7714
        48.2004         45.8004
 -13561914.64746 -10542985.07547  21555910.577    21555910.9574   21555915.8704
        47.2004         44.4004
  -9819689.94345  -7635029.55046  22674888.822    22674890.3174   22674894.6094
        44.1004         41.4004
  -6593480.91243  -5127205.50346  23154950.009    23154948.7424   23154951.5084
        40.4004         37.8004
  -8796145.81145  -6833755.53347  21946136.204    21946135.4344   21946140.6584
        46.3004         43.5004
   8343220.40142   6512987.16945  25104299.261    25104300.4964   25104305.5194
        37.0004         34.8004
 -18529254.29247 -14420849.61547  20313731.948    20313731.8264   20313736.9444
        50.8004         47.8004
 18  3 26  0 33 30.0000000  0 11G14G18G10G22G11G03G32G28G08G27G01
  -8215974.17545  -6382087.13046  22168042.238    22168042.2334   22168043.1954
        44.1004         41.2004
 -16285103.45846 -12672152.30447  20025716.680    20025716.2294   20025718.9074
        49.1004         46.3004
   3996008.27342   3143664.39245  25036567.721    25036567.6014   25036569.9574
        37.1004         35.0004
 -18000400.59746 -14002051.14947  20734449.102    20734448.5954   20734449.0464
        48.8004         45.9004
 -13680307.47846 -10647082.98647  20007374.496    20007374.0334   20007376.1024
        48.4004         45.8004
 -13637287.98846 -10601717.53647  21541567.461    21541567.8594   21541573.1524
        47.2004         44.4004
  -9784368.64845  -7607506.46346  22681611.712    22681611.9394   22681615.4434
        44.2004         41.6004
  -6567528.26343  -5106982.65946  23159888.143    23159887.7994   23159890.4914
        40.3004         37.6004
  -8708848.53745  -6765731.69447  21962748.360    21962747.7634   21962752.7084
        46.3004         43.7004
   8458467.77342   6602790.31145  25126232.443    25126229.8814   25126234.0604
        36.8004         34.8004
 -18554107.69447 -14440215.90047  20309002.215    20309002.3074   20309007.5164
        50.8004         47.8004
 18  3 26  0 34  0.0000000  0 11G14G18G10G22G11G03G32G28G08G27G01
  -8234035.88445  -6396161.16446  22164604.809    22164603.6134   22164606.9974
        44.1004         41.2004
 -16258903.83646 -12651737.01947  20030702.360    20030702.3184   20030704.6964
        49.1004         46.3004
   4100291.49342   3224923.98545  25056409.866    25056412.4354   25056415.7164
        36.8004         34.6004
 -18033591.42146 -14027914.12547  20728134.036    20728132.7444   20728132.8894
        48.9004         45.9004
 -13684538.47046 -10650379.86647  20006569.257    20006568.9944   20006570.4584
        48.4004         45.8004
 -13712305.47846 -10660172.70947  21527292.925    21527292.8334   21527297.7364
        47.4004         44.5004
  -9748481.14545  -7579542.16746  22688440.758    22688441.7004   22688444.1754
        44.2004         41.4004
  -6541079.02043  -5086372.89146  23164921.405    23164920.5594   23164922.7234
        40.3004         37.8004
  -8621193.81046  -6697429.32747  21979428.683    21979428.1614   21979433.0294
        46.5004         43.5004
   8573740.39942   6692613.14945  25148167.939    25148167.6374   25148171.9534
        36.8004         34.8004
 -18578587.88147 -14459291.37847  20304343.664    20304343.9554   20304348.9554
        50.8004         47.7004
 18  3 26  0 34 30.0000000  0 11G14G18G10G22G11G03G32G28G08G27G01
  -8251540.84345  -6409801.38646  22161272.364    22161273.3874   22161276.7304
        44.1004         41.6004
 -16232269.89646 -12630983.30147  20035770.150    20035770.5674   20035772.8734
        49.3004         46.3004
   4204594.24842   3306198.80245  25076258.387    25076260.9884   25076264.6454
        36.4004         34.3004
 -18066364.90246 -14053451.89647  20721897.504    20721896.5984   20721896.4964
        48.9004         46.1004
 -13688229.70946 -10653256.15747  20005866.649    20005866.5414   20005867.9254
        48.2004         45.6004
 -13786966.09546 -10718349.80047  21513085.181    21513085.4324   21513090.3904
        47.5004         44.5004
  -9712028.74345  -7551137.69346  22695376.593    22695376.9454   22695381.6384
        44.2004         41.2004
  -6514134.28743  -5065377.00846  23170047.567    23170047.3984   23170049.8234
        40.3004         37.8004
  -8533183.49445  -6628849.88347  21996175.703    21996175.1654   21996181.3964
        46.3004         43.3004
   8689036.37742   6782454.13845  25170108.638    25170108.0334   25170111.6924
        37.3004         35.3004
 -18602694.18447 -14478075.51247  20299756.768    20299756.7504   20299761.9224
        50.7004         47.8004
 18  3 26  0 35  0.0000000  0 11G14G18G10G22G11G03G32G28G08G27G01
  -8268488.60045  -6423007.42146  22158049.078    22158048.8064   22158051.3574
        44.4004         41.8004
 -16205202.25046 -12609891.62947  20040921.205    20040921.3304   20040923.6234
        49.3004         46.5004
   4308915.11442   3387487.79745  25096113.198    25096109.8574   25096114.0544
        36.1004         34.3004
 -18098720.89346 -14078664.35547  20715740.107    20715739.1074   20715739.6404
        48.9004         46.1004
 -13691380.40146 -10655711.24247  20005267.196    20005267.2884   20005268.8214
        48.4004         45.8004
 -13861268.71546 -10776247.92947  21498945.622    21498945.6644   21498951.0374
        47.5004         44.5004
  -9675012.65245  -7522293.98846  22702420.370    22702421.1704   22702425.8634
        44.2004         41.4004
  -6486695.26143  -5043995.96346  23175269.540    23175268.6084   23175271.1864
        40.1004         37.6004
  -8444819.89245  -6559995.13847  22012991.265    22012990.3324   22012996.2424
        46.2004         43.3004
   8804353.68842   6872311.78545  25192051.814    25192052.8094   25192054.7444
        37.3004         35.3004
 -18626425.94447 -14496567.79347  20295240.264    20295240.6074   20295245.7144
        50.7004         47.8004
 18  3 26  0 35 30.0000000  0 11G14G18G10G22G11G03G32G28G08G27G01
  -8284878.19045  -6435778.52946  22154929.347    22154929.3844   22154931.5894
        44.4004         41.4004
 -16177700.99446 -12588462.08947  20046154.222    20046154.4654   20046156.8514
        49.3004         46.3004
   4413252.48942   3468789.62345  25115965.849    25115966.2914   25115969.4364
        35.4004         33.6004
 -18130659.58446 -14103551.64647  20709661.905    20709661.0924   20709661.5684
        48.9004         45.9004
 -13693989.63946 -10657744.41347  20004770.868    20004770.6734   20004772.1194
        48.4004         45.8004
 -13935212.27946 -10833866.28647  21484874.153    21484874.5554   21484879.5504
        47.4004         44.4004
  -9637434.26745  -7493012.12546  22709571.840    22709572.3834   22709576.6824
        44.2004         41.6004
  -6458763.37943  -5022230.88146  23180584.776    23180583.8954   23180586.6874
        40.3004         37.9004
  -8356104.98545  -6490866.66647  22029872.188    22029872.1214   22029878.0044
        46.2004         43.3004
   8919690.38042   6962184.55245  25213996.331    25213997.8784   25214000.6994
        37.0004         34.6004
 -18649782.45647 -14514767.68347  20290796.039    20290796.2494   20290801.1984
        50.8004         47.8004
 18  3 26  0 36  0.0000000  0 11G14G18G10G22G11G03G32G28G08G27G01
  -8300708.66345  -6448113.95246  22151917.614    22151917.2604   22151919.2914
        44.2004         41.4004
 -16149766.31646 -12566694.81947  20051469.721    20051470.0174   20051472.9094
        49.3004         46.3004
   4517604.98742   3550103.22445  25135821.626    25135822.5164   25135827.0054
        35.0004         33.4004
 -18162180.29846 -14128113.23947  20703663.428    20703662.8504   20703663.4574
        48.9004         45.9004
 -13696056.70046 -10659355.10847  20004377.767    20004377.3094   20004378.8674
        48.4004         45.6004
 -14008795.74846 -10891204.04847  21470872.270    21470872.9194   21470877.1644
        47.4004         44.5004
  -9599294.81745  -7463293.06646  22716829.994    22716830.3824   22716833.1164
        44.4004         41.6004
  -6430339.86143  -5000082.70946  23185995.018    23185993.1294   23185997.0044
        40.4004         37.9004
  -8267040.69945  -6421465.94147  22046821.392    22046820.8734   22046826.3834
        46.2004         43.2004
   9035044.45542   7052070.83745  25235947.978    25235950.1594   25235953.7604
        36.4004         34.5004
 -18672763.07447 -14532674.65447  20286422.966    20286423.2244   20286428.1374
        50.8004         47.8004
 18  3 26  0 36 30.0000000  0 10G14G18G22G11G03G32G28G08G27G01
  -8315979.42145  -6460013.22146  22149012.112    22149011.4304   22149014.1524
        44.2004         41.6004
 -16121398.94946 -12544590.38747  20056868.164    20056868.5124   20056871.1174
        49.3004         46.5004
 -18193283.04446 -14152349.13447  20697744.809    20697744.4854   20697744.7414
        48.9004         46.1004
 -13697580.97046 -10660542.85447  20004087.470    20004087.2194   20004088.8014
        48.4004         45.8004
 -14082018.07346 -10948260.39147  21456938.294    21456938.4154   21456944.1374
        47.5004         44.5004
  -9560595.68845  -7433137.89746  22724192.440    22724193.1584   22724197.8454
        44.2004         41.2004
  -6401425.80744  -4977552.26646  23191496.095    23191495.7424   23191498.1314
        40.6004         37.9004
  -8177628.97745  -6351794.48047  22063836.574    22063835.9134   22063840.7514
        46.0004         43.0004
   9150413.94742   7141969.10945  25257903.723    25257904.4894   25257907.1974
        36.4004         34.6004
 -18695367.14847 -14550288.22147  20282121.936    20282121.7684   20282126.6774
        50.8004         47.8004
 18  3 26  0 37  0.0000000  0 10G14G18G22G11G03G32G28G08G27G01
  -8330690.15945  -6471476.12146  22146212.094    22146210.9844   22146215.0194
        44.2004         41.4004
 -16092598.80546 -12522148.71347  20062348.706    20062348.3604   20062351.9854
        49.3004         46.5004
 -18223968.49846 -14176259.86647  20691905.954    20691905.2874   20691905.9454
        48.9004         46.1004
 -13698562.39946 -10661307.60147  20003900.600    20003900.6194   20003901.9934
        48.4004         45.9004
 -14154878.19446 -11005034.51047  21443073.070    21443073.5584   21443079.2714
        47.5004         44.7004
  -9521338.19345  -7402547.65746  22731663.270    22731664.8824   22731669.0624
        44.1004         41.4004
  -6372023.47143  -4954641.38246  23197092.372    23197091.7504   23197093.3614
        40.4004         37.8004
  -8087871.78545  -6281853.82747  22080915.836    22080915.8334   22080920.7574
        46.0004         43.0004
   9265796.90442   7231877.88245  25279858.482    25279860.2364   25279866.1854
        37.0004         35.0004
 -18717593.99847 -14567607.84447  20277892.149    20277892.1464   20277897.2004
        50.8004         47.8004
 18  3 26  0 37 30.0000000  0  9G14G18G22G11G03G32G28G08G01
  -8344840.04845  -6482502.00046  22143518.278    22143518.6824   22143522.4204
        44.2004         41.2004
 -16063366.31546 -12499370.15847  20067911.323    20067911.3674   20067914.5764
        49.3004         46.5004
 -18254236.17246 -14199845.06347  20686146.471    20686145.3584   20686146.4024
        49.1004         46.3004
 -13699000.07546 -10661648.65447  20003818.037    20003817.6574   20003819.2424
        48.4004         45.9004
 -14227375.13146 -11061525.60147  21429278.194    21429278.1614   21429283.4774
        47.5004         44.7004
  -9481523.79745  -7371523.45046  22739241.938    22739241.2834   22739245.4424
        44.2004         41.4004
  -6342133.73243  -4931350.68646  23202778.953    23202778.5864   23202779.9954
        40.3004         37.6004
  -7997771.82545  -6211646.07847  22098060.514    22098060.9254   22098066.5474
        45.8004         42.8004
 -18739442.97247 -14584633.01747  20273734.215    20273734.3994   20273739.5194
        50.8004         47.8004
 18  3 26  0 38  0.0000000  0  9G14G18G22G11G03G32G28G08G01
  -8358428.26145  -6493090.20246  22140935.081    22140933.4984   22140936.0474
        44.1004         41.2004
 -16033701.73046 -12476254.90047  20073556.239    20073556.2564   20073559.3874
        49.3004         46.5004
 -18284085.66346 -14223104.40447  20680465.768    20680465.1994   20680466.1124
        49.3004         46.5004
 -13698893.24446 -10661565.41047  20003837.854    20003837.2934   20003839.2524
        48.4004         45.8004
 -14299507.79946 -11117732.85347  21415551.169    21415551.6904   21415556.8264
        47.5004         44.5004
  -9441153.83645  -7340066.33246  22746921.539    22746922.5434   22746927.2054
        43.9004         41.1004
  -6311757.83543  -4907681.17646  23208560.618    23208559.7674   23208561.1134
        40.3004         37.6004
  -7907330.91145  -6141172.65747  22115271.337    22115270.7134   22115276.3884
        45.6004         42.6004
 -18760913.42147 -14601363.24248  20269648.307    20269648.6684   20269653.7844
        50.8004         48.0004
 18  3 26  0 38 30.0000000  0  9G14G18G22G11G03G32G28G08G01
  -8371454.38045  -6503240.41346  22138454.895    22138454.7534   22138457.8274
        44.1004         41.2004
 -16003605.67446 -12452803.43647  20079283.504    20079283.6264   20079286.4424
        49.3004         46.5004
 -18313517.09946 -14246037.98947  20674865.746    20674864.8294   20674865.4064
        49.3004         46.5004
 -13698241.69346 -10661057.70547  20003961.599    20003961.2264   20003962.8524
        48.4004         45.6004
 -14371275.24846 -11173655.53147  21401894.246    21401894.6264   21401899.5444
        47.5004         44.4004
  -9400229.74545  -7308177.41946  22754709.547    22754710.1994   22754713.3084
        43.6004         40.7004
  -6280897.33843  -4883634.07946  23214432.349    23214431.8774   23214433.1654
        40.4004         37.8004
  -7816551.26445  -6070435.29047  22132545.897    22132546.1624   22132551.8684
        45.6004         42.8004
 -18782004.66747 -14617797.98448  20265635.092    20265635.2264   20265640.3644
        51.0004         48.0004
 18  3 26  0 39  0.0000000  0  9G14G18G22G11G03G32G28G08G01
  -8383917.92345  -6512952.25846  22136083.373    22136083.0664   22136085.9854
        44.1004         41.2004
 -15973078.48246 -12429016.02047  20085092.483    20085092.6684   20085095.1024
        49.3004         46.5004
 -18342530.64446 -14268645.93347  20669343.987    20669343.1514   20669344.1094
        49.3004         46.3004
 -13697044.91346 -10660125.14747  20004189.129    20004188.7904   20004190.7804
        48.4004         45.8004
 -14442676.44946 -11229292.81247  21388306.782    21388307.4454   21388312.1404
        47.5004         44.5004
  -9358752.97844  -7275857.84446  22762600.011    22762601.7854   22762605.9944
        43.4004         40.6004
  -6249553.99943  -4859210.71946  23220396.416    23220396.1864   23220398.1204
        40.4004         37.9004
  -7725434.47445  -5999435.21247  22149885.198    22149885.1714   22149890.9534
        45.8004         43.0004
 -18802716.14647 -14633936.78548  20261693.211    20261693.7054   20261699.0834
        50.8004         48.0004
 18  3 26  0 39 30.0000000  0  9G14G18G22G11G03G32G28G08G01
  -8395818.19645  -6522225.18746  22133818.966    22133818.4654   22133821.0204
        43.9004         41.1004
 -15942120.16746 -12404892.66647  20090983.455    20090983.6184   20090986.6074
        49.3004         46.3004
 -18371126.62846 -14290928.51647  20663902.590    20663901.8894   20663902.2764
        49.1004         46.3004
 -13695302.33246 -10658767.29647  20004520.313    20004520.2194   20004522.5164
        48.2004         45.6004
 -14513710.43046 -11284643.95847  21374790.447    21374790.9064   21374795.3274
        47.7004         44.9004
  -9316724.87944  -7243108.68146  22770599.326    22770599.9044   22770605.0014
        43.4004         40.7004
  -6217729.00543  -4834412.03546  23226453.401    23226452.6654   23226454.5694
        40.4004         37.9004
  -7633983.08645  -5928174.39447  22167288.452    22167287.5704   22167293.7134
        45.8004         43.0004
 -18823047.11547 -14649779.10348  20257824.797    20257825.0084   20257830.1474
        51.0004         48.0004
 18  3 26  0 40  0.0000000  0  9G14G18G22G11G03G32G28G08G01
  -8407154.69445  -6531058.80846  22131661.843    22131660.5614   22131663.4854
        43.9004         40.9004
 -15910731.25446 -12380433.77747  20096956.897    20096956.8764   20096959.6584
        49.3004         46.3004
 -18399304.75046 -14312885.48847  20658540.268    20658539.4654   20658540.5784
        49.1004         46.5004
 -13693013.75046 -10656983.98547  20004955.917    20004955.7954   20004957.7014
        48.2004         45.6004
 -14584376.17146 -11339708.16047  21361343.340    21361343.6704   21361347.7884
        48.1004         45.1004
  -9274147.12245  -7209931.19446  22778702.001    22778702.5444   22778707.7374
        43.6004         41.1004
  -6185423.92143  -4809239.23146  23232599.141    23232599.3154   23232602.0994
        40.3004         37.4004
  -7542199.06745  -5856654.40747  22184754.419    22184753.8144   22184759.4124
        46.0004         43.0004
 -18842996.98047 -14665324.44747  20254028.178    20254028.4574   20254033.9134
        50.8004         47.8004
 18  3 26  0 40 30.0000000  0  9G14G18G22G11G03G32G28G08G01
  -8417926.94645  -6539452.77246  22129611.018    22129610.9064   22129613.2954
        43.7004         41.1004
 -15878912.28646 -12355639.78147  20103012.151    20103011.8724   20103014.8144
        49.1004         46.3004
 -18427064.96346 -14334516.82347  20653257.669    20653256.5994   20653258.3774
        49.3004         46.5004
 -13690177.94346 -10654774.27847  20005495.566    20005495.8334   20005497.3634
        48.2004         45.6004
 -14654672.76946 -11394484.72047  21347966.048    21347966.3844   21347970.4494
        48.1004         45.2004
  -9231021.07345  -7176326.47346  22786908.527    22786909.1294   22786914.0164
        43.7004         40.7004
  -6152640.33843  -4783693.60646  23238839.035    23238837.6254   23238840.5444
        39.9004         37.4004
  -7450084.50945  -5784876.84447  22202282.882    22202282.6894   22202288.0134
        45.8004         42.8004
 -18862565.10047 -14680572.32948  20250304.576    20250304.8974   20250310.1034
        50.8004         48.0004
 18  3 26  0 41  0.0000000  0  9G14G18G22G11G03G32G28G08G01
  -8428134.52845  -6547406.71346  22127669.306    22127668.4084   22127671.0134
        43.9004         41.1004
 -15846663.31246 -12330510.71747  20109148.305    20109148.6234   20109151.2454
        49.1004         46.3004
 -18454407.47446 -14355822.67847  20648054.093    20648053.6534   20648055.2094
        49.3004         46.5004
 -13686794.76046 -10652138.03947  20006140.124    20006139.6034   20006141.3204
        48.2004         45.8004
 -14724599.17346 -11448972.81447  21334659.027    21334659.5834   21334664.1664
        48.2004         45.1004
  -9187348.27945  -7142295.72046  22795219.281    22795220.4394   22795225.0794
        43.7004         41.1004
  -6119379.68443  -4757776.24546  23245167.068    23245167.0284   23245170.3584
        39.7004         37.4004
  -7357641.78845  -5712843.58247  22219875.214    22219873.7964   22219879.1054
        45.6004         42.6004
 -18881750.84147 -14695522.26348  20246653.602    20246653.8224   20246659.2284
        50.8004         48.0004
 18  3 26  0 41 30.0000000  0  9G14G18G22G11G03G32G28G08G01
  -8437777.17045  -6554920.44946  22125833.590    22125834.2944   22125836.6364
        43.9004         41.4004
 -15813985.03946 -12305047.13547  20115367.238    20115367.0734   20115370.0074
        49.1004         46.3004
 -18481332.22546 -14376803.00047  20642930.952    20642929.8794   20642931.1994
        49.3004         46.5004
 -13682864.05946 -10649075.16547  20006888.077    20006887.5484   20006889.1464
        48.2004         45.6004
 -14794154.48846 -11503171.75347  21321423.147    21321423.7044   21321428.6554
        48.2004         45.4004
  -9143130.28145  -7107840.12546  22803634.476    22803634.6234   22803638.8344
        43.7004         40.9004
  -6085643.84943  -4731488.61146  23251585.437    23251586.4734   23251589.5754
        40.1004         37.8004
  -7264872.95845  -5640556.19547  22237526.085    22237527.3344   22237532.5084
        45.5004         42.6004
 -18900553.55447 -14710173.71948  20243075.768    20243076.0564   20243081.1854
        51.0004         48.0004
 18  3 26  0 42  0.0000000  0  9G14G18G22G11G03G32G28G08G01
  -8446854.20945  -6561993.46046  22124107.150    22124106.4574   22124108.6804
        44.1004         41.1004
 -15780877.77646 -12279249.27047  20121667.224    20121667.2334   20121669.8664
        49.1004         46.1004
 -18507839.47646 -14397457.99747  20637886.664    20637886.0744   20637886.7374
        49.3004         46.5004
 -13678385.26246 -10645585.19947  20007740.464    20007739.8314   20007741.4684
        48.2004         45.6004
 -14863337.74446 -11557080.77547  21308257.906    21308258.5834   21308263.5964
        48.4004         45.6004
  -9098368.62945  -7072960.90946  22812151.725    22812152.2294   22812157.1314
        43.6004         40.6004
  -6051433.87844  -4704831.52246  23258099.170    23258097.8574   23258100.5014
        40.8004         38.6004
  -7171780.15245  -5568016.37247  22255241.482    22255241.6034   22255247.3334
        45.3004         42.5004
 -18918972.65147 -14724526.25947  20239570.598    20239571.0404   20239575.7404
        50.8004         47.8004
 18  3 26  0 42 30.0000000  0  9G14G18G22G11G03G32G28G08G01
  -8455365.54645  -6568625.66346  22122486.811    22122487.2064   22122488.6734
        43.9004         41.2004
 -15747341.88946 -12253117.42347  20128048.439    20128048.9854   20128051.5094
        48.9004         46.3004
 -18533928.93246 -14417787.45147  20632922.629    20632921.5974   20632922.2824
        49.5004         46.6004
 -13673357.69146 -10641667.61847  20008696.595    20008696.4114   20008698.3684
        48.2004         45.6004
 -14932147.99946 -11610699.13547  21295164.246    21295163.9484   21295169.3284
        48.4004         45.6004
  -9053064.85045  -7037659.27246  22820773.044    22820773.6674   22820777.1574
        43.6004         40.7004
  -6016751.51744  -4677806.32446  23264697.647    23264697.6934   23264700.1994
        41.3004         38.6004
  -7078365.58345  -5495225.80047  22273016.604    22273017.6404   22273023.4264
        45.1004         42.1004
 -18937007.48747 -14738579.37547  20236139.265    20236138.8824   20236143.8264
        50.8004         47.8004
 18  3 26  0 43  0.0000000  0  9G14G18G22G11G03G32G28G08G01
  -8463310.23145  -6574816.31946  22120974.926    22120974.2114   22120978.0664
        44.1004         41.2004
 -15713377.74746 -12226651.85847  20134512.357    20134512.6204   20134514.8554
        49.1004         46.3004
 -18559600.54046 -14437791.30347  20628036.701    20628036.2674   20628036.9454
        49.5004         46.6004
 -13667781.07946 -10637322.21747  20009757.774    20009757.6984   20009759.3694
        48.2004         45.6004
 -15000584.32746 -11664026.11747  21282140.399    21282140.9814   21282146.2074
        48.4004         45.4004
  -9007220.60845  -7001936.46646  22829497.813    22829498.2664   22829501.3024
        43.7004         40.9004
  -5981598.52444  -4650414.38146  23271386.750    23271386.8274   23271388.9924
        41.1004         38.3004
  -6984631.31345  -5422186.15347  22290855.964    22290855.7804   22290861.2094
        44.9004         42.1004
 -18954657.46047 -14752332.59147  20232779.772    20232780.1724   20232785.4444
        50.8004         47.8004
 18  3 26  0 43 30.0000000  0 10G14G18G22G11G03G17G32G28G08G01
  -8470688.14045  -6580565.33246  22119571.545    22119571.6064   22119574.0604
        44.2004         41.4004
 -15678985.65446 -12199852.82747  20141056.532    20141056.8394   20141059.6604
        49.1004         46.3004
 -18584855.01246 -14457470.11347  20623231.206    20623230.4324   20623231.1064
        49.5004         46.6004
 -13661655.27646 -10632548.86047  20010923.349    20010923.2914   20010925.1174
        48.2004         45.6004
 -15068645.80946 -11717061.02447  21269189.342    21269189.2594   21269194.2974
        48.4004         45.6004
                   -205328.95054  24452683.729
                        29.6004
  -8960837.47845  -6965793.77146  22838323.958    22838324.0114   22838327.8624
        43.7004         40.7004
  -5945976.58144  -4622657.03246  23278165.978    23278165.1814   23278167.2054
        40.6004         37.6004
  -6890579.61645  -5348899.12146  22308751.363    22308751.6084   22308758.3574
        44.8004         41.9004
 -18971921.91547 -14765785.40848  20229494.649    20229495.0254   20229500.0344
        50.8004         48.0004
 18  3 26  0 44  0.0000000  0  9G14G18G22G11G03G32G28G08G01
  -8477498.93845  -6585872.43146  22118275.906    22118275.2084   22118278.1764
        44.2004         41.4004
 -15644166.21546 -12172720.80147  20147682.528    20147682.7044   20147685.2574
        49.1004         46.3004
 -18609692.09946 -14476823.69247  20618504.610    20618504.1894   20618504.7654
        49.5004         46.6004
 -13654979.88146 -10627347.26247  20012194.004    20012193.8974   20012195.4244
        48.4004         45.8004
 -15136331.55046 -11769803.15047  21256308.167    21256309.5764   21256314.4394
        48.4004         45.6004
  -8913917.06845  -6929232.41446  22847252.414    22847252.2474   22847256.5404
        43.7004         41.1004
  -5909887.00743  -4594535.29946  23285033.642    23285034.0574   23285034.6514
        40.1004         37.4004
  -6796212.57045  -5275366.38446  22326710.846    22326709.8694   22326715.3364
        44.8004         41.9004
 -18988800.29147 -14778937.38147  20226282.306    20226282.7164   20226288.2044
        50.8004         47.8004
 18  3 26  0 44 30.0000000  0 10G14G18G22G11G03G17G32G28G08G01
  -8483742.42445  -6590737.47446  22117086.478    22117086.3554   22117089.0234
        44.1004         41.2004
 -15608920.04446 -12145256.25847  20154389.672    20154389.7384   20154392.8434
        49.1004         46.1004
 -18634111.54746 -14495851.82047  20613858.136    20613857.1884   20613858.1334
        49.5004         46.6004
 -13647754.20446 -10621716.86647  20013569.248    20013568.6554   20013570.5294
        48.4004         45.8004
 -15203640.64746 -11822251.78447  21243500.725    21243500.6664   21243505.6854
        48.4004         45.4004
                    -82115.10455  24415336.456
                        33.4004
  -8866461.04145  -6892253.69946  22856282.598    22856283.5094   22856287.3864
        43.9004         41.2004
  -5873331.81143  -4566050.76246  23291989.797    23291988.8014   23291990.1944
        39.7004         37.4004
  -6701532.48145  -5201589.69447  22344727.097    22344726.6894   22344732.4844
        44.8004         42.1004
 -19005291.93347 -14791788.00947  20223144.305    20223144.4694   20223149.6024
        50.8004         47.8004
 18  3 26  0 45  0.0000000  0 10G14G18G22G11G03G17G32G28G08G01
  -8489418.00645  -6595160.00546  22116006.572    22116006.6624   22116008.9424
        44.2004         41.4004
 -15573247.25546 -12117459.27747  20161178.210    20161178.1594   20161180.9884
        48.9004         45.9004
 -18658113.88146 -14514554.93847  20609290.126    20609289.6864   20609290.8364
        49.5004         46.6004
 -13639978.08346 -10615657.55447  20015048.795    20015048.5614   20015050.5234
        48.4004         45.9004
 -15270572.20146 -11874406.23547  21230763.804    21230764.3784   21230769.1604
        48.4004         45.6004
                   -158384.70645  24396711.650
                        35.5004
  -8818471.07745  -6854858.91346  22865416.472    22865416.6894   22865419.5704
        44.1004         41.1004
  -5836312.35843  -4537204.44146  23299034.559    23299032.8954   23299035.1954
        39.6004         37.1004
  -6606541.43845  -5127570.71646  22362803.446    22362803.7424   22362809.0044
        44.9004         41.9004
 -19021396.30347 -14804336.87148  20220080.143    20220080.3174   20220085.5204
        50.8004         48.0004
 18  3 26  0 45 30.0000000  0 10G14G18G22G11G03G17G32G28G08G01
  -8494525.80045  -6599140.10146  22115035.444    22115035.1294   22115037.1814
        44.4004         41.8004
 -15537148.35946 -12089330.27447  20168047.446    20168047.3844   20168050.1454
        48.8004         45.8004
 -18681699.07546 -14532933.00947  20604802.401    20604801.4234   20604802.8644
        49.5004         46.6004
 -13631651.22346 -10609169.10047  20016633.284    20016633.0734   20016634.3864
        48.4004         45.6004
 -15337125.31546 -11926265.78847  21218099.104    21218099.5694   21218104.2464
        48.6004         45.6004
                   -234521.38646  24378118.770                    24378117.5884
                        36.0004
  -8769948.82245  -6817049.34546  22874649.422    22874649.3744   22874653.3674
        43.7004         40.7004
  -5798830.55043  -4507997.83946  23306165.913    23306165.4604   23306168.8944
        39.7004         37.3004
  -6511241.61245  -5053311.10547  22380937.471    22380937.9864   22380944.4294
        44.9004         42.1004
 -19037112.75047 -14816583.45348  20217089.368    20217089.4594   20217094.4664
        51.0004         48.0004
 18  3 26  0 46  0.0000000  0 10G14G18G22G11G03G17G32G28G08G01
  -8499065.37845  -6602677.42346  22114171.977    22114171.7644   22114173.5444
        44.6004         41.9004
 -15500623.99746 -12060869.73847  20174998.597    20174998.3034   20175000.2864
        48.8004         45.8004
 -18704867.34747 -14550986.20447  20600393.706    20600392.8494   20600393.9874
        49.6004         46.8004
 -13622773.40646 -10602251.31547  20018322.784    20018322.1964   20018324.0514
        48.4004         45.8004
 -15403299.14646 -11977829.80247  21205506.361    21205506.6384   21205511.6854
        48.6004         45.6004
   -426957.05543   -310523.12246  24359557.219    24359556.7594   24359559.0104
        38.2004         36.2004
  -8720895.95244  -6778826.33546  22883981.820    22883983.1314   22883987.5544
        43.4004         40.6004
  -5760887.89843  -4478432.16646  23313387.455    23313386.8074   23313389.5304
        39.9004         37.6004
  -6415635.49145  -4978812.85247  22399132.568    22399131.5444   22399137.9644
        44.9004         42.1004
 -19052440.66747 -14828527.28148  20214172.321    20214172.6404   20214177.9424
        51.0004         48.0004
 18  3 26  0 46 30.0000000  0 10G14G18G22G11G03G17G32G28G08G01
  -8503036.38545  -6605771.70446  22113416.596    22113415.9274   22113417.8944
        44.8004         41.9004
 -15463674.36446 -12032077.81547  20182029.400    20182029.3164   20182031.8124
        48.8004         45.9004
 -18727618.81247 -14568714.61647  20596064.138    20596063.1974   20596064.3914
        49.6004         46.8004
 -13613344.26446 -10594903.93747  20020116.800    20020116.5304   20020118.3234
        48.4004         45.8004
 -15469092.84646 -12029097.61047  21192986.526    21192986.5764   21192991.4534
        48.6004         45.6004
   -524317.13043   -386388.07646  24341030.136    24341031.0604   24341030.9104
        38.5004         36.2004
  -8671314.23845  -6740191.24146  22893418.780    22893419.4484   22893423.0234
        43.6004         41.1004
  -5722486.34343  -4448508.88746  23320694.266    23320692.9224   23320697.6024
        39.6004         37.1004
  -6319724.97145  -4904077.40346  22417382.824    22417381.7974   22417388.7714
        44.8004         41.8004
 -19067379.50447 -14840167.93048  20211330.062    20211330.0084   20211335.4614
        51.0004         48.2004
 18  3 26  0 47  0.0000000  0 10G14G18G22G11G03G17G32G28G08G01
  -8506438.90545  -6608423.00646  22112767.729    22112767.3654   22112771.1894
        44.8004         41.9004
 -15426300.05246 -12002954.97647  20189141.443    20189141.6024   20189143.6264
        48.8004         45.9004
 -18749953.57947 -14586118.32647  20591813.973    20591813.0214   20591813.9074
        49.6004         46.6004
 -13603363.86046 -10587127.00847  20022016.527    20022016.2614   20022017.5634
        48.4004         45.8004
 -15534505.50646 -12080068.50347  21180538.976    21180539.6234   21180544.1354
        48.6004         45.8004
   -621499.67353   -462114.74855  24322536.523    24322536.8784   24322538.1824
        38.3004         35.9004
  -8621205.36445  -6701145.35846  22902954.061    22902953.6514   22902958.3054
        43.9004         41.1004
  -5683627.51143  -4418229.27546  23328087.903    23328088.2334   23328090.2184
        39.0004         36.7004
  -6223512.25745  -4829106.47446  22435689.832    22435690.1714   22435696.6984
        44.4004         41.4004
 -19081928.66847 -14851504.93048  20208560.993    20208561.1994   20208566.4364
        51.0004         48.0004
 18  3 26  0 47 30.0000000  0 10G14G18G22G11G03G17G32G28G08G01
  -8509272.71245  -6610631.15646  22112228.243    22112227.9074   22112231.4304
        44.4004         41.4004
 -15388501.61746 -11973501.65247  20196333.639    20196334.1164   20196336.8524
        48.8004         45.9004
 -18771871.82947 -14603197.48147  20587643.204    20587642.4534   20587643.0854
        49.6004         46.8004
 -13592831.48246 -10578919.96947  20024020.489    20024020.3144   20024021.7494
        48.4004         45.6004
 -15599536.30146 -12130741.84447  21168163.935    21168164.4294   21168168.9884
        48.6004         45.8004
   -718502.68343   -537701.48445  24304076.590    24304077.2724   24304079.4654
        38.0004         35.9004
  -8570571.11645  -6661690.09046  22912588.804    22912589.4744   22912593.2974
        43.9004         41.1004
  -5644313.38443  -4387594.91746  23335570.758    23335569.5764   23335572.8294
        39.4004         37.3004
  -6126999.84745  -4753902.02946  22454057.148    22454056.6584   22454062.6804
        44.2004         41.4004
 -19096087.50747 -14862537.79348  20205866.606    20205866.8614   20205872.2144
        51.2004         48.2004
 18  3 26  0 48  0.0000000  0 10G14G18G22G11G03G17G32G28G08G01
  -8511537.45245  -6612395.89246  22111797.738    22111797.2824   22111800.0634
        44.2004         41.4004
 -15350279.50446 -11943718.19647  20203606.600    20203606.7194   20203610.2184
        48.8004         45.8004
 -18793374.10147 -14619952.50147  20583551.563    20583550.7944   20583551.4004
        49.6004         46.8004
 -13581746.88246 -10570282.62847  20026130.130    20026129.5424   20026131.1194
        48.4004         45.6004
 -15664184.39646 -12181116.97047  21155861.982    21155862.1914   21155867.1494
        48.6004         45.8004
   -815323.44743   -613146.23346  24285653.524    24285653.9584   24285655.4484
        38.2004         36.0004
  -8519413.26445  -6621826.82346  22922323.689    22922324.8174   22922327.7324
        43.7004         40.7004
  -5604545.49443  -4356606.98046  23343139.192    23343137.7414   23343139.6034
        40.3004         38.1004
  -6030189.77845  -4678465.62946  22472480.498    22472479.9664   22472485.3184
        44.4004         41.6004
 -19109855.52547 -14873266.11048  20203247.000    20203246.9194   20203251.9694
        51.0004         48.0004
 18  3 26  0 48 30.0000000  0 10G14G18G22G11G03G17G32G28G08G01
  -8513232.84345  -6613716.96646  22111475.365    22111475.3544   22111477.0904
        44.2004         41.6004
 -15311633.95746 -11913604.79347  20210960.905    20210961.3374   20210964.7254
        48.8004         45.9004
 -18814459.76347 -14636382.88647  20579538.993    20579538.3514   20579539.1664
        49.6004         46.8004
 -13570110.05046 -10561214.97347  20028344.357    20028344.1784   20028345.7404
        48.4004         45.6004
 -15728448.97146 -12231193.25047  21143632.311    21143632.9964   21143637.6854
        48.8004         45.8004
   -911959.58543   -688447.13146  24267265.751    24267264.2614   24267266.8764
        38.5004         36.4004
  -8467733.54444  -6581556.89746  22932157.566    22932158.0844   22932162.0434
        43.4004         40.6004
  -5564325.82944  -4325266.99546  23350791.518    23350791.8474   23350793.5684
        40.6004         38.1004
  -5933084.43345  -4602799.14746  22490958.509    22490957.9974   22490962.9424
        44.6004         41.8004
 -19123232.14847 -14883689.45448  20200701.342    20200701.6014   20200706.6674
        51.2004         48.2004
 18  3 26  0 49  0.0000000  0 10G14G18G22G11G03G17G32G28G08G01
  -8514359.07045  -6614594.52846  22111261.153    22111260.5764   22111262.4944
        44.4004         41.6004
 -15272565.74446 -11883162.03947  20218395.978    20218396.0234   20218399.0964
        48.8004         45.9004
 -18835129.52947 -14652489.19647  20575605.801    20575604.8364   20575605.5264
        49.6004         46.8004
 -13557920.81046 -10551716.86747  20030664.127    20030663.8514   20030665.6674
        48.4004         45.8004
 -15792329.18346 -12280970.01847  21131477.239    21131477.1704   21131481.5324
        48.8004         45.9004
  -1008408.72043   -763602.29846  24248912.230    24248911.6244   24248913.2264
        39.0004         36.7004
  -8415533.72744  -6540881.73546  22942090.480    22942091.5084   22942094.9684
        43.2004         40.4004
  -5523655.80743  -4293576.06046  23358531.394    23358530.5904   23358532.7944
        40.3004         37.3004
  -5835686.02745  -4526904.28046  22509492.783    22509492.5074   22509498.0174
        44.4004         41.8004
 -19136216.75547 -14893807.32548  20198230.826    20198230.9054   20198235.8334
        51.2004         48.4004
 18  3 26  0 49 30.0000000  0 10G14G18G22G11G03G17G32G28G08G01
  -8514915.96445  -6615028.46546  22111155.707    22111154.9934   22111156.9954
        44.4004         41.4004
 -15233075.36046 -11852390.31347  20225910.426    20225910.5964   20225913.7194
        48.8004         46.1004
 -18855383.65447 -14668271.62147  20571751.948    20571750.6984   20571751.2344
        49.6004         46.8004
 -13545178.89046 -10541788.10447  20033088.517    20033088.2654   20033089.9944
        48.4004         45.8004
 -15855824.25746 -12330446.69647  21119393.854    21119394.6124   21119399.1974
        48.9004         45.9004
  -1104668.42543   -838609.86846  24230593.278    24230593.0074   24230595.4924
        39.0004         36.6004
  -8362815.72444  -6499802.75846  22952123.957    22952123.8564   22952127.3724
        43.2004         40.6004
  -5482537.74343  -4261536.00346  23366354.590    23366354.7044   23366356.3944
        39.7004         36.9004
  -5737996.94545  -4450782.92146  22528081.831    22528082.3124   22528087.8844
        44.4004         41.6004
 -19148808.80847 -14903619.32048  20195835.045    20195834.8404   20195839.6154
        51.4004         48.4004
 18  3 26  0 50  0.0000000  0 10G14G18G22G11G03G17G32G28G08G01
  -8514903.46345  -6615018.71546  22111156.625    22111156.4634   22111159.9804
        44.2004         41.4004
 -15193163.37746 -11821290.06647  20233505.439    20233505.6784   20233508.5974
        48.9004         45.9004
 -18875222.65347 -14683730.58047  20567976.317    20567975.5274   20567975.8114
        49.6004         46.8004
 -13531884.10346 -10531428.53047  20035617.988    20035618.2614   20035620.0664
        48.4004         45.8004
 -15918933.41246 -12379622.65647  21107385.199    21107385.4424   21107389.5694
        48.9004         45.9004
  -1200736.39443   -913468.00846  24212312.361    24212312.1914   24212313.8784
        39.0004         36.7004
  -8309581.25144  -6458321.36846  22962253.478    22962254.3464   22962258.1304
        43.4004         40.7004
  -5440972.93743  -4229147.87646  23374265.935    23374264.7844   23374265.1264
        39.2004         36.7004
  -5640018.98845  -4374436.46346  22546726.804    22546726.7054   22546731.3994
        44.2004         41.2004
 -19161007.74247 -14913124.98148  20193513.020    20193513.6534   20193518.2594
        51.4004         48.4004
 18  3 26  0 50 30.0000000  0 10G14G18G22G11G03G17G32G28G08G01
  -8514321.55545  -6614565.28146  22111267.632    22111267.1274   22111270.8384
        44.2004         41.4004
 -15152829.99646 -11789861.46547  20241181.056    20241181.2424   20241183.5334
        48.9004         46.1004
 -18894645.94347 -14698865.60947  20564280.019    20564279.1714   20564279.8974
        49.6004         46.8004
 -13518036.46046 -10520638.16447  20038253.559    20038253.0414   20038254.8904
        48.4004         45.6004
 -15981655.81946 -12428497.24647  21095448.462    21095449.2684   21095454.3374
        48.9004         45.9004
  -1296610.32943   -988174.96446  24194067.303    24194068.3844   24194069.1354
        39.0004         36.6004
  -8255832.26344  -6416439.02646  22972481.966    22972482.5584   22972486.8204
        43.4004         40.6004
  -5398963.64243  -4196413.41246  23382259.154    23382258.9864   23382259.6414
        39.2004         36.9004
  -5541754.70345  -4297866.89446  22565425.480    22565425.1304   22565430.7334
        44.1004         41.1004
 -19172812.99947 -14922323.88048  20191266.330    20191266.4404   20191271.7184
        51.4004         48.4004
 18  3 26  0 51  0.0000000  0 10G14G18G22G11G03G17G32G28G08G01
  -8513170.33245  -6613668.21646  22111487.261    22111486.5464   22111489.6034
        44.2004         41.4004
 -15112076.18746 -11758105.25047  20248935.407    20248935.8914   20248938.8084
        48.9004         46.1004
 -18913653.82947 -14713676.94147  20560663.348    20560662.1994   20560662.6994
        49.6004         46.8004
 -13503635.55546 -10509416.68147  20040994.094    20040993.7594   20040995.1914
        48.4004         45.8004
 -16043990.72846 -12477069.89347  21083586.765    21083587.2374   21083592.4024
        48.9004         46.1004
  -1392287.95243  -1062728.95046  24175860.410    24175860.6874   24175862.4274
        38.9004         36.4004
  -8201570.55544  -6374157.16746  22982807.362    22982807.2834   22982811.2754
        43.2004         40.4004
  -5356511.93043  -4163334.15146  23390334.615    23390335.8524   23390339.5074
        39.0004         36.7004
  -5443206.60645  -4221076.18146  22584179.612    22584177.7924   22584184.2234
        44.1004         41.1004
 -19184223.99947 -14931215.56548  20189095.018    20189095.0844   20189100.4904
        51.4004         48.4004
 18  3 26  0 51 30.0000000  0 10G14G18G22G11G03G17G32G28G08G01
  -8511449.63445  -6612327.40346  22111815.475    22111815.1304   22111817.0214
        44.2004         41.6004
 -15070902.16346 -11726021.60147  20256770.841    20256771.2204   20256773.8644
        48.9004         45.9004
 -18932246.90647 -14728165.05947  20557124.699    20557124.0254   20557124.4344
        49.6004         46.8004
 -13488681.49646 -10497764.18147  20043840.104    20043839.4504   20043841.1104
        48.4004         45.8004
 -16105937.32246 -12525339.96247  21071799.510    21071799.3684   21071804.0264
        49.1004         46.1004
  -1487766.29743  -1137127.63446  24157692.024    24157692.2634   24157693.6834
        39.0004         36.7004
  -8146798.04644  -6331477.29646  22993229.029    22993229.9324   22993234.9684
        43.2004         40.4004
  -5313619.38043  -4129911.37946  23398499.147    23398498.2564   23398501.8864
        38.9004         36.6004
  -5344376.51145  -4144065.71746  22602983.951    22602985.1654   22602990.5064
        43.9004         40.9004
 -19195240.20747 -14939799.62048  20186998.570    20186998.7064   20187004.1714
        51.4004         48.4004
 18  3 26  0 52  0.0000000  0 10G14G18G22G11G03G17G32G28G08G01
  -8509159.42645  -6610542.81546  22112250.596    22112250.3094   22112252.5514
        44.1004         41.1004
 -15029308.48646 -11693610.94247  20264685.919    20264685.8374   20264688.9124
        48.9004         45.9004
 -18950425.52447 -14742330.21047  20553666.220    20553664.7454   20553664.9284
        49.8004         47.0004
 -13473174.02946 -10485680.44247  20046790.768    20046790.6174   20046792.0344
        48.4004         45.8004
 -16167494.91646 -12573306.91147  21060085.028    21060085.3674   21060089.9334
        49.1004         45.9004
  -1583043.83443  -1211369.86246  24139561.421    24139561.6194   24139562.4124
        39.2004         36.9004
  -8091516.55744  -6288400.80346  23003748.153    23003749.3574   23003754.9094
        43.0004         40.2004
  -5270288.04943  -4096146.71346  23406746.219    23406745.0314   23406746.4634
        39.0004         36.9004
  -5245266.81745  -4066837.39246  22621844.865    22621844.7914   22621851.1214
        43.9004         41.1004
 -19205861.10947 -14948075.64848  20184977.450    20184978.0184   20184983.0744
        51.4004         48.5004
 18  3 26  0 52 30.0000000  0 10G14G18G22G11G03G17G32G28G08G01
  -8506300.20645  -6608314.85646  22112794.373    22112793.7884   22112795.9994
        43.9004         41.2004
 -14987295.79146 -11660873.78947  20272681.187    20272681.0804   20272683.6554
        48.9004         46.1004
 -18968189.86447 -14756172.54347  20550285.298    20550284.5544   20550284.6684
        49.8004         47.0004
 -13457113.25646 -10473165.55447  20049846.920    20049846.8254   20049848.3884
        48.4004         45.8004
 -16228662.71646 -12620970.12247  21048444.970    21048445.3324   21048450.4044
        48.9004         45.9004
  -1678117.46943  -1285453.23546  24121469.366    24121470.0534   24121472.7244
        39.4004         37.1004
  -8035728.07744  -6244929.26846  23014364.175    23014365.2974   23014369.9184
        42.9004         40.0004
  -5226519.68543  -4062041.51846  23415073.930    23415074.0974   23415075.0414
        39.2004         36.9004
  -5145880.04345  -3989393.17846  22640758.142    22640757.2204   22640763.7484
        43.9004         40.9004
 -19216086.13047 -14956043.19648  20183031.579    20183031.7024   20183037.4944
        51.4004         48.4004
 18  3 26  0 53  0.0000000  0 10G14G18G22G11G03G17G32G28G08G01
  -8502871.38645  -6605643.04146  22113446.559    22113446.4984   22113448.4504
        44.1004         41.2004
 -14944864.72446 -11627810.61847  20280755.387    20280755.5914   20280758.0024
        48.9004         46.1004
 -18985539.90347 -14769692.05047  20546983.760    20546982.8794   20546983.3974
        49.8004         47.0004
 -13440499.27746 -10460219.60347  20053008.545    20053008.4194   20053009.9514
        48.4004         45.8004
 -16289439.97946 -12668329.02147  21036879.323    21036879.8684   21036884.5114
        48.9004         45.9004
  -1772985.31443  -1359376.22346  24103416.153    24103416.5994   24103419.2944
        39.6004         37.3004
  -7979434.49244  -6201064.12946  23025076.656    23025078.0284   23025081.9244
        42.7004         40.2004
  -5182316.36943  -4027597.41846  23423485.922    23423485.1624   23423487.5864
        39.4004         37.1004
  -5046218.58545  -3911734.90446  22659723.186    22659721.9424   22659728.9374
        43.7004         41.1004
 -19225914.74647 -14963701.86748  20181161.502    20181161.6064   20181167.0824
        51.4004         48.4004
 18  3 26  0 53 30.0000000  0 10G14G18G22G11G03G17G32G28G08G01
  -8498873.42445  -6602527.73946  22114208.402    22114208.2734   22114210.5924
        44.1004         41.4004
 -14902015.54146 -11594421.65347  20288909.732    20288909.4724   20288912.1284
        49.1004         46.1004
 -19002476.06447 -14782889.05247  20543760.775    20543759.9494   20543760.5314
        49.8004         47.0004
 -13423331.62346 -10446842.21247  20056275.092    20056274.8864   20056276.5094
        48.4004         45.6004
 -16349825.97046 -12715383.02847  21025388.021    21025388.5064   21025393.7464
        48.9004         45.9004
  -1867644.65043  -1433136.76946  24085402.450    24085403.4974   24085405.8944
        39.4004         36.9004
  -7922637.71744  -6156806.89846  23035885.563    23035885.9794   23035890.1304
        42.7004         39.7004
  -5137679.96143  -3992815.80646  23431979.474    23431979.4124   23431982.0884
        39.2004         36.9004
  -4946284.26945  -3833864.02846  22678739.791    22678739.9284   22678745.7154
        43.9004         41.1004
 -19235346.44147 -14971051.23948  20179366.633    20179366.7484   20179372.5534
        51.2004         48.4004
 18  3 26  0 54  0.0000000  0 10G14G18G22G11G03G17G32G28G08G01
  -8494306.24445  -6598968.88446  22115076.271    22115076.5094   22115079.8264
        44.1004         41.2004
 -14858749.22246 -11560707.63747  20297142.496    20297142.7334   20297145.4194
        48.9004         46.1004
 -19018998.50347 -14795763.67147  20540616.545    20540615.6994   20540616.5504
        49.8004         47.0004
 -13405610.55146 -10433033.59147  20059648.104    20059647.4434   20059648.8894
        48.2004         45.6004
 -16409819.98246 -12762131.61247  21013971.551    21013972.2904   21013977.1654
        49.1004         46.1004
  -1962093.35043  -1506733.16346  24067429.855    24067430.5664   24067432.9704
        39.4004         37.1004
  -7865339.73444  -6112159.11846  23046788.892    23046789.2964   23046793.8264
        42.7004         39.9004
  -5092612.48443  -3957698.32446  23440553.318    23440553.8124   23440558.9504
        39.2004         36.9004
  -4846079.93945  -3755782.72446  22697807.890    22697807.8654   22697813.4474
        43.9004         41.1004
 -19244380.65947 -14978090.89548  20177647.421    20177647.8134   20177652.9504
        51.2004         48.2004
 18  3 26  0 54 30.0000000  0 10G14G18G22G11G03G17G32G28G08G01
  -8489170.01145  -6594966.63146  22116053.844    22116054.1174   22116056.3254
        44.1004         41.2004
 -14815066.11346 -11526668.85547  20305454.867    20305455.1734   20305457.9384
        48.9004         46.1004
 -19035107.94747 -14808316.47947  20537551.567    20537550.6194   20537551.0404
        50.0004         47.2004
 -13387335.84946 -10418793.56147  20063124.510    20063124.6814   20063126.6584
        48.4004         45.8004
 -16469421.29846 -12808574.18347  21002630.339    21002630.4634   21002635.2604
        49.1004         46.1004
  -2056329.30843  -1580163.78046  24049496.947    24049497.3064   24049500.3324
        39.6004         37.3004
  -7807542.51544  -6067122.31046  23057788.172    23057788.2514   23057791.1714
        42.5004         39.7004
  -5047116.19443  -3922246.69746  23449210.629    23449211.6774   23449215.6654
        39.0004         36.7004
  -4745607.39445  -3677492.44046  22716927.172    22716927.2464   22716932.3404
        43.7004         40.9004
 -19253016.91147 -14984820.44548  20176003.453    20176003.6824   20176009.4184
        51.2004         48.0004
 18  3 26  0 55  0.0000000  0 10G14G18G22G11G03G17G32G28G08G01
  -8483465.11345  -6590521.25146  22117140.911    22117140.3224   22117141.9614
        44.2004         41.4004
 -14770966.87846 -11492305.82447  20313847.168    20313846.9324   20313849.8464
        48.9004         45.9004
 -19050804.14847 -14820547.27947  20534564.453    20534563.4504   20534563.9424
        50.0004         47.2004
 -13368507.57046 -10404122.19147  20066708.511    20066707.7404   20066709.6184
        48.4004         45.8004
 -16528629.20646 -12854710.21047  20991363.240    20991363.7604   20991368.3834
        49.1004         46.3004
  -2150349.36643  -1653426.16146  24031606.531    24031607.0294   24031608.5644
        40.3004         37.9004
  -7749248.00944  -6021698.01046  23068879.892    23068881.4664   23068883.9324
        42.2004         39.3004
  -5001192.61143  -3886462.15946  23457950.795    23457950.4694   23457954.3154
        39.0004         36.7004
  -4644869.37845  -3598995.29946  22736096.463    22736097.0374   22736103.2684
        43.7004         40.7004
 -19261254.64147 -14991239.46948  20174436.206    20174436.2284   20174441.9144
        51.0004         48.0004
 18  3 26  0 55 30.0000000  0 10G14G18G22G11G03G17G32G28G08G01
  -8477191.64445  -6585632.82046  22118333.747    22118333.6764   22118335.5394
        44.2004         41.6004
 -14726451.95646 -11457618.87947  20322317.894    20322317.9924   20322320.7614
        48.9004         46.1004
 -19066087.54747 -14832456.41547  20531655.955    20531655.2134   20531655.7254
        50.0004         47.2004
 -13349125.73746 -10389019.46947  20070396.349    20070396.3494   20070397.7624
        48.4004         45.8004
 -16587443.01646 -12900539.14747  20980171.951    20980172.1394   20980176.2114
        49.3004         46.3004
  -2244151.81844  -1726518.97446  24013756.553    24013756.8844   24013760.2974
        40.8004         38.3004
  -7690458.21644  -5975887.79446  23080067.244    23080068.9014   23080073.1004
        42.3004         40.0004
  -4954843.49043  -3850345.99946  23466771.713    23466771.5184   23466774.6844
        39.0004         36.7004
  -4543867.87644  -3520292.83046  22755317.621    22755316.9254   22755323.5164
        43.4004         40.6004
 -19269093.36647 -14997347.57448  20172944.494    20172945.0194   20172950.0174
        51.0004         48.0004
 18  3 26  0 56  0.0000000  0 10G14G18G22G11G03G17G32G28G08G01
  -8470349.83545  -6580301.53746  22119636.574    22119635.1594   22119637.7694
        44.2004         41.4004
 -14681522.12446 -11422608.62947  20330867.926    20330867.8364   20330870.6044
        48.8004         45.9004
 -19080958.62947 -14844044.26047  20528826.269    20528824.9594   20528825.4454
        50.0004         47.0004
 -13329190.62046 -10373485.61147  20074189.890    20074189.5794   20074191.4394
        48.4004         45.8004
 -16645862.06246 -12946060.47847  20969054.794    20969055.2154   20969059.8054
        49.3004         46.3004
  -2337733.88044  -1799440.07346  23995948.162    23995948.7214   23995951.4114
        40.9004         38.3004
  -7631175.18644  -5929693.21646  23091349.951    23091349.3994   23091353.8944
        42.7004         40.0004
  -4908071.82943  -3813900.57046  23475673.913    23475672.7854   23475674.9694
        39.4004         37.3004
  -4442605.50444  -3441387.09546  22774587.940    22774587.0764   22774593.2984
        43.2004         40.6004
 -19276532.57547 -15003144.36148  20171528.149    20171528.7724   20171534.6824
        51.0004         48.0004
 18  3 26  0 56 30.0000000  0 10G14G18G22G11G03G17G32G28G08G01
  -8462939.76445  -6574527.45146  22121045.115    22121045.2494   22121047.6444
        44.1004         41.4004
 -14636177.81846 -11387275.40347  20339496.534    20339496.6734   20339499.3534
        48.8004         45.9004
 -19095417.49547 -14855310.90747  20526074.290    20526073.6734   20526073.9784
        50.0004         47.2004
 -13308702.06746 -10357520.51247  20078089.409    20078088.8574   20078089.8844
        48.4004         45.8004
 -16703885.64646 -12991273.65447  20958013.090    20958013.8234   20958018.2544
        49.5004         46.5004
  -2431093.19744  -1872187.59246  23978181.946    23978182.1254   23978186.3494
        40.8004         37.9004
  -7571400.90044  -5883115.86146  23102723.316    23102723.5824   23102728.8834
        42.5004         39.7004
  -4860879.18743  -3777127.07746  23484654.077    23484652.8204   23484655.0224
        39.9004         37.6004
  -4341084.31044  -3362279.67846  22793905.657    22793905.3934   22793912.1894
        43.2004         40.6004
 -19283571.74947 -15008629.44048  20170189.296    20170189.5364   20170195.0274
        51.0004         48.0004
 18  3 26  0 57  0.0000000  0 10G14G18G22G11G03G17G32G28G08G01
  -8454961.94445  -6568310.96546  22122563.804    22122562.5744   22122565.6964
        44.1004         41.2004
 -14590419.80246 -11351619.81947  20348204.157    20348204.3734   20348206.7284
        48.8004         45.9004
 -19109464.59747 -14866256.69147  20523400.991    20523400.2294   20523400.9474
        49.8004         47.0004
 -13287660.28046 -10341124.31947  20082092.081    20082092.3004   20082094.2164
        48.4004         45.6004
 -16761513.11546 -13036178.16747  20947047.644    20947047.8624   20947052.3284
        49.5004         46.5004
  -2524227.17743  -1944759.52146  23960460.100    23960459.3184   23960462.0194
        40.4004         37.8004
  -7511137.42044  -5836157.29146  23114192.427    23114191.8474   23114196.7254
        42.5004         39.9004
  -4813267.73943  -3740027.24846  23493713.746    23493713.7414   23493715.3154
        40.1004         37.6004
  -4239306.79044  -3282972.53246  22813274.052    22813273.9394   22813278.5764
        43.2004         40.6004
 -19290210.41047 -15013802.41748  20168925.775    20168926.0964   20168931.9184
        51.0004         48.0004
 18  3 26  0 57 30.0000000  0 10G14G18G22G11G03G17G32G28G08G01
  -8446416.30445  -6561652.01446  22124189.143    22124189.3354   22124191.6504
        44.1004         41.2004
 -14544248.46746 -11315642.16747  20356990.035    20356990.5444   20356992.8824
        48.8004         45.8004
 -19123100.41747 -14876882.00147  20520806.551    20520805.3514   20520806.5694
        49.8004         47.0004
 -13266065.33346 -10324297.09747  20086202.752    20086202.2064   20086203.8354
        48.4004         45.8004
 -16818743.81646 -13080773.50747  20936156.779    20936157.0214   20936161.8104
        49.5004         46.6004
  -2617133.55743  -2017154.13346  23942780.900    23942780.4944   23942783.3024
        40.4004         37.9004
  -7450386.80144  -5788819.13846  23125751.971    23125752.2844   23125758.2174
        42.7004         40.0004
  -4765239.34643  -3702602.55246  23502853.149    23502852.3474   23502854.7394
        39.9004         37.3004
  -4137275.36544  -3203467.54446  22832690.881    22832689.5504   22832695.1904
        43.2004         40.6004
 -19296448.06347 -15018662.93548  20167739.938    20167739.8144   20167744.7934
        51.0004         48.2004
 18  3 26  0 58  0.0000000  0 10G14G18G22G11G03G17G32G28G08G01
  -8437303.18745  -6554550.86846  22125923.574    22125923.4294   22125925.9854
        44.1004         41.2004
 -14497664.87346 -11279343.27647  20365854.311    20365854.6934   20365857.7774
        48.8004         45.9004
 -19136325.22347 -14887187.04347  20518289.541    20518288.8884   20518289.9014
        49.8004         47.2004
 -13243917.27446 -10307038.87447  20090416.730    20090416.7484   20090418.5084
        48.4004         45.8004
 -16875577.09446 -13125059.17947  20925340.952    20925341.5814   20925346.5164
        49.5004         46.5004
  -2709810.21843  -2089369.71746  23925144.777    23925145.3844   23925146.7634
        40.4004         37.8004
  -7389151.05944  -5741102.97146  23137404.742    23137405.7774   23137411.5904
        42.7004         40.0004
  -4716796.32443  -3664854.74246  23512071.568    23512070.4054   23512074.0464
        39.7004         37.3004
  -4034992.32544  -3123766.49546  22852153.242    22852153.5974   22852157.9204
        43.2004         40.2004
 -19302284.22247 -15023210.58848  20166628.714    20166629.1494   20166634.2214
        51.0004         48.2004
 18  3 26  0 58 30.0000000  0 10G14G18G22G11G03G17G32G28G08G01
  -8427623.24145  -6547008.03946  22127766.355    22127765.6194   22127768.6274
        44.1004         41.1004
 -14450669.32146 -11242723.37847  20374797.579    20374797.7234   20374800.2604
        48.8004         45.8004
 -19149139.24847 -14897171.98847  20515851.979    20515850.9494   20515851.5404
        50.0004         47.3004
 -13221216.16046 -10289349.69647  20094736.654    20094737.0954   20094738.4514
        48.4004         45.9004
 -16932012.33246 -13169034.68747  20914601.856    20914602.3404   20914606.8764
        49.5004         46.5004
  -2802254.47444  -2161404.21146  23907553.144    23907553.2104   23907555.0194
        40.6004         37.9004
  -7327432.32144  -5693010.43846  23149149.967    23149150.1674   23149155.3434
        42.7004         39.9004
  -4667940.76843  -3626785.49046  23521368.719    23521367.8814   23521371.0444
        39.6004         37.1004
  -3932459.78144  -3043871.03646  22871665.019    22871665.3754   22871669.2454
        43.0004         40.2004
 -19307718.39247 -15027445.01548  20165594.624    20165594.6344   20165599.6454
        51.2004         48.2004
 18  3 26  0 59  0.0000000  0 10G14G18G22G11G03G17G32G28G08G01
  -8417376.46145  -6539023.53046  22129715.972    22129715.6224   22129718.2484
        44.1004         41.2004
 -14403262.41046 -11205782.94847  20383818.785    20383819.1884   20383821.9234
        48.8004         45.9004
 -19161542.97447 -14906837.21947  20513491.533    20513490.6194   20513491.1034
        50.2004         47.3004
 -13197962.27746 -10271229.79447  20099161.925    20099161.4324   20099163.1724
        48.6004         45.8004
 -16988048.88946 -13212699.52547  20903938.961    20903939.0424   20903943.7664
        49.5004         46.5004
  -2894463.95544  -2233255.76146  23890007.200    23890007.4094   23890007.1254
        40.6004         38.3004
  -7265232.65044  -5644543.16946  23160986.025    23160987.6374   23160990.1354
        42.5004         39.9004
  -4618674.63843  -3588396.31746  23530743.331    23530743.1344   23530744.3504
        39.0004         36.6004
  -3829680.18744  -2963783.06046  22891223.661    22891223.0074   22891227.8074
        43.0004         40.2004
 -19312750.11847 -15031365.84548  20164637.177    20164637.4854   20164642.4944
        51.0004         48.2004
 18  3 26  0 59 30.0000000  0 10G14G18G22G11G03G17G32G28G08G01
  -8406563.31945  -6530597.69046  22131772.993    22131772.8004   22131775.4444
        44.1004         41.4004
 -14355445.04146 -11168522.67847  20392918.103    20392918.4494   20392921.1864
        48.8004         45.8004
 -19173536.80747 -14916183.04847  20511208.994    20511208.0914   20511208.8014
        50.2004         47.3004
 -13174155.75146 -10252679.25347  20103691.508    20103692.0434   20103693.4854
        48.4004         45.8004
 -17043686.13746 -13256053.22347  20893350.733    20893351.7024   20893356.6564
        49.5004         46.5004
  -2986436.15744  -2304922.40846  23872505.321    23872505.2484   23872506.7654
        41.1004         38.6004
  -7202554.18044  -5595702.77046  23172913.043    23172914.4864   23172918.6294
        42.7004         39.9004
  -4569000.26343  -3549689.04046  23540196.325    23540194.7854   23540197.6664
        38.5004         36.2004
  -3726656.14744  -2883504.60346  22910827.420    22910827.7634   22910831.7094
        43.0004         40.0004
 -19317378.91947 -15034972.71348  20163756.605    20163756.9134   20163761.6244
        51.2004         48.2004
 18  3 26  1  0  0.0000000  0 10G14G18G22G11G03G17G32G28G08G01
  -8395184.25445  -6521730.87146  22133938.505    22133938.5154   22133941.2294
        44.1004         41.1004
 -14307217.64046 -11130942.90147  20402095.585    20402095.7534   20402098.7724
        48.8004         45.9004
 -19185121.22047 -14925209.85947  20509003.837    20509003.6054   20509004.1034
        50.2004         47.3004
 -13149796.74346 -10233698.21847  20108326.994    20108326.7864   20108328.9594
        48.4004         45.8004
 -17098923.50146 -13299095.31747  20882840.547    20882840.5414   20882845.0034
        49.5004         46.5004
  -3078168.52344  -2376402.17546  23855048.342    23855049.1294   23855050.9154
        41.1004         38.6004
  -7139398.98244  -5546490.93946  23184931.216    23184932.5234   23184936.2784
        42.5004         39.7004
  -4518919.67043  -3510665.21746  23549725.812    23549725.8694   23549727.6654
        38.3004         36.0004
  -3623389.72344  -2803037.25546  22930479.823    22930479.5784   22930483.5034
        42.9004         40.2004
 -19321604.34047 -15038265.25348  20162952.274    20162952.8084   20162957.4574
        51.2004         48.2004
 18  3 26  1  0 30.0000000  0 10G14G18G22G11G03G17G32G28G08G01
  -8383239.77845  -6512423.48346  22136211.957    22136211.1484   22136213.5724
        43.9004         41.2004
 -14258581.03346 -11093044.26347  20411351.008    20411351.0094   20411353.9524
        48.8004         45.8004
 -19196296.39347 -14933917.78547  20506877.944    20506877.0704   20506877.6574
        50.2004         47.3004
 -13124885.39346 -10214286.78647  20113067.510    20113067.4964   20113069.2844
        48.4004         45.8004
 -17153760.37646 -13341825.34947  20872405.226    20872405.2904   20872409.5604
        49.5004         46.5004
  -3169658.70944  -2447693.20746  23837638.924    23837639.7534   23837640.4194
        41.3004         38.6004
  -7075769.19844  -5496909.29346  23197039.925    23197040.9184   23197043.7774
        42.3004         39.7004
  -4468435.14943  -3471326.66046  23559333.506    23559332.2374   23559335.8434
        38.5004         36.2004
  -3519883.33544  -2722382.93546  22950175.672    22950175.6954   22950180.7014
        42.9004         40.0004
 -19325425.88047 -15041243.08248  20162225.167    20162225.2634   20162230.3774
        51.2004         48.2004
 18  3 26  1  1  0.0000000  0 10G14G18G22G11G03G17G32G28G08G01
  -8370730.11145  -6502675.68846  22138593.100    22138592.0924   22138594.0784
        43.9004         41.2004
 -14209535.93146 -11054827.31347  20420683.869    20420684.1244   20420686.3374
        48.6004         45.8004
 -19207062.58847 -14942307.02947  20504829.200    20504828.4264   20504828.9374
        50.2004         47.3004
 -13099421.95046 -10194445.14847  20117912.406    20117912.3684   20117914.9834
        48.4004         45.8004
 -17208196.15446 -13384242.82347  20862046.053    20862046.4784   20862050.9484
        49.5004         46.5004
  -3260904.38344  -2518793.73046  23820276.272    23820275.6114   23820277.7684
        41.3004         38.6004
  -7011666.97644  -5446959.50746  23209237.541    23209238.5134   23209242.0384
        42.2004         39.3004
  -4417548.72643  -3431674.89646  23569016.129    23569015.5514   23569019.3204
        38.7004         36.4004
  -3416139.41244  -2641543.50846  22969916.491    22969916.6164   22969922.0044
        42.9004         40.0004
 -19328843.12847 -15043905.87948  20161575.375    20161575.3244   20161579.8494
        51.2004         48.4004
 18  3 26  1  1 30.0000000  0 10G14G18G22G11G03G17G32G28G08G01
  -8357655.60545  -6492487.75446  22141080.852    22141080.1704   22141082.4734
        43.9004         41.1004
 -14160083.00646 -11016292.57447  20430094.020    20430094.3634   20430097.5574
        48.6004         45.8004
 -19217420.29347 -14950377.96247  20502858.427    20502857.3144   20502857.7584
        50.2004         47.3004
 -13073406.60946 -10174173.45447  20122863.720    20122863.8564   20122865.3754
        48.4004         45.9004
 -17262230.25246 -13426347.30747  20851763.318    20851764.0664   20851768.4414
        49.5004         46.6004
  -3351903.18644  -2589701.88846  23802958.484    23802958.9704   23802960.0284
        41.1004         38.5004
  -6947094.45644  -5396643.27346  23221525.278    23221526.4674   23221530.0914
        42.2004         39.7004
  -4366262.52543  -3391711.65046  23578775.463    23578773.3554   23578777.2874
        38.3004         36.0004
  -3312160.40444  -2560520.91646  22989704.985    22989704.3694   22989708.8774
        42.9004         40.2004
 -19331855.61447 -15046253.27048  20161001.882    20161001.9754   20161007.1054
        51.4004         48.4004
 18  3 26  1  2  0.0000000  0 10G14G18G22G11G03G17G32G28G08G01
  -8344016.93745  -6481860.22446  22143675.435    22143675.4494   22143677.9094
        43.9004         41.1004
 -14110222.76046 -10977440.45147  20439582.640    20439582.7594   20439585.2054
        48.6004         45.8004
 -19227370.00447 -14958130.98347  20500964.320    20500963.7084   20500964.6524
        50.2004         47.3004
 -13046840.11446 -10153472.29247  20127918.807    20127918.9234   20127920.7764
        48.6004         45.9004
 -17315862.15047 -13468138.38847  20841558.387    20841558.5174   20841562.6934
        49.6004         46.6004
  -3442652.76644  -2660415.83446  23785688.198    23785689.3424   23785691.0984
        40.8004         37.8004
  -6882053.88144  -5345962.29346  23233903.432    23233903.5024   23233907.0164
        42.5004         39.9004
  -4314578.76943  -3351438.63246  23588609.451    23588610.3704   23588612.6574
        38.2004         36.0004
  -3207948.26444  -2479316.65546  23009533.866    23009534.4834   23009539.5574
        42.9004         40.0004
 -19334462.86547 -15048284.89748  20160505.776    20160505.8594   20160511.0304
        51.4004         48.4004
 18  3 26  1  2 30.0000000  0 10G14G18G22G11G03G17G32G28G08G01
  -8329814.73845  -6470793.56946  22146378.775    22146378.3214   22146380.9424
        44.1004         41.4004
 -14059955.94446 -10938271.51547  20449148.221    20449148.2474   20449151.0714
        48.8004         45.9004
 -19236912.41347 -14965566.62247  20499148.493    20499147.9244   20499148.7144
        50.2004         47.3004
 -13019722.01746 -10132341.31847  20133080.060    20133079.9264   20133081.2424
        48.6004         46.1004
 -17369091.24547 -13509615.60747  20831428.248    20831428.8854   20831433.1974
        49.6004         46.5004
  -3533150.30743  -2730933.41546  23768467.166    23768467.1644   23768469.9184
        40.3004         37.6004
  -6816547.34244  -5294918.22646  23246366.569    23246367.9244   23246371.5324
        42.2004         39.2004
  -4262499.92943  -3310857.75646  23598522.283    23598521.6654   23598522.3854
        38.5004         36.4004
  -3103505.82244  -2397932.94946  23029409.542    23029408.9714   23029414.6034
        42.9004         40.0004
 -19336664.50047 -15050000.45348  20160086.282    20160086.7554   20160092.1964
        51.4004         48.4004
 18  3 26  1  3  0.0000000  0 10G14G18G22G11G03G17G32G28G08G01
  -8315049.27745  -6459288.00046  22149188.325    22149188.6594   22149190.4214
        44.2004         41.4004
 -14009283.26946 -10898786.33247  20458791.297    20458791.0684   20458793.5994
        48.8004         45.9004
 -19246047.81447 -14972685.11347  20497410.199    20497409.6694   20497410.1744
        50.2004         47.3004
 -12992052.97246 -10110781.02847  20138344.692    20138344.4294   20138346.2544
        48.6004         45.9004
 -17421917.01246 -13550778.53647  20821375.813    20821376.4584   20821380.6794
        49.5004         46.5004
  -3623393.49743  -2801252.79846  23751296.245    23751296.1374   23751297.4614
        40.4004         38.1004
  -6750577.01844  -5243512.78046  23258920.798    23258921.5744   23258926.1744
        42.0004         39.3004
  -4210027.98943  -3269970.56446  23608507.087    23608505.2594   23608508.8804
        38.9004         36.7004
  -2998835.26344  -2316371.48646  23049327.559    23049327.6244   23049332.4554
        42.9004         40.0004
 -19338460.02547 -15051399.56648  20159745.270    20159745.1564   20159750.2584
        51.4004         48.4004
 18  3 26  1  3 30.0000000  0 10G14G18G22G11G03G17G32G28G08G01
  -8299721.01345  -6447343.88646  22152105.411    22152104.6134   22152107.4394
        44.2004         41.4004
 -13958205.67546 -10858985.61947  20468510.597    20468510.6884   20468513.5484
        48.8004         45.9004
 -19254776.15347 -14979486.40447  20495749.710    20495748.3814   20495749.0954
        50.2004         47.3004
 -12963832.97546 -10088791.42647  20143715.193    20143714.9154   20143716.5294
        48.8004         46.1004
 -17474338.90147 -13591626.74447  20811401.027    20811401.0904   20811405.5484
        49.6004         46.6004
  -3713380.16144  -2871372.26546  23734172.349    23734171.1084   23734174.2174
        40.8004         38.1004
  -6684145.15844  -5191747.68546  23271562.445    23271562.6004   23271567.8624
        41.6004         39.0004
  -4157165.26143  -3228778.81946  23618565.766    23618565.0874   23618568.3564
        39.4004         37.3004
  -2893939.22044  -2234634.32846  23069288.705    23069288.4744   23069293.3614
        42.7004         39.7004
 -19339849.07747 -15052481.94348  20159480.594    20159480.8924   20159485.9754
        51.4004         48.4004
 18  3 26  1  4  0.0000000  0 10G14G18G22G11G03G17G32G28G08G01
  -8283830.58745  -6434961.72946  22155128.550    22155128.7864   22155131.2564
        44.1004         41.2004
 -13906723.51146 -10818869.65747  20478307.225    20478307.6234   20478310.3684
        48.8004         45.8004
 -19263098.47047 -14985971.32547  20494166.075    20494164.9294   20494165.6404
        50.2004         47.3004
 -12935062.66546 -10066373.01347  20149190.124    20149189.8584   20149191.7624
        48.8004         46.1004
 -17526356.41547 -13632159.87647  20801501.770    20801502.3784   20801507.4024
        49.6004         46.6004
  -3803107.50144  -2941289.71046  23717098.565    23717097.9254   23717098.1424
        40.9004         38.5004
  -6617253.94144  -5139624.66146  23284291.290    23284292.3664   23284296.3954
        41.6004         39.0004
  -4103913.99143  -3187284.35346  23628699.720    23628698.8774   23628701.6964
        39.4004         37.1004
  -2788819.83744  -2152723.12746  23089293.098    23089291.9044   23089297.4364
        42.7004         40.0004
 -19340831.20347 -15053247.24248  20159293.846    20159293.9084   20159299.1094
        51.2004         48.2004
 18  3 26  1  4 30.0000000  0 11G14G18G19G22G11G03G17G32G28G08G01
  -8267378.69145  -6422142.05846  22158258.241    22158258.5224   22158262.2064
        43.9004         41.1004
 -13854837.68146 -10778439.14747  20488180.823    20488180.9984   20488183.7204
        48.6004         45.6004
                    -41072.90053  24966600.446
                        23.4004
 -19271014.96447 -14992140.01847  20492659.354    20492658.6584   20492659.1034
        50.2004         47.5004
 -12905742.55746 -10043526.17947  20154769.695    20154769.3304   20154770.8654
        48.9004         46.1004
 -17577969.00147 -13672377.46847  20791680.321    20791680.6854   20791685.7884
        49.6004         46.8004
  -3892573.18244  -3011003.22746  23700071.888    23700072.7484   23700074.3794
        41.1004         38.6004
  -6549905.63144  -5087145.43946  23297108.174    23297108.0564   23297112.0314
        41.5004         38.6004
  -4050276.61643  -3145489.03246  23638906.805    23638904.7444   23638907.6644
        39.2004         36.6004
  -2683479.52044  -2070639.78046  23109337.873    23109338.0074   23109343.5404
        42.7004         39.9004
 -19341405.96747 -15053695.11248  20159184.500    20159184.6834   20159189.8214
        51.2004         48.4004
 18  3 26  1  5  0.0000000  0 10G14G18G22G11G03G17G32G28G08G01
  -8250365.92545  -6408885.34046  22161497.029    22161496.8714   22161499.3234
        44.1004         41.2004
 -13802548.80746 -10737694.57947  20498131.437    20498131.4214   20498133.5484
        48.4004         45.4004
 -19278526.10247 -14997992.85047  20491229.951    20491229.2414   20491230.2134
        50.3004         47.5004
 -12875872.65546 -10020250.93747  20160453.002    20160453.1004   20160455.1734
        48.8004         46.1004
 -17629176.14847 -13712279.14547  20781935.931    20781936.5764   20781941.1964
        49.8004         46.8004
  -3981774.55744  -3080510.79346  23683099.057    23683098.4624   23683100.0274
        41.5004         38.8004
  -6482102.38744  -5034311.73346  23310009.420    23310010.3774   23310014.8254
        41.3004         38.6004
  -3996255.19543  -3103394.44146  23649185.002    23649184.5314   23649187.2654
        38.9004         36.4004
  -2577920.75644  -1988386.19246  23129423.684    23129424.4084   23129431.1674
        42.7004         40.0004
 -19341572.99247 -15053825.25648  20159152.317    20159152.6504   20159157.8054
        51.2004         48.2004
 18  3 26  1  5 30.0000000  0 11G14G18G19G22G11G03G17G32G28G08G01
  -8232792.95845  -6395192.10446  22164839.967    22164839.5034   22164843.4634
        43.9004         41.1004
 -13749857.88746 -10696636.72947  20508157.340    20508157.7894   20508160.4084
        48.2004         45.4004
                   -213858.77346  24924404.633                    24924405.7704
                        36.4004
 -19285632.34247 -15003530.17647  20489877.712    20489877.0394   20489877.7764
        50.3004         47.5004
 -12845453.49046  -9996547.69647  20166241.652    20166241.5254   20166243.7374
        48.8004         46.1004
 -17679977.36747 -13751864.50247  20772268.779    20772269.3074   20772273.8364
        49.8004         46.8004
  -4070709.53544  -3149810.78146  23666174.041    23666173.8184   23666176.7514
        41.5004         39.0004
  -6413846.51544  -4981125.33246  23322998.940    23322999.1554   23323004.0684
        41.5004         39.2004
  -3941852.22943  -3061002.53946  23659538.045    23659538.6744   23659540.1354
        38.7004         36.4004
  -2472146.04544  -1905964.33746  23149552.405    23149552.2864   23149559.1724
        42.7004         40.0004
 -19341331.84747 -15053637.35948  20159198.331    20159198.3764   20159203.5024
        51.2004         48.2004
 18  3 26  1  6  0.0000000  0 12G14G18G19G22G11G03G17G32G28G08G23G01
  -8214660.29745  -6381062.75846  22168290.657    22168290.4834   22168294.3304
        43.9004         41.1004
 -13696765.39646 -10655265.96247  20518260.600    20518260.7544   20518263.4124
        48.2004         45.2004
   -402858.18842   -300062.25845  24903354.719    24903352.2244   24903353.1474
        37.3004         35.9004
 -19292334.58147 -15008752.68947  20488601.931    20488601.2374   20488602.2414
        50.3004         47.3004
 -12814485.31146  -9972416.64547  20172134.855    20172134.5504   20172136.7144
        48.8004         45.9004
 -17730372.17047 -13791133.17247  20762678.707    20762679.2524   20762684.3714
        49.8004         46.8004
  -4159375.79444  -3218901.37846  23649301.941    23649302.4414   23649303.7004
        41.8004         38.8004
  -6345140.25544  -4927587.96546  23336074.357    23336074.7554   23336077.4064
        41.6004         39.0004
  -3887069.83443  -3018314.97846  23669964.082    23669963.7104   23669964.2784
        38.7004         36.4004
  -2366157.53244  -1823375.90046  23169722.037    23169722.0804   23169728.0634
        42.7004         39.9004
                    -39377.96053  24626030.459
                        23.4004
 -19340682.15047 -15053131.09748  20159321.810    20159322.1454   20159327.3414
        51.2004         48.2004
 18  3 26  1  6 30.0000000  0 11G14G18G19G22G11G03G17G32G28G08G01
  -8195968.74245  -6366497.90246  22171847.258    22171847.5114   22171851.0804
        43.9004         41.1004
 -13643272.27346 -10613583.01947  20528439.773    20528439.8054   20528443.0774
        48.1004         45.1004
   -513320.18243   -386136.57946  24882331.819    24882331.3964   24882332.0324
        38.2004         36.0004
 -19298632.69247 -15013660.29547  20487403.883    20487402.6214   20487403.7854
        50.2004         47.3004
 -12782968.57146  -9947858.15247  20178132.796    20178132.3824   20178133.7684
        48.6004         45.9004
 -17780360.07147 -13830084.78247  20753166.577    20753166.9524   20753171.8484
        49.8004         46.8004
  -4247770.59044  -3287780.46746  23632481.275    23632481.2794   23632481.7344
        41.8004         39.0004
  -6275985.86544  -4873701.42046  23349234.661    23349235.0044   23349237.3364
        41.8004         39.0004
  -3831910.32943  -2975333.55346  23680459.261    23680459.1874   23680461.6834
        38.7004         36.4004
  -2259957.86644  -1740622.93346  23189931.777    23189931.2774   23189937.1584
        42.5004         39.7004
 -19339623.47747 -15052306.15848  20159523.772    20159523.5894   20159528.9164
        51.2004         48.2004
 18  3 26  1  7  0.0000000  0 12G14G18G19G22G11G03G17G32G28G08G23G01
  -8176718.90845  -6351498.02746  22175512.139    22175511.4794   22175513.9184
        44.1004         41.4004
 -13589379.21646 -10571588.43447  20538695.174    20538695.2624   20538698.7894
        47.9004         45.1004
   -623613.75153   -472079.60755  24861345.387    24861344.3844   24861345.4454
        38.2004         35.9004
 -19304527.39847 -15018253.56947  20486282.101    20486281.0694   20486282.1664
        50.2004         47.5004
 -12750903.77246  -9922872.60047  20184234.127    20184233.9024   20184235.6664
        48.6004         45.8004
 -17829940.58447 -13868718.94647  20743731.650    20743732.2964   20743736.9174
        49.8004         46.8004
  -4335891.09644  -3356445.78746  23615710.093    23615710.5824   23615713.6674
        41.3004         38.3004
  -6206385.60244  -4819467.43746  23362478.603    23362479.0004   23362481.2024
        41.6004         39.0004
  -3776376.14643  -2932060.16746  23691027.794    23691027.9664   23691030.4074
        38.7004         36.4004
  -2153549.16144  -1657707.05946  23210179.997    23210179.4104   23210185.9544
        42.3004         39.5004
                   -205422.39645  24585481.909
                        34.8004
 -19338155.49447 -15051162.27448  20159803.076    20159803.4514   20159808.2264
        51.2004         48.4004
 18  3 26  1  7 30.0000000  0 12G14G18G19G22G11G03G17G32G28G08G23G01
  -8156911.57545  -6336063.73246  22179281.127    22179280.7634   22179283.2804
        44.1004         41.2004
 -13535086.80746 -10529282.66447  20549026.575    20549026.6874   20549030.5094
        47.9004         45.1004
   -733736.02343   -557889.17845  24840388.834    24840388.0664   24840388.0874
        38.0004         35.9004
 -19310019.25547 -15022532.93747  20485236.525    20485235.9624   20485236.9314
        50.2004         47.5004
 -12718291.22046  -9897460.22047  20190439.642    20190439.4734   20190441.6014
        48.4004         45.6004
 -17879113.25647 -13907035.31647  20734375.286    20734375.3004   20734379.3524
        50.0004         47.0004
  -4423735.17344  -3424895.73546  23598994.622    23598993.9414   23598996.6584
        40.8004         37.9004
  -6136341.74144  -4764887.80546  23375807.796    23375807.8094   23375811.2984
        41.8004         39.3004
  -3720469.48743  -2888496.55046  23701666.391    23701665.7614   23701668.0234
        38.3004         36.0004
  -2046933.99844  -1574630.31446  23230467.346    23230467.6914   23230473.7844
        42.2004         39.5004
   -394197.07242   -288390.02345  24565220.748    24565218.8904   24565219.9324
        36.3004         35.3004
 -19336277.77747 -15049699.11948  20160160.788    20160160.7284   20160165.4014
        51.4004         48.4004
 18  3 26  1  8  0.0000000  0 12G14G18G19G22G11G03G17G32G28G08G23G01
  -8136547.46845  -6320195.58446  22183155.431    22183154.9784   22183157.2364
        43.9004         41.1004
 -13480396.21646 -10486666.63147  20559433.987    20559434.2144   20559437.8964
        47.9004         45.1004
   -843684.33943   -643563.17946  24819465.942    24819465.6974   24819467.3024
        38.3004         36.2004
 -19315108.82947 -15026498.83847  20484268.595    20484267.5494   20484268.6824
        50.3004         47.5004
 -12685131.61346  -9871621.57147  20196749.788    20196749.7614   20196751.6424
        48.4004         45.6004
 -17927877.67447 -13945033.55747  20725095.376    20725095.5554   20725100.2004
        50.0004         47.0004
  -4511300.59744  -3493128.54946  23582330.630    23582332.0714   23582334.0874
        40.8004         38.1004
  -6065856.63944  -4709964.35846  23389220.912    23389221.0254   23389224.2974
        42.2004         39.7004
  -3664192.79743  -2844644.61846  23712375.703    23712374.6584   23712376.5364
        38.2004         36.0004
  -1940114.97444  -1491394.72946  23250795.032    23250794.4634   23250800.5514
        42.0004         39.2004
   -500622.16842   -371318.64945  24544968.238    24544967.7964   24544969.4864
        37.1004         35.3004
 -19333989.97247 -15047916.42148  20160595.602    20160595.7374   20160600.5384
        51.4004         48.2004
 18  3 26  1  8 30.0000000  0 12G14G18G19G22G11G03G17G32G28G08G23G01
  -8115627.09445  -6303893.98546  22187136.757    22187136.8584   22187140.4404
        44.1004         41.4004
 -13425307.75946 -10443740.57047  20569917.084    20569917.1574   20569920.2184
        47.9004         45.1004
   -953456.05643   -729099.57945  24798576.462    24798576.3884   24798577.0654
        38.0004         35.7004
 -19319796.27047 -15030151.38547  20483376.738    20483375.6024   20483376.4834
        50.3004         47.5004
 -12651425.25546  -9845356.88147  20203163.980    20203163.8834   20203166.0334
        48.4004         45.6004
 -17976233.35547 -13982713.30547  20715892.758    20715893.5164   20715898.4304
        50.0004         47.0004
  -4598585.09944  -3561142.43146  23565722.293    23565722.4264   23565724.6624
        41.5004         39.2004
  -5994932.55044  -4654698.83546  23402716.070    23402717.3904   23402719.2224
        41.8004         38.6004
  -3607548.66443  -2800506.35345  23723155.199    23723154.3864   23723157.3234
        38.2004         35.9004
  -1833094.07644  -1408001.81946  23271159.056    23271160.4664   23271166.6964
        41.8004         39.3004
   -606994.90052   -454206.50455  24524727.165    24524726.9784   24524726.2314
        37.3004         35.3004
 -19331291.68347 -15045813.86648  20161109.261    20161109.4464   20161114.0444
        51.4004         48.2004
 18  3 26  1  9  0.0000000  0 12G14G18G19G22G11G03G17G32G28G08G23G01
  -8094151.19545  -6287159.52646  22191224.112    22191224.4714   22191225.8654
        44.4004         41.6004
 -13369822.41846 -10400505.24547  20580476.344    20580476.1264   20580478.7394
        47.9004         44.9004
  -1063048.34243   -814496.20045  24777722.019    24777722.1214   24777723.2374
        38.0004         35.7004
 -19324082.25947 -15033491.11447  20482560.662    20482559.9814   20482560.8414
        50.3004         47.5004
 -12617172.65346  -9818666.54247  20209682.361    20209681.9294   20209684.1044
        48.4004         45.6004
 -18024179.87247 -14020074.23147  20706769.599    20706769.5534   20706774.4194
        50.0004         47.0004
  -4685585.82044  -3628935.22046  23549167.341    23549167.5274   23549169.9634
        42.2004         39.9004
  -5923571.81744  -4599093.05146  23416296.941    23416296.0654   23416298.5564
        41.5004         38.8004
  -3550539.23743  -2756083.43345  23734003.633    23734002.7064   23734005.0124
        38.0004         35.9004
  -1725874.05844  -1324453.75646  23291564.237    23291563.7164   23291570.2384
        41.8004         39.0004
   -713313.30142   -537052.03145  24504495.178    24504493.7444   24504493.6344
        37.3004         35.3004
 -19328182.57747 -15043391.18948  20161700.546    20161700.7084   20161705.8284
        51.4004         48.2004
 18  3 26  1  9 30.0000000  0 12G14G18G19G22G11G03G17G32G28G08G23G01
  -8072120.52045  -6269992.75846  22195416.422    22195415.9954   22195418.6234
        44.4004         41.4004
 -13313941.08246 -10356961.35647  20591109.527    20591109.5974   20591112.6444
        47.9004         44.9004
  -1172458.56243   -899750.92245  24756902.765    24756902.0344   24756901.9734
        38.0004         35.9004
 -19327967.56447 -15036518.61747  20481821.483    20481820.6564   20481821.3114
        50.3004         47.5004
 -12582374.62046  -9791551.19347  20216304.487    20216303.8294   20216305.9274
        48.4004         45.6004
 -18071716.80247 -14057115.98847  20697723.252    20697723.5284   20697728.2744
        50.0004         46.8004
  -4772300.30444  -3696504.96846  23532666.477    23532666.3654   23532668.2224
        42.5004         39.9004
  -5851776.72044  -4543148.82646  23429956.731    23429958.3124   23429961.0144
        41.5004         38.6004
  -3493166.90742  -2711377.74945  23744919.330    23744920.2434   23744923.1024
        37.5004         35.0004
  -1618457.29744  -1240752.40246  23312005.127    23312004.9084   23312010.5884
        41.6004         39.0004
   -819574.69243   -619853.09045  24484274.569    24484273.7874   24484273.7144
        37.6004         35.7004
 -19324662.27347 -15040648.09348  20162370.745    20162370.9944   20162375.7174
        51.4004         48.4004
 18  3 26  1 10  0.0000000  0 12G14G18G19G22G11G03G17G32G28G08G23G01
  -8049536.20345  -6252394.58446  22199714.041    22199713.9294   22199715.3264
        44.1004         41.2004
 -13257664.52046 -10313109.49647  20601818.571    20601818.6184   20601821.7284
        47.7004         44.9004
  -1281684.26643   -984861.84046  24736118.257    24736116.6064   24736117.9654
        38.2004         36.0004
 -19331452.57747 -15039234.20947  20481158.212    20481157.4484   20481158.3944
        50.3004         47.5004
 -12547031.45346  -9764011.05747  20223029.851    20223029.4564   20223031.3484
        48.2004         45.6004
 -18118843.75247 -14093838.26947  20688755.039    20688755.4864   20688760.2084
        49.8004         46.8004
  -4858725.89844  -3763849.59946  23516220.319    23516220.1344   23516222.3724
        42.7004         40.0004
  -5779549.63444  -4486867.97446  23443702.102    23443703.1834   23443705.3274
        41.3004         38.6004
  -3435433.89042  -2666391.03845  23755905.831    23755906.2634   23755909.2934
        37.1004         35.0004
  -1510845.84244  -1156899.33646  23332482.278    23332481.9964   23332489.1354
        41.6004         39.0004
   -925777.05643   -702608.20245  24464064.033    24464063.2504   24464064.6384
        37.8004         35.7004
 -19320730.44147 -15037584.31848  20163118.864    20163118.9164   20163124.1624
        51.4004         48.4004
 18  3 26  1 10 30.0000000  0 12G14G18G19G22G11G03G17G32G28G08G23G01
  -8026399.08945  -6234365.65046  22204117.545    22204116.2044   22204118.7924
        43.9004         41.2004
 -13200993.24446 -10268950.06547  20612603.067    20612603.6554   20612605.6204
        47.7004         44.9004
  -1390722.56343  -1069826.79545  24715368.210    24715366.3834   24715368.9884
        37.6004         35.3004
 -19334538.05847 -15041638.47447  20480571.346    20480570.2554   20480571.0864
        50.3004         47.5004
 -12511143.70346  -9736046.57847  20229858.660    20229858.6184   20229860.3254
        48.2004         45.6004
 -18165560.28447 -14130240.74647  20679865.069    20679865.6944   20679870.5944
        50.0004         47.0004
  -4944860.69144  -3830967.63946  23499829.157    23499828.7434   23499830.9394
        42.7004         40.0004
  -5706892.88944  -4430252.31746  23457528.997    23457528.9204   23457533.0634
        41.5004         39.2004
  -3377342.96342  -2621125.39245  23766960.483    23766960.1904   23766962.1104
        36.8004         34.6004
  -1403042.51144  -1072896.73846  23352998.023    23352996.7654   23353004.3254
        41.5004         38.6004
  -1031918.10443   -785315.53245  24443866.597    24443865.2304   24443867.6514
        38.0004         35.9004
 -19316386.69747 -15034199.59148  20163945.897    20163946.0304   20163950.7184
        51.4004         48.5004
 18  3 26  1 11  0.0000000  0 12G14G18G19G22G11G03G17G32G28G08G23G01
  -8002709.86545  -6215906.50646  22208625.459    22208625.1194   22208626.8954
        44.1004         41.4004
 -13143928.55246 -10224484.06347  20623462.116    20623462.0344   20623464.5524
        47.9004         44.9004
  -1499570.61943  -1154643.47545  24694655.843    24694655.0714   24694656.8614
        37.8004         35.5004
 -19337223.92747 -15043731.35547  20480060.361    20480059.2434   20480059.8834
        50.3004         47.5004
 -12474711.59446  -9707657.93547  20236792.343    20236791.6364   20236793.2664
        48.4004         45.6004
 -18211866.02847 -14166323.13147  20671054.307    20671054.7324   20671058.8894
        50.2004         47.2004
  -5030701.94744  -3897856.94946  23483494.208    23483494.1584   23483496.3364
        42.7004         40.0004
  -5633808.81444  -4373303.68146  23471436.516    23471437.3474   23471440.5944
        41.8004         39.2004
  -3318896.44942  -2575582.66645  23778083.107    23778082.0594   23778084.7424
        36.6004         34.5004
  -1295049.63644   -988746.47546  23373547.558    23373547.5524   23373554.3194
        41.5004         38.8004
  -1137995.40843   -867973.16846  24423680.026    24423679.7484   24423682.3804
        38.2004         36.2004
 -19311630.76147 -15030493.66348  20164850.787    20164850.8744   20164855.6044
        51.4004         48.4004
 18  3 26  1 11 30.0000000  0 12G14G18G19G22G11G03G17G32G28G08G23G01
  -7978469.45145  -6197017.88146  22213236.680    22213236.0334   22213240.1044
        44.1004         41.1004
 -13086470.91046 -10179711.88947  20634396.211    20634396.5724   20634398.8174
        47.9004         45.1004
  -1608225.69843  -1239309.81746  24673979.474    24673978.8544   24673979.0924
        38.2004         36.0004
 -19339511.28347 -15045513.71047  20479624.661    20479623.9464   20479624.8934
        50.3004         47.5004
 -12437736.26446  -9678845.99247  20243828.209    20243827.8104   20243829.8364
        48.4004         45.6004
 -18257760.63447 -14202085.16747  20662320.955    20662321.0734   20662325.4744
        50.3004         47.3004
  -5116247.35144  -3964515.71346  23467214.487    23467214.9284   23467217.3994
        42.9004         40.4004
  -5560299.78944  -4316023.91646  23485424.659    23485424.4484   23485429.6194
        41.8004         39.0004
  -3260096.82942  -2529764.82445  23789270.589    23789271.2594   23789276.4044
        36.8004         34.6004
  -1186869.50644   -904450.28446  23394133.035    23394132.7504   23394139.5984
        41.3004         38.6004
  -1244006.67943   -950579.36945  24403506.856    24403506.6594   24403507.9634
        38.2004         35.7004
 -19306462.26447 -15026466.26948  20165834.468    20165834.5214   20165839.0664
        51.4004         48.4004
 18  3 26  1 12  0.0000000  0 12G14G18G19G22G11G03G17G32G28G08G23G01
  -7953678.92145  -6177700.56146  22217954.403    22217953.9844   22217957.0914
        43.9004         41.1004
 -13028621.31046 -10134634.28147  20645404.402    20645404.4794   20645407.2494
        47.9004         45.1004
  -1716685.12843  -1323823.68845  24653340.016    24653338.3414   24653340.8894
        37.6004         35.2004
 -19341400.68547 -15046985.97147  20479265.144    20479264.4844   20479265.0784
        50.3004         47.5004
 -12400218.02346  -9649611.01747  20250967.199    20250967.0914   20250968.9564
        48.2004         45.4004
 -18303243.67047 -14237526.49047  20653665.684    20653666.2404   20653670.2244
        50.3004         47.3004
  -5201494.19744  -4030941.83746  23450992.992    23450992.7004   23450995.4304
        42.9004         40.2004
  -5486368.19244  -4258414.87746  23499493.476    23499493.5934   23499497.6434
        41.8004         39.2004
  -3200946.39142  -2483673.59145  23800529.399    23800527.6584   23800529.7074
        36.6004         34.6004
  -1078504.92944   -820010.36546  23414754.009    23414753.1464   23414761.6204
        41.3004         38.6004
  -1349949.76443  -1033132.42845  24383347.574    24383346.9784   24383346.6164
        38.2004         35.9004
 -19300880.88647 -15022117.14948  20166896.333    20166896.3874   20166901.3484
        51.4004         48.4004
 18  3 26  1 12 30.0000000  0 12G14G18G19G22G11G03G17G32G28G08G23G01
  -7928338.93845  -6157955.11146  22222776.255    22222775.5664   22222778.8634
        43.9004         40.9004
 -12970380.47946 -10089251.83547  20656487.547    20656487.2514   20656490.7184
        48.1004         45.1004
  -1824946.44943  -1408183.15645  24632738.174    24632737.1994   24632737.0914
        37.6004         35.5004
 -19342892.78247 -15048148.64147  20478981.255    20478980.2884   20478981.1094
        50.3004         47.5004
 -12362157.45446  -9619953.43247  20258209.449    20258209.5764   20258211.9394
        48.2004         45.6004
 -18348314.78947 -14272646.84347  20645089.378    20645089.4974   20645093.2534
        50.3004         47.3004
  -5286439.78544  -4097133.19846  23434828.501    23434828.7334   23434830.2364
        43.0004         40.4004
  -5412016.39044  -4200478.40346  23513641.210    23513642.6074   23513646.0304
        41.6004         39.0004
  -3141447.87542  -2437311.15445  23811850.831    23811850.2224   23811852.4834
        36.3004         34.5004
   -969958.17144   -735428.48546  23435409.429    23435410.0554   23435415.3394
        41.3004         38.6004
  -1455822.18943  -1115630.40545  24363199.414    24363199.6684   24363200.1154
        37.8004         35.5004
 -19294886.30347 -15017446.04648  20168036.765    20168037.0804   20168042.1294
        51.4004         48.5004
 18  3 26  1 13  0.0000000  0 12G14G18G19G22G11G03G17G32G28G08G23G01
  -7902450.49445  -6137782.29446  22227702.452    22227702.5394   22227704.9284
        43.7004         41.1004
 -12911749.26846 -10043565.17647  20667644.183    20667644.3434   20667647.8314
        47.9004         45.1004
  -1933006.49443  -1492385.77145  24612174.148    24612174.5454   24612175.7134
        38.0004         35.9004
 -19343987.79947 -15049001.90347  20478772.857    20478772.3024   20478772.9774
        50.3004         47.5004
 -12323555.48446  -9589873.97947  20265556.508    20265555.8194   20265557.3514
        48.2004         45.6004
 -18392973.63147 -14307445.94447  20636590.485    20636591.0924   20636595.0044
        50.3004         47.5004
  -5371082.24744  -4163088.37746  23418722.038    23418721.7954   23418723.5094
        42.9004         40.0004
  -5337246.73744  -4142216.32746  23527869.571    23527870.1894   23527874.2764
        41.5004         38.6004
  -3081603.30642  -2390679.01545  23823237.086    23823237.3204   23823240.7314
        36.3004         34.3004
   -861231.50544   -650706.42346  23456099.168    23456100.1304   23456105.9304
        41.1004         38.3004
  -1561621.72243  -1198071.58945  24343065.701    24343064.2374   24343067.2654
        37.6004         35.5004
 -19288478.19147 -15012452.71248  20169256.257    20169256.2984   20169261.2614
        51.4004         48.5004
 18  3 26  1 13 30.0000000  0 12G14G18G19G22G11G03G17G32G28G08G23G01
  -7876014.48845  -6117182.79646  22232733.376    22232733.2734   22232735.3564
        43.9004         41.2004
 -12852728.59946  -9997575.06147  20678875.500    20678875.8254   20678878.5614
        48.1004         45.1004
  -2040862.53343  -1576429.45445  24591649.588    24591648.4504   24591651.0484
        38.2004         35.9004
 -19344686.30047 -15049546.19047  20478640.062    20478639.3704   20478639.9994
        50.3004         47.5004
 -12284412.42746  -9559372.90347  20273004.548    20273004.3024   20273006.0764
        48.2004         45.4004
 -18437219.85847 -14341923.52147  20628171.153    20628171.2204   20628175.4004
        50.5004         47.5004
  -5455419.07644  -4228805.39646  23402672.159    23402673.2084   23402673.8174
        42.7004         39.9004
  -5262061.69544  -4083630.56846  23542176.029    23542177.0804   23542181.9604
        41.1004         38.5004
  -3021415.44342  -2343779.38345  23834691.864    23834690.9654   23834694.4124
        36.3004         34.6004
   -752327.57544   -565846.23646  23476823.524    23476823.3284   23476830.0344
        41.1004         38.5004
  -1667346.03343  -1280454.13545  24322949.134    24322947.7554   24322948.5864
        37.8004         35.5004
 -19281656.27047 -15007136.93448  20170554.174    20170554.7384   20170559.5574
        51.4004         48.5004
 18  3 26  1 14  0.0000000  0 12G14G18G19G22G11G03G17G32G28G08G23G01
  -7849032.07445  -6096157.53846  22237868.840    22237867.9304   22237870.2594
        43.9004         41.2004
 -12793319.20846  -9951282.04847  20690181.227    20690181.6004   20690184.0974
        48.1004         45.2004
  -2148512.03243  -1660312.21146  24571163.726    24571163.3804   24571165.8024
        38.3004         36.0004
 -19344988.88547 -15049781.96947  20478582.913    20478581.8764   20478582.5814
        50.3004         47.5004
 -12244729.37146  -9528451.04047  20280555.595    20280555.6554   20280557.6914
        48.2004         45.4004
 -18481053.14047 -14376079.32347  20619829.664    20619829.8434   20619834.1734
        50.5004         47.5004
  -5539447.45644  -4294282.04846  23386682.336    23386682.3054   23386684.4464
        42.7004         39.7004
  -5186463.58644  -4024722.96646  23556561.437    23556563.9624   23556567.1644
        40.9004         38.1004
  -2960886.62242  -2296614.10845  23846211.251    23846210.6824   23846213.3474
        35.9004         34.3004
   -643248.48044   -480849.56946  23497581.623    23497581.6894   23497587.4044
        40.8004         38.3004
  -1772993.23943  -1362776.63045  24302845.682    24302844.7324   24302844.0694
        37.8004         35.5004
 -19274420.23647 -15001498.46648  20171931.289    20171931.5204   20171936.4184
        51.4004         48.5004
 18  3 26  1 14 30.0000000  0 12G14G18G19G22G11G03G17G32G28G08G23G01
  -7821503.87545  -6074706.99246  22243105.721    22243105.5074   22243108.6974
        43.9004         40.7004
 -12733522.16946  -9904686.97047  20701560.588    20701560.6294   20701563.0864
        48.1004         45.2004
  -2255952.19043  -1744031.83346  24550719.450    24550719.0844   24550721.7744
        38.9004         36.7004
 -19344896.23947 -15049709.77647  20478600.254    20478599.7334   20478599.8224
        50.5004         47.7004
 -12204506.69346  -9497108.70747  20288210.309    20288209.9444   20288211.6034
        48.2004         45.4004
 -18524473.15547 -14409913.09147  20611566.908    20611567.2644   20611571.7624
        50.5004         47.5004
  -5623165.09644  -4359516.59546  23370751.142    23370751.8024   23370753.3394
        42.3004         39.3004
  -5110454.86744  -3965495.38046  23571024.576    23571026.3784   23571031.5824
        40.8004         38.3004
  -2900019.46942  -2249185.18445  23857793.721    23857792.2564   23857793.3344
        35.2004         33.1004
   -533996.58744   -395718.22646  23518370.740    23518371.0914   23518377.1794
        40.8004         38.1004
  -1878560.42743  -1445036.76545  24282755.357    24282755.1304   24282755.5084
        38.0004         35.9004
 -19266769.77147 -14995537.07448  20173387.511    20173387.7374   20173392.3104
        51.5004         48.5004
 18  3 26  1 15  0.0000000  0 12G14G18G19G22G11G03G17G32G28G08G23G01
  -7793431.06445  -6052832.08146  22248448.549    22248448.0234   22248450.3484
        43.7004         40.9004
 -12673338.25346  -9857790.42247  20713012.359    20713012.9954   20713015.6614
        48.1004         45.2004
  -2363180.07743  -1827586.04946  24530314.957    24530313.6604   24530315.9074
        38.7004         36.4004
 -19344409.53647 -15049330.52747  20478693.265    20478692.3564   20478692.4254
        50.5004         47.8004
 -12163745.05446  -9465346.39947  20295966.188    20295966.3414   20295968.5034
        48.1004         45.4004
 -18567479.55747 -14443424.56347  20603382.854    20603383.2464   20603387.9614
        50.5004         47.5004
  -5706569.62744  -4424507.14646  23354879.855    23354880.3654   23354882.5324
        42.2004         39.2004
  -5034037.91844  -3905949.69346  23585567.479    23585568.2424   23585572.5704
        40.6004         38.1004
  -2838816.39442  -2201494.49145  23869438.724    23869439.5074   23869441.7454
        34.5004         33.1004
   -424574.83344   -310454.52946  23539193.516    23539193.0834   23539198.8924
        40.6004         38.1004
  -1984045.53043  -1527232.92045  24262684.323    24262682.8494   24262682.4234
        38.0004         35.7004
 -19258704.61047 -14989252.53748  20174922.065    20174922.1884   20174927.4044
        51.5004         48.5004
 18  3 26  1 15 30.0000000  0 12G14G18G19G22G11G03G17G32G28G08G23G01
  -7764815.01345  -6030533.85246  22253894.059    22253894.1714   22253895.5614
        43.7004         40.9004
 -12612768.12646  -9810592.93347  20724539.096    20724539.3114   20724541.9604
        48.1004         45.1004
  -2470193.09943  -1910972.82146  24509951.509    24509950.4624   24509951.4304
        38.7004         36.4004
 -19343528.78147 -15048644.21547  20478860.849    20478859.7614   20478860.2224
        50.5004         47.7004
 -12122445.16746  -9433164.68347  20303825.459    20303825.6374   20303827.5394
        48.2004         45.6004
 -18610072.03347 -14476613.49747  20595277.779    20595278.3504   20595282.6864
        50.5004         47.5004
  -5789658.00044  -4489251.35046  23339068.814    23339068.6924   23339070.9964
        42.0004         39.2004
  -4957215.22443  -3846087.82446  23600186.494    23600187.2084   23600191.6194
        40.4004         37.9004
  -2777279.84842  -2153543.94245  23881148.518    23881149.0324   23881151.4854
        34.5004         33.4004
   -314985.37744   -225060.16446  23560049.124    23560048.0584   23560053.1704
        40.8004         38.1004
  -2089446.34743  -1609363.39745  24242627.500    24242625.9424   24242626.1784
        38.0004         35.7004
 -19250224.48247 -14982644.64348  20176535.376    20176535.7014   20176540.8554
        51.4004         48.4004
 18  3 26  1 16  0.0000000  0 12G14G18G19G22G11G03G17G32G28G08G23G01
  -7735656.63645  -6007813.03646  22259442.151    22259441.9924   22259444.3754
        43.7004         40.7004
 -12551812.77546  -9763095.26647  20736138.047    20736138.3224   20736141.5454
        47.9004         45.1004
  -2576988.40743  -1994189.95546  24489629.443    24489627.6454   24489630.5854
        38.9004         36.4004
 -19342254.40147 -15047651.18847  20479102.779    20479102.1244   20479102.7694
        50.5004         47.7004
 -12080608.11346  -9400564.39447  20311787.280    20311787.0304   20311788.8284
        48.2004         45.6004
 -18652250.35347 -14509479.70847  20587251.975    20587252.0674   20587256.9244
        50.7004         47.7004
  -5872428.76744  -4553748.03546  23323318.206    23323319.0434   23323319.1794
        42.0004         39.3004
  -4879989.15543  -3785911.64946  23614881.003    23614881.4044   23614886.5274
        40.4004         37.8004
  -2715412.57642  -2105335.67645  23892922.523    23892921.4634   23892928.3924
        34.9004         33.6004
   -205230.69744   -139537.04546  23580934.585    23580933.7914   23580938.7394
        40.8004         38.5004
  -2194760.46243  -1691426.30645  24222583.135    24222582.8334   24222586.0034
        38.0004         35.7004
 -19241329.05947 -14975713.15148  20178228.337    20178228.3624   20178233.5794
        51.4004         48.4004
 18  3 26  1 16 30.0000000  0 12G14G18G19G22G11G03G17G32G28G08G23G01
  -7705956.91745  -5984670.38946  22265094.673    22265094.6544   22265096.5684
        43.7004         40.9004
 -12490473.21846  -9715298.22647  20747811.099    20747811.0724   20747814.2804
        47.9004         45.1004
  -2683563.42243  -2077235.47646  24469349.682    24469347.6564   24469348.5154
        38.5004         36.0004
 -19340587.38247 -15046352.21347  20479420.415    20479419.3784   20479419.8844
        50.5004         47.7004
 -12038234.19246  -9367545.76247  20319851.281    20319850.5344   20319852.5014
        48.4004         45.6004
 -18694014.17547 -14542022.93647  20579303.610    20579304.3024   20579309.2024
        50.5004         47.5004
  -5954879.03444  -4617994.99446  23307628.441    23307628.9544   23307629.9554
        42.0004         39.5004
  -4802362.14843  -3725423.07246  23629654.011    23629654.5564   23629659.0224
        40.3004         37.8004
  -2653217.23241  -2056871.78745  23904757.250    23904756.0854   23904762.2164
        34.3004         32.9004
    -95313.28244    -53887.12746  23601850.572    23601849.7874   23601856.0024
        40.9004         38.3004
  -2299985.60243  -1773419.90445  24202559.085    24202559.6964   24202560.9294
        38.0004         35.7004
 -19232018.12447 -14968457.87648  20180000.456    20180000.5024   20180005.4894
        51.4004         48.5004
 18  3 26  1 17  0.0000000  0 12G14G18G19G22G11G03G17G32G28G08G23G01
  -7675716.78945  -5961106.64546  22270849.234    22270848.6784   22270850.9374
        43.9004         41.1004
 -12428750.28746  -9667202.45647  20759555.877    20759555.8944   20759559.3534
        47.9004         44.9004
  -2789914.89643  -2160106.78746  24449111.555    24449110.4514   24449111.1854
        38.7004         36.4004
 -19338528.47347 -15044747.87047  20479811.796    20479810.9974   20479811.9604
        50.5004         47.7004
 -11995324.29846  -9334109.48947  20328015.672    20328015.7024   20328017.8894
        48.4004         45.6004
 -18735363.23647 -14574242.97547  20571435.817    20571435.9984   20571440.6994
        50.5004         47.7004
  -6037006.27544  -4681990.24646  23292000.006    23292000.9844   23292002.8684
        42.5004         39.9004
  -4724336.65243  -3664623.99646  23644501.415    23644501.7804   23644505.8834
        40.3004         37.9004
  -2590696.06342  -2008154.06745  23916654.673    23916653.6974   23916655.1644
        34.7004         33.1004
     14764.25944     31887.55046  23622796.431    23622796.9604   23622801.8314
        40.9004         38.3004
  -2405119.56943  -1855342.46345  24182555.586    24182554.6024   24182554.9954
        37.8004         35.5004
 -19222291.41147 -14960878.62048  20181851.090    20181851.2164   20181856.2224
        51.5004         48.5004
 18  3 26  1 17 30.0000000  0 12G14G18G19G22G11G03G17G32G28G08G23G01
  -7644937.23145  -5937122.57946  22276705.467    22276705.5974   22276708.3734
        43.7004         41.1004
 -12366644.98546  -9618808.72747  20771374.105    20771374.5154   20771377.9754
        47.7004         44.9004
  -2896040.42643  -2242802.00546  24428915.835    24428914.2804   24428915.8534
        38.3004         36.0004
 -19336078.26747 -15042838.61547  20480277.648    20480277.2264   20480277.9114
        50.5004         47.7004
 -11951879.28646  -9300256.24947  20336284.035    20336283.6154   20336284.8054
        48.4004         45.6004
 -18776297.24647 -14606139.59647  20563646.784    20563646.8514   20563650.9944
        50.7004         47.7004
  -6118807.92844  -4745731.78046  23276434.711    23276434.6074   23276436.6864
        42.9004         40.4004
  -4645915.16344  -3603516.32246  23659424.962    23659426.0664   23659429.9314
        40.8004         38.3004
  -2527851.66842  -1959184.44445  23928614.235    23928611.1464   23928616.4314
        34.5004         33.3004
    124999.74444    117785.31346  23643773.453    23643773.8564   23643777.8954
        40.9004         38.1004
  -2510160.04543  -1937192.16745  24162565.629    24162565.1064   24162566.7014
        38.0004         35.9004
 -19212148.65847 -14952975.18348  20183782.028    20183781.7814   20183786.2894
        51.5004         48.5004
 18  3 26  1 18  0.0000000  0 12G14G18G19G22G11G03G17G32G28G08G23G01
  -7613619.85245  -5912719.41646  22282666.335    22282665.5994   22282668.1304
        43.7004         40.7004
 -12304157.93746  -9570117.54347  20783265.492    20783265.4744   20783268.8214
        47.7004         44.9004
  -3001936.94643  -2325318.78545  24408763.816    24408762.6404   24408763.6644
        38.2004         35.9004
 -19333236.90147 -15040624.56347  20480818.777    20480818.0534   20480818.8074
        50.5004         47.7004
 -11907900.10446  -9265986.76047  20344651.819    20344651.8264   20344653.5834
        48.2004         45.4004
 -18816815.95447 -14637712.60147  20555936.226    20555936.2544   20555940.4754
        50.7004         47.7004
  -6200281.73644  -4809217.85746  23260930.602    23260930.3144   23260932.8984
        43.0004         40.0004
  -4567100.08944  -3542101.97846  23674422.505    23674423.4984   23674427.6164
        40.8004         38.1004
  -2464686.47042  -1909964.81145  23940634.100    23940634.7524   23940636.0484
        35.0004         33.6004
    235390.62644    203804.17246  23664780.812    23664781.0884   23664785.7434
        40.8004         38.1004
  -2615104.93543  -2018967.39445  24142594.339    24142596.4884   24142596.3564
        38.0004         35.7004
 -19201589.61147 -14944747.35448  20185790.304    20185790.7124   20185795.7044
        51.4004         48.4004
 18  3 26  1 18 30.0000000  0 12G14G18G19G22G11G03G17G32G28G08G23G01
  -7581765.86545  -5887898.11646  22288727.346    22288726.6734   22288729.0574
        43.6004         40.7004
 -12241290.22646  -9521129.73247  20795228.210    20795228.7134   20795231.8094
        47.9004         44.9004
  -3107601.78643  -2407655.01446  24388656.428    24388655.3284   24388656.1464
        38.3004         36.0004
 -19330005.38647 -15038106.50247  20481433.698    20481432.9634   20481433.5844
        50.5004         47.7004
 -11863387.33846  -9231301.50547  20353123.246    20353123.0334   20353124.4434
        48.2004         45.6004
 -18856919.15247 -14668961.84547  20548304.212    20548304.8354   20548309.2154
        50.7004         47.8004
  -6281425.13844  -4872446.46546  23245487.755    23245488.2074   23245490.6504
        42.7004         39.9004
  -4487893.88744  -3480382.85446  23689495.732    23689495.7324   23689500.6354
        40.9004         38.3004
  -2401203.44242  -1860497.55745  23952714.339    23952714.1624   23952717.0184
        34.9004         33.3004
    345934.58644    289942.30446  23685817.861    23685816.4184   23685821.1464
        40.8004         38.1004
  -2719951.29143  -2100665.83445  24122645.722    24122644.5584   24122643.9774
        38.0004         35.7004
 -19190614.05147 -14936194.97148  20187878.736    20187878.9724   20187884.3754
        51.4004         48.4004
 18  3 26  1 19  0.0000000  0 12G14G18G19G22G11G03G17G32G28G08G23G01
  -7549375.87344  -5862659.15446  22294890.302    22294890.1324   22294892.2834
        43.4004         40.6004
 -12178042.69446  -9471845.96447  20807264.368    20807264.8424   20807267.8294
        47.9004         45.1004
  -3213032.12243  -2489808.52646  24368594.396    24368592.6754   24368594.5684
        38.5004         36.4004
 -19326384.50247 -15035285.03547  20482122.751    20482122.0234   20482122.4624
        50.5004         47.7004
 -11818341.96846  -9196201.22447  20361695.217    20361694.8374   20361696.2544
        48.4004         45.6004
 -18896606.53347 -14699887.07247  20540752.143    20540752.4564   20540756.9984
        50.8004         47.8004
  -6362236.10344  -4935416.04246  23230110.439    23230110.9994   23230112.8424
        42.5004         40.0004
  -4408299.07644  -3418360.91446  23704642.236    23704643.2644   23704646.7324
        40.8004         38.3004
  -2337404.88242  -1810784.44945  23964855.683    23964855.6654   23964858.2804
        34.7004         32.9004
    456628.98544    376197.66146  23706880.893    23706880.7264   23706885.9234
        40.6004         37.9004
  -2824697.15043  -2182285.99645  24102712.889    24102712.6084   24102711.9534
        38.2004         35.9004
 -19179221.71247 -14927317.82348  20190047.402    20190047.2794   20190052.1634
        51.4004         48.4004
 18  3 26  1 19 30.0000000  0 12G14G18G19G22G11G03G17G32G28G08G23G01
  -7516451.11644  -5837003.48846  22301155.938    22301155.1294   22301158.6024
        43.2004         40.6004
 -12114416.47446  -9422267.10147  20819371.959    20819372.1214   20819375.4084
        47.7004         44.7004
  -3318225.29543  -2571777.24946  24348576.886    24348575.3334   24348576.2244
        38.7004         36.4004
 -19322374.98747 -15032160.73647  20482885.490    20482884.8954   20482885.5474
        50.5004         47.7004
 -11772765.01546  -9160686.73747  20370368.418    20370367.6884   20370369.4654
        48.4004         45.6004
 -18935877.92847 -14730488.15647  20533278.968    20533279.5824   20533283.9914
        50.8004         47.8004
  -6442711.88344  -4998124.43246  23214796.390    23214796.7784   23214800.0934
        42.7004         39.9004
  -4328318.08144  -3356038.04846  23719861.734    23719862.7764   23719866.2354
        40.8004         38.1004
  -2273293.49141  -1760827.53945  23977055.091    23977053.3314   23977054.4634
        34.3004         32.7004
    567471.66244    462568.57846  23727973.057    23727972.6554   23727979.1424
        40.6004         37.9004
  -2929340.29243  -2263826.07646  24082797.448    24082798.3714   24082797.5084
        38.2004         36.0004
 -19167412.40947 -14918115.76748  20192294.368    20192294.4084   20192299.3754
        51.4004         48.4004
 18  3 26  1 20  0.0000000  0 12G14G18G19G22G11G03G17G32G28G08G23G01
  -7482993.47744  -5810932.60346  22307521.592    22307520.9754   22307525.7104
        43.4004         40.6004
 -12050412.19346  -9372393.65247  20831551.537    20831551.4144   20831554.7044
        47.5004         44.7004
  -3423178.31143  -2653558.82946  24328605.731    24328604.5274   24328605.1274
        38.9004         36.7004
 -19317976.90747 -15028733.65947  20483723.093    20483722.0504   20483722.5944
        50.5004         47.8004
 -11726657.37846  -9124758.72247  20379141.214    20379141.7404   20379143.4834
        48.4004         45.6004
 -18974733.06347 -14760764.87647  20525885.528    20525885.7854   20525890.1714
        50.8004         47.8004
  -6522849.83844  -5060569.60246  23199546.969    23199547.5254   23199549.1524
        42.9004         40.0004
  -4247953.39844  -3293416.18946  23735154.757    23735155.1974   23735160.1374
        40.6004         38.1004
  -2208871.85641  -1710628.85245  23989313.206    23989314.7094   23989314.3564
        34.3004         33.1004
    678459.98243    549052.95246  23749093.437    23749092.8784   23749099.0984
        40.3004         37.6004
  -3033878.52743  -2345284.44646  24062907.009    24062906.2964   24062906.4314
        38.5004         36.2004
 -19155185.91147 -14908588.62848  20194620.553    20194620.9564   20194625.7794
        51.4004         48.4004
 18  3 26  1 20 30.0000000  0 12G14G18G19G22G11G03G17G32G28G08G23G01
  -7449003.43044  -5784446.85346  22313990.376    22313990.9954   22313993.5654
        43.4004         40.6004
 -11986030.88346  -9322226.41447  20843803.429    20843803.3244   20843805.7584
        47.5004         44.5004
  -3527888.36143  -2735151.08246  24308680.048    24308678.8484   24308679.1784
        39.0004         36.7004
 -19313191.36147 -15025004.65647  20484633.214    20484632.5314   20484633.4134
        50.5004         47.7004
 -11680019.51646  -9088417.54147  20388017.066    20388016.8254   20388018.5394
        48.4004         45.6004
 -19013171.75947 -14790717.10047  20518570.365    20518571.0084   20518575.5034
        50.8004         47.8004
  -6602647.53344  -5122749.63646  23184362.846    23184362.7054   23184363.8424
        42.9004         40.0004
  -4167207.54044  -3230497.33546  23750519.693    23750520.7434   23750526.2124
        40.8004         38.3004
  -2144142.48542  -1660190.42045  24001631.501    24001633.6084   24001636.8714
        34.9004         33.6004
    789591.37443    635648.83346  23770241.745    23770240.9074   23770245.2014
        39.9004         37.1004
  -3138309.60043  -2426659.29746  24043031.674    24043031.7034   24043033.6604
        38.5004         36.2004
 -19142541.99847 -14898736.23448  20197027.590    20197027.4274   20197031.8384
        51.4004         48.4004
 18  3 26  1 21  0.0000000  0 12G14G18G19G22G11G03G17G32G28G08G23G01
  -7414482.27944  -5757547.24746  22320560.277    22320560.3754   22320563.2714
        43.4004         40.7004
 -11921273.53746  -9271766.16147  20856126.913    20856126.3754   20856128.7384
        47.5004         44.7004
  -3632352.70843  -2816551.88246  24288801.363    24288800.0594   24288799.6794
        39.2004         36.7004
 -19308019.07147 -15020974.29547  20485617.223    20485616.8084   20485617.5984
        50.5004         47.7004
 -11632852.44446  -9051663.99247  20396992.758    20396992.4524   20396994.0464
        48.4004         45.6004
 -19051193.79947 -14820344.65447  20511334.817    20511335.6034   20511339.9824
        50.8004         47.7004
  -6682103.08544  -5184663.04246  23169242.499    23169241.7034   23169243.6614
        42.9004         40.0004
  -4086082.95144  -3167283.36946  23765958.394    23765958.6734   23765963.1404
        40.8004         38.3004
  -2079107.98642  -1609514.19545  24014008.182    24014008.7214   24014010.1644
        34.7004         33.1004
    900863.65843    722354.49946  23791413.240    23791415.6414   23791420.2944
        39.6004         36.9004
  -3242630.96643  -2507948.66146  24023179.803    24023179.5614   24023182.6984
        38.5004         36.4004
 -19129480.45547 -14888558.39848  20199512.183    20199512.4034   20199517.8304
        51.4004         48.4004
 18  3 26  1 21 30.0000000  0 12G14G18G19G22G11G03G17G32G28G08G23G01
  -7379431.76544  -5730235.15746  22327229.113    22327229.5534   22327232.3514
        43.4004         40.6004
 -11856141.21846  -9221013.72547  20868520.866    20868520.6914   20868523.0594
        47.5004         44.7004
  -3736568.53243  -2897759.03945  24268967.225    24268966.8844   24268968.7664
        38.5004         35.9004
 -19302460.64447 -15016643.04547  20486674.972    20486674.3254   20486674.9114
        50.5004         47.7004
 -11585157.30746  -9014498.97147  20406069.223    20406068.7004   20406070.3974
        48.4004         45.6004
 -19088798.96847 -14849647.37047  20504178.925    20504179.2924   20504183.6154
        50.7004         47.7004
  -6761213.81344  -5246307.77446  23154187.396    23154187.7084   23154191.2914
        42.5004         39.5004
  -4004582.17044  -3103776.27346  23781466.634    23781467.3424   23781472.6784
        40.8004         38.3004
  -2013771.00441  -1558602.32945  24026438.943    24026437.6084   24026446.7444
        34.2004         32.6004
   1012274.20043    809167.90946  23812615.722    23812615.9854   23812621.0384
        39.4004         36.9004
  -3346840.35443  -2589150.78646  24003349.295    24003350.4484   24003352.0874
        38.7004         36.4004
 -19116001.08847 -14878054.99748  20202077.305    20202077.3404   20202082.6954
        51.4004         48.4004
 18  3 26  1 22  0.0000000  0 12G14G18G19G22G11G03G17G32G28G08G23G01
  -7343852.77545  -5702511.25646  22334001.392    22334000.9684   22334001.9564
        43.6004         40.7004
 -11790634.75646  -9169969.74647  20880986.220    20880986.7084   20880988.7064
        47.5004         44.7004
  -3840532.94743  -2978770.32046  24249185.447    24249183.6284   24249185.5014
        38.9004         36.7004
 -19296516.69447 -15012011.39247  20487806.329    20487805.3144   20487806.1714
        50.3004         47.5004
 -11536934.80146  -8976922.99947  20415245.092    20415245.0604   20415247.0284
        48.4004         45.6004
 -19125987.10447 -14878625.11947  20497102.373    20497102.8704   20497106.9024
        50.7004         47.7004
  -6839976.88544  -5307681.58946  23139198.646    23139199.7684   23139202.2714
        42.2004         39.2004
  -3922707.69644  -3039977.97646  23797045.770    23797046.8834   23797051.6204
        40.8004         38.1004
  -1948134.31341  -1507456.85745  24038932.112    24038931.5664   24038936.7514
        34.2004         32.7004
   1123820.42643    896087.04246  23833843.249    23833842.6874   23833847.8884
        39.2004         36.7004
  -3450935.59343  -2670263.95846  23983542.135    23983540.7934   23983542.6684
        38.9004         36.4004
 -19102103.73647 -14867225.89348  20204722.143    20204722.1904   20204727.1024
        51.4004         48.4004
 18  3 26  1 22 30.0000000  0 12G14G18G19G22G11G03G17G32G28G08G23G01
  -7307746.69545  -5674376.64046  22340872.496    22340871.2504   22340872.9384
        43.6004         40.9004
 -11724755.22846  -9118635.05847  20893522.137    20893522.3544   20893525.2474
        47.5004         44.7004
  -3944243.28243  -3059583.56646  24229449.569    24229448.6234   24229449.4284
        39.2004         36.9004
 -19290188.06147 -15007079.98647  20489010.545    20489009.4344   20489010.4484
        50.3004         47.7004
 -11488186.10846  -8938937.01947  20424521.627    20424521.3304   20424523.2684
        48.2004         45.4004
 -19162758.05247 -14907277.80047  20490105.204    20490105.5644   20490109.7364
        50.7004         47.7004
  -6918390.11844  -5368782.80746  23124279.241    23124278.9074   23124280.4934
        42.2004         39.5004
  -3840462.06144  -2975890.44946  23812697.495    23812698.5894   23812702.9494
        40.8004         38.3004
  -1882200.47241  -1456079.83945  24051477.768    24051478.4524   24051478.7314
        34.0004         32.4004
   1235500.01043    983110.05646  23855097.311    23855096.3794   23855100.3224
        39.2004         36.7004
  -3554914.19343  -2751286.25546  23963753.982    23963754.3424   23963756.7694
        38.9004         36.4004
 -19087788.20947 -14856070.94448  20207446.105    20207446.1864   20207451.2304
        51.4004         48.4004
 18  3 26  1 23  0.0000000  0 12G14G18G19G22G11G03G17G32G28G08G23G01
  -7271114.85144  -5645832.34746  22347841.759    22347842.1904   22347843.5894
        43.4004         40.6004
 -11658503.38246  -9067010.25547  20906129.859    20906129.5524   20906132.6324
        47.5004         44.7004
  -4047696.56743  -3140196.54146  24209762.412    24209762.2264   24209763.2244
        39.7004         37.4004
 -19283475.31347 -15001849.27047  20490288.405    20490287.1214   20490287.6684
        50.5004         47.7004
 -11438912.11746  -8900541.71147  20433897.549    20433897.3354   20433899.6704
        48.1004         45.2004
 -19199111.62647 -14935605.25147  20483187.154    20483187.4554   20483191.7574
        50.7004         47.7004
  -6996451.17444  -5429609.60746  23109424.299    23109424.1144   23109426.0234
        42.3004         39.7004
  -3757847.70744  -2911515.61946  23828419.213    23828419.2304   23828423.9454
        40.6004         37.9004
  -1815971.96241  -1404473.26845  24064082.468    24064081.0374   24064082.8524
        34.2004         32.6004
   1347310.69943   1070235.26546  23876372.924    23876372.3814   23876377.2884
        39.4004         37.1004
  -3658773.97443  -2832215.94246  23943990.560    23943990.3954   23943992.7474
        38.9004         36.6004
 -19073054.32647 -14844590.00448  20210249.882    20210250.1034   20210255.1774
        51.4004         48.4004
 18  3 26  1 23 30.0000000  0 12G14G18G19G22G11G03G17G32G28G08G23G01
  -7233958.42844  -5616879.28946  22354913.521    22354912.6824   22354914.2404
        43.4004         40.7004
 -11591880.26646  -9015096.15447  20918806.843    20918807.4664   20918810.6094
        47.5004         44.4004
  -4150889.83543  -3220606.87346  24190125.673    24190125.1504   24190127.2284
        39.9004         37.6004
 -19276379.11747 -14996319.76347  20491638.358    20491637.6594   20491638.2214
        50.5004         47.7004
 -11389113.72846  -8861737.78747  20443374.222    20443374.1254   20443375.7394
        48.1004         45.2004
 -19235047.66047 -14963607.34247  20476348.532    20476349.1144   20476353.1864
        50.7004         47.7004
  -7074157.81044  -5490160.22846  23094637.300    23094637.5134   23094638.8594
        42.5004         39.9004
  -3674867.17843  -2846855.44946  23844208.667    23844209.5344   23844214.7624
        40.3004         37.8004
  -1749451.64441  -1352639.27545  24076738.121    24076739.4124   24076742.0074
        33.1004         31.9004
   1459249.64843   1157460.42746  23897671.132    23897673.1244   23897678.4294
        39.4004         37.1004
  -3762512.53943  -2913051.21846  23924250.661    23924251.1944   23924250.9034
        38.9004         36.4004
 -19057901.85847 -14832782.88348  20213133.333    20213133.5694   20213138.7394
        51.4004         48.4004
 18  3 26  1 24  0.0000000  0 12G14G18G19G22G11G03G17G32G28G08G23G01
  -7196278.66644  -5587518.42146  22362083.424    22362083.1254   22362084.3534
        43.4004         40.7004
 -11524887.06746  -8962893.67547  20931556.616    20931556.0774   20931558.9244
        47.4004         44.4004
  -4253820.42043  -3300812.55446  24170538.783    24170537.9254   24170539.6494
        39.9004         37.4004
 -19268900.24147 -14990492.06247  20493061.557    20493060.8264   20493061.2564
        50.5004         47.7004
 -11338792.00346  -8822526.07247  20452950.665    20452950.0484   20452951.8284
        48.1004         45.4004
 -19270566.03047 -14991283.98547  20469590.019    20469590.6094   20469594.5774
        50.7004         47.7004
  -7151507.39044  -5550432.63146  23079918.619    23079919.2154   23079919.7094
        42.9004         40.0004
  -3591523.02843  -2781911.94046  23860070.542    23860070.5054   23860075.1814
        40.4004         37.9004
  -1682641.82541  -1300579.73545  24089454.110    24089449.8834   24089451.9314
        33.3004         32.2004
   1571314.63443   1244783.78546  23918999.636    23918997.9864   23919005.6724
        39.6004         37.1004
  -3866127.85243  -2993790.42946  23904534.272    23904534.0074   23904534.1734
        38.7004         36.4004
 -19042330.72747 -14820649.53448  20216096.055    20216096.1934   20216101.7984
        51.4004         48.4004
 18  3 26  1 24 30.0000000  0 12G14G18G19G22G11G03G17G32G28G08G23G01
  -7158077.43044  -5557751.23446  22369351.866    22369351.9764   22369353.5624
        43.4004         40.4004
 -11457524.57346  -8910403.43847  20944374.557    20944375.2274   20944377.5254
        47.4004         44.4004
  -4356485.50543  -3380811.35246  24151000.994    24151001.5344   24151002.4164
        39.7004         37.3004
 -19261039.63347 -14984366.90147  20494557.174    20494556.5644   20494557.2534
        50.5004         47.7004
 -11287948.07346  -8782907.44047  20462625.614    20462625.8894   20462627.5394
        48.2004         45.6004
 -19305666.58347 -15018635.05347  20462910.270    20462910.7534   20462915.1724
        50.8004         47.8004
  -7228497.36244  -5610424.81746  23065267.657    23065268.0494   23065269.1284
        43.2004         40.6004
  -3507817.76543  -2716687.05946  23875999.947    23876000.5604   23876004.1054
        40.4004         38.1004
  -1615545.80241  -1248297.14845  24102218.650    24102221.1744   24102223.4294
        33.8004         32.6004
   1683503.20843   1332203.43746  23940349.131    23940348.0614   23940353.8154
        39.7004         37.3004
  -3969617.39943  -3074431.62246  23884840.346    23884840.0464   23884841.6924
        38.7004         36.4004
 -19026340.74547 -14808189.81148  20219139.294    20219139.3684   20219144.8414
        51.4004         48.4004
 18  3 26  1 25  0.0000000  0 12G14G18G19G22G11G03G17G32G28G08G23G01
  -7119356.04844  -5527578.71846  22376719.918    22376720.4104   22376721.4834
        43.0004         40.0004
 -11389793.81946  -8857626.24447  20957263.643    20957263.0864   20957266.0934
        47.2004         44.4004
  -4458882.03243  -3460600.87646  24131516.520    24131515.2594   24131518.0144
        39.7004         37.3004
 -19252797.66147 -14977944.58147  20496125.368    20496125.0094   20496125.6454
        50.5004         47.7004
 -11236582.99346  -8742882.70947  20472399.866    20472399.7974   20472401.7564
        48.2004         45.4004
 -19340349.17847 -15045660.44847  20456310.954    20456311.0854   20456315.5894
        50.8004         47.8004
  -7305125.49744  -5670135.04246  23050685.143    23050685.3764   23050687.2934
        43.4004         40.9004
  -3423753.90543  -2651182.74646  23891996.760    23891996.7194   23892000.5684
        40.4004         37.9004
  -1548166.02841  -1195793.40445  24115042.257    24115041.7924   24115044.0204
        34.0004         32.6004
   1795812.63843   1419717.28146  23961718.944    23961719.5474   23961725.3814
        39.7004         37.4004
  -4072979.14343  -3154973.23446  23865166.852    23865169.3014   23865171.9544
        38.7004         36.4004
 -19009931.75947 -14795403.59348  20222261.195    20222261.9204   20222267.2454
        51.4004         48.4004
 18  3 26  1 25 30.0000000  0 12G14G18G19G22G11G03G17G32G28G08G23G01
  -7080115.44344  -5497001.61846  22384188.376    22384187.9064   22384190.6974
        43.0004         40.2004
 -11321695.80346  -8804562.86547  20970222.036    20970221.8574   20970224.8274
        47.2004         44.2004
  -4561007.47043  -3540179.14746  24112083.281    24112082.4524   24112083.8524
        39.7004         37.3004
 -19244175.14247 -14971225.72847  20497767.120    20497766.0864   20497766.6014
        50.5004         47.8004
 -11184697.50246  -8702452.46747  20482273.721    20482273.5684   20482275.4784
        48.2004         45.4004
 -19374613.71947 -15072360.08648  20449790.327    20449790.8124   20449795.2244
        51.0004         48.0004
  -7381389.28845  -5729561.34546  23036172.721    23036173.2364   23036174.9554
        43.6004         40.7004
  -3339334.03144  -2585401.01646  23908060.874    23908061.1304   23908065.4544
        40.8004         38.1004
  -1480504.74341  -1143070.31145  24127919.333    24127919.1764   24127916.8034
        34.0004         32.9004
   1908241.10843   1507323.88246  23983112.760    23983113.4314   23983119.9794
        39.7004         37.3004
  -4176210.54443  -3235413.25646  23845527.947    23845527.2494   23845527.7344
        38.9004         36.6004
 -18993103.65347 -14782290.78148  20225463.907    20225464.0614   20225469.9284
        51.4004         48.4004
 18  3 26  1 26  0.0000000  0 12G14G18G19G22G11G03G17G32G28G08G23G01
  -7040357.50144  -5466021.39546  22391753.359    22391753.4424   22391756.4314
        43.0004         40.4004
 -11253231.63746  -8751214.17347  20983250.500    20983250.7504   20983253.8574
        47.2004         44.4004
  -4662858.86543  -3619543.85746  24092701.163    24092699.9174   24092700.9744
        39.2004         36.7004
 -19235172.97047 -14964211.04547  20499480.331    20499479.0634   20499479.7834
        50.7004         47.8004
 -11132292.83346  -8661617.67647  20492245.979    20492245.3714   20492247.6904
        48.2004         45.2004
 -19408460.08647 -15098733.87648  20443349.535    20443350.1234   20443354.7074
        51.0004         48.0004
  -7457286.14945  -5788701.74546  23021730.478    23021730.5464   23021732.3004
        43.7004         41.1004
  -3254560.63544  -2519343.81546  23924191.958    23924192.3464   23924196.3514
        40.6004         37.9004
  -1412565.09741  -1090130.37445  24140847.578    24140847.0724   24140846.9934
        33.3004         32.0004
   2020785.82043   1595021.05046  24004530.950    24004530.1814   24004535.5554
        39.6004         37.1004
  -4279309.45843  -3315750.07446  23825910.686    23825908.7264   23825908.2414
        39.0004         36.7004
 -18975856.29447 -14768851.28348  20228746.101    20228746.2174   20228751.6284
        51.4004         48.4004
 18  3 26  1 26 30.0000000  0 12G14G18G19G22G11G03G17G32G28G08G23G01
  -7000083.22144  -5434638.83046  22399418.123    22399417.6864   22399421.0324
        43.2004         40.7004
 -11184402.09946  -8697580.78547  20996348.263    20996347.7264   20996351.2874
        47.2004         44.0004
  -4764433.18443  -3698692.69046  24073372.745    24073372.2614   24073372.5654
        38.9004         36.4004
 -19225791.66447 -14956900.93047  20501265.128    20501264.3394   20501264.8424
        50.7004         47.8004
 -11079370.30946  -8620379.35247  20502317.051    20502316.8554   20502318.1774
        48.1004         45.4004
 -19441888.17747 -15124781.72747  20436988.468    20436988.8794   20436993.4064
        51.0004         47.8004
  -7532814.03145  -5847554.63446  23007358.163    23007358.0354   23007358.7604
        43.9004         41.1004
  -3169436.29744  -2453013.16446  23940390.789    23940390.7024   23940395.6014
        40.6004         37.9004
  -1344349.62241  -1036975.47345  24153828.801    24153826.5154   24153829.5814
        33.1004         32.2004
   2133444.24543   1682806.82846  24025966.455    24025967.8784   24025973.9204
        39.6004         37.1004
  -4382273.45243  -3395981.72946  23806316.378    23806315.4254   23806313.9614
        39.0004         36.7004
 -18958189.54447 -14755084.98748  20232108.318    20232108.4974   20232113.3814
        51.4004         48.4004
 18  3 26  1 27  0.0000000  0 12G14G18G19G22G11G03G17G32G28G08G23G01
  -6959294.65144  -5402855.50746  22407180.141    22407179.0244   22407182.9724
        43.4004         40.6004
 -11115208.33746  -8643663.57347  21009514.426    21009514.5004   21009518.6814
        47.0004         44.0004
  -4865727.72143  -3777623.48646  24054096.580    24054093.7124   24054096.9954
        38.5004         36.2004
 -19216031.95247 -14949295.95947  20503122.109    20503121.3794   20503121.7554
        50.5004         47.7004
 -11025930.90746  -8578738.27447  20512485.666    20512485.5004   20512487.6004
        48.2004         45.4004
 -19474897.90547 -15150503.60147  20430706.898    20430707.3984   20430711.7224
        51.0004         47.8004
  -7607970.84145  -5906118.38846  22993056.013    22993056.8844   22993058.0174
        43.9004         41.1004
  -3083963.49043  -2386410.99346  23956653.915    23956655.0214   23956659.2614
        40.1004         37.1004
  -1275861.14641   -983607.81245  24166858.795    24166855.9354   24166862.5534
        33.5004         32.6004
   2246213.84143   1770679.23146  24047427.674    24047427.8634   24047433.5334
        39.4004         37.1004
  -4485100.24243  -3476106.50446  23786745.846    23786747.3314   23786746.2484
        39.4004         37.1004
 -18940103.29047 -14740991.80848  20235549.575    20235549.8064   20235555.2844
        51.4004         48.4004
 18  3 26  1 27 30.0000000  0 12G14G18G19G22G11G03G17G32G28G08G23G01
  -6917992.63944  -5370672.12646  22415038.713    22415038.0044   22415042.0514
        43.2004         40.2004
 -11045651.40046  -8589463.38047  21022750.980    21022751.0614   21022754.6724
        46.9004         44.0004
  -4966739.45243  -3856333.98646  24034874.253    24034874.1114   24034875.5334
        38.9004         36.6004
 -19205894.67947 -14941396.77747  20505051.249    20505050.3464   20505050.9274
        50.5004         47.7004
 -10971975.49646  -8536695.10247  20522753.197    20522753.0724   20522754.6814
        48.1004         45.4004
 -19507489.17747 -15175899.39447  20424505.619    20424505.4504   20424509.7284
        51.0004         47.8004
  -7682753.85345  -5964390.86046  22978825.682    22978825.3664   22978826.9434
        43.7004         40.7004
  -2998144.85143  -2319539.30146  23972985.991    23972985.1744   23972990.1304
        39.7004         37.1004
  -1207102.23341   -930029.42745  24179946.440    24179944.9044   24179945.8544
        33.3004         32.2004
   2359092.38243   1858636.54046  24068908.280    24068907.3224   24068914.1384
        39.2004         36.7004
  -4587787.78743  -3556122.77046  23767207.664    23767207.3214   23767205.5574
        39.4004         37.1004
 -18921597.41547 -14726571.65648  20239071.416    20239071.4144   20239076.6004
        51.4004         48.4004
 18  3 26  1 28  0.0000000  0 12G14G18G19G22G11G03G17G32G28G08G23G01
  -6876178.95444  -5338090.02546  22422996.164    22422995.5664   22422998.1914
        43.2004         40.4004
 -10975732.40946  -8534981.06647  21036056.110    21036056.2464   21036059.7474
        46.7004         43.7004
  -5067465.95243  -3934822.18546  24015707.765    24015706.9244   24015707.8614
        39.0004         36.7004
 -19195380.73847 -14933204.09547  20507051.938    20507051.0544   20507051.5924
        50.5004         47.7004
 -10917505.45846  -8494250.92947  20533119.097    20533118.2384   20533120.3614
        48.1004         45.2004
 -19539661.90247 -15200969.05147  20418382.742    20418383.0814   20418387.4484
        50.8004         47.7004
  -7757160.62145  -6022370.15346  22964665.845    22964665.8304   22964668.3604
        43.6004         40.7004
  -2911982.91643  -2252400.13246  23989381.321    23989381.5884   23989384.6894
        39.0004         36.7004
  -1138075.68341   -876242.56545  24193078.419    24193082.3664   24193077.7524
        33.1004         32.2004
   2472077.38143   1946676.77846  24090407.747    24090407.1104   24090414.3424
        39.2004         36.9004
  -4690333.36243  -3636028.40546  23747693.892    23747693.1344   23747692.4214
        39.4004         37.1004
 -18902671.83747 -14711824.46548  20242672.246    20242672.9234   20242678.3324
        51.2004         48.4004
 18  3 26  1 28 30.0000000  0 12G14G18G19G22G11G03G17G32G28G08G23G01
  -6833854.91544  -5305110.25046  22431050.542    22431049.6034   22431052.1494
        43.2004         40.6004
 -10905452.41146  -8480217.44147  21049429.844    21049430.5404   21049433.6664
        46.7004         43.7004
  -5167904.12643  -4013085.70046  23996595.391    23996594.7634   23996595.0824
        39.0004         36.7004
 -19184490.86947 -14924718.48047  20509123.919    20509123.3414   20509124.0234
        50.5004         47.7004
 -10862521.73846  -8451406.47847  20543581.965    20543581.6244   20543583.4064
        48.1004         45.2004
 -19571416.03947 -15225712.52647  20412340.009    20412340.4784   20412344.8964
        50.8004         47.7004
  -7831188.57245  -6080054.24746  22950578.122    22950578.8604   22950579.5384
        43.6004         40.9004
  -2825480.20443  -2184995.41746  24005842.335    24005842.5654   24005845.9174
        39.0004         36.6004
  -1068784.03151   -822249.07055  24206263.793    24206265.8684   24206266.4164
        32.6004         32.0004
   2585166.22843   2034797.94746  24111927.985    24111927.2644   24111933.6634
        39.2004         36.7004
  -4792734.97643  -3715821.84146  23728207.107    23728206.6454   23728206.5364
        39.6004         37.1004
 -18883326.45247 -14696750.14448  20246353.993    20246353.8964   20246359.5824
        51.2004         48.2004
 18  3 26  1 29  0.0000000  0 12G14G18G19G22G11G03G17G32G28G08G23G01
  -6791022.15244  -5271734.05546  22439200.661    22439200.3494   22439202.8734
        43.2004         40.6004
 -10834812.15946  -8425173.09847  21062873.350    21062873.3394   21062875.8124
        46.7004         43.9004
  -5268050.80543  -4091122.05846  23977537.167    23977535.8594   23977537.4824
        38.5004         36.0004
 -19173225.63047 -14915940.36647  20511267.409    20511266.6804   20511267.7744
        50.5004         47.7004
 -10807025.55546  -8408162.71247  20554142.510    20554142.4934   20554143.8904
        48.1004         45.2004
 -19602751.54147 -15250129.80047  20406376.934    20406377.2844   20406381.7874
        50.7004         47.7004
  -7904835.63445  -6137441.57446  22936564.413    22936564.4914   22936566.2014
        43.6004         41.1004
  -2738639.30443  -2117327.17346  24022367.793    24022368.8814   24022371.7244
        39.2004         36.9004
   -999230.37041   -768051.39045  24219499.626    24219500.4084
        32.1004         31.3004
   2698356.64143   2122998.27846  24133466.275    24133465.9784   24133472.5434
        39.0004         36.7004
  -4894990.46543  -3795501.42346  23708747.081    23708747.1344   23708747.5674
        39.4004         36.9004
 -18863561.16547 -14681348.63348  20250115.280    20250115.4594   20250120.6944
        51.2004         48.4004
 18  3 26  1 29 30.0000000  0 12G14G18G19G22G11G03G17G32G28G08G23G01
  -6747682.05044  -5237962.54046  22447446.520    22447446.6374   22447450.8334
        43.0004         40.0004
 -10763812.78046  -8369848.90747  21076383.984    21076384.0744   21076386.9534
        46.7004         43.9004
  -5367903.50343  -4168929.33846  23958533.995    23958533.9054   23958536.7594
        38.3004         36.2004
 -19161585.79147 -14906870.36747  20513482.888    20513482.2664   20513482.6384
        50.5004         47.7004
 -10751018.22046  -8364520.64447  20564800.336    20564799.6894   20564801.5734
        48.1004         45.1004
 -19633668.32947 -15274220.80947  20400493.523    20400494.0534   20400498.4224
        50.7004         47.7004
  -7978099.59945  -6194530.36546  22922622.683    22922622.1894   22922624.2014
        43.9004         41.1004
  -2651462.77843  -2049397.39246  24038957.039    24038957.1804   24038960.0344
        39.4004         37.1004
   -929417.06151   -713651.40155  24232785.692    24232782.0284
        31.7004         31.2004
   2811646.01743   2211275.69146  24155026.256    24155026.2434   24155031.5494
        39.0004         36.7004
  -4997097.06743  -3875064.99546  23689315.985    23689316.0814   23689317.4564
        39.4004         37.1004
 -18843375.88747 -14665619.84948  20253956.204    20253956.5494   20253961.9414
        51.4004         48.4004
 18  3 26  1 30  0.0000000  0 12G14G18G19G22G11G03G17G32G28G08G23G01
  -6703836.14644  -5203796.90846  22455790.061    22455790.5654   22455794.0624
        42.9004         40.0004
 -10692455.57646  -8314245.91047  21089963.715    21089963.4174   21089965.5674
        46.7004         43.7004
  -5467459.14343  -4246505.16546  23939591.962    23939591.1944   23939592.1384
        38.3004         36.4004
 -19149572.45347 -14897509.32347  20515769.216    20515768.1474   20515768.6304
        50.5004         47.7004
 -10694501.18846  -8320481.40147  20575554.804    20575554.7034   20575556.6444
        47.9004         45.1004
 -19664166.40747 -15297985.54247  20394690.343    20394690.2494   20394694.8074
        50.7004         47.7004
  -8050977.79045  -6251318.58146  22908754.523    22908754.1864   22908756.4044
        43.9004         41.1004
  -2563953.20143  -1981208.10446  24055611.274    24055609.8514   24055613.9064
        39.7004         37.4004
   -859346.8065    -659051.30255  24246118.165    24246116.1444
        31.4004         31.3004
   2925031.76343   2299628.21646  24176603.439    24176603.3784   24176608.0474
        39.2004         36.9004
  -5099052.92343  -3954511.09146  23669916.812    23669916.0414   23669915.4094
        39.6004         37.1004
 -18822770.59447 -14649563.78748  20257877.597    20257877.7084   20257883.0214
        51.4004         48.4004
 18  3 26  1 30 30.0000000  0 12G14G18G19G22G11G03G17G32G28G08G23G01
  -6659486.18144  -5169238.49146  22464232.202    22464231.0654   22464232.7674
        42.7004         39.9004
 -10620741.35546  -8258364.70947  21103609.690    21103609.5874   21103612.3944
        46.5004         43.5004
  -5566714.93643  -4323847.37146  23920704.062    23920702.8874   23920703.7534
        38.9004         36.7004
 -19137185.86747 -14887857.44147  20518125.762    20518124.8934   20518125.6414
        50.5004         47.5004
 -10637475.16446  -8276045.54847  20586406.062    20586406.3154   20586408.0234
        47.9004         44.9004
 -19694245.67347 -15321423.93047  20388966.194    20388966.5524   20388971.1004
        50.7004         47.8004
  -8123467.96445  -6307804.42346  22894959.831    22894960.0684   22894962.4244
        43.9004         41.1004
  -2476113.11943  -1912761.28246  24072324.381    24072324.0294   24072328.3144
        39.6004         37.1004
                      5885.65353  24259501.651
                        23.4004
   3038511.75543   2388054.18746  24198196.221    24198197.0164   24198202.1754
        39.4004         36.9004
  -5200855.82543  -4033838.02346  23650544.269    23650544.1404   23650544.1534
        39.7004         37.4004
 -18801745.20747 -14633180.37748  20261878.434    20261878.7534   20261883.8444
        51.4004         48.4004
 18  3 26  1 31  0.0000000  0 12G14G18G19G22G11G03G17G32G28G08G23G01
  -6614633.79844  -5134288.56646  22472767.018    22472766.1194   22472768.5414
        42.7004         40.0004
 -10548671.24746  -8202206.19447  21117324.524    21117324.7234   21117326.6934
        46.5004         43.5004
  -5665668.27043  -4400953.86646  23901873.392    23901872.6974   23901872.4414
        39.2004         36.9004
 -19124427.10947 -14877915.55747  20520553.947    20520553.1564   20520553.6884
        50.3004         47.5004
 -10579941.49946  -8231214.12847  20597355.003    20597354.5754   20597356.7164
        47.9004         45.1004
 -19723906.15647 -15344535.98947  20383322.416    20383322.4004   20383326.9974
        50.8004         47.8004
  -8195567.61745  -6363985.97446  22881239.320    22881240.2744   22881241.7444
        43.9004         41.4004
  -2387945.11143  -1844058.94146  24089101.971    24089102.1724   24089106.3994
        39.4004         36.9004
                     60850.76254  24272933.336
                        28.4004
   3152083.33943   2476551.54446  24219808.701    24219808.5784   24219812.9664
        39.6004         37.1004
  -5302503.39743  -4113043.92846  23631201.776    23631200.9234   23631201.3074
        39.9004         37.6004
 -18780299.63647 -14616469.55148  20265959.650    20265959.5524   20265965.0184
        51.4004         48.5004
 18  3 26  1 31 30.0000000  0 12G14G18G19G22G11G03G17G32G28G08G23G01
  -6569280.53744  -5098948.35246  22481396.923    22481396.3604   22481398.7564
        42.9004         40.2004
 -10476246.50945  -8145771.34247  21131105.774    21131105.6044   21131109.1714
        46.3004         43.5004
  -5764315.83943  -4477822.12346  23883102.329    23883100.4624   23883101.8984
        39.6004         37.1004
 -19111297.02447 -14867684.32547  20523052.890    20523051.7494   20523052.6694
        50.5004         47.7004
 -10521901.50846  -8185988.17947  20608399.445    20608399.5334   20608401.3234
        47.9004         45.1004
 -19753147.84947 -15367321.72247  20377757.330    20377757.5964   20377762.4704
        50.8004         47.8004
  -8267274.61245  -6419861.56246  22867594.060    22867594.5644   22867596.8094
        43.7004         40.9004
  -2299451.74743  -1775103.07046  24105942.140    24105943.4134   24105945.6164
        39.4004         36.9004
                    115930.00254  24286409.959
                        29.3004
   3265744.41543   2565118.62446  24241436.769    24241436.8834   24241444.4624
        39.6004         36.9004
  -5403993.29643  -4192126.93646  23611889.980    23611889.6344   23611889.2364
        40.1004         37.6004
 -18758433.86647 -14599431.29348  20270120.662    20270120.7734   20270126.0394
        51.5004         48.5004
 18  3 26  1 32  0.0000000  0 12G14G18G19G22G11G03G17G32G28G08G23G01
  -6523427.86544  -5063218.98746  22490122.866    22490121.3874   22490124.5224
        42.9004         39.9004
 -10403468.04245  -8089060.87047  21144954.908    21144954.7304   21144958.6094
        46.3004         43.3004
  -5862654.97943  -4554450.02946  23864388.653    23864388.4384   23864388.4784
        39.7004         37.4004
 -19097796.43347 -14857164.38347  20525621.296    20525620.6274   20525621.3644
        50.3004         47.5004
 -10463356.53746  -8140368.72547  20619540.280    20619540.5334   20619542.0204
        47.9004         45.1004
 -19781970.74147 -15389781.11247  20372272.804    20372273.0944   20372277.7764
        50.8004         47.8004
  -8338586.48445  -6475429.25046  22854023.498    22854023.5524   22854026.3104
        43.7004         40.9004
  -2210635.57443  -1705895.64046  24122844.507    24122845.1474   24122847.1124
        39.4004         36.9004
                      1335.19253  24299935.063
                        23.4004
   3379492.32443   2653753.34746  24263084.585    24263084.2834   24263089.1934
        39.4004         36.9004
  -5505323.04443  -4271085.17946  23592604.552    23592605.9744   23592604.6494
        40.1004         37.4004
 -18736147.86147 -14582065.57648  20274361.782    20274361.6314   20274366.7964
        51.5004         48.7004
 18  3 26  1 32 30.0000000  0 12G14G18G19G22G11G03G17G32G28G08G23G01
  -6477077.46344  -5027101.79346  22498941.840    22498941.3124   22498944.7124
        42.7004         39.9004
 -10330336.98245  -8032075.62947  21158870.738    21158871.1994   21158874.7764
        46.0004         43.2004
  -5960682.92343  -4630835.42746  23845733.955    23845733.0284   23845734.4564
        39.9004         37.4004
 -19083925.81247 -14846356.10647  20528260.741    20528260.2874   20528260.6394
        50.3004         47.5004
 -10404307.76646  -8094356.70847  20630777.906    20630776.9804   20630778.6964
        47.9004         45.1004
 -19810374.82847 -15411914.15647  20366867.382    20366867.8474   20366872.7514
        50.8004         47.8004
  -8409501.08345  -6530687.38446  22840530.276    22840530.7424   22840530.8864
        43.7004         41.1004
  -2121499.18243  -1636438.69946  24139805.421    24139806.2274   24139809.9164
        39.6004         37.1004
                     56897.73954  24313506.934
                        28.7004
   3493324.58643   2742453.82646  24284744.709    24284745.1794   24284751.2324
        39.6004         37.1004
  -5606490.56543  -4349916.99746  23573354.452    23573353.6214   23573351.8104
        40.1004         37.4004
 -18713441.56947 -14564372.37048  20278681.915    20278682.2834   20278687.8744
        51.5004         48.5004
 18  3 26  1 33  0.0000000  0 12G14G18G19G22G11G03G17G32G28G08G23G01
  -6430230.98744  -4990598.03446  22507856.084    22507855.4504   22507859.3094
        42.7004         40.0004
 -10256854.35645  -7974816.45547  21172853.338    21172853.9704   21172857.1634
        45.8004         42.8004
  -6058396.69543  -4706976.04246  23827140.562    23827139.8774   23827140.5114
        40.1004         37.8004
 -19069686.51647 -14835260.54847  20530970.993    20530970.1764   20530970.5204
        50.5004         47.7004
 -10344756.65546  -8047953.24147  20642109.097    20642109.0714   20642110.8334
        47.9004         45.1004
 -19838360.14847 -15433720.88947  20361541.683    20361542.0194   20361547.3444
        50.8004         47.8004
  -8480015.84845  -6585633.94946  22827111.754    22827112.0294   22827112.8274
        43.6004         40.9004
  -2032045.23143  -1566734.32246  24156828.010    24156828.9804   24156832.3824
        39.6004         37.3004
                    112620.98854  24327121.047
                        29.8004
   3607238.66643   2831218.03846  24306423.858    24306421.7804   24306428.4044
        39.2004         36.7004
  -5707494.05643  -4428621.00346  23554132.864    23554133.4294   23554132.3604
        40.1004         37.6004
 -18690314.98147 -14546351.65648  20283082.535    20283082.7304   20283088.5314
        51.5004         48.5004
 18  3 26  1 33 30.0000000  0 12G14G18G19G22G11G03G17G32G28G08G23G01
  -6382890.13044  -4953709.06346  22516865.313    22516865.2294   22516867.4294
        42.9004         40.2004
 -10183021.40645  -7917284.31047  21186904.151    21186903.8774   21186907.5354
        45.6004         42.6004
  -6155793.35143  -4782869.54446  23808606.440    23808605.1024   23808605.6634
        40.3004         37.8004
 -19055078.83247 -14823877.94247  20533750.727    20533749.5784   20533750.4734
        50.5004         47.7004
 -10284703.91046  -8001158.91347  20653536.617    20653536.8594   20653538.3464
        47.9004         45.1004
 -19865926.66747 -15455201.29647  20356295.969    20356296.6244   20356301.5314
        50.8004         47.8004
  -8550128.45445  -6640267.17046  22813768.654    22813769.0544   22813770.3364
        43.6004         40.7004
  -1942276.20843  -1496784.42346  24173910.285    24173911.4554   24173914.1724
        39.7004         37.3004
                                  24340782.297

   3721232.33343   2920044.26646  24328118.018    24328115.0594   24328119.9684
        39.0004         36.6004
  -5808330.66743  -4507194.98746  23534944.575    23534944.8544   23534944.1244
        40.3004         37.8004
 -18666768.08047 -14528003.42848  20287563.160    20287563.5384   20287569.2424
        51.4004         48.4004
 18  3 26  1 34  0.0000000  0 12G14G18G19G22G11G03G17G32G28G08G23G01
  -6335056.46744  -4916436.08046  22525968.939    22525967.9944   22525970.7364
        43.0004         40.2004
 -10108839.17245  -7859479.98147  21201020.277    21201020.2224   21201024.2284
        45.8004         43.2004
  -6252870.17543  -4858513.80646  23790132.528    23790132.0724   23790132.8684
        40.4004         37.9004
 -19040103.57247 -14812208.90447  20536599.984    20536599.1814   20536600.2784
        50.5004         47.5004
 -10224151.19646  -7953974.98147  20665058.195    20665058.7064   20665061.3914
        47.7004         44.7004
 -19893074.50947 -15476355.45547  20351130.572    20351130.5514   20351135.4104
        50.8004         47.8004
  -8619836.60745  -6694585.20946  22800504.504    22800504.2354   22800505.4454
        43.7004         40.9004
  -1852194.71143  -1426591.04446  24191053.302    24191053.2014   24191057.6994
        39.9004         37.4004
                     52794.83754  24354489.673
                        27.0004
   3835303.10943   3008930.57546  24349820.418    24349821.2634   24349828.2964
        38.7004         36.2004
  -5908998.18843  -4585637.19946  23515787.587    23515787.8954   23515788.8564
        40.3004         37.9004
 -18642800.86147 -14509327.68148  20292124.423    20292124.6774   20292129.6474
        51.4004         48.4004
 18  3 26  1 34 30.0000000  0 12G14G18G19G22G11G03G17G32G28G08G23G01
  -6286731.56044  -4878780.30346  22535164.267    22535164.0974   22535165.7664
        43.0004         40.2004
 -10034308.75445  -7801404.34147  21215203.991    21215203.5964   21215206.7224
        46.0004         43.2004
  -6349624.12844  -4933906.50146  23771720.599    23771720.3264   23771721.5624
        40.6004         38.1004
 -19024761.44147 -14800253.99947  20539519.360    20539518.5974   20539519.6434
        50.3004         47.5004
 -10163099.82846  -7906402.49547  20676677.631    20676677.1234   20676678.6734
        47.7004         44.9004
 -19919803.62847 -15497183.34047  20346043.266    20346044.1134   20346048.9834
        50.8004         47.8004
  -8689138.29145  -6748586.52246  22787316.370    22787316.4894   22787318.2144
        43.9004         41.2004
  -1761803.36743  -1356156.24546  24208254.272    24208254.3924   24208257.7824
        39.6004         36.9004
                    109028.65854  24368236.702
                        29.8004
   3949448.40943   3097874.97045  24371540.165    24371541.5364   24371548.7704
        38.2004         35.5004
  -6009494.32044  -4663945.85946  23496665.001    23496664.5684   23496664.3904
        40.6004         38.1004
 -18618413.33647 -14490324.43048  20296764.942    20296765.0934   20296770.5814
        51.4004         48.4004
 18  3 26  1 35  0.0000000  0 12G14G18G19G22G11G03G17G32G28G08G23G01
  -6237917.34644  -4840743.24446  22544453.040    22544452.7774   22544455.8184
        43.0004         40.4004
  -9959431.07945  -7743058.11547  21229452.357    21229452.4564   21229455.8884
        46.0004         43.2004
  -6446052.56944  -5009045.55946  23753371.550    23753370.9904   23753372.2594
        40.6004         38.1004
 -19009053.65247 -14788014.16747  20542508.713    20542507.7064   20542508.7124
        50.3004         47.5004
 -10101551.36846  -7858442.66747  20688389.210    20688389.0934   20688390.7924
        47.7004         44.7004
 -19946114.14547 -15517685.03447  20341037.194    20341037.3684   20341042.2324
        50.8004         47.7004
  -8758030.96445  -6802269.11246  22774206.532    22774206.5074   22774209.3314
        44.1004         41.4004
  -1671104.74043  -1285481.98246  24225514.405    24225514.2654   24225516.3844
        39.2004         36.7004
                    165440.98055  24382029.469
                        30.0004
   4063666.02942   3186875.71045  24393274.214    24393275.4294   24393283.5094
        37.5004         35.2004
  -6109816.73344  -4742119.15346  23477573.694    23477572.6994   23477573.7074
        40.8004         38.1004
 -18593605.47247 -14470993.63948  20301485.618    20301486.1764   20301491.5364
        51.4004         48.5004
 18  3 26  1 35 30.0000000  0 12G14G18G19G22G11G03G17G32G28G08G23G01
  -6188615.25644  -4802326.01346  22553835.341    22553834.7544   22553838.1754
        43.2004         40.4004
  -9884207.50245  -7684442.35747  21243766.885    21243767.0784   21243770.0374
        46.0004         43.3004
  -6542152.50244  -5083928.64646  23735085.278    23735084.0254   23735083.8244
        40.6004         38.1004
 -18992980.79947 -14775489.86147  20545566.897    20545566.0974   20545567.0884
        50.2004         47.3004
 -10039507.04146  -7810096.44147  20700195.669    20700195.4894   20700198.0864
        47.7004         44.9004
 -19972006.04547 -15537860.53947  20336109.334    20336110.0764   20336114.8074
        50.7004         47.7004
  -8826512.54445  -6855631.36046  22761174.109    22761174.7534   22761177.6904
        44.2004         41.4004
  -1580101.39143  -1214570.27446  24242829.759    24242830.1034   24242834.7744
        39.2004         36.6004
                     49525.62954  24395869.069
                        25.3004
   4177953.21442   3275930.62945  24415024.716    24415024.9504   24415029.7534
        37.0004         34.8004
  -6209963.38744  -4820155.48846  23458516.235    23458516.0944   23458517.9464
        40.9004         38.5004
 -18568377.35347 -14451335.37448  20306286.456    20306286.6644   20306292.3884
        51.4004         48.4004
 18  3 26  1 36  0.0000000  0 12G14G18G19G22G11G03G17G32G28G08G23G01
  -6138827.04444  -4763530.01746  22563308.889    22563309.5104   22563311.7564
        43.2004         40.4004
  -9808638.95145  -7625557.79047  21258147.171    21258146.8234   21258150.2024
        46.0004         43.2004
  -6637920.99044  -5158553.44446  23716860.432    23716859.5234   23716860.4234
        40.9004         38.5004
 -18976543.77147 -14762681.79347  20548694.670    20548694.0424   20548694.9384
        50.2004         47.3004
  -9976968.15946  -7761364.85847  20712096.468    20712096.6284   20712098.9844
        47.7004         44.9004
 -19997479.43947 -15557709.92947  20331262.471    20331262.8234   20331267.5594
        50.7004         47.7004
  -8894580.51645  -6908671.33246  22748222.049    22748222.7734   22748224.5174
        44.2004         41.6004
  -1488795.96543  -1143423.18046  24260205.436    24260204.7794   24260210.5464
        38.9004         36.6004
                    106416.91354  24409745.722
                        29.3004
   4292307.49742   3365037.84045  24436787.793    24436784.7934   24436792.9354
        36.6004         34.5004
  -6309932.45144  -4898053.46346  23439492.758    23439493.0354   23439494.1644
        41.1004         38.5004
 -18542728.93047 -14431349.60448  20311168.007    20311167.7714   20311173.5144
        51.5004         48.5004
 18  3 26  1 36 30.0000000  0 12G14G18G19G22G11G03G17G32G28G08G23G01
  -6088554.57544  -4724356.65146  22572875.545    22572875.8364   22572877.7414
        43.0004         40.2004
  -9732726.76845  -7566405.46647  21272593.264    21272593.1484   21272596.0044
        46.2004         43.2004
  -6733354.92044  -5232917.51346  23698699.745    23698698.3894   23698699.6244
        40.9004         38.3004
 -18959743.79047 -14749590.90247  20551891.974    20551891.0794   20551892.0334
        50.2004         47.3004
  -9913936.08346  -7712248.97547  20724091.449    20724091.4754   20724093.3604
        47.9004         45.1004
 -20022534.36647 -15577233.24947  20326494.839    20326495.2714   20326499.9784
        50.8004         47.8004
  -8962232.36245  -6961387.03046  22735347.675    22735348.1134   22735350.4854
        44.1004         41.2004
  -1397190.95143  -1072042.66245  24277633.523    24277635.9904   24277641.6664
        38.3004         35.7004
                    163480.46655  24423670.111
                        30.1004
   4406726.68942   3454195.64345  24458563.705    24458560.2624   24458566.4474
        36.6004         34.6004
  -6409720.92744  -4975810.69546  23420503.465    23420504.0414   23420504.0594
        41.1004         38.5004
 -18516660.29347 -14411036.38848  20316128.272    20316128.5114   20316133.9564
        51.5004         48.5004
 18  3 26  1 37  0.0000000  0 12G14G18G19G22G11G03G17G32G28G08G23G01
  -6037799.87744  -4684807.52446  22582534.322    22582533.8634   22582536.7694
        42.9004         40.2004
  -9656471.99945  -7506986.17947  21287103.655    21287103.9874   21287107.0504
        46.2004         43.3004
  -6828452.54244  -5307019.55246  23680603.537    23680602.4084   23680603.4764
        40.9004         38.3004
 -18942580.95947 -14736217.27547  20555157.944    20555157.0614   20555157.7644
        50.2004         47.3004
  -9850412.33346  -7662749.95347  20736179.552    20736179.5524   20736181.5574
        47.9004         44.9004
 -20047170.94147 -15596430.57748  20321806.715    20321807.1844   20321812.0174
        50.8004         48.0004
  -9029465.73545  -7013776.68346  22722553.744    22722553.6734   22722556.0124
        43.9004         41.1004
  -1305289.09543  -1000430.83445  24295122.562    24295124.0764   24295128.5464
        38.0004         35.7004
                     45214.31453  24437630.805
                        23.4004
   4521208.44142   3543402.19945  24480345.690    24480345.4144   24480350.5194
        36.6004         34.8004
  -6509326.77944  -5053425.63446  23401550.336    23401550.1774   23401549.1774
        41.1004         38.6004
 -18490171.44347 -14390395.73548  20321169.417    20321169.4144   20321174.4604
        51.4004         48.5004
 18  3 26  1 37 30.0000000  0 12G14G18G19G22G11G03G17G32G28G08G23G01
  -5986564.36244  -4644883.74446  22592283.724    22592282.9594   22592285.9434
        42.9004         39.9004
  -9579875.77245  -7447300.82147  21301679.416    21301679.7714   21301682.7354
        46.3004         43.5004
  -6923210.06444  -5380856.56546  23662570.665    23662570.5814   23662572.2154
        40.8004         38.3004
 -18925056.24547 -14722561.65647  20558492.919    20558492.2724   20558492.6014
        50.2004         47.3004
  -9786398.21646  -7612868.83447  20748361.390    20748360.8364   20748363.1384
        47.9004         44.9004
 -20071389.25547 -15615301.98248  20317198.046    20317198.5464   20317203.4434
        50.8004         48.0004
  -9096279.28545  -7065839.19046  22709840.588    22709839.7494   22709841.3154
        44.1004         41.4004
  -1213092.83442   -928589.56945  24312665.559    24312666.7404   24312671.9004
        37.3004         35.0004
                    102430.71854  24451634.661
                        29.6004
   4635750.15242   3632655.49945  24502140.862    24502141.4594   24502147.9664
        36.8004         34.8004
  -6608748.22144  -5130896.85946  23382629.819    23382630.3074   23382630.2354
        41.1004         38.5004
 -18463262.45247 -14369427.69448  20326289.751    20326290.0574   20326295.3114
        51.4004         48.5004
 18  3 26  1 38  0.0000000  0 12G14G18G19G22G11G03G17G32G28G08G23G01
  -5934849.86144  -4604586.72446  22602124.247    22602124.2134   22602126.5914
        42.7004         39.7004
  -9502939.36845  -7387350.39447  21316320.420    21316320.4224   21316322.8364
        46.3004         43.3004
  -7017624.57644  -5454426.35246  23644603.590    23644602.4114   23644605.9714
        40.8004         38.1004
 -18907170.53947 -14708624.74447  20561896.818    20561895.9674   20561896.1544
        50.3004         47.5004
  -9721895.19146  -7562606.74747  20760636.027    20760635.6534   20760637.6374
        47.7004         44.9004
 -20095189.38547 -15633847.52747  20312668.561    20312669.0694   20312673.9244
        50.8004         47.8004
  -9162670.40145  -7117572.52046  22697207.039    22697207.2684   22697207.9394
        44.2004         41.6004
  -1120604.86242   -856521.01545  24330268.027    24330269.0164   24330274.3624
        37.5004         35.3004
                    159803.08855  24465678.140
                        30.0004
   4750349.19942   3721953.45845  24523949.953    24523947.7944   24523956.3034
        37.0004         35.0004
  -6707982.59844  -5208222.35246  23363744.590    23363746.0114   23363747.4874
        41.1004         38.5004
 -18435933.39047 -14348132.32848  20331490.624    20331490.7344   20331495.7294
        51.4004         48.4004
 18  3 26  1 38 30.0000000  0 12G14G18G19G22G11G03G17G32G28G08G23G01
  -5882658.11444  -4563917.82046  22612057.362    22612055.9314   22612058.9254
        42.7004         39.7004
  -9425663.76245  -7327135.64147  21331025.601    21331026.0414   21331028.3794
        46.3004         43.5004
  -7111693.28644  -5527726.67946  23626704.950    23626702.9394   23626704.6854
        40.9004         38.5004
 -18888924.68647 -14694407.19247  20565368.907    20565368.0274   20565368.3404
        50.3004         47.5004
  -9656904.97146  -7511965.02147  20773003.136    20773002.9964   20773004.6764
        47.7004         44.7004
 -20118571.47047 -15652067.33047  20308219.476    20308219.7914   20308224.2654
        50.7004         47.7004
  -9228636.56645  -7168974.74246  22684654.405    22684654.9414   22684655.1034
        44.6004         41.8004
  -1027827.77742   -784227.13945  24347921.509    24347921.5034   24347928.1444
        37.0004         34.8004
                     40803.22953  24479767.784
                        23.4004
   4865003.54442   3811294.49745  24545768.311    24545767.6784   24545772.5094
        37.1004         35.0004
  -6807027.60344  -5285400.26546  23344898.057    23344898.6474   23344899.4934
        40.9004         38.5004
 -18408184.29847 -14326509.66548  20336770.458    20336771.0954   20336776.1224
        51.4004         48.4004
 18  3 26  1 39  0.0000000  0 11G14G18G19G22G11G03G17G32G08G23G01
  -5829990.84444  -4522878.39446  22622078.450    22622077.5804   22622081.4364
        42.5004         39.7004
  -9348050.20245  -7266657.55147  21345795.247    21345794.8624   21345797.7784
        46.3004         43.5004
  -7205413.46244  -5600755.37846  23608869.396    23608868.7254   23608869.6584
        40.9004         38.5004
 -18870319.83347 -14679909.90747  20568909.433    20568908.5514   20568908.7844
        50.3004         47.5004
  -9591428.45746  -7460944.36447  20785463.696    20785462.9314   20785464.3004
        47.7004         44.7004
 -20141535.61947 -15669961.46647  20303849.155    20303849.8354   20303854.6214
        50.7004         47.7004
  -9294175.66345  -7220044.16846  22672181.205    22672181.8494   22672183.0274
        44.4004         41.6004
   -934764.05942   -711709.95645  24365631.104    24365632.2474   24365638.5964
        37.1004         35.2004
   4979710.33642   3900676.42845  24567595.411    24567595.7984   24567600.6324
        37.1004         35.2004
  -6905881.11644  -5362428.94646  23326088.011    23326087.2774   23326088.4604
        41.1004         38.6004
 -18380015.27147 -14304559.79548  20342130.864    20342131.1134   20342136.4704
        51.4004         48.2004
 18  3 26  1 39 30.0000000  0 11G14G18G19G22G11G03G17G32G08G23G01
  -5776850.12444  -4481470.03646  22632191.313    22632190.1544   22632193.3104
        42.3004         39.7004
  -9270099.80145  -7205916.99047  21360628.252    21360628.4374   21360631.3884
        46.3004         43.5004
  -7298782.33544  -5673510.31446  23591102.576    23591101.3984   23591102.0274
        41.1004         38.5004
 -18851357.12147 -14665133.76747  20572517.734    20572516.7334   20572517.0874
        50.3004         47.5004
  -9525467.41646  -7409546.16347  20798015.163    20798015.1554   20798015.5424
        47.5004         44.7004
 -20164081.93647 -15687530.01847  20299559.437    20299559.7484   20299564.2084
        50.7004         47.8004
  -9359285.00145  -7270778.71946  22659791.941    22659792.3444   22659793.5354
        44.4004         41.4004
   -841416.39843   -638971.51445  24383396.972    24383397.0494   24383402.5884
        37.6004         35.5004
   5094467.30842   3990097.46045  24589432.359    24589433.0234   24589438.0414
        37.1004         35.0004
  -7004540.73644  -5439306.57046  23307312.415    23307312.1844   23307313.6104
        41.1004         38.6004
 -18351426.36647 -14282282.73148  20347571.253    20347571.4214   20347576.6944
        51.2004         48.2004
 18  3 26  1 40  0.0000000  0 11G14G18G19G22G11G03G17G32G08G23G01
  -5723237.56944  -4439694.00346  22642392.764    22642392.1944   22642394.3524
        42.3004         39.7004
  -9191813.62645  -7144914.78647  21375525.009    21375525.0484   21375528.1814
        46.3004         43.3004
  -7391796.99144  -5745989.27746  23573400.995    23573400.4954   23573401.7974
        40.8004         38.1004
 -18832036.47647 -14650078.72647  20576194.077    20576193.1834   20576193.7974
        50.3004         47.3004
  -9459023.48446  -7357771.67147  20810658.973    20810659.0764   20810660.0554
        47.5004         44.5004
 -20186210.54847 -15704773.09448  20295348.452    20295348.9584   20295353.3094
        50.8004         48.0004
  -9423962.95845  -7321177.14246  22647484.209    22647484.5134   22647486.0924
        44.4004         41.4004
   -747787.38343   -566013.81945  24401213.960    24401214.8014   24401219.1174
        37.6004         35.7004
   5209272.35842   4079555.92645  24611282.899    24611280.6744   24611284.2944
        37.0004         35.0004
  -7103004.46144  -5516031.52846  23288576.373    23288577.0234   23288577.2344
        41.3004         38.6004
 -18322417.69347 -14259678.58048  20353091.469    20353091.6554   20353096.6794
        51.2004         48.0004
 18  3 26  1 40 30.0000000  0 11G14G18G19G22G11G03G17G32G08G23G01
  -5669155.25044  -4397551.93546  22652683.088    22652683.4904   22652686.2334
        42.3004         39.7004
  -9113192.95145  -7083651.93447  21390486.333    21390486.3294   21390489.7044
        46.2004         43.3004
  -7484454.49144  -5818189.94546  23555769.452    23555768.7554   23555770.5114
        40.9004         38.3004
 -18812358.94447 -14634745.58347  20579938.131    20579937.8954   20579938.4244
        50.2004         47.3004
  -9392098.14746  -7305622.07247  20823394.212    20823394.0824   20823395.5734
        47.4004         44.4004
 -20207921.63047 -15721690.81548  20291217.088    20291217.4874   20291221.8984
        51.0004         48.0004
  -9488207.16645  -7371237.56246  22635258.428    22635260.0664   22635261.0394
        44.4004         41.8004
   -653879.56243   -492838.88045  24419082.814    24419083.6374   24419090.0974
        37.6004         35.3004
   5324122.80942   4169049.77945  24633138.032    24633134.4344   24633139.3514
        36.6004         34.5004
  -7201270.20644  -5592602.20846  23269877.154    23269876.9484   23269876.8664
        41.5004         38.6004
 -18292989.37047 -14236747.42448  20358691.317    20358691.5684   20358696.9704
        51.0004         48.2004
 18  3 26  1 41  0.0000000  0 11G14G18G19G22G11G03G17G32G08G23G01
  -5614604.76344  -4355045.06446  22663064.076    22663063.8784   22663066.9534
        42.3004         39.5004
  -9034239.22345  -7022129.56547  21405509.319    21405509.8764   21405514.2164
        46.0004         43.2004
  -7576751.95944  -5890110.05246  23538205.489    23538205.0274   23538206.0854
        41.1004         38.5004
 -18792325.85247 -14619135.38547  20583751.192    20583750.2084   20583750.6984
        50.2004         47.5004
  -9324692.92546  -7253098.51947  20836220.653    20836220.1324   20836222.4534
        47.4004         44.4004
 -20229215.30247 -15738283.28448  20287164.922    20287165.4094   20287169.9624
        51.0004         48.0004
  -9552015.30045  -7420958.19446  22623116.518    22623116.3364   22623118.0424
        44.4004         41.2004
   -559695.50742   -419448.71645  24437005.437    24437007.3104   24437011.0614
        37.5004         35.5004
   5439016.32842   4258577.16245  24654998.600    24654997.4804   24655004.3714
        36.3004         34.3004
  -7299335.44344  -5669016.64646  23251214.826    23251214.9264   23251216.1954
        41.3004         38.6004
 -18263141.46847 -14213489.33348  20364371.633    20364371.8044   20364376.5154
        51.0004         48.0004
 18  3 26  1 41 30.0000000  0 11G14G18G19G22G11G03G17G32G08G23G01
  -5559588.18444  -4312175.00146  22673533.778    22673534.0884   22673536.6454
        42.3004         39.9004
  -8954953.22945  -6960348.28247  21420597.845    21420598.2164   21420601.2394
        46.0004         43.3004
  -7668686.75344  -5961747.57646  23520711.828    23520711.4514   23520712.1924
        41.3004         38.8004
 -18771937.70447 -14603248.51947  20587630.861    20587629.7254   20587630.2104
        50.2004         47.3004
  -9256808.96946  -7200201.94147  20849138.226    20849138.2014   20849139.9984
        47.4004         44.4004
 -20250091.73447 -15754550.62648  20283191.873    20283192.5014   20283197.3424
        51.0004         48.0004
  -9615384.40645  -7470336.71746  22611056.763    22611058.1924   22611059.0154
        44.4004         41.8004
   -465237.86343   -345845.36745  24454981.647    24454982.0184   24454988.4154
        37.8004         35.5004
   5553950.39252   4348136.19555  24676861.685    24676865.1314   24676874.4324
        36.1004         34.1004
  -7397197.61444  -5745272.86546  23232592.056    23232592.2904   23232593.3854
        41.5004         38.8004
 -18232874.14947 -14189904.41948  20370131.293    20370131.6194   20370136.2634
        51.0004         48.2004
 18  3 26  1 42  0.0000000  0 11G14G18G19G22G11G03G17G32G08G23G01
  -5504107.36544  -4268943.19646  22684092.161    22684091.7214   22684094.5674
        42.5004         39.9004
  -8875336.25045  -6898309.08947  21435748.954    21435748.8824   21435752.6764
        46.2004         43.3004
  -7760255.99444  -6033100.21646  23503287.195    23503286.0574   23503287.2524
        41.6004         39.0004
 -18751195.56347 -14587085.81747  20591577.220    20591576.7784   20591577.4894
        50.2004         47.3004
  -9188448.00646  -7146933.66947  20862147.655    20862147.4904   20862149.0404
        47.4004         44.4004
 -20270551.08947 -15770492.96947  20279298.559    20279298.8724   20279303.5644
        50.8004         47.8004
  -9678314.00945  -7519372.77947  22599083.583    22599083.0964   22599084.8104
        44.6004         42.1004
   -370509.23943   -272030.85645  24473008.173    24473008.8124   24473012.0984
        37.6004         35.3004
   5668922.54552   4437724.88555  24698740.156    24698745.4424   24698754.7584
        35.7004         34.0004
  -7494855.38344  -5821369.81746  23214010.112    23214009.6124   23214009.8764
        41.6004         39.0004
 -18202187.47447 -14165992.72948  20375970.788    20375970.9834   20375975.9554
        51.2004         48.0004
 18  3 26  1 42 30.0000000  0 11G14G18G19G22G11G03G17G32G08G23G01
  -5448164.11444  -4225351.04546  22694736.966    22694736.9334   22694739.1364
        42.5004         39.7004
  -8795389.57045  -6836012.98147  21450962.154    21450962.4984   21450965.4684
        46.3004         43.5004
  -7851456.62544  -6104165.63246  23485932.465    23485930.6264   23485931.8524
        41.6004         38.8004
 -18730100.24847 -14570647.91147  20595591.635    20595590.9234   20595591.5734
        50.2004         47.3004
  -9119611.54046  -7093294.86847  20875246.878    20875246.2484   20875248.3654
        47.4004         44.4004
 -20290593.53447 -15786110.44547  20275484.243    20275484.7544   20275489.8044
        50.8004         47.8004
  -9740801.26445  -7568064.14447  22587191.868    22587191.3874   22587192.8534
        44.9004         42.1004
   -275512.14943   -198007.15345  24491085.582    24491086.2904   24491090.0824
        37.6004         35.5004
   5783930.33852   4527341.32655  24720632.016    24720632.0184   24720638.5954
        36.1004         34.3004
  -7592306.12744  -5897305.44446  23195465.703    23195465.3644   23195465.4004
        41.6004         39.2004
 -18171081.62447 -14141754.41448  20381890.079    20381890.3174   20381895.4384
        51.0004         48.0004
 18  3 26  1 43  0.0000000  0 11G14G18G19G22G11G03G17G32G08G23G01
  -5391760.36144  -4181400.06446  22705471.185    22705470.7204   22705474.3614
        42.7004         40.0004
  -8715114.62745  -6773461.09047  21466237.700    21466238.4704   21466241.1504
        46.3004         43.5004
  -7942285.86144  -6174941.64946  23468647.745    23468646.3914   23468647.6954
        41.5004         38.6004
 -18708652.41547 -14553935.31247  20599672.707    20599672.1894   20599673.1534
        50.2004         47.3004
  -9050301.33446  -7039286.92447  20888435.393    20888434.8754   20888438.1234
        47.4004         44.4004
 -20310219.27747 -15801403.22647  20271749.662    20271750.2364   20271755.0994
        50.8004         47.8004
  -9802843.66345  -7616408.88047  22575385.525    22575385.5864   22575387.1014
        45.1004         42.5004
   -180249.24343   -123776.33545  24509214.830    24509214.2944   24509217.9764
        37.6004         35.5004
   5898971.65152   4616983.89255  24742519.583    24742521.8914   24742528.4964
        35.9004         34.1004
  -7689547.29744  -5973077.75346  23176959.813    23176959.6844   23176961.0714
        41.8004         39.0004
 -18139556.73647 -14117189.56948  20387888.677    20387888.9284   20387894.5354
        51.0004         48.0004
 18  3 26  1 43 30.0000000  0 11G14G18G19G22G11G03G17G32G08G23G01
  -5334898.03744  -4137091.75846  22716292.631    22716291.8864   22716294.1534
        42.7004         40.0004
  -8634512.13445  -6710653.96447  21481576.673    21481576.7114   21481579.3274
        46.3004         43.5004
  -8032740.95844  -6245426.13746  23451435.086    23451434.2054   23451434.3334
        41.5004         38.8004
 -18686852.90947 -14536948.68447  20603821.734    20603820.8204   20603821.3734
        50.2004         47.3004
  -8980518.89846  -6984911.00747  20901715.408    20901714.8664   20901716.8054
        47.4004         44.5004
 -20329428.46747 -15816371.41948  20268094.507    20268094.9544   20268099.7584
        50.8004         48.0004
  -9864439.00345  -7664405.24747  22563664.565    22563664.8894   22563666.3814
        45.5004         42.6004
    -84723.09643    -49340.35645  24527392.144    24527392.0344   24527394.9474
        37.6004         35.3004
   6014044.04742   4706650.67245  24764419.420    24764419.9534   24764427.8584
        36.3004         34.6004
  -7786577.15844  -6048685.41246  23158495.709    23158496.0274   23158496.9384
        41.8004         39.2004
 -18107612.93647 -14092298.30648  20393967.742    20393967.7704   20393972.9174
        51.0004         48.0004
 18  3 26  1 44  0.0000000  0 11G14G18G19G22G11G03G17G32G08G23G01
  -5277578.86744  -4092427.46846  22727200.180    22727199.8504   22727200.9514
        42.7004         39.7004
  -8553583.57945  -6647592.76447  21496976.979    21496976.4744   21496979.5984
        46.3004         43.5004
  -8122818.82744  -6315616.68646  23434293.128    23434291.6834   23434293.2684
        41.3004         38.6004
 -18664702.81347 -14519688.86547  20608036.817    20608035.9444   20608036.2044
        50.2004         47.2004
  -8910265.75246  -6930168.30247  20915083.543    20915083.4634   20915085.7624
        47.4004         44.5004
 -20348221.32847 -15831015.20548  20264518.531    20264519.1014   20264523.7834
        51.0004         48.0004
  -9925585.53345  -7712051.89147  22552028.425    22552028.7864   22552029.8044
        45.5004         42.6004
     11063.70843     25298.70745  24545620.599    24545620.0294   24545623.2734
        37.6004         35.3004
   6129144.65842   4796339.45145  24786322.080    24786323.7934   24786331.8444
        37.0004         35.0004
  -7883393.24244  -6124126.50246  23140073.613    23140073.1114   23140073.9604
        41.8004         39.2004
 -18075250.40247 -14067080.76048  20400126.357    20400126.5234   20400131.7244
        51.0004         48.0004
 18  3 26  1 44 30.0000000  0 11G14G18G19G22G11G03G17G32G08G23G01
  -5219804.68344  -4047408.62446  22738193.878    22738193.6094   22738194.7164
        42.3004         39.9004
  -8472330.19445  -6584278.43947  21512438.832    21512439.0734   21512441.6234
        46.3004         43.2004
  -8212516.84544  -6385511.23246  23417224.198    23417223.9714   23417224.8814
        41.6004         39.2004
 -18642203.25347 -14502156.74147  20612318.169    20612317.4944   20612317.9584
        50.2004         47.2004
  -8839543.61246  -6875060.15747  20928542.609    20928541.7344   20928543.1534
        47.4004         44.5004
 -20366598.07347 -15845334.74948  20261021.792    20261022.1864   20261026.5044
        51.0004         48.0004
  -9986280.80345  -7759346.90347  22540478.170    22540478.7524   22540480.5434
        45.3004         42.3004
    107108.57942    100138.86545  24563896.912    24563896.7994   24563901.2114
        37.3004         35.3004
   6244271.64742   4886048.81445  24808232.285    24808231.5414   24808239.2284
        37.1004         35.2004
  -7979993.22744  -6199399.19846  23121691.313    23121690.2354   23121691.2124
        42.0004         39.5004
 -18042469.30847 -14041537.05648  20406364.251    20406364.3344   20406369.5134
        51.0004         48.0004
 18  3 26  1 45  0.0000000  0 11G14G18G19G22G11G03G17G32G08G23G01
  -5161577.89244  -4002037.10346  22749273.785    22749273.9934   22749274.8834
        42.3004         39.3004
  -8390753.06445  -6520711.86147  21527963.066    21527962.7514   21527965.7274
        46.2004         43.3004
  -8301832.27744  -6455107.66446  23400228.529    23400227.1144   23400227.9834
        41.8004         39.2004
 -18619354.48947 -14484352.51447  20616666.574    20616665.4604   20616665.9974
        50.2004         47.2004
  -8768354.25546  -6819587.94447  20942089.281    20942088.5574   20942090.1154
        47.4004         44.5004
 -20384558.88047 -15859330.18048  20257603.941    20257604.2024   20257608.5844
        51.0004         48.0004
 -10046522.55445  -7806288.52547  22529015.192    22529015.1614   22529016.4484
        45.1004         42.1004
    203408.94442    175178.13645  24582220.959    24582222.2824   24582225.3514
        37.5004         35.3004
   6359422.35042   4975776.64845  24830148.448    24830145.4674   24830150.3514
        37.3004         35.3004
  -8076375.24544  -6274502.04546  23103349.095    23103350.2994   23103349.9454
        42.2004         39.7004
 -18009269.82247 -14015667.34048  20412682.186    20412681.9384   20412687.4364
        51.0004         48.0004
 18  3 26  1 45 30.0000000  0 11G14G18G19G22G11G03G17G32G08G23G01
  -5102900.32044  -3956314.30446  22760440.070    22760439.2454   22760440.6954
        42.2004         39.5004
  -8308853.49845  -6456894.02047  21543546.155    21543546.9294   21543550.7064
        46.2004         43.2004
  -8390762.09944  -6524403.62546  23383304.145    23383304.0534   23383305.8604
        41.6004         38.8004
 -18596157.71347 -14466277.09447  20621080.782    20621079.6434   20621080.1914
        50.2004         47.2004
  -8696698.80646  -6763752.53547  20955722.728    20955723.7594   20955725.9634
        47.4004         44.5004
 -20402104.00147 -15873001.70148  20254264.774    20254265.2504   20254269.8534
        51.0004         48.0004
 -10106309.09445  -7852875.44347  22517637.757    22517637.9584   22517639.3204
        44.9004         42.1004
    299962.16643    250414.37645  24600596.488    24600596.2394   24600600.3804
        37.8004         35.9004
   6474594.46642   5065521.12245  24852066.594    24852063.6804   24852068.3974
        37.3004         35.2004
  -8172536.92844  -6349433.21446  23085050.596    23085051.3584   23085051.6254
        42.3004         39.7004
 -17975652.11547 -13989471.73147  20419078.940    20419079.0674   20419084.5654
        50.8004         47.8004
 18  3 26  1 46  0.0000000  0 11G14G18G19G22G11G03G17G32G08G23G01
  -5043773.66544  -3910241.59346  22771690.730    22771690.8964   22771692.0604
        42.2004         39.5004
  -8226632.73645  -6392825.89847  21559193.118    21559192.9934   21559196.6954
        46.0004         43.2004
  -8479303.50744  -6593396.94946  23366456.754    23366455.9844   23366455.7664
        41.1004         38.1004
 -18572613.85547 -14447931.23747  20625560.441    20625559.6954   20625560.2924
        50.0004         47.2004
  -8624579.09846  -6707555.37547  20969448.898    20969448.2174   20969449.5934
        47.4004         44.5004
 -20419233.63947 -15886349.47448  20251005.275    20251005.7504   20251010.1234
        51.0004         48.0004
 -10165638.13545  -7899105.86246  22506346.983    22506347.4584   22506348.9614
        44.9004         41.9004
    396765.71543    325845.74945  24619016.217    24619016.8414   24619019.9994
        37.6004         35.5004
   6589785.48742   5155280.39945  24873979.038    24873980.7824   24873989.2084
        37.3004         35.2004
  -8268476.12644  -6424191.01846  23066795.455    23066794.9684   23066795.1874
        42.7004         39.9004
 -17941616.41347 -13962950.40847  20425555.634    20425555.8034   20425560.9574
        50.8004         47.8004
 18  3 26  1 46 30.0000000  0 11G14G18G19G22G11G03G17G32G08G23G01
  -4984200.30244  -3863820.78346  22783028.000    22783026.7174   22783029.9424
        42.2004         39.5004
  -8144091.94445  -6328508.41747  21574901.219    21574900.6484   21574903.4894
        45.8004         42.8004
  -8567453.77243  -6662085.46646  23349681.400    23349680.7354   23349681.5454
        40.3004         37.3004
 -18548723.90247 -14429315.69147  20630106.417    20630105.4594   20630106.1834
        50.0004         47.0004
  -8551996.78146  -6650997.72947  20983259.839    20983259.8674   20983261.8804
        47.4004         44.4004
 -20435948.06047 -15899373.69648  20247824.752    20247825.1774   20247829.7634
        51.0004         48.0004
 -10224507.48945  -7944978.08947  22495145.097    22495145.3514   22495147.1764
        45.1004         42.5004
    493817.00742    401470.13545  24637483.969    24637484.7084   24637486.9384
        37.5004         35.3004
   6704993.01343   5245052.51445  24895901.881    24895905.2104   24895910.6084
        37.6004         35.5004
  -8364190.75344  -6498773.81246  23048581.075    23048580.9724   23048581.5774
        42.7004         40.0004
 -17907162.87547 -13936103.50747  20432112.199    20432112.1954   20432117.1394
        50.8004         47.8004
 18  3 26  1 47  0.0000000  0 11G14G18G19G22G11G03G17G32G08G23G01
  -4924181.96044  -3817053.23546  22794448.974    22794448.4254   22794450.0764
        42.2004         39.3004
  -8061232.37045  -6263942.51947  21590667.447    21590667.5464   21590670.6864
        45.6004         42.6004
  -8655210.03943  -6730466.97646  23332982.124    23332981.4434   23332981.7384
        39.7004         37.3004
 -18524488.47447 -14410430.94447  20634718.782    20634717.8664   20634718.1484
        49.8004         47.0004
  -8478953.70546  -6594081.05547  20997159.616    20997159.2384   20997162.1944
        47.2004         44.4004
 -20452247.47547 -15912074.53148  20244723.604    20244723.7384   20244728.3814
        51.0004         48.2004
 -10282914.63645  -7990490.15547  22484031.277    22484032.0514   22484033.1764
        45.5004         42.8004
    591113.40442    477285.52145  24655997.771    24655998.6934   24656001.8394
        37.5004         35.3004
   6820214.92142   5334835.81945  24917835.276    24917832.2224   24917839.0154
        37.3004         35.2004
  -8459678.42644  -6573179.77546  23030410.986    23030411.0644   23030411.1614
        42.9004         40.0004
 -17872291.73347 -13908931.19147  20438747.572    20438748.0184   20438752.9704
        50.8004         47.8004
 18  3 26  1 47 30.0000000  0 11G14G18G19G22G11G03G17G32G08G23G01
  -4863720.31444  -3769940.25346  22805954.661    22805954.4114   22805955.7674
        42.0004         39.3004
  -7978055.45545  -6199129.35247  21606495.505    21606496.1414   21606498.7624
        45.5004         42.6004
  -8742569.63543  -6798539.39246  23316358.291    23316357.7414   23316358.0154
        40.1004         37.8004
 -18499908.72547 -14391277.89947  20639396.007    20639395.0224   20639395.8514
        49.8004         47.2004
  -8405451.63446  -6536806.72847  21011146.158    21011146.0524   21011148.8654
        47.2004         44.4004
 -20468132.14947 -15924452.20348  20241700.820    20241701.0794   20241705.3244
        51.2004         48.2004
 -10340858.46445  -8035641.18847  22473004.620    22473004.9684   22473006.6234
        45.6004         42.8004
    688652.44442    553289.94545  24674558.267    24674559.5024   24674563.1814
        37.1004         35.0004
   6935448.38742   5424628.09645  24939763.388    24939762.5254   24939765.6084
        37.3004         35.0004
  -8554937.15244  -6647407.32946  23012285.401    23012284.0344   23012282.8394
        42.9004         40.2004
 -17837003.23447 -13881433.66247  20445462.597    20445463.0564   20445468.3904
        50.8004         47.8004
 18  3 26  1 48  0.0000000  0 11G14G18G19G22G11G03G17G32G08G23G01
  -4802817.90144  -3722483.83646  22817543.301    22817543.4074   22817544.7134
        42.0004         39.2004
  -7894562.30945  -6134069.76347  21622384.385    21622383.9724   21622386.6464
        45.3004         42.5004
  -8829529.88044  -6866300.59146  23299811.216    23299810.3994   23299811.5544
        40.6004         38.3004
 -18474985.15047 -14371856.93647  20644138.138    20644137.6454   20644138.4474
        49.8004         47.0004
  -8331491.88246  -6479175.75747  21025220.266    21025220.3754   21025223.1214
        47.2004         44.4004
 -20483602.32647 -15936506.88748  20238756.651    20238757.0964   20238761.4164
        51.2004         48.2004
 -10398336.68745  -8080429.40147  22462066.419    22462066.8784   22462068.9094
        45.6004         42.6004
    786431.39942    629481.37045  24693164.456    24693166.3454   24693168.8794
        37.1004         35.2004
   7050691.26642   5514427.74645  24961692.908    24961691.3384   24961695.1044
        37.1004         35.0004
  -8649964.68044  -6721454.73746  22994201.624    22994199.3314   22994200.2874
        42.9004         40.0004
 -17801297.56847 -13853611.06848  20452256.897    20452257.5304   20452262.9314
        51.0004         48.0004
 18  3 26  1 48 30.0000000  0 11G14G18G19G22G11G03G17G32G08G23G01
  -4741476.54144  -3674685.36746  22829216.018    22829216.1604   22829217.7764
        42.0004         39.2004
  -7810754.29445  -6068764.82547  21638332.519    21638332.6524   21638335.0244
        45.3004         42.3004
  -8916087.52844  -6933748.09946  23283339.504    23283338.3664   23283339.9584
        40.8004         38.3004
 -18449718.82247 -14352168.89547  20648947.107    20648946.0324   20648946.5074
        49.8004         47.2004
  -8257076.12946  -6421189.47047  21039381.940    21039381.5174   21039383.9004
        47.4004         44.4004
 -20498658.28847 -15948238.80048  20235891.496    20235891.9204   20235896.5984
        51.0004         48.0004
 -10455347.01245  -8124853.02447  22451218.324    22451218.0524   22451219.9004
        45.6004         42.8004
    884447.81042    705857.80145  24711817.236    24711819.1054   24711822.4914
        37.3004         35.2004
   7165940.92942   5604232.71345  24983621.893    24983621.8504   24983626.7614
        37.1004         35.0004
  -8744758.76844  -6795320.24446  22976160.554    22976160.4024   22976161.0994
        42.7004         39.9004
 -17765174.97047 -13825463.59848  20459131.903    20459131.8724   20459137.2564
        51.0004         48.2004
 18  3 26  1 49  0.0000000  0 11G14G18G19G22G11G03G17G32G08G23G01
  -4679698.27744  -3626546.45846  22840972.366    22840971.9804   22840973.9094
        42.2004         39.5004
  -7726632.34445  -6003215.24647  21654338.646    21654339.6244   21654342.7754
        45.1004         42.1004
  -9002239.87644  -7000879.79046  23266945.444    23266944.2524   23266945.5334
        40.8004         37.9004
 -18424110.67847 -14332214.50647  20653820.114    20653819.0604   20653819.6414
        50.0004         47.2004
  -8182206.41146  -6362849.43347  21053629.210    21053628.6354   21053630.6534
        47.2004         44.2004
 -20513300.31647 -15959648.16248  20233104.956    20233105.3554   20233110.3234
        51.0004         48.2004
 -10511886.94445  -8168910.12447  22440459.656    22440459.7314   22440460.5214
        45.8004         42.8004
    982699.04142    782417.20745  24730514.898    24730515.0924   24730516.8304
        37.3004         35.2004
   7281195.19842   5694041.22445  25005551.636    25005551.5894   25005558.9124
        36.6004         34.5004
  -8839317.36344  -6869002.24846  22958167.649    22958166.0274   22958167.7004
        42.5004         39.7004
 -17728635.71147 -13796991.45048  20466084.322    20466084.6144   20466090.4614
        51.2004         48.2004
 18  3 26  1 49 30.0000000  0 11G14G18G19G22G11G03G17G32G08G23G01
  -4617485.43844  -3578068.90846  22852810.496    22852810.2564   22852812.8854
        42.2004         39.5004
  -7642197.88645  -5937422.17447  21670407.475    21670407.4354   21670410.3904
        44.9004         42.1004
  -9087984.38043  -7067693.69946  23250628.678    23250627.3334   23250628.5644
        40.4004         37.9004
 -18398161.45747 -14311994.34047  20658758.147    20658757.4874   20658757.7064
        50.0004         47.2004
  -8106884.31246  -6304156.90047  21067962.993    21067962.1354   21067963.9754
        47.2004         44.2004
 -20527528.70047 -15970735.20448  20230397.304    20230397.9084   20230402.5854
        51.2004         48.2004
 -10567954.88245  -8212599.42647  22429789.526    22429789.3994   22429791.8854
        45.8004         42.8004
   1081182.55442    859157.63445  24749255.663    24749255.4394   24749259.6124
        37.0004         34.8004
   7396451.58252   5783851.38855  25027481.107    25027483.6984   25027489.0974
        36.4004         34.6004
  -8933638.24944  -6942499.01346  22940217.511    22940217.3774   22940217.8424
        42.2004         39.3004
 -17691680.04847 -13768194.83848  20473116.871    20473117.2884   20473122.7204
        51.0004         48.0004
 18  3 26  1 50  0.0000000  0 11G14G18G19G22G11G03G17G32G08G23G01
  -4554839.87344  -3529254.19246  22864732.017    22864732.0664   22864734.5374
        42.3004         39.7004
  -7557452.22245  -5871386.60847  21686533.770    21686534.3374   21686537.0954
        44.9004         42.1004
  -9173318.17543  -7134187.57346  23234389.851    23234389.7054   23234389.6924
        40.4004         37.8004
 -18371872.45647 -14291509.40747  20663760.808    20663759.9154   20663760.1454
        50.0004         47.0004
  -8031111.70046  -6245113.31547  21082381.621    21082380.9434   21082383.2164
        47.0004         44.2004
 -20541343.67647 -15981500.11948  20227768.760    20227769.1854   20227773.6894
        51.2004         48.4004
 -10623549.05745  -8255919.54847  22419209.731    22419209.8674   22419212.4074
        45.5004         42.6004
   1179895.75942    936077.04345  24768041.337    24768041.6344   24768044.2014
        36.4004         34.6004
   7511708.05942   5873661.63645  25049415.654    25049417.4594   25049424.7624
        36.6004         34.6004
  -9027719.29044  -7015808.89746  22922314.867    22922314.7784   22922314.5864
        42.0004         39.2004
 -17654308.19847 -13739073.92848  20480228.824    20480228.9114   20480234.3514
        51.0004         48.0004
 18  3 26  1 50 30.0000000  0 11G14G18G19G22G11G03G17G32G08G23G01
  -4491763.32644  -3480103.62746  22876734.018    22876733.6494   22876738.1384
        42.3004         39.7004
  -7472396.69445  -5805109.56847  21702720.180    21702719.5874   21702723.5644
        44.9004         42.1004
  -9258238.15143  -7200359.00446  23218230.264    23218229.7554   23218230.6724
        40.4004         37.9004
 -18345244.45747 -14270760.30947  20668827.410    20668826.6284   20668827.4944
        49.8004         47.0004
  -7954890.16546  -6185719.92547  21096886.559    21096886.1714   21096887.4154
        47.0004         44.2004
 -20554745.59347 -15991943.16848  20225218.476    20225218.6974   20225223.4114
        51.2004         48.4004
 -10678667.31145  -8298868.82347  22408721.669    22408721.6894   22408723.9184
        45.6004         42.8004
   1278836.13742   1013173.42045  24786868.845    24786867.8624   24786872.4734
        36.6004         34.8004
   7626962.09742   5963469.95745  25071347.459    25071348.9034   25071353.7424
        36.8004         34.8004
  -9121558.37044  -7088930.23246  22904458.637    22904458.0004   22904457.6774
        41.8004         39.3004
 -17616520.49647 -13709628.97148  20487419.488    20487419.7224   20487425.0144
        50.8004         48.0004
 18  3 26  1 51  0.0000000  0 11G14G18G19G22G11G03G17G32G08G23G01
  -4428258.24644  -3430619.14246  22888819.081    22888819.4644   22888821.9484
        42.3004         39.5004
  -7387032.66045  -5738592.15247  21718964.215    21718964.0724   21718967.6724
        45.1004         42.3004
  -9342741.83643  -7266206.00446  23202149.905    23202148.8264   23202150.6224
        40.4004         38.1004
 -18318278.15647 -14249747.61247  20673958.784    20673958.0634   20673958.8984
        49.8004         47.0004
  -7878221.48246  -6125978.10347  21111475.334    21111475.1954   21111476.6414
        47.0004         44.0004
 -20567734.70847 -16002064.54448  20222746.527    20222746.8984   20222751.6774
        51.2004         48.4004
 -10733307.28945  -8341445.42647  22398323.736    22398324.0164   22398325.8224
        45.6004         42.6004
   1378001.11442   1090444.81445  24805739.306    24805740.8734   24805741.2114
        36.4004         34.5004
   7742211.28742   6053274.50445  25093282.596    25093279.9034   25093286.9284
        36.8004         34.8004
  -9215153.16044  -7161861.21946  22886648.180    22886647.3874   22886649.0254
        42.0004         39.5004
 -17578317.18347 -13679860.16347  20494689.247    20494689.5214   20494694.8434
        50.8004         47.8004
 18  3 26  1 51 30.0000000  0 11G14G18G19G22G11G03G17G32G08G23G01
  -4364326.56944  -3380802.23946  22900985.131    22900984.8394   22900988.3684
        42.2004         39.5004
  -7301361.32945  -5671835.28147  21735266.185    21735266.2164   21735269.9634
        44.9004         42.1004
  -9426826.49344  -7331726.52346  23186150.563    23186148.2844   23186148.3214
        40.6004         38.1004
 -18290974.51147 -14228472.03647  20679154.902    20679153.8434   20679154.2664
        49.8004         46.8004
  -7801107.54646  -6065889.32547  21126149.844    21126149.3344   21126151.2954
        46.9004         43.9004
 -20580311.36747 -16011864.53048  20220353.533    20220353.8964   20220358.4394
        51.4004         48.4004
 -10787467.05845  -8383647.83847  22388017.152    22388018.0094   22388019.3994
        45.6004         42.6004
   1477387.99642   1167889.20145  24824653.453    24824653.4444   24824654.4294
        36.6004         34.8004
   7857453.40242   6143073.52345  25115217.672    25115212.3344   25115215.5594
        36.8004         35.0004
  -9308501.66844  -7234600.29846  22868883.712    22868882.6464   22868883.6374
        42.2004         39.5004
 -17539698.54947 -13649767.72947  20502038.570    20502038.4804   20502043.2894
        50.8004         47.8004
 18  3 26  1 52  0.0000000  0 11G14G18G19G22G11G03G17G32G08G23G01
  -4299970.47344  -3330654.62446  22913231.645    22913231.4284   22913234.7244
        42.2004         39.3004
  -7215384.06445  -5604840.01746  21751627.910    21751627.6294   21751630.8514
        44.9004         41.9004
  -9510489.22844  -7396918.22646  23170228.912    23170227.2694   23170228.8314
        40.6004         38.1004
 -18263334.42647 -14206934.32447  20684414.867    20684413.8134   20684414.4004
        49.8004         47.0004
  -7723550.09046  -6005454.94947  21140907.860    21140908.0974   21140909.7004
        46.9004         43.7004
 -20592475.87447 -16021343.35648  20218038.580    20218038.7534   20218043.5064
        51.4004         48.4004
 -10841145.05845  -8425474.84947  22377802.932    22377802.7264   22377804.9154
        45.6004         42.8004
   1576994.44842   1245504.61645  24843609.512    24843607.0734   24843611.2154
        36.6004         34.6004
   7972685.46742   6232864.74545  25137142.091    25137140.2204   25137144.3634
        36.8004         34.8004
  -9401601.57444  -7307145.66046  22851167.547    22851167.4084   22851167.2034
        42.3004         39.7004
 -17500664.88247 -13619351.89347  20509465.691    20509466.1004   20509471.2514
        50.7004         47.7004
 18  3 26  1 52 30.0000000  0 11G14G18G19G22G11G03G17G32G08G23G01
  -4235191.90044  -3280177.81846  22925559.073    22925558.8664   22925561.3854
        42.0004         39.3004
  -7129102.02645  -5537607.27746  21768046.432    21768046.8324   21768049.3614
        44.9004         41.9004
  -9593727.40644  -7461779.18446  23154388.593    23154388.0664   23154388.8214
        40.9004         38.6004
 -18235358.74947 -14185135.09647  20689738.463    20689737.2934   20689737.8884
        49.8004         47.0004
  -7645550.81346  -5944676.30247  21155751.262    21155751.1254   21155752.8904
        46.7004         43.9004
 -20604228.54047 -16030501.26748  20215802.004    20215802.3354   20215807.1144
        51.4004         48.4004
 -10894339.18245  -8466924.82747  22367680.152    22367680.5054   22367682.8344
        45.5004         42.6004
   1676817.77242   1323288.97845  24862601.299    24862603.1404   24862605.8144
        37.0004         35.0004
   8087905.67542   6322646.72445  25159062.156    25159064.9934   25159070.2664
        36.8004         34.6004
  -9494451.15044  -7379495.93646  22833499.220    22833498.5114   22833498.4064
        42.5004         40.0004
 -17461216.51947 -13588612.91947  20516972.752    20516973.0564   20516977.9604
        50.7004         47.7004
 18  3 26  1 53  0.0000000  0 11G14G18G19G22G11G03G17G32G08G23G01
  -4169992.89944  -3229373.40246  22937965.694    22937965.2634   22937968.0584
        41.8004         39.2004
  -7042516.42745  -5470137.98346  21784523.792    21784523.7104   21784526.6934
        44.8004         41.9004
  -9676538.32144  -7526307.19346  23138630.668    23138629.5894   23138630.8884
        41.5004         38.8004
 -18207048.58747 -14163075.22947  20695125.704    20695124.9024   20695124.8554
        49.8004         46.8004
  -7567111.49946  -5883554.76547  21170676.960    21170676.5994   21170679.6144
        46.7004         43.9004
 -20615569.76447 -16039338.57248  20213643.869    20213644.3294   20213648.5834
        51.4004         48.4004
 -10947047.39845  -8507996.16347  22357650.978    22357650.6654   22357652.9494
        45.6004         42.8004
   1776855.35442   1401240.35845  24881636.996    24881639.0364   24881640.2164
        36.6004         34.5004
   8203111.57142   6412417.53545  25180987.094    25180987.4804   25180992.7324
        37.0004         35.0004
  -9587048.03944  -7451649.32546  22815878.166    22815877.3934   22815878.1894
        42.7004         40.2004
 -17421353.75047 -13557551.02647  20524558.119    20524558.3574   20524563.6294
        50.7004         47.7004
 18  3 26  1 53 30.0000000  0 11G14G18G19G22G11G03G17G32G08G23G01
  -4104375.72544  -3178243.14146  22950451.394    22950451.3464   22950454.7924
        41.8004         39.2004
  -6955628.72745  -5402433.28546  21801057.811    21801058.3434   21801060.7204
        44.6004         41.8004
  -9758918.90344  -7590499.86446  23122954.363    23122953.7534   23122954.6084
        41.6004         39.2004
 -18178405.13447 -14140755.66047  20700576.261    20700575.4164   20700575.6154
        49.8004         46.8004
  -7488234.17746  -5822091.91847  21185688.672    21185687.2774   21185689.3814
        46.7004         43.9004
 -20626499.77447 -16047855.44948  20211564.335    20211564.4464   20211568.5414
        51.2004         48.2004
 -10999267.87245  -8548687.43447  22347713.294    22347713.8214   22347715.4424
        45.6004         42.6004
   1877104.85142   1479356.89845  24900716.273    24900714.5044   24900721.3494
        36.6004         34.8004
   8318300.95042   6502175.50545  25202909.014    25202908.8064   25202912.8034
        37.3004         35.2004
  -9679390.10044  -7523604.16546  22798306.511    22798305.7484   22798306.4144
        42.9004         40.2004
 -17381076.91447 -13526166.49047  20532222.704    20532223.0894   20532228.3124
        50.7004         47.7004
 18  3 26  1 54  0.0000000  0 11G14G18G19G22G11G03G17G32G08G23G01
  -4038342.48144  -3126788.65146  22963018.725    22963018.0424   22963020.2244
        41.8004         39.0004
  -6868440.13745  -5334494.14346  21817648.800    21817649.3664   21817652.3914
        44.4004         41.6004
  -9840866.88144  -7654355.43846  23107359.353    23107358.5784   23107360.0154
        41.6004         39.0004
 -18149428.54147 -14118176.50347  20706089.972    20706089.2524   20706089.6894
        49.6004         46.8004
  -7408920.58946  -5760289.13247  21200780.201    21200780.3844   21200781.8464
        46.9004         43.9004
 -20637019.00047 -16056052.24448  20209561.921    20209562.4584   20209566.8794
        51.2004         48.4004
 -11050998.27945  -8588996.84847  22337870.104    22337870.4884   22337870.9974
        45.6004         42.8004
   1977563.54242   1557636.33745  24919831.388    24919832.6394   24919837.2484
        37.1004         35.2004
   8433471.30642   6591918.63845  25224825.377    25224822.7244   25224829.8454
        37.0004         34.8004
  -9771475.19444  -7595358.75546  22780783.270    22780783.0684   22780781.7154
        43.0004         40.4004
 -17340386.31747 -13494459.53347  20539965.002    20539965.5704   20539971.4544
        50.7004         47.7004
 18  3 26  1 54 30.0000000  0 11G14G18G19G22G11G03G17G32G08G23G01
  -3971895.21244  -3075011.56646  22975662.829    22975661.1714   22975664.6684
        41.6004         38.6004
  -6780952.17645  -5266321.70946  21834298.183    21834297.2884   21834300.3044
        44.2004         41.2004
  -9922379.28444  -7717871.58846  23091847.709    23091846.9284   23091848.5624
        41.5004         38.8004
 -18120119.92747 -14095338.62447  20711667.204    20711666.6084   20711666.9404
        49.6004         46.8004
  -7329172.58746  -5698147.83247  21215955.854    21215955.7974   21215957.4454
        46.7004         43.7004
 -20647127.75947 -16063929.20048  20207638.793    20207638.8984   20207643.5714
        51.4004         48.4004
 -11102237.13145  -8628923.22947  22328119.706    22328120.3214   22328120.3494
        45.6004         42.8004
   2078228.94542   1636076.93445  24938988.241    24938987.4844   24938989.9944
        36.8004         34.6004
   8548620.36642   6681645.14545  25246739.385    25246737.0074   25246741.0324
        36.6004         34.5004
  -9863301.24544  -7666911.50946  22763309.403    22763308.1204   22763309.2454
        43.0004         40.2004
 -17299282.34047 -13462430.47347  20547787.693    20547787.7354   20547793.4404
        50.7004         47.7004
