     2.11           OBSERVATION DATA    G (GPS)             RINEX VERSION / TYPE
teqc  2016Nov7                          20180328 12:56:15UTCPGM / RUN BY / DATE
Linux 2.4.21-27.ELsmp|Opteron|gcc|Linux x86_64|=+           COMMENT
teqc  2016Nov7                          20180328 12:56:14UTCCOMMENT
     2.11           OBSERVATION DATA    M (MIXED)           COMMENT
teqc  2016Nov7                          20180328 12:56:12UTCCOMMENT
teqc  2016Nov7      IGN-RGP             20180221 09:14:32UTCCOMMENT
teqc  2015Jun23     IGN-RGP             20180221 09:07:07UTCCOMMENT
Linux2.4.20-8|i386|gcc|Win32-MinGW32|=                      COMMENT
   0.000      (antenna height)                              COMMENT
 +48.74122643 (latitude)                                    COMMENT
  +3.11041611 (longitude)                                   COMMENT
0219.653      (elevation)                                   COMMENT
BIT 2 OF LLI FLAGS DATA COLLECTED UNDER A/S CONDITION       COMMENT
19602M001 (COGO code)                                       COMMENT
SXJ1                                                        MARKER NAME
19602M001                                                   MARKER NUMBER
Automatic           GIE COOP&TECH                           OBSERVER / AGENCY
4909K60865          TRIMBLE NETR5       4.70                REC # / TYPE / VERS
99999               TRM57971.00     NONE                    ANT # / TYPE
  4208047.3850   228666.9550  4771795.1550                  APPROX POSITION XYZ
        1.3000        0.0000        0.0000                  ANTENNA: DELTA H/E/N
     1     1                                                WAVELENGTH FACT L1/2
     7    L1    L2    C1    P1    P2    S1    S2            # / TYPES OF OBSERV
    30.0000                                                 INTERVAL
    18                                                      LEAP SECONDS
 SNR is mapped to RINEX snr flag value [0-9]                COMMENT
  L1 & L2: min(max(int(snr_dBHz/6), 0), 9)                  COMMENT
teqc_2016 edited: GLONASS # 25 - 30 excluded                COMMENT
Forced Modulo Decimation to 30 seconds                      COMMENT
teqc_2016 edited: all GLONASS satellites excluded           COMMENT
teqc_2016 edited: all SBAS satellites excluded              COMMENT
teqc_2016 edited: all Galileo satellites excluded           COMMENT
  2018     2    21     8     0    0.0000000     GPS         TIME OF FIRST OBS
                                                            END OF HEADER
 18  2 21  8  0  0.0000000  0  8G02G07G23G09G30G06G16G05
 115230956.784 7  89790376.68246  21927726.438                    21927727.531
        47.300          37.500
 113437978.608 8  88393275.29146  21586532.172                    21586536.164
        51.100          40.500
 118650452.771 8  92454954.20445  22578437.281                    22578439.445
        49.600          33.500
 106433586.123 8  82935321.51647  20253640.969                    20253647.355
        52.300          46.100
 120503795.856 7  93899142.64045  22931117.281                    22931124.551
        47.900          33.800
 111460946.894 8  86852742.51347  21210322.750                    21210330.055
        50.000          42.100
 127205877.695 6  99121497.77043  24206477.117                    24206480.238
        40.900          21.500
 124455639.321 7  96978451.03844  23683127.648                    23683131.168
        43.000          26.700
 18  2 21  8  0 30.0000000  0  8G02G07G23G09G30G06G16G05
 115205736.211 7  89770724.28146  21922927.031                    21922928.551
        47.900          37.900
 113371466.107 8  88341447.37746  21573875.445                    21573879.414
        51.900          40.600
 118726550.449 8  92514251.06545  22592918.742                    22592920.555
        48.300          33.200
 106465368.142 8  82960086.71847  20259689.344                    20259695.328
        52.100          46.000
 120400760.418 8  93818855.32445  22911509.961                    22911517.254
        48.000          34.200
 111518575.932 8  86897648.25446  21221289.055                    21221296.484
        50.000          41.800
 127181885.066 6  99102802.20643  24201910.273                    24201914.172
        40.400          21.100
 124357281.691 7  96901808.74944  23664410.633                    23664414.660
        43.900          28.000
 18  2 21  8  1  0.0000000  0  8G02G07G23G09G30G06G16G05
 115181049.252 7  89751487.69446  21918228.883                    21918230.652
        47.300          37.400
 113305379.593 8  88289951.39946  21561299.633                    21561303.551
        52.400          40.800
 118802824.259 8  92573685.19145  22607432.461                    22607434.797
        48.600          33.300
 106497525.206 8  82985144.17047  20265808.422                    20265814.535
        51.900          46.000
 120297950.693 7  93738743.87945  22891946.273                    22891952.973
        47.200          33.700
 111576725.956 8  86942959.95147  21232354.867                    21232362.680
        48.800          42.000
 127158470.498 6  99084557.10143  24197455.164                    24197458.965
        39.200          22.600
 124259029.190 7  96825248.36344  23645714.008                    23645718.313
        44.500          28.100
 18  2 21  8  1 30.0000000  0  8G02G07G23G09G30G06G16G05
 115156896.908 8  89732667.67546  21913633.047                    21913634.563
        48.300          37.600
 113239720.960 8  88238788.82846  21548805.258                    21548809.125
        52.300          41.000
 118879273.170 8  92633255.75245  22621980.438                    22621982.441
        49.300          32.600
 106530056.322 8  83010493.08447  20271998.664                    20272004.805
        52.100          45.900
 120195369.258 7  93658810.33245  22872425.828                    22872432.641
        47.200          34.600
 111635395.176 8  86988676.22346  21243519.516                    21243527.031
        49.900          41.800
 127135635.824 6  99066763.89143  24193110.016                    24193113.676
        41.100          22.600
 124160883.401 7  96748771.14244  23627037.648                    23627041.574
        43.900          28.100
 18  2 21  8  2  0.0000000  0  8G02G07G23G09G30G06G16G05
 115133280.144 8  89714265.00446  21909138.609                    21909140.379
        48.000          37.600
 113174492.097 8  88187961.15246  21536392.344                    21536396.719
        51.800          41.100
 118955896.137 8  92692961.93745  22636561.383                    22636563.285
        48.100          32.000
 106562960.220 8  83036132.47547  20278260.047                    20278266.246
        51.300          45.700
 120093018.564 7  93579056.57945  22852948.617                    22852955.871
        47.000          33.900
 111694581.534 8  87034795.45447  21254782.289                    21254789.902
        48.900          42.000
 127113381.821 7  99049423.08443  24188874.820                    24188877.238
        42.500          20.600
 124062846.506 7  96672378.74844  23608381.273                    23608385.273
        45.800          27.500
 18  2 21  8  2 30.0000000  0  8G02G07G23G09G30G06G16G05
 115110200.169 8  89696280.60546  21904747.141                    21904748.574
        48.000          37.700
 113109694.588 8  88137469.58846  21524061.758                    21524065.742
        51.100          40.300
 119032692.240 8  92752803.02945  22651175.188                    22651177.113
        48.100          32.600
 106596236.006 8  83062061.64547  20284592.484                    20284598.375
        52.000          45.300
 119990901.281 7  93499484.71145  22833516.633                    22833523.523
        47.500          34.300
 111754283.372 8  87081316.35547  21266142.703                    21266150.609
        50.300          42.100
 127091710.329 7  99032536.16743  24184750.820                    24184754.371
        42.300          22.500
 123964918.966 7  96596071.59044  23589746.539                    23589750.402
        43.600          26.700
 18  2 21  8  3  0.0000000  0  8G02G07G23G09G30G06G16G05
 115087657.753 7  89678715.08246  21900457.328                    21900458.719
        47.600          37.500
 113045330.103 8  88087315.45046  21511813.898                    21511817.484
        51.200          40.500
 119109659.800 8  92812777.75645  22665821.898                    22665823.863
        48.400          32.500
 106629882.296 8  83088279.52947  20290995.180                    20291001.172
        52.300          45.900
 119889019.699 7  93420096.50445  22814128.953                    22814136.230
        47.200          34.600
 111814498.426 8  87128237.18046  21277601.469                    21277608.891
        50.000          41.800
 127070622.419 6  99016104.03943  24180738.594                    24180742.086
        39.800          22.500
 123867103.274 7  96519851.55244  23571132.234                    23571136.613
        44.600          28.800
 18  2 21  8  3 30.0000000  0  8G02G07G23G09G30G06G16G05
 115065653.970 8  89661569.27546  21896270.125                    21896271.461
        48.000          37.500
 112981400.711 8  88037500.34246  21499648.414                    21499652.863
        51.600          39.900
 119186798.069 8  92872885.46445  22680500.797                    22680502.887
        48.500          32.600
 106663898.175 8  83114785.40247  20297468.117                    20297473.898
        52.300          46.300
 119787376.531 7  93340894.07945  22794787.266                    22794794.270
        47.800          35.100
 111875225.023 8  87175556.60246  21289157.500                    21289164.977
        49.400          41.700
 127050119.808 6  99000128.04843  24176836.883                    24176839.609
        40.200          20.600
 123769400.875 7  96443719.82644  23552540.125                    23552544.359
        44.700          27.900
 18  2 21  8  4  0.0000000  0  8G02G07G23G09G30G06G16G05
 115044189.624 8  89644843.80546  21892185.641                    21892187.160
        48.100          38.100
 112917908.090 8  87988025.57646  21487565.797                    21487570.348
        51.500          39.600
 119264105.935 8  92933125.34245  22695211.727                    22695214.074
        48.400          32.700
 106698282.351 8  83141578.26247  20304010.953                    20304017.574
        52.200          45.800
 119685974.179 7  93261879.30145  22775490.320                    22775498.074
        47.900          35.300
 111936461.046 8  87223272.98246  21300810.375                    21300817.105
        49.100          41.500
 127030203.641 7  98984608.92443  24173047.047                    24173049.188
        42.500          22.000
 123671812.232 7  96367676.74744  23533970.172                    23533974.156
        45.600          28.100
 18  2 21  8  4 30.0000000  0  8G02G07G23G09G30G06G16G05
 115023265.577 8  89628539.34746  21888203.945                    21888205.363
        48.200          37.900
 112854854.141 8  87938892.62646  21475567.039                    21475571.285
        51.200          39.400
 119341582.395 8  92993496.59945  22709954.773                    22709957.516
        48.000          32.100
 106733033.958 8  83168657.43547  20310624.094                    20310630.559
        52.700          46.000
 119584815.345 8  93183054.26945  22756240.641                    22756248.086
        48.300          35.300
 111998204.711 8  87271384.93147  21312560.000                    21312567.191
        49.600          42.000
 127010875.105 6  98969547.68243  24169369.250                    24169371.867
        41.800          22.000
 123574339.776 7  96291724.20744  23515421.641                    23515425.152
        45.300          27.400
 18  2 21  8  5  0.0000000  0  8G02G07G23G09G30G06G16G05
 115002882.203 8  89612656.19546  21884325.125                    21884327.016
        48.600          37.900
 112792239.983 8  87890102.38246  21463652.063                    21463656.188
        50.900          39.300
 119419225.870 7  93053997.98445  22724730.453                    22724732.270
        47.400          32.100
 106768151.504 9  83196021.74447  20317306.836                    20317313.047
        54.000          45.800
 119483902.159 7  93104420.66245  22737037.898                    22737044.777
        47.800          35.700
 112060453.671 8  87319890.60846  21324405.586                    21324412.785
        50.300          41.800
 126992135.348 6  98954945.29043  24165802.688                    24165806.160
        40.700          21.800
 123476985.500 7  96215863.73244  23496895.680                    23496899.512
        45.100          27.900
 18  2 21  8  5 30.0000000  0  8G02G07G23G09G30G06G16G05
 114983040.853 8  89597195.39346  21880549.906                    21880551.168
        48.500          37.900
 112730067.455 8  87841656.26746  21451820.930                    21451825.309
        51.300          39.400
 119497035.204 8  93114628.62245  22739537.016                    22739539.195
        48.400          33.200
 106803633.810 8  83223670.28447  20324059.063                    20324065.098
        52.600          46.000
 119383237.136 8  93025980.42145  22717881.844                    22717888.609
        48.000          35.800
 112123205.877 8  87368788.41847  21336347.000                    21336354.324
        48.800          42.100
 126973985.570 6  98940802.61643  24162348.750                    24162352.383
        41.700          22.200
 123379751.165 7  96140096.73744  23478392.875                    23478396.371
        45.100          28.600
 18  2 21  8  6  0.0000000  0  8G02G07G23G09G30G06G16G05
 114963742.444 8  89582157.66646  21876877.063                    21876878.484
        48.000          37.900
 112668338.459 8  87793555.75546  21440074.641                    21440078.418
        52.000          39.500
 119575009.521 8  93175387.81145  22754374.891                    22754377.516
        48.000          33.100
 106839479.930 8  83251602.32347  20330880.219                    20330886.754
        52.500          46.000
 119282822.974 7  92947735.66946  22698773.281                    22698781.051
        46.400          37.300
 112186459.448 8  87418076.90047  21348383.680                    21348390.828
        49.300          42.400
 126956427.119 7  98927120.69943  24159007.625                    24159010.738
        42.100          20.600
 123282637.859 7  96064424.03644  23459912.789                    23459916.770
        42.700          27.800
 18  2 21  8  6 30.0000000  0  8G02G07G23G09G30G06G16G05
 114944987.657 8  89567543.53946  21873308.359                    21873309.555
        48.400          37.600
 112607054.682 8  87745802.15546  21428412.680                    21428416.180
        51.500          39.200
 119653148.092 7  93236274.98945  22769244.555                    22769246.879
        47.800          33.400
 106875688.916 8  83279817.10947  20337770.695                    20337776.711
        53.400          46.300
 119182662.303 7  92869688.44446  22679713.680                    22679721.086
        47.900          36.600
 112250212.585 8  87467754.65546  21360515.633                    21360522.168
        50.500          41.800
 126939461.384 6  98913900.65643  24155779.938                    24155782.176
        40.900          21.500
 123185646.924 7  95988846.69844  23441455.492                    23441459.609
        44.800          27.700
 18  2 21  8  7  0.0000000  0  8G02G07G23G09G30G06G16G05
 114926777.596 8  89553353.86846  21869842.672                    21869844.375
        48.100          38.300
 112546217.707 8  87698396.72546  21416835.633                    21416839.695
        52.100          39.300
 119731449.342 7  93297288.94345  22784144.617                    22784146.871
        47.300          33.200
 106912259.407 8  83308313.59547  20344729.969                    20344736.090
        53.800          45.600
 119082757.391 7  92791840.49846  22660702.531                    22660709.461
        47.600          37.300
 112314462.950 8  87517819.86147  21372742.172                    21372749.129
        49.900          42.100
 126923089.206 6  98901143.14243  24152663.648                    24152668.418
        39.800          21.800
 123088780.204 7  95913366.15644  23423022.508                    23423026.488
        45.700          28.700
 18  2 21  8  7 30.0000000  0  8G02G07G23G09G30G06G16G05
 114909112.203 8  89539588.62146  21866481.133                    21866482.750
        48.100          37.900
 112485829.118 8  87651340.67946  21405344.141                    21405347.809
        52.700          39.600
 119809912.247 7  93358428.85145  22799075.227                    22799078.129
        47.600          33.300
 106949190.219 8  83337090.83747  20351757.641                    20351763.500
        53.400          45.700
 118983110.726 7  92714193.77946  22641740.195                    22641747.508
        47.000          37.400
 112379208.461 8  87568270.89646  21385062.531                    21385069.754
        49.900          41.500
 126907311.839 6  98888849.09643  24149661.117                    24149666.199
        39.200          22.500
 122992039.468 7  95837983.78144  23404613.336                    23404617.473
        43.100          28.900
 18  2 21  8  8  0.0000000  0  8G02G07G23G09G30G06G16G05
 114891993.024 8  89526248.98446  21863223.578                    21863225.102
        48.300          37.900
 112425890.581 8  87604635.32946  21393938.422                    21393942.223
        51.900          40.000
 119888535.598 8  93419693.77245  22814037.273                    22814039.891
        48.100          33.100
 106986480.171 8  83366147.93747  20358853.461                    20358859.668
        53.400          45.500
 118883724.734 8  92636750.18446  22622827.555                    22622834.883
        48.500          37.400
 112444446.938 8  87619106.06646  21397476.828                    21397484.277
        50.800          41.100
 126892130.441 6  98877019.42643  24146772.508                    24146775.750
        37.100          20.100
 122895426.605 7  95762701.04244  23386228.469                    23386232.918
        46.300          29.500
 18  2 21  8  8 30.0000000  0  8G02G07G23G09G30G06G16G05
 114875420.398 8  89513335.24946  21860070.250                    21860071.648
        48.700          37.300
 112366403.743 8  87558281.96346  21382618.305                    21382622.473
        51.900          40.600
 119967318.404 7  93481082.97845  22829028.922                    22829032.027
        47.000          33.200
 107024128.120 9  83395484.00247  20366017.289                    20366023.691
        54.100          45.600
 118784601.878 7  92559511.63046  22603964.891                    22603972.504
        46.400          38.100
 112510176.309 8  87670323.74346  21409984.930                    21409992.035
        50.200          41.100
 126877545.671 6  98865654.66243  24143997.203                    24144000.430
        38.900          20.400
 122798943.065 7  95687519.08545  23367868.516                    23367872.789
        42.900          30.200
 18  2 21  8  9  0.0000000  0  8G02G07G23G09G30G06G16G05
 114859394.853 8  89500847.80646  21857020.539                    21857022.355
        48.100          37.500
 112307369.801 8  87512281.49246  21371384.445                    21371388.641
        52.200          40.100
 120046259.381 7  93542595.38945  22844051.031                    22844053.957
        47.000          32.400
 107062132.683 8  83425097.94347  20373249.711                    20373255.809
        52.300          45.500
 118685744.369 8  92482479.84046  22585153.156                    22585160.203
        48.200          37.900
 112576394.159 8  87721922.05446  21422585.664                    21422593.051
        49.000          41.400
 126863558.758 6  98854755.80943  24141335.094                    24141338.930
        40.200          21.100
 122702590.418 7  95612439.11245  23349532.836                    23349537.281
        46.300          30.500
 18  2 21  8  9 30.0000000  0  8G02G07G23G09G30G06G16G05
 114843917.464 8  89488787.49246  21854075.266                    21854076.703
        48.700          37.800
 112248790.749 8  87466635.47546  21360237.281                    21360241.133
        52.800          40.900
 120125357.819 7  93604230.52745  22859103.023                    22859105.387
        47.200          33.200
 107100493.101 8  83454989.16647  20380549.602                    20380555.574
        52.900          45.900
 118587155.164 8  92405657.10446  22566392.313                    22566399.297
        48.900          38.000
 112643098.715 8  87773899.60146  21435278.820                    21435286.039
        50.000          40.900
 126850170.936 7  98844323.73643  24138787.789                    24138792.012
        42.600          21.300
 122606370.134 7  95537462.26344  23331222.625                    23331227.000
        45.900          29.700
 18  2 21  8 10  0.0000000  0  8G02G07G23G09G30G06G16G05
 114828988.747 8  89477154.71946  21851234.414                    21851236.078
        49.000          37.500
 112190668.102 8  87421345.09546  21349177.164                    21349180.973
        51.900          40.700
 120204612.243 7  93665987.20845  22874184.539                    22874187.094
        46.600          31.800
 107139208.052 8  83485156.65947  20387916.734                    20387922.504
        52.000          45.700
 118488836.519 8  92329045.19146  22547682.563                    22547689.703
        48.900          37.900
 112710287.701 7  87826254.62446  21448065.000                    21448072.082
        47.800          41.200
 126837383.210 6  98834359.30043  24136354.602                    24136358.715
        39.800          20.100
 122510284.040 7  95462589.99344  23312938.164                    23312942.883
        46.800          29.700
 18  2 21  8 10 30.0000000  0  8G02G07G23G09G30G06G16G05
 114814609.093 8  89465949.79146  21848498.117                    21848499.316
        48.500          38.000
 112133003.009 8  87376411.25246  21338203.656                    21338207.918
        51.900          40.900
 120284021.657 7  93727864.64145  22889295.898                    22889298.465
        46.200          32.600
 107178276.190 8  83515599.35247  20395351.180                    20395357.207
        52.800          45.800
 118390790.697 8  92252645.87546  22529025.422                    22529032.473
        48.500          37.900
 112777958.686 8  87878985.21646  21460942.289                    21460949.461
        48.400          40.000
 126825196.347 6  98824863.07043  24134035.641                    24134038.273
        39.200          19.000
 122414333.532 7  95387823.38745  23294679.188                    23294683.648
        46.200          30.200
 18  2 21  8 11  0.0000000  0  8G02G07G23G09G30G06G16G05
 114800779.440 8  89455173.42246  21845866.320                    21845868.148
        48.400          38.000
 112075797.284 8  87331835.35346  21327317.750                    21327321.949
        52.100          40.800
 120363585.169 7  93789862.17545  22904436.523                    22904439.094
        45.700          32.300
 107217696.515 9  83546316.48747  20402852.516                    20402858.805
        54.300          45.600
 118293020.353 8  92176461.22946  22510420.570                    22510427.652
        49.500          38.300
 112846109.685 8  87932089.85046  21473911.047                    21473917.969
        49.100          41.300
 126813611.015 6  98815835.54143  24131829.875                    24131834.051
        39.200          19.900
 122318520.931 7  95313164.21845  23276447.242                    23276451.539
        47.300          30.600
 18  2 21  8 11 30.0000000  0  8G02G07G23G09G30G06G16G05
 114787500.045 7  89444825.83846  21843339.242                    21843341.004
        47.300          37.100
 112019052.243 8  87287618.43146  21316519.352                    21316523.555
        52.200          40.300
 120443301.349 7  93851978.66545  22919605.703                    22919608.262
        45.300          32.800
 107257467.637 9  83577306.96547  20410420.898                    20410427.055
        54.200          45.900
 118195527.639 8  92100492.89546  22491868.141                    22491874.750
        50.000          38.000
 112914738.196 8  87985566.57546  21486970.711                    21486977.531
        50.300          41.000
 126802628.296 6  98807277.54743  24129740.305                    24129744.023
        41.800          19.900
 122222847.631 7  95238613.61545  23258241.063                    23258245.234
        46.300          31.100
 18  2 21  8 12  0.0000000  0  8G02G07G23G09G30G06G16G05
 114774771.499 8  89434907.47846  21840916.938                    21840918.617
        48.200          37.300
 111962769.525 8  87243761.75146  21305809.172                    21305813.434
        52.100          40.900
 120523169.625 7  93914213.67445  22934803.766                    22934806.754
        45.100          32.800
 107297588.547 9  83608570.00347  20418055.797                    20418061.488
        54.500          45.700
 118098315.145 8  92024742.92246  22473369.211                    22473375.863
        48.800          38.300
 112983842.189 8  88039413.78446  21500120.656                    21500127.656
        50.200          41.000
 126792249.126 6  98799189.85843  24127765.609                    24127768.375
        39.200          19.600
 122127314.986 7  95164172.60045  23240061.805                    23240066.043
        47.200          30.800
 18  2 21  8 12 30.0000000  0  8G02G07G23G09G30G06G16G05
 114762594.357 7  89425418.79146  21838599.781                    21838601.563
        47.100          37.300
 111906950.764 8  87200266.60646  21295187.133                    21295191.316
        52.300          41.100
 120603188.544 7  93976566.05745  22950031.141                    22950033.496
        45.300          31.900
 107338058.010 8  83640104.63447  20425756.633                    20425762.645
        53.700          45.800
 118001385.358 8  91949213.24146  22454923.805                    22454930.961
        50.000          38.600
 113053419.329 8  88093629.68046  21513360.828                    21513368.125
        50.000          41.100
 126782474.179 6  98791573.05343  24125905.492                    24125909.004
        37.200          19.900
 122031925.261 7  95089842.96645  23221909.375                    23221914.320
        47.300          31.000
 18  2 21  8 13  0.0000000  0  8G02G07G23G09G30G06G16G05
 114750969.620 7  89416360.55146  21836387.906                    21836389.391
        47.800          37.500
 111851597.102 8  87157133.89446  21284653.875                    21284657.801
        52.100          40.700
 120683357.298 7  94039035.19945  22965286.844                    22965288.902
        46.400          31.800
 107378875.092 9  83671910.15047  20433523.773                    20433530.031
        54.000          45.900
 117904740.859 8  91873905.86646  22436532.930                    22436540.254
        50.300          37.800
 113123467.665 8  88148212.77146  21526690.781                    21526697.859
        50.300          40.800
 126773304.664 6  98784427.98643  24124159.992                    24124164.172
        39.400          20.100
 121936680.065 7  95015625.94145  23203785.063                    23203789.547
        47.200          30.600
 18  2 21  8 13 30.0000000  0  8G02G07G23G09G30G06G16G05
 114739897.502 7  89407732.91246  21834280.859                    21834282.816
        47.400          37.900
 111796710.601 8  87114365.20446  21274209.383                    21274213.445
        52.200          41.000
 120763674.822 7  94101620.28345  22980570.711                    22980573.363
        46.300          31.400
 107420038.561 9  83703985.57547  20441356.953                    20441363.121
        54.100          45.200
 117808384.038 8  91798822.65646  22418196.859                    22418203.891
        49.600          38.300
 113193984.777 8  88203161.15046  21540109.688                    21540116.629
        50.700          40.800
 126764741.691 6  98777755.54043  24122530.672                    24122534.227
        39.300          19.900
 121841579.822 7  94941521.86945  23185687.875                    23185692.344
        47.400          31.000
 18  2 21  8 14  0.0000000  0  8G02G07G23G09G30G06G16G05
 114729378.217 7  89399536.06546  21832279.047                    21832280.895
        47.400          37.300
 111742292.071 8  87071961.16046  21263853.742                    21263857.902
        52.600          41.300
 120844139.794 7  94164320.24445  22995882.586                    22995885.117
        45.700          31.400
 107461546.907 9  83736329.73147  20449255.773                    20449262.031
        54.200          46.200
 117712316.977 8  91723965.21846  22399915.844                    22399922.879
        49.500          37.200
 113264968.130 8  88258472.86146  21553617.258                    21553624.141
        50.200          40.900
 126756785.231 6  98771555.66743  24121016.852                    24121019.941
        41.100          19.600
 121746627.730 7  94867533.23545  23167619.414                    23167623.773
        47.900          31.800
 18  2 21  8 14 30.0000000  0  8G02G07G23G09G30G06G16G05
 114719412.784 7  89391770.78546  21830383.211                    21830384.480
        47.000          37.700
 111688343.085 8  87029923.00146  21253587.398                    21253591.531
        52.400          40.600
 120924751.266 7  94227134.35845  23011222.633                    23011225.199
        45.900          30.800
 107503399.234 9  83768941.92547  20457219.938                    20457226.004
        54.400          45.700
 117616542.320 8  91649335.63646  22381690.109                    22381697.676
        48.900          37.800
 113336415.578 8  88314146.19546  21567213.133                    21567220.496
        49.700          40.100
 126749436.369 6  98765829.27643  24119618.047                    24119621.297
        39.400          20.400
 121651825.837 7  94793661.65245  23149579.563                    23149583.195
        47.000          31.900
 18  2 21  8 15  0.0000000  0  8G02G07G23G09G30G06G16G05
 114710001.106 7  89384437.00046  21828591.906                    21828593.313
        47.200          37.900
 111634864.824 8  86988251.64246  21243411.133                    21243414.699
        52.600          41.400
 121005508.002 7  94290061.66545  23026590.133                    23026592.109
        46.400          31.300
 107545594.141 9  83801821.06547  20465249.383                    20465255.813
        54.500          45.000
 117521062.292 8  91574935.63546  22363521.359                    22363527.988
        48.700          37.700
 113408324.528 8  88370179.11746  21580896.719                    21580904.293
        50.600          40.500
 126742695.804 6  98760576.84543  24118335.781                    24118338.398
        40.800          20.900
 121557175.270 7  94719907.97945  23131567.828                    23131571.848
        47.800          31.000
 18  2 21  8 15 30.0000000  0  8G02G07G23G09G30G06G16G05
 114701144.080 7  89377535.41946  21826906.328                    21826907.984
        46.600          37.600
 111581859.094 8  86946948.49446  21233324.531                    21233328.410
        53.200          41.000
 121086409.409 7  94353101.70945  23041984.883                    23041987.363
        46.500          31.800
 107588130.709 9  83834966.43947  20473343.859                    20473349.547
        54.400          45.800
 117425879.549 8  91500767.28846  22345408.883                    22345415.535
        49.300          37.700
 113480692.940 8  88426570.03546  21594668.141                    21594675.188
        48.800          40.000
 126736563.958 6  98755798.79943  24117168.641                    24117171.867
        40.400          21.300
 121462677.826 7  94646273.61645  23113585.156                    23113589.555
        47.500          31.500
 18  2 21  8 16  0.0000000  0  8G02G07G23G09G30G06G16G05
 114692842.079 7  89371066.32046  21825326.813                    21825327.973
        46.900          38.100
 111529327.423 8  86906014.72846  21223327.859                    21223331.719
        53.100          41.800
 121167454.507 7  94416253.70245  23057407.492                    23057409.684
        46.400          31.500
 107631007.734 9  83868377.09647  20481503.289                    20481509.477
        54.100          45.600
 117330996.503 8  91426832.47946  22327352.602                    22327359.926
        48.700          37.400
 113553518.448 8  88483317.13246  21608526.398                    21608533.922
        49.500          39.500
 126731041.883 6  98751495.90543  24116117.641                    24116121.594
        40.500          21.500
 121368334.310 7  94572759.20645  23095632.445                    23095637.051
        46.500          31.600
 18  2 21  8 16 30.0000000  0  8G02G07G23G09G30G06G16G05
 114685095.261 7  89365029.82846  21823852.094                    21823853.863
        46.100          37.200
 111477270.657 8  86865451.01946  21213421.891                    21213426.066
        53.000          41.600
 121248641.898 7  94479516.58345  23072857.297                    23072858.848
        46.900          31.300
 107674223.977 9  83902052.07747  20489726.789                    20489732.773
        54.500          45.200
 117236415.467 8  91353132.99846  22309354.211                    22309361.574
        48.500          37.500
 113626798.714 8  88540418.58346  21622471.148                    21622478.570
        50.000          39.300
 126726130.057 6  98747668.49043  24115183.656                    24115186.918
        40.900          22.000
 121274147.363 7  94499366.78945  23077708.883                    23077713.504
        47.000          31.100
 18  2 21  8 17  0.0000000  0  8G02G07G23G09G30G06G16G05
 114677904.111 7  89359426.32646  21822484.078                    21822485.531
        45.700          37.500
 111425690.338 8  86825258.56946  21203606.336                    21203610.449
        52.900          41.000
 121329970.552 7  94542889.53045  23088333.617                    23088335.594
        46.700          31.800
 107717778.191 9  83935990.41747  20498015.117                    20498021.191
        54.700          45.400
 117142138.735 8  91279670.63546  22291414.281                    22291421.273
        49.100          37.800
 113700531.225 8  88597872.46146  21636502.008                    21636509.281
        49.300          39.200
 126721829.077 6  98744317.05943  24114364.188                    24114368.852
        41.600          22.300
 121180118.776 7  94426097.77045  23059815.938                    23059820.391
        46.400          31.100
 18  2 21  8 17 30.0000000  0  8G02G07G23G09G30G06G16G05
 114671268.615 7  89354255.80446  21821221.250                    21821223.027
        46.000          37.900
 111374587.800 8  86785438.41646  21193881.906                    21193885.820
        52.900          41.800
 121411439.339 7  94606371.66945  23103836.766                    23103838.418
        46.800          30.700
 107761669.244 8  83970191.23947  20506367.305                    20506373.176
        53.200          45.000
 117048168.752 8  91206447.31346  22273532.469                    22273539.594
        49.400          37.600
 113774713.599 8  88655676.85146  21650618.531                    21650626.023
        48.600          39.400
 126718139.619 7  98741442.17143  24113662.703                    24113667.039
        42.400          22.800
 121086250.746 7  94352953.86945  23041953.438                    23041958.043
        47.300          31.400
 18  2 21  8 18  0.0000000  0  8G02G07G23G09G30G06G16G05
 114665189.366 7  89349518.71446  21820064.305                    21820066.313
        46.000          38.000
 111323964.313 8  86745991.55346  21184248.594                    21184252.984
        52.500          41.100
 121493047.496 7  94669962.43344  23119366.047                    23119367.785
        46.800          29.400
 107805895.921 8  84004653.57747  20514783.250                    20514789.797
        53.200          44.700
 116954507.801 8  91133464.77746  22255709.469                    22255716.301
        48.800          38.100
 113849343.369 8  88713829.85746  21664819.992                    21664827.363
        48.900          39.700
 126715062.261 6  98739044.22943  24113075.836                    24113081.773
        40.900          22.500
 120992543.990 7  94279935.62545  23024121.391                    23024126.156
        46.400          31.700
 18  2 21  8 18 30.0000000  0  8G02G07G23G09G30G06G16G05
 114659666.754 7  89345215.37846  21819013.625                    21819015.156
        45.800          37.400
 111273821.082 8  86706918.91446  21174706.664                    21174710.586
        51.900          41.000
 121574794.001 7  94733660.98645  23134921.406                    23134923.461
        46.300          30.600
 107850456.929 8  84039376.43047  20523263.070                    20523269.305
        53.200          45.100
 116861158.221 7  91060724.86946  22237945.594                    22237952.367
        47.900          38.100
 113924418.096 8  88772329.57446  21679106.375                    21679113.898
        49.800          40.000
 126712597.249 6  98737123.43843  24112607.750                    24112612.180
        39.500          22.900
 120899001.146 7  94207045.10545  23006320.594                    23006325.629
        46.600          31.900
 18  2 21  8 19  0.0000000  0  8G02G07G23G09G30G06G16G05
 114654701.002 7  89341345.95146  21818068.664                    21818070.211
        46.600          37.400
 111224159.592 8  86668221.66146  21165256.281                    21165260.340
        52.100          40.900
 121656677.787 7  94797466.51045  23150503.844                    23150505.645
        46.500          30.500
 107895351.236 8  84074359.00447  20531805.813                    20531812.434
        53.700          44.900
 116768122.483 8  90988229.50846  22220241.203                    22220248.188
        48.800          38.100
 113999935.452 8  88831174.18846  21693477.156                    21693484.254
        48.900          39.700
 126710745.313 6  98735680.34843  24112255.625                    24112259.559
        40.200          22.200
 120805623.517 7  94134283.33245  22988551.906                    22988556.480
        47.300          31.900
 18  2 21  8 19 30.0000000  0  8G02G07G23G09G30G06G16G05
 114650292.248 7  89337910.55446  21817229.781                    21817231.504
        46.500          37.900
 111174980.982 8  86629900.68046  21155897.891                    21155902.070
        51.000          41.300
 121738697.925 7  94861378.26145  23166112.141                    23166113.469
        47.000          30.200
 107940577.520 8  84109600.26347  20540411.961                    20540418.910
        53.200          45.000
 116675402.792 8  90915980.41346  22202597.203                    22202604.383
        48.700          37.700
 114075892.923 8  88890361.76946  21707930.930                    21707938.746
        48.400          39.200
 126709506.875 6  98734715.32943  24112020.797                    24112023.961
        41.400          23.300
 120712412.981 7  94061651.76145  22970814.180                    22970818.836
        46.300          32.400
 18  2 21  8 20  0.0000000  0  8G02G07G23G09G30G06G16G05
 114646440.730 7  89334909.36346  21816496.508                    21816498.754
        46.800          37.700
 111126286.452 8  86591956.90246  21146631.508                    21146635.484
        52.300          40.600
 121820853.386 8  94925395.49445  23181745.398                    23181747.328
        48.400          30.700
 107986134.545 8  84145099.23247  20549081.352                    20549088.035
        52.900          44.400
 116583001.570 8  90843979.47746  22185014.070                    22185020.719
        48.500          38.100
 114152287.989 8  88949890.32746  21722468.953                    21722476.605
        48.700          38.800
 126708882.310 6  98734228.66143  24111901.016                    24111904.555
        39.300          23.000
 120619371.296 7  93989151.75645  22953109.398                    22953113.730
        46.700          32.200
 18  2 21  8 20 30.0000000  0  8G02G07G23G09G30G06G16G05
 114643146.841 7  89332342.69446  21815869.789                    21815871.527
        46.200          37.900
 111078077.510 8  86554391.49746  21137457.617                    21137461.625
        50.900          41.000
 121903143.152 7  94989517.36244  23197405.055                    23197406.570
        46.700          29.800
 108032021.393 8  84180855.20747  20557813.344                    20557819.465
        52.100          44.600
 116490921.254 8  90772228.60846  22167491.758                    22167498.535
        49.000          38.600
 114229118.381 7  89009758.10046  21737089.555                    21737096.852
        47.900          39.400
 126708871.972 6  98734220.60043  24111899.352                    24111902.426
        39.200          22.800
 120526500.462 7  93916784.88845  22935436.313                    22935440.547
        47.300          32.500
 18  2 21  8 21  0.0000000  0  8G02G07G23G09G30G06G16G05
 114640410.604 7  89330210.54446  21815349.133                    21815350.992
        47.200          37.200
 111030355.005 8  86517205.13846  21128376.625                    21128380.871
        51.200          41.000
 121985566.067 7  95053742.97744  23213089.555                    23213091.348
        47.500          29.800
 108078236.769 8  84216867.18547  20566607.906                    20566613.969
        52.900          44.800
 116399164.148 8  90700729.58846  22150030.805                    22150037.668
        49.100          37.900
 114306381.558 7  89069963.11946  21751791.664                    21751799.656
        47.500          39.900
 126709476.521 6  98734691.67943  24112014.758                    24112017.754
        40.600          22.600
 120433802.025 7  93844552.35445  22917796.953                    22917800.848
        47.700          32.900
 18  2 21  8 21 30.0000000  0  8G02G07G23G09G30G06G16G05
 114638231.995 7  89328512.92446  21814934.242                    21814936.383
        45.800          37.200
 110983120.397 8  86480398.96446  21119387.758                    21119391.875
        51.000          40.800
 122068121.368 7  95118071.77345  23228798.938                    23228801.047
        47.500          30.200
 108124779.409 8  84253134.16447  20575464.953                    20575470.855
        52.900          44.200
 116307732.494 8  90629484.16746  22132632.164                    22132639.480
        49.600          38.600
 114384074.977 8  89130503.42346  21766576.352                    21766584.051
        49.500          39.400
 126710696.201 6  98735642.08843  24112246.922                    24112249.855
        40.500          22.600
 120341277.574 8  93772455.39045  22900189.758                    22900193.879
        48.200          32.700
 18  2 21  8 22  0.0000000  0  8G02G07G23G09G30G06G16G05
 114636612.409 7  89327250.90546  21814626.242                    21814628.363
        46.000          37.200
 110936375.624 8  86443974.47446  21110492.781                    21110497.004
        49.100          40.700
 122150808.801 7  95182503.50745  23244534.063                    23244536.129
        47.500          30.200
 108171649.079 8  84289655.98047  20584383.828                    20584390.023
        52.500          44.500
 116216629.534 8  90558494.86646  22115295.539                    22115302.680
        49.800          39.000
 114462196.876 8  89191377.60546  21781442.695                    21781450.172
        48.700          39.500
 126712532.247 6  98737072.73643  24112595.789                    24112599.367
        39.300          22.900
 120248930.733 7  93700496.82945  22882616.898                    22882621.395
        47.500          33.300
 18  2 21  8 22 30.0000000  0  8G02G07G23G09G30G06G16G05
 114635550.963 7  89326423.78646  21814424.320                    21814426.379
        46.400          37.000
 110890120.916 8  86407931.83446  21101690.891                    21101694.754
        50.300          40.900
 122233626.588 7  95247036.82244  23260293.813                    23260295.902
        46.400          29.800
 108218843.530 8  84326430.86347  20593364.688                    20593371.063
        53.200          44.500
 116125856.555 8  90487762.70046  22098022.141                    22098028.910
        50.100          39.000
 114540743.936 8  89252583.06546  21796389.914                    21796397.051
        48.000          38.900
 126714983.834 6  98738983.08343  24113062.609                    24113065.465
        40.500          22.500
 120156761.376 7  93628676.55845  22865077.398                    22865081.930
        47.000          33.800
 18  2 21  8 23  0.0000000  0  8G02G07G23G09G30G06G16G05
 114635047.732 7  89326031.65046  21814328.641                    21814330.512
        47.700          36.900
 110844357.197 8  86372271.81346  21092981.977                    21092986.375
        50.700          41.400
 122316573.530 7  95311670.78045  23276078.258                    23276080.359
        46.300          30.100
 108266361.697 8  84363457.99247  20602407.086                    20602412.910
        51.600          44.600
 116035416.049 8  90417289.60646  22080812.023                    22080818.637
        50.500          38.900
 114619713.686 7  89314117.92346  21811417.297                    21811424.582
        47.100          38.700
 126718051.335 6  98741373.34543  24113646.219                    24113649.441
        40.400          22.900
 120064771.581 7  93556996.20745  22847572.992                    22847577.125
        47.800          34.200
 18  2 21  8 23 30.0000000  0  8G02G07G23G09G30G06G16G05
 114635102.412 7  89326074.23746  21814338.914                    21814341.199
        46.800          37.200
 110799085.758 8  86336995.37546  21084367.008                    21084370.938
        50.600          41.400
 122399648.513 7  95376404.49144  23291886.688                    23291888.996
        45.000          29.200
 108314202.187 8  84400736.28647  20611510.469                    20611516.371
        52.300          44.000
 115945310.024 8  90347077.14546  22063665.602                    22063672.164
        51.100          38.400
 114699103.384 7  89375980.01146  21826524.516                    21826532.250
        46.800          39.000
 126721734.766 6  98744243.54343  24114346.008                    24114351.031
        39.400          21.800
 119972963.473 7  93485457.43845  22830102.227                    22830106.516
        47.800          33.800
 18  2 21  8 24  0.0000000  0  8G02G07G23G09G30G06G16G05
 114635715.407 7  89326551.88846  21814455.500                    21814457.422
        45.700          37.200
 110754307.949 8  86302103.59046  21075846.172                    21075850.652
        51.000          41.600
 122482850.767 7  95441237.38044  23307719.266                    23307721.910
        47.000          29.300
 108362363.967 8  84438264.93747  20620675.758                    20620681.559
        52.000          44.300
 115855540.887 8  90277127.19046  22046582.984                    22046589.629
        50.400          39.200
 114778910.483 7  89438167.34546  21841711.523                    21841719.313
        47.900          38.200
 126726034.748 6  98747594.18243  24115165.305                    24115169.039
        40.500          22.500
 119881339.066 7  93414061.80045  22812666.625                    22812670.805
        47.800          34.000
 18  2 21  8 24 30.0000000  0  8G02G07G23G09G30G06G16G05
 114636886.823 7  89327464.67446  21814678.477                    21814680.609
        45.800          37.200
 110710024.345 8  86267596.89046  21067419.445                    21067423.707
        50.600          41.200
 122566179.625 7  95506168.93244  23323576.813                    23323578.641
        44.100          28.700
 108410845.779 8  84476042.97247  20629901.469                    20629907.336
        51.900          44.100
 115766110.936 8  90207441.54046  22029564.969                    22029571.715
        50.400          38.700
 114859132.484 7  89500677.99046  21856976.906                    21856984.934
        47.500          38.600
 126730951.675 6  98751425.53043  24116100.656                    24116105.055
        41.600          22.300
 119789899.508 7  93342810.20345  22795266.266                    22795270.066
        47.800          34.400
 18  2 21  8 25  0.0000000  0  8G02G07G23G09G30G06G16G05
 114638616.253 7  89328812.27146  21815007.945                    21815009.793
        45.400          37.300
 110666236.243 8  86233476.32946  21059086.758                    21059090.680
        49.900          41.300
 122649633.485 7  95571197.88844  23339456.484                    23339459.352
        45.100          29.700
 108459646.342 8  84514069.37347  20639187.516                    20639193.887
        51.900          44.300
 115677022.359 8  90138021.88346  22012611.664                    22012618.477
        50.400          38.700
 114939766.695 7  89563509.82946  21872321.484                    21872328.859
        47.600          38.300
 126736484.689 6  98755736.94843  24117154.094                    24117157.801
        41.700          22.200
 119698647.239 8  93271704.54245  22777901.219                    22777905.258
        48.400          34.100
 18  2 21  8 25 30.0000000  0  8G02G07G23G09G30G06G16G05
 114640903.998 7  89330594.92046  21815443.125                    21815444.934
        47.500          37.300
 110622945.193 8  86199743.04547  21050848.930                    21050853.012
        50.400          42.100
 122733212.199 7  95636324.12444  23355361.914                    23355364.070
        43.200          28.600
 108508764.852 8  84552343.52647  20648534.742                    20648540.953
        50.100          44.200
 115588277.703 8  90068870.21146  21995724.219                    21995730.934
        49.900          39.800
 115020810.862 7  89626661.11546  21887743.461                    21887751.445
        46.000          38.800
 126742635.052 6  98760529.43843  24118323.992                    24118328.449
        41.200          22.200
 119607583.857 8  93200746.06845  22760573.164                    22760576.832
        48.500          34.400
 18  2 21  8 26  0.0000000  0  8G02G07G23G09G30G06G16G05
 114643749.861 7  89332812.46946  21815984.555                    21815986.504
        45.200          38.400
 110580151.620 8  86166397.41446  21042705.664                    21042709.574
        51.000          41.900
 122816914.315 7  95701546.53244  23371289.977                    23371292.129
        45.000          28.500
 108558199.790 8  84590864.25147  20657942.219                    20657948.098
        51.600          44.100
 115499879.042 8  89999988.14746  21978902.930                    21978909.398
        49.600          39.800
 115102262.090 8  89690129.59146  21903243.266                    21903251.434
        48.300          39.200
 126749402.549 6  98765802.80243  24119611.461                    24119616.336
        41.400          21.500
 119516710.910 8  93129935.98445  22743280.109                    22743284.211
        48.300          34.400
 18  2 21  8 26 30.0000000  0  8G02G07G23G09G30G06G16G05
 114647154.029 7  89335465.04846  21816632.727                    21816634.211
        45.400          37.000
 110537856.737 8  86133440.36547  21034657.148                    21034661.180
        51.200          42.000
 122900738.908 7  95766864.36044  23387240.711                    23387243.324
        44.700          29.100
 108607950.029 8  84629630.66947  20667409.219                    20667415.004
        52.000          44.000
 115411828.601 8  89931377.43646  21962147.219                    21962153.871
        48.300          39.900
 115184117.840 7  89753913.27546  21918820.086                    21918827.543
        47.800          38.600
 126756786.704 6  98771556.65743  24121016.836                    24121020.824
        41.600          21.300
 119426031.401 7  93059276.62845  22726024.695                    22726028.613
        46.100          34.000
 18  2 21  8 27  0.0000000  0  8G02G07G23G09G30G06G16G05
 114651116.421 7  89338552.62746  21817386.867                    21817388.566
        46.700          37.700
 110496061.775 8  86100872.87847  21026703.898                    21026707.871
        51.300          42.300
 122984685.232 7  95832277.06144  23403215.617                    23403217.805
        42.600          29.800
 108658014.512 8  84668641.94447  20676935.813                    20676941.922
        51.300          44.000
 115324128.799 8  89863039.92446  21945458.641                    21945465.113
        50.600          40.200
 115266375.575 8  89818010.19946  21934473.211                    21934480.719
        48.200          38.400
 126764788.131 6  98777791.53643  24122539.594                    24122543.430
        41.400          21.300
 119335546.342 7  92988768.79645  22708805.570                    22708809.465
        47.700          33.900
 18  2 21  8 27 30.0000000  0  8G02G07G23G09G30G06G16G05
 114655637.123 7  89342075.23846  21818246.883                    21818249.059
        46.700          37.900
 110454767.753 8  86068695.70547  21018845.938                    21018849.852
        50.100          42.300
 123068752.257 7  95897783.79144  23419213.164                    23419214.977
        43.900          29.200
 108708392.140 8  84707897.22547  20686522.578                    20686528.602
        50.200          44.300
 115236781.945 8  89794977.45746  21928837.070                    21928843.598
        48.800          39.900
 115349032.770 7  89882418.37146  21950201.914                    21950210.191
        47.500          38.600
 126773406.821 6  98784507.35843  24124180.242                    24124183.488
        39.300          20.600
 119245257.760 7  92918414.07045  22691624.461                    22691628.414
        45.800          34.800
 18  2 21  8 28  0.0000000  0  8G02G07G23G09G30G06G16G05
 114660715.455 7  89346032.37446  21819213.500                    21819215.367
        46.600          38.300
 110413975.303 8  86036909.38446  21011083.461                    21011087.383
        50.500          41.600
 123152938.783 7  95963383.66144  23435232.891                    23435236.117
        42.400          28.000
 108759081.464 8  84747395.38847  20696168.570                    20696174.547
        50.900          43.900
 115149790.008 8  89727191.55746  21912283.148                    21912289.914
        50.600          40.900
 115432086.520 7  89947135.56046  21966006.484                    21966014.570
        46.800          38.500
 126782642.762 6  98791704.18043  24125938.078                    24125940.676
        39.200          19.900
 119155167.139 8  92848213.59545  22674480.406                    22674484.539
        48.200          33.700
 18  2 21  8 28 30.0000000  0  8G02G07G23G09G30G06G16G05
 114666351.637 7  89350424.19146  21820286.242                    21820288.082
        46.000          37.500
 110373685.709 8  86005514.91347  21003416.430                    21003420.320
        51.200          42.000
 123237244.448 6  96029076.36144  23451274.961                    23451278.301
        41.400          28.500
 108810081.499 8  84787135.66747  20705873.328                    20705879.551
        52.500          45.100
 115063155.426 8  89659684.11346  21895796.789                    21895803.633
        50.100          40.700
 115515534.403 7  90012159.84846  21981886.086                    21981894.406
        46.400          38.300
 126792495.983 6  98799381.97943  24127812.672                    24127815.941
        41.100          19.900
 119065277.024 8  92778169.36645  22657374.883                    22657378.984
        48.500          33.700
 18  2 21  8 29  0.0000000  0  8G02G07G23G09G30G06G16G05
 114672545.497 7  89355250.56146  21821464.453                    21821466.305
        47.100          38.000
 110333899.911 8  85974512.99947  20995845.359                    20995849.383
        50.900          42.000
 123321668.079 7  96094860.96344  23467341.102                    23467344.234
        42.400          28.000
 108861390.981 8  84827117.06947  20715637.305                    20715643.711
        51.200          44.300
 114976880.267 8  89592456.73546  21879379.195                    21879385.859
        48.800          41.200
 115599373.662 7  90077489.10546  21997840.734                    21997848.129
        46.800          38.500
 126802966.272 7  98807540.64343  24129805.031                    24129807.375
        42.600          20.600
 118975589.438 7  92708282.93245  22640307.898                    22640312.039
        45.800          34.300
 18  2 21  8 29 30.0000000  0  8G02G07G23G09G30G06G16G05
 114679296.628 7  89360511.17446  21822749.117                    21822751.273
        44.900          37.300
 110294618.302 8  85943903.95947  20988370.266                    20988374.105
        51.500          42.200
 123406208.290 7  96160736.42244  23483428.781                    23483431.832
        42.700          28.900
 108913008.374 8  84867338.41447  20725459.719                    20725465.820
        52.200          43.600
 114890966.449 8  89525510.92446  21863030.352                    21863037.375
        49.800          41.100
 115683601.276 7  90143120.97346  22013868.508                    22013876.391
        46.400          38.800
 126814053.600 7  98816180.09443  24131914.664                    24131917.281
        42.700          20.100
 118886105.484 7  92638555.19145  22623279.555                    22623284.133
        46.800          33.700
 18  2 21  8 30  0.0000000  0  8G02G07G23G09G30G06G16G05
 114686604.777 7  89366205.81846  21824139.813                    21824141.813
        46.600          38.200
 110255842.120 8  85913688.76347  20980991.602                    20980995.750
        51.300          42.000
 123490864.493 7  96226702.27144  23499537.594                    23499540.691
        42.400          28.100
 108964932.873 8  84907799.04847  20735341.141                    20735346.613
        52.500          43.900
 114805416.511 8  89458848.66346  21846750.430                    21846757.910
        49.100          41.200
 115768214.943 7  90209053.67946  22029970.039                    22029977.910
        47.300          39.500
 126825757.997 7  98825300.42043  24134142.109                    24134144.984
        43.700          20.400
 118796827.829 7  92568988.20245  22606290.430                    22606295.207
        45.900          34.500
 18  2 21  8 30 30.0000000  0  8G02G07G23G09G30G06G16G05
 114694469.917 7  89372334.48646  21825636.828                    21825638.348
        47.400          37.300
 110217572.178 8  85883868.03947  20973708.844                    20973713.012
        51.400          42.000
 123575635.870 7  96292757.85044  23515669.984                    23515672.375
        42.000          27.000
 109017163.266 8  84948498.05647  20745279.891                    20745285.871
        51.900          44.400
 114720232.692 8  89392471.70046  21830540.391                    21830547.988
        51.500          41.100
 115853211.964 7  90275285.08246  22046144.742                    22046152.113
        47.200          38.600
 126838079.152 7  98834901.28943  24136486.398                    24136489.836
        42.700          20.400
 118707757.523 8  92499582.76645  22589340.922                    22589345.445
        48.300          34.600
 18  2 21  8 31  0.0000000  0  8G02G07G23G09G30G06G16G05
 114702892.140 7  89378897.25046  21827239.180                    21827241.191
        46.900          38.100
 110179809.827 8  85854442.83347  20966523.008                    20966527.004
        52.000          42.300
 123660521.882 6  96358902.75544  23531823.031                    23531825.801
        41.600          27.300
 109069698.741 8  84989434.78647  20755276.906                    20755283.188
        52.200          44.500
 114635417.441 8  89326381.92846  21814400.719                    21814408.129
        50.500          41.800
 115938589.975 7  90341813.35846  22062391.563                    22062399.164
        47.300          39.000
 126851016.936 6  98844982.66143  24138948.148                    24138952.207
        39.900          20.600
 118618897.553 8  92430341.23845  22572431.500                    22572435.984
        48.000          34.200
 18  2 21  8 31 30.0000000  0  8G02G07G23G09G30G06G16G05
 114711870.644 7  89385893.46746  21828948.078                    21828949.801
        47.800          38.000
 110142555.401 8  85825413.43146  20959433.461                    20959437.789
        51.500          41.800
 123745521.165 6  96425135.92944  23547997.688                    23548000.828
        41.100          27.800
 109122537.578 8  85030607.89947  20765332.141                    20765338.344
        51.600          43.700
 114550972.429 8  89260580.66546  21798331.438                    21798338.785
        49.500          41.400
 116024345.761 7  90408636.00446  22078710.484                    22078718.430
        46.400          38.400
 126864571.383 6  98855544.52943  24141528.391                    24141532.184
        40.800          21.700
 118530249.003 7  92361264.44945  22555562.438                    22555567.223
        47.000          34.800
 18  2 21  8 32  0.0000000  0  8G02G07G23G09G30G06G16G05
 114721404.999 8  89393322.82646  21830762.430                    21830763.957
        48.900          38.300
 110105809.920 8  85796780.59247  20952440.977                    20952445.277
        51.200          42.300
 123830632.823 7  96491456.66144  23564194.172                    23564197.309
        42.900          27.400
 109175678.703 8  85072016.56147  20775444.305                    20775450.754
        52.100          44.400
 114466899.934 8  89195069.68446  21782332.695                    21782340.133
        50.800          40.800
 116110476.714 7  90475750.96946  22095100.836                    22095108.160
        46.700          38.800
 126878741.782 6  98866586.37143  24144224.625                    24144228.230
        41.700          19.600
 118441814.216 7  92292354.23145  22538733.648                    22538738.180
        47.600          35.200
 18  2 21  8 32 30.0000000  0  8G02G07G23G09G30G06G16G05
 114731495.112 8  89401185.24846  21832682.250                    21832684.316
        48.300          38.800
 110069574.380 8  85768545.11847  20945545.805                    20945549.813
        51.200          42.400
 123915855.787 7  96557864.14244  23580411.445                    23580414.473
        43.200          28.100
 109229120.921 8  85113659.83547  20785614.141                    20785620.598
        52.200          44.400
 114383202.086 8  89129850.64446  21766405.102                    21766412.699
        50.300          41.000
 116196980.094 7  90543156.15946  22111561.781                    22111569.500
        46.400          39.200
 126893528.161 6  98878108.19043  24147038.203                    24147042.426
        40.600          20.100
 118353595.252 7  92223612.18645  22521946.273                    22521950.750
        47.900          34.600
 18  2 21  8 33  0.0000000  0  8G02G07G23G09G30G06G16G05
 114742140.783 8  89409480.55446  21834708.313                    21834710.105
        48.400          38.100
 110033849.399 8  85740707.47446  20938747.391                    20938752.152
        50.700          41.600
 124001189.389 7  96624357.81844  23596650.219                    23596652.664
        42.400          27.300
 109282863.174 8  85155536.91547  20795840.781                    20795847.035
        52.800          44.300
 114299881.133 8  89064925.26546  21750550.094                    21750556.813
        50.500          40.900
 116283853.292 7  90610849.52346  22128092.586                    22128100.719
        47.200          38.500
 126908930.306 6  98890109.86243  24149969.398                    24149972.281
        41.000          20.400
 118265593.273 8  92155039.21845  22505199.898                    22505204.195
        48.900          35.400
 18  2 21  8 33 30.0000000  0  8G02G07G23G09G30G06G16G05
 114753341.422 8  89418208.32046  21836839.688                    21836841.242
        49.200          38.400
 109998635.292 8  85713267.92147  20932046.609                    20932050.586
        50.500          42.600
 124086632.628 7  96690936.94644  23612909.000                    23612912.512
        43.400          27.700
 109336904.040 8  85197646.67547  20806124.625                    20806130.359
        52.500          44.500
 114216938.950 8  89000295.02646  21734766.797                    21734773.875
        51.100          40.900
 116371093.354 7  90678828.74546  22144694.625                    22144701.996
        47.600          38.000
 126924947.625 6  98902590.87043  24153017.203                    24153019.914
        41.800          20.600
 118177810.872 8  92086637.36245  22488495.625                    22488499.703
        48.700          35.100
 18  2 21  8 34  0.0000000  0  8G02G07G23G09G30G06G16G05
 114765096.744 8  89427368.30146  21839076.445                    21839078.234
        48.800          37.900
 109963933.300 8  85686227.41347  20925443.047                    20925447.211
        50.500          42.600
 124172184.870 7  96757600.98544  23629189.648                    23629192.281
        43.900          28.700
 109391242.503 8  85239988.32647  20816465.133                    20816471.383
        52.600          44.300
 114134377.815 8  88935961.71246  21719056.000                    21719062.984
        52.200          40.700
 116458697.627 7  90747091.77346  22161365.266                    22161372.813
        47.000          38.900
 126941580.089 6  98915551.25043  24156182.539                    24156185.215
        41.100          20.100
 118090250.034 8  92018408.14845  22471833.633                    22471837.508
        49.500          35.700
 18  2 21  8 34 30.0000000  0  8G02G07G23G09G30G06G16G05
 114777406.296 8  89436960.14546  21841418.992                    21841420.445
        49.100          38.300
 109929744.147 8  85659586.52947  20918936.914                    20918941.270
        50.800          42.800
 124257845.054 7  96824349.13344  23645490.078                    23645493.473
        42.000          29.600
 109445877.485 8  85282561.03147  20826861.828                    20826867.836
        52.100          44.600
 114052199.933 8  88871927.03046  21703417.617                    21703424.695
        51.800          40.500
 116546663.444 7  90815636.52946  22178103.930                    22178112.008
        47.000          38.200
 126958827.610 6  98928990.88143  24159463.836                    24159468.047
        41.300          21.100
 118002912.241 8  91950352.73245  22455213.797                    22455217.930
        49.600          35.400
 18  2 21  8 35  0.0000000  0  8G02G07G23G09G30G06G16G05
 114790269.429 8  89446983.36846  21843866.820                    21843868.430
        49.000          38.300
 109896068.374 8  85633345.66847  20912528.898                    20912532.914
        49.300          42.600
 124343612.207 7  96891180.65844  23661811.125                    23661813.516
        43.200          28.000
 109500807.537 8  85325363.66247  20837314.563                    20837320.125
        50.800          44.100
 113970407.184 8  88808192.44646  21687853.242                    21687860.336
        51.600          40.800
 116634987.856 7  90884460.69046  22194912.109                    22194919.887
        47.600          38.700
 126976688.997 6  98942908.80843  24162863.078                    24162867.551
        41.100          20.400
 117915799.864 8  91882472.97145  22438636.727                    22438640.957
        50.000          35.400
 18  2 21  8 35 30.0000000  0  8G02G07G23G09G30G06G16G05
 114803685.878 8  89457437.73746  21846419.680                    21846421.461
        49.200          37.900
 109862906.843 8  85607505.52847  20906218.227                    20906222.480
        49.500          42.800
 124429485.454 6  96958094.83444  23678152.188                    23678155.113
        41.900          28.500
 109556031.688 8  85368395.45647  20847823.508                    20847829.383
        51.600          43.800
 113889001.825 8  88744759.73646  21672362.172                    21672369.266
        51.400          40.500
 116723668.227 7  90953562.23646  22211787.367                    22211795.090
        46.700          38.600
 126995164.443 6  98957305.24243  24166379.461                    24166384.133
        41.700          21.700
 117828914.974 8  91814770.45945  22422103.039                    22422107.656
        50.000          35.800
 18  2 21  8 36  0.0000000  0  8G02G07G23G09G30G06G16G05
 114817655.129 8  89468322.85746  21849077.953                    21849079.578
        49.400          38.600
 109830260.187 8  85582066.58647  20900005.883                    20900010.059
        49.400          42.500
 124515464.112 7  97025091.14144  23694514.133                    23694516.332
        44.300          27.300
 109611548.731 8  85411655.48947  20858387.953                    20858393.797
        50.700          44.300
 113807985.894 8  88681630.47046  21656945.742                    21656951.918
        51.700          40.200
 116812701.767 7  91022938.97446  22228729.773                    22228737.707
        46.600          38.600
 127014253.758 7  98972180.02643  24170011.922                    24170016.172
        42.000          21.500
 117742258.912 8  91747246.27045  22405612.938                    22405616.902
        50.400          35.700
 18  2 21  8 36 30.0000000  0  8G02G07G23G09G30G06G16G05
 114832176.840 8  89479638.46746  21851841.438                    21851843.125
        48.800          37.500
 109798129.223 8  85557029.48047  20893891.445                    20893895.574
        49.500          42.100
 124601547.276 7  97092168.90844  23710895.102                    23710897.457
        42.200          28.300
 109667357.552 8  85455142.87247  20869007.938                    20869013.641
        50.200          43.900
 113727361.536 8  88618806.31846  21641603.273                    21641609.984
        51.600          40.800
 116902085.751 7  91092588.77946  22245739.141                    22245746.762
        46.300          38.000
 127033955.694 6  98987532.21443  24173760.305                    24173765.043
        41.500          22.000
 117655834.168 8  91679902.33046  22389166.648                    22389171.230
        49.400          36.100
 18  2 21  8 37  0.0000000  0  8G02G07G23G09G30G06G16G05
 114847250.191 8  89491383.93346  21854709.484                    21854711.371
        49.000          38.100
 109766514.321 8  85532394.49047  20887875.641                    20887879.695
        50.200          42.300
 124687733.735 7  97159327.14044  23727295.320                    23727297.453
        42.900          27.600
 109723456.735 8  85498856.51847  20879683.320                    20879689.422
        50.200          44.000
 113647130.574 8  88556288.71346  21626335.758                    21626342.430
        51.600          40.200
 116991817.149 7  91162509.31446  22262814.023                    22262822.223
        46.600          38.600
 127054269.782 6  99003361.37343  24177626.203                    24177629.773
        41.100          21.500
 117569642.413 8  91612739.93145  22372765.109                    22372769.125
        50.000          35.500
 18  2 21  8 37 30.0000000  0  8G02G07G23G09G30G06G16G05
 114862874.650 8  89503558.81546  21857683.078                    21857684.840
        49.100          37.800
 109735416.405 8  85508162.35647  20881957.672                    20881961.656
        50.300          42.600
 124774022.947 7  97226565.46944  23743715.656                    23743718.598
        42.600          28.100
 109779845.317 8  85542795.66347  20890413.305                    20890419.445
        50.800          43.900
 113567295.252 8  88494079.38946  21611143.531                    21611149.961
        52.200          40.300
 117081893.439 7  91232698.59246  22279955.453                    22279963.102
        45.900          37.600
 127075196.104 7  99019667.56443  24181609.000                    24181612.836
        42.300          21.300
 117483685.706 8  91545760.68846  22356408.063                    22356412.461
        49.900          36.400
 18  2 21  8 38  0.0000000  0  8G02G07G23G09G30G06G16G05
 114879049.823 8  89516162.82946  21860761.125                    21860763.082
        48.700          37.400
 109704835.832 8  85484333.34347  20876138.789                    20876142.504
        49.300          42.100
 124860414.021 7  97293883.13044  23760155.813                    23760158.371
        42.900          29.400
 109836522.129 8  85586959.40647  20901198.672                    20901205.199
        50.100          43.600
 113487857.622 8  88432179.96346  21596026.805                    21596033.070
        52.300          40.300
 117172311.667 7  91303154.33246  22297161.219                    22297169.535
        46.200          38.000
 127096733.819 7  99036450.20243  24185707.500                    24185711.902
        42.000          21.500
 117397965.971 8  91478966.09646  22340096.195                    22340100.176
        50.200          36.100
 18  2 21  8 38 30.0000000  0  8G02G07G23G09G30G06G16G05
 114895775.174 8  89529195.55446  21863943.969                    21863945.738
        49.100          37.400
 109674773.572 8  85460908.21647  20870418.047                    20870421.770
        50.500          42.300
 124946906.075 7  97361279.50244  23776614.320                    23776617.105
        43.200          27.700
 109893485.995 8  85631346.82747  20912038.594                    20912044.773
        51.100          43.900
 113408819.768 8  88370592.06546  21580986.578                    21580993.129
        52.100          40.500
 117263069.066 7  91373874.34746  22314431.922                    22314440.137
        46.300          38.300
 127118882.521 7  99053708.91243  24189923.070                    24189926.410
        42.600          21.300
 117312485.468 8  91412357.91945  22323829.703                    22323833.930
        48.700          35.400
 18  2 21  8 39  0.0000000  0  8G02G07G23G09G30G06G16G05
 114913049.660 8  89542656.18146  21867230.859                    21867232.742
        49.000          36.700
 109645229.652 8  85437887.00847  20864795.789                    20864799.555
        51.100          42.800
 125033498.292 7  97428753.91644  23793092.492                    23793095.152
        43.500          28.300
 109950735.637 8  85675956.92347  20922932.945                    20922938.965
        52.100          43.400
 113330183.480 8  88309317.07146  21566022.680                    21566028.945
        52.300          40.600
 117354162.675 7  91444856.33946  22331766.719                    22331774.688
        47.000          37.700
 127141641.374 7  99071443.08743  24194252.742                    24194257.063
        42.100          21.800
 117227245.905 8  91345937.48445  22307608.609                    22307613.664
        49.200          35.800
 18  2 21  8 39 30.0000000  0  8G02G07G23G09G30G06G16G05
 114930873.103 7  89556544.56446  21870622.461                    21870624.594
        47.700          37.300
 109616205.097 8  85415270.47747  20859272.602                    20859276.617
        49.800          42.300
 125120189.894 7  97496305.77044  23809589.414                    23809591.902
        43.700          27.000
 110008270.071 8  85720788.94247  20933881.492                    20933887.520
        51.600          44.300
 113251951.031 8  88248356.76546  21551135.273                    21551141.977
        52.800          41.300
 117445589.862 7  91516098.26046  22349164.516                    22349172.555
        46.400          37.800
 127165010.176 6  99089652.52743  24198699.852                    24198703.586
        41.100          20.900
 117142249.688 8  91279706.67245  22291434.813                    22291439.219
        48.800          35.800
 18  2 21  8 40  0.0000000  0  8G02G07G23G09G30G06G16G05
 114949244.701 8  89570860.09246  21874118.461                    21874120.625
        48.600          37.900
 109587700.498 8  85393059.11247  20853848.563                    20853852.555
        50.600          42.700
 125206979.740 7  97563934.17544  23826104.555                    23826107.996
        42.200          27.400
 110066088.059 8  85765841.91047  20944883.914                    20944889.938
        52.100          43.500
 113174124.334 8  88187712.64446  21536325.430                    21536331.902
        52.100          41.100
 117537347.709 7  91587597.84446  22366625.898                    22366633.637
        46.800          38.000
 127188987.895 6  99108336.46743  24203262.906                    24203266.141
        40.600          21.500
 117057498.462 8  91213666.75745  22275307.055                    22275311.879
        48.400          35.200
 18  2 21  8 40 30.0000000  0  8G02G07G23G09G30G06G16G05
 114968163.622 8  89585602.09346  21877719.188                    21877720.480
        48.400          37.800
 109559715.766 8  85371252.83347  20848523.047                    20848527.031
        50.200          42.200
 125293867.105 6  97631638.56844  23842639.500                    23842641.930
        41.700          27.500
 110124188.204 8  85811114.74147  20955940.063                    20955946.395
        52.300          43.900
 113096705.118 8  88127386.02646  21521592.914                    21521599.406
        52.400          41.300
 117629433.190 7  91659352.72346  22384148.883                    22384157.492
        46.200          37.900
 127213573.851 6  99127494.31643  24207940.828                    24207945.305
        40.500          21.700
 116972993.906 7  91147819.05545  22259226.273                    22259231.211
        47.600          35.900
 18  2 21  8 41  0.0000000  0  8G02G07G23G09G30G06G16G05
 114987629.365 8  89600770.18046  21881423.305                    21881425.055
        48.500          38.200
 109532252.040 8  85349852.53446  20843296.602                    20843300.930
        50.900          41.900
 125380851.512 7  97699418.57644  23859191.734                    23859194.195
        43.500          27.400
 110182569.781 8  85856606.86447  20967049.586                    20967055.891
        52.300          44.300
 113019695.723 8  88067378.72446  21506938.344                    21506945.266
        51.900          41.600
 117721843.829 7  91731360.97846  22401733.984                    22401742.313
        46.000          37.300
 127238767.244 6  99147125.53143  24212735.289                    24212739.719
        40.000          21.500
 116888739.086 8  91082165.95245  22243193.063                    22243197.680
        48.100          35.700
 18  2 21  8 41 30.0000000  0  8G02G07G23G09G30G06G16G05
 115007640.939 8  89616363.60546  21885230.906                    21885232.996
        49.000          37.200
 109505309.648 8  85328858.47747  20838169.617                    20838173.945
        50.900          42.200
 125467931.926 6  97767273.41644  23875761.781                    23875765.117
        41.600          25.800
 110241231.419 8  85902317.22047  20978212.547                    20978218.699
        52.100          43.800
 112943098.030 8  88007692.25046  21492362.359                    21492369.355
        52.500          41.900
 117814576.646 7  91803620.29046  22419380.188                    22419388.250
        46.300          36.900
 127264567.776 6  99167229.79243  24217644.594                    24217648.656
        39.200          20.600
 116804734.659 8  91016707.95645  22227207.734                    22227212.480
        48.100          35.500
 18  2 21  8 42  0.0000000  0  8G02G07G23G09G30G06G16G05
 115028197.672 8  89632381.81946  21889143.039                    21889145.262
        49.000          37.700
 109478888.927 8  85308270.90646  20833142.000                    20833145.844
        51.000          41.700
 125555107.477 7  97835202.35244  23892351.695                    23892354.066
        42.600          26.300
 110300171.853 8  85948244.81747  20989428.648                    20989435.016
        52.600          43.700
 112866913.824 8  87948327.98246  21477864.852                    21477871.934
        51.900          41.800
 117907628.552 7  91876128.22346  22437088.188                    22437095.676
        47.200          36.800
 127290974.686 6  99187806.58143  24222670.281                    24222673.164
        39.700          20.600
 116720983.333 8  90951447.18946  22211270.391                    22211274.801
        48.300          36.200
 18  2 21  8 42 30.0000000  0  8G02G07G23G09G30G06G16G05
 115049298.863 8  89648824.28646  21893158.391                    21893160.367
        48.600          37.800
 109452990.241 8  85288090.12847  20828213.820                    20828217.844
        50.800          42.400
 125642377.033 7  97903204.56444  23908958.719                    23908960.691
        43.400          27.000
 110359389.906 8  85994388.74747  21000697.453                    21000703.578
        52.900          44.400
 112791144.947 8  87889287.31347  21463446.844                    21463453.621
        52.200          42.100
 118000996.727 7  91948882.60546  22454855.531                    22454863.051
        45.800          36.700
 127317986.378 6  99208854.59243  24227809.961                    24227814.203
        39.200          21.100
 116637487.572 8  90886385.55445  22195381.719                    22195386.238
        48.500          35.900
 18  2 21  8 43  0.0000000  0  8G02G07G23G09G30G06G16G05
 115070943.791 8  89665690.44746  21897277.695                    21897279.285
        49.200          37.700
 109427614.456 8  85268316.81147  20823384.453                    20823389.375
        50.000          42.200
 125729740.344 7  97971279.82844  23925583.000                    23925585.008
        42.600          25.500
 110418884.759 8  86040748.36047  21012018.875                    21012024.820
        53.000          43.700
 112715793.746 8  87830572.09647  21449107.891                    21449114.422
        52.600          42.000
 118094678.646 7  92021881.47146  22472682.563                    22472690.211
        45.700          36.600
 127345603.159 6  99230374.15243  24233065.367                    24233069.875
        38.700          20.400
 116554248.644 8  90821524.05146  22179541.977                    22179546.527
        49.700          36.100
 18  2 21  8 43 30.0000000  0  8G02G07G23G09G30G06G16G05
 115093131.747 8  89682979.75146  21901499.938                    21901501.492
        48.700          37.900
 109402761.961 8  85248951.23747  20818655.320                    20818659.559
        50.300          42.500
 125817196.388 6  98039427.35444  23942225.492                    23942227.711
        41.600          24.700
 110478655.051 8  86087322.59647  21023392.672                    21023399.297
        52.800          43.500
 112640861.937 8  87772183.68247  21434848.578                    21434855.371
        52.400          42.100
 118188671.207 7  92095122.40845  22490568.797                    22490576.559
        46.300          35.900
 127373823.238 6  99252363.78043  24238436.125                    24238440.176
        39.600          20.600
 116471269.146 8  90756864.69546  22163751.461                    22163755.629
        48.100          37.300
 18  2 21  8 44  0.0000000  0  8G02G07G23G09G30G06G16G05
 115115861.765 8  89700691.43846  21905825.250                    21905826.898
        48.800          37.100
 109378433.034 8  85229993.65047  20814025.758                    20814030.105
        50.900          42.500
 125904744.453 6  98107646.58944  23958885.344                    23958887.313
        41.600          26.200
 110538699.888 8  86134110.77647  21034818.938                    21034825.242
        53.000          43.700
 112566351.683 8  87714123.74947  21420670.031                    21420676.758
        52.300          42.500
 118282971.828 7  92168603.38745  22508513.469                    22508521.324
        45.500          35.600
 127402646.585 6  99274823.51243  24243920.000                    24243924.469
        39.800          22.000
 116388550.922 8  90692408.94546  22148011.063                    22148015.148
        48.400          36.900
 18  2 21  8 44 30.0000000  0  8G02G07G23G09G30G06G16G05
 115139132.850 8  89718824.73846  21910253.305                    21910255.504
        48.600          37.100
 109354627.757 8  85211444.09447  20809495.570                    20809499.879
        50.700          42.600
 125992383.433 7  98175936.65944  23975561.594                    23975565.063
        42.200          26.400
 110599017.814 8  86181111.75347  21046297.102                    21046303.434
        52.900          43.300
 112492264.512 8  87656393.50447  21406572.000                    21406578.574
        52.000          43.000
 118377577.181 7  92242321.81445  22526515.875                    22526523.691
        45.700          35.300
 127432071.701 6  99297752.14743  24249520.203                    24249524.445
        40.900          21.500
 116306095.751 8  90628158.16446  22132320.219                    22132324.457
        48.400          36.900
 18  2 21  8 45  0.0000000  0  8G02G07G23G09G30G06G16G05
 115162944.265 8  89737379.08046  21914784.398                    21914786.496
        48.800          37.000
 109331346.727 8  85193303.03547  20805065.555                    20805069.723
        50.300          42.700
 126080112.582 7  98244296.97444  23992257.078                    23992258.820
        42.100          25.800
 110659607.663 8  86228324.61147  21057826.852                    21057833.605
        53.000          43.800
 112418602.346 8  87598994.41947  21392554.594                    21392561.047
        52.700          42.400
 118472484.484 7  92316275.53145  22544576.367                    22544584.180
        45.800          35.000
 127462097.992 7  99321149.22343  24255234.539                    24255238.531
        42.200          22.000
 116223905.792 8  90564114.04946  22116680.500                    22116684.465
        49.300          37.500
 18  2 21  8 45 30.0000000  0  8G02G07G23G09G30G06G16G05
 115187294.834 8  89756353.52746  21919418.469                    21919420.320
        48.800          36.800
 109308590.260 8  85175570.73547  20800735.273                    20800739.395
        51.600          42.400
 126167931.192 6  98312727.01544  24008968.242                    24008970.715
        40.600          24.900
 110720468.315 8  86275748.48347  21069408.430                    21069414.734
        52.700          44.000
 112345367.044 8  87541927.94747  21378618.063                    21378625.156
        51.700          42.000
 118567690.813 7  92390462.23145  22562693.711                    22562701.234
        44.800          35.100
 127492724.215 6  99345013.79443  24261061.875                    24261066.012
        41.900          23.000
 116141982.954 8  90500278.08346  22101090.852                    22101094.789
        49.800          36.700
 18  2 21  8 46  0.0000000  0  8G02G07G23G09G30G06G16G05
 115212183.744 7  89775747.48546  21924154.195                    21924156.434
        47.800          37.000
 109286358.309 8  85158247.14847  20796504.797                    20796508.637
        51.300          43.000
 126255838.587 7  98381226.26944  24025696.203                    24025699.059
        42.000          24.700
 110781598.666 8  86323382.51747  21081041.086                    21081047.410
        53.600          43.900
 112272560.501 8  87485195.58147  21364763.797                    21364770.230
        52.600          42.500
 118663193.312 7  92464879.72045  22580866.844                    22580875.211
        44.800          35.000
 127523949.465 6  99369345.12543  24267004.016                    24267008.227
        41.800          21.100
 116060329.460 8  90436651.98846  22085552.242                    22085556.813
        50.800          37.600
 18  2 21  8 46 30.0000000  0  8G02G07G23G09G30G06G16G05
 115237610.088 8  89795560.19546  21928992.320                    21928994.613
        48.000          36.300
 109264651.393 8  85141332.68247  20792374.180                    20792378.422
        51.300          42.800
 126343833.939 6  98449794.02644  24042441.266                    24042444.340
        41.400          25.600
 110842997.408 8  86371225.68247  21092724.703                    21092731.223
        53.200          43.700
 112200184.462 8  87428798.67747  21350991.203                    21350997.742
        52.700          42.900
 118758988.916 7  92539525.59145  22599096.555                    22599104.816
        44.900          34.400
 127555772.855 6  99394142.55743  24273059.703                    24273064.309
        41.600          22.000
 115978946.920 8  90373237.03346  22070065.734                    22070070.273
        49.900          37.500
 18  2 21  8 47  0.0000000  0  8G02G07G23G09G30G06G16G05
 115263572.735 7  89815790.80946  21933933.383                    21933935.020
        47.400          36.500
 109243469.888 8  85124827.61947  20788343.094                    20788347.555
        50.500          42.100
 126431915.764 6  98518429.15644  24059202.898                    24059205.031
        41.400          24.700
 110904663.541 8  86419277.20447  21104459.500                    21104465.520
        52.900          43.600
 112128240.860 8  87372738.72147  21337300.422                    21337306.848
        53.200          42.600
 118855074.905 7  92614397.74645  22617381.070                    22617389.410
        45.100          35.000
 127588193.403 6  99419405.28743  24279229.344                    24279233.504
        40.000          21.800
 115897837.111 8  90310034.58546  22054631.164                    22054634.988
        48.800          37.300
 18  2 21  8 47 30.0000000  0  8G02G07G23G09G30G06G16G05
 115290070.818 7  89836438.66846  21938975.844                    21938977.887
        47.000          36.000
 109222814.066 8  85108732.15647  20784412.516                    20784416.785
        51.400          42.100
 126520083.896 6  98587131.54544  24075980.781                    24075983.230
        41.500          24.100
 110966595.965 8  86467536.22047  21116244.820                    21116251.078
        52.500          43.900
 112056731.463 8  87317017.11447  21323692.664                    21323699.145
        52.800          42.700
 118951448.285 7  92689493.85345  22635720.531                    22635728.148
        44.400          35.100
 127621210.482 6  99445132.86943  24285511.977                    24285516.699
        40.100          21.500
 115817003.632 8  90247047.47046  22039248.828                    22039252.938
        49.700          37.100
 18  2 21  8 48  0.0000000  0  8G02G07G23G09G30G06G16G05
 115317103.502 7  89857503.09646  21944119.828                    21944121.719
        47.500          36.000
 109202684.441 8  85093046.75047  20780582.063                    20780585.984
        51.700          42.800
 126608337.790 7  98655900.75544  24092775.406                    24092777.313
        43.400          26.000
 111028793.649 8  86516001.93947  21128080.945                    21128086.922
        53.100          43.900
 111985658.311 8  87261635.44847  21310167.844                    21310174.348
        52.200          42.600
 119048106.347 7  92764811.78045  22654113.922                    22654121.660
        45.100          35.000
 127654822.228 6  99471323.81243  24291908.156                    24291912.414
        39.600          21.800
 115736447.781 8  90184276.68546  22023919.789                    22023923.945
        49.700          37.200
 18  2 21  8 48 30.0000000  0  8G02G07G23G09G30G06G16G05
 115344669.605 7  89878983.17145  21949365.430                    21949366.941
        46.900          35.500
 109183080.876 8  85077771.24847  20776851.734                    20776855.613
        51.200          42.200
 126696676.181 7  98724735.82344  24109585.234                    24109587.809
        43.000          25.800
 111091255.267 8  86564673.31847  21139967.070                    21139973.270
        53.200          43.800
 111915022.930 8  87206594.89547  21296726.281                    21296732.941
        52.700          42.700
 119145045.931 7  92840349.07245  22672561.039                    22672568.977
        44.700          34.800
 127689027.627 6  99497977.33043  24298417.148                    24298421.711
        36.300          20.900
 115656170.758 8  90121723.16046  22008643.180                    22008647.742
        49.600          37.300
 18  2 21  8 49  0.0000000  0  8G02G07G23G09G30G06G16G05
 115372767.964 7  89900877.98646  21954712.375                    21954714.227
        47.700          36.100
 109164003.412 8  85062905.69747  20773221.367                    20773225.270
        51.200          42.300
 126785098.602 7  98793636.36844  24126411.445                    24126413.684
        43.000          24.600
 111153979.608 8  86613549.42047  21151902.875                    21151909.273
        53.000          43.600
 111844827.037 8  87151896.79847  21283368.313                    21283375.168
        52.200          42.700
 119242264.022 7  92916103.39145  22691060.688                    22691068.941
        45.700          34.600
 127723825.774 6  99525092.75143  24305039.352                    24305042.938
        38.300          20.400
 115576175.546 8  90059389.23746  21993420.555                    21993425.270
        48.300          37.600
 18  2 21  8 49 30.0000000  0  8G02G07G23G09G30G06G16G05
 115401397.681 7  89923186.84145  21960160.516                    21960162.188
        47.100          35.600
 109145452.642 8  85048450.55546  20769691.305                    20769695.102
        51.400          41.900
 126873604.267 7  98862601.76744  24143253.211                    24143256.211
        43.800          25.400
 111216965.722 8  86662629.49847  21163888.805                    21163895.133
        52.800          43.800
 111775072.575 8  87097542.68847  21270094.602                    21270100.980
        52.000          42.900
 119339757.872 7  92992072.58945  22709613.148                    22709621.195
        45.600          34.900
 127759215.651 6  99552669.27243  24311773.336                    24311778.238
        36.500          20.900
 115496463.326 8  89997275.81546  21978252.102                    21978256.633
        49.700          37.800
 18  2 21  8 50  0.0000000  0  8G02G07G23G09G30G06G16G05
 115430557.559 7  89945908.82845  21965709.570                    21965711.148
        47.200          35.400
 109127428.618 8  85034405.86947  20766261.828                    20766265.473
        49.500          42.500
 126962191.892 7  98931631.02644  24160110.867                    24160114.039
        42.800          26.400
 111280212.582 8  86711912.75747  21175924.320                    21175930.738
        52.600          43.600
 111705761.406 8  87043533.99347  21256904.961                    21256911.793
        52.300          42.700
 119437524.643 7  93068254.45345  22728217.453                    22728225.559
        46.300          34.100
 127795196.441 6  99580706.17943  24318620.570                    24318625.648
        37.900          20.400
 115417037.536 8  89935385.59646  21963137.719                    21963142.176
        49.100          38.500
 18  2 21  8 50 30.0000000  0  8G02G07G23G09G30G06G16G05
 115460246.024 7  89969042.69045  21971359.094                    21971360.910
        46.400          35.600
 109109931.079 8  85020771.45347  20762931.609                    20762935.563
        51.900          42.300
 127050860.991 7  99000723.76644  24176984.359                    24176986.895
        43.500          26.800
 111343718.554 8  86761397.92347  21188008.828                    21188015.586
        52.300          43.600
 111636894.750 8  86989871.67747  21243800.109                    21243806.781
        52.800          43.100
 119535560.931 7  93144646.34045  22746873.180                    22746881.109
        45.500          33.600
 127831765.903 6  99609201.87643  24325578.406                    24325583.355
        37.700          20.100
 115337899.097 8  89873719.27846  21948078.383                    21948082.684
        49.500          37.800
 18  2 21  8 51  0.0000000  0  8G02G07G23G09G30G06G16G05
 115490462.731 7  89992588.15145  21977109.211                    21977111.012
        45.900          35.700
 109092960.915 8  85007547.94947  20759702.258                    20759706.246
        51.700          42.600
 127139611.273 7  99069879.79344  24193873.219                    24193875.461
        43.600          25.500
 111407483.165 8  86811084.62447  21200142.922                    21200149.609
        52.300          43.300
 111568474.995 8  86936557.59347  21230780.305                    21230787.051
        52.700          43.400
 119633864.405 7  93221246.40245  22765579.898                    22765587.891
        45.300          34.200
 127868923.781 6  99638156.01043  24332651.078                    24332654.797
        36.900          20.600
 115259050.530 8  89812278.83846  21933073.859                    21933078.766
        50.500          39.000
 18  2 21  8 51 30.0000000  0  8G02G07G23G09G30G06G16G05
 115521205.801 7  90016543.78146  21982959.664                    21982961.332
        46.400          36.700
 109076517.701 8  84994735.06247  20756573.172                    20756577.020
        51.000          42.500
 127228441.494 7  99139098.07244  24210777.523                    24210779.906
        42.400          26.200
 111471504.821 8  86860971.62547  21212326.031                    21212332.980
        52.400          43.600
 111500503.409 8  86883592.73147  21217845.828                    21217852.727
        53.000          43.200
 119732431.612 7  93298051.97745  22784336.641                    22784344.762
        45.000          34.200
 127906668.796 6  99667567.69443  24339832.477                    24339837.527
        37.100          19.600
 115180493.572 8  89751065.62346  21918125.422                    21918129.715
        50.000          38.900
 18  2 21  8 52  0.0000000  0  8G02G07G23G09G30G06G16G05
 115552474.596 7  90040909.04646  21988909.813                    21988911.355
        46.400          36.400
 109060601.742 8  84982333.01647  20753544.609                    20753548.418
        51.200          42.200
 127317351.082 7  99208378.21644  24227695.867                    24227698.938
        43.000          25.600
 111535782.643 8  86911058.22447  21224557.625                    21224564.254
        52.000          43.100
 111432981.861 8  86830978.53547  21204996.914                    21205003.723
        52.900          43.700
 119831259.967 7  93375061.05145  22803142.742                    22803150.973
        45.200          33.400
 127944999.560 6  99697435.84143  24347126.680                    24347131.645
        37.600          19.600
 115102230.322 8  89690081.26946  21903232.453                    21903236.527
        50.000          38.900
 18  2 21  8 52 30.0000000  0  8G02G07G23G09G30G06G16G05
 115584267.440 7  90065682.68046  21994959.844                    21994961.902
        46.200          36.400
 109045212.799 8  84970341.63747  20750616.141                    20750619.898
        49.800          42.400
 127406338.976 7  99277719.37844  24244629.461                    24244632.656
        43.400          25.600
 111600315.288 8  86961343.39047  21236837.875                    21236843.848
        52.700          42.900
 111365911.906 8  86778716.24947  21192233.695                    21192240.891
        52.800          43.700
 119930346.208 7  93452271.07445  22821998.344                    22822006.480
        45.300          33.500
 127983913.932 6  99727758.67643  24354532.781                    24354537.445
        38.900          20.100
 115024262.718 8  89629327.29446  21888395.242                    21888399.816
        48.600          38.300
 18  2 21  8 53  0.0000000  0  8G02G07G23G09G30G06G16G05
 115616583.515 7  90090864.02746  22001109.148                    22001110.984
        46.700          36.700
 109030351.340 8  84958761.27747  20747788.289                    20747792.055
        51.400          42.400
 127495404.756 6  99347121.21844  24261578.742                    24261581.508
        41.800          25.600
 111665101.898 8  87011826.44747  21249165.977                    21249172.426
        52.000          43.900
 111299295.392 8  86726807.28747  21179557.273                    21179564.070
        53.300          44.000
 120029687.606 7  93529679.92245  22840902.500                    22840910.500
        44.800          33.300
 128023411.480 6  99758535.96143  24362048.516                    24362052.957
        39.200          20.100
 114946593.567 8  89568805.86946  21873615.281                    21873620.055
        50.300          39.200
 18  2 21  8 53 30.0000000  0  9G02G07G23G09G30G06G13G16G05
 115649421.218 7  90116451.82446  22007358.391                    22007359.934
        45.900          36.000
 109016017.288 8  84947591.88946  20745060.242                    20745064.594
        51.800          41.700
 127584547.579 7  99416583.11244  24278541.836                    24278545.758
        43.700          24.800
 111730141.294 8  87062506.49247  21261542.758                    21261549.129
        52.700          43.300
 111233133.933 8  86675252.91047  21166967.016                    21166974.207
        53.000          44.100
 120129281.199 7  93607285.27145  22859854.344                    22859862.906
        45.000          33.800
 130766820.594 6 101896273.60442  24884104.234                    24884109.789
        38.200          17.400
 128063490.504 6  99789766.34643  24369674.836                    24369680.328
        38.700          21.700
 114869224.733 8  89508518.46946  21858892.648                    21858896.934
        50.500          38.900
 18  2 21  8 54  0.0000000  0  9G02G07G23G09G30G06G13G16G05
 115682779.747 7  90142445.47246  22013705.617                    22013707.734
        46.400          36.300
 109002210.966 8  84936833.71147  20742433.336                    20742437.422
        51.400          42.400
 127673766.899 7  99486104.60244  24295519.773                    24295522.969
        43.100          25.200
 111795432.510 8  87113382.73947  21273967.313                    21273973.730
        53.000          42.600
 111167429.333 8  86624054.53447  21154463.555                    21154470.910
        53.500          43.600
 120229124.150 7  93685084.93645  22878854.211                    22878862.453
        45.000          33.300
 130666924.471 6 101818432.44643  24865094.672                    24865100.695
        38.500          18.600
 128104150.422 6  99821449.35643  24377412.953                    24377417.516
        40.000          20.100
 114792157.895 8  89448466.38846  21844227.531                    21844231.664
        50.300          38.800
 18  2 21  8 54 30.0000000  0  9G02G07G23G09G30G06G13G16G05
 115716657.691 7  90168843.86045  22020152.508                    22020154.609
        46.100          35.900
 108988931.948 8  84926486.42646  20739906.047                    20739910.105
        51.700          41.800
 127763061.702 7  99555684.90943  24312512.102                    24312515.152
        42.800          23.800
 111860974.127 8  87164454.12547  21286439.344                    21286446.086
        52.500          43.100
 111102182.919 8  86573213.18447  21142047.742                    21142054.820
        53.500          44.400
 120329213.169 7  93763076.34945  22897900.469                    22897908.668
        45.600          32.600
 130567103.301 6 101740649.73543  24846099.938                    24846105.141
        38.400          18.300
 128145389.372 6  99853583.61243  24385261.063                    24385264.770
        40.400          20.400
 114715394.888 8  89388651.06246  21829619.898                    21829623.996
        50.300          38.900
 18  2 21  8 55  0.0000000  0  9G02G07G23G09G30G06G13G16G05
 115751053.340 7  90195645.66345  22026698.219                    22026699.922
        46.600          35.500
 108976180.064 8  84916549.89747  20737479.258                    20737483.750
        51.600          42.500
 127852431.147 7  99625323.38744  24329517.813                    24329521.965
        43.100          25.200
 111926765.078 8  87215719.78347  21298959.109                    21298965.020
        52.500          43.200
 111037396.324 8  86522730.12447  21129719.438                    21129726.254
        52.800          43.900
 120429545.372 7  93841257.25245  22916993.000                    22917000.859
        45.000          32.600
 130467358.563 6 101662926.51643  24827119.664                    24827123.898
        38.600          20.400
 128187205.494 6  99886167.56443  24393217.938                    24393221.957
        41.400          21.300
 114638937.972 8  89329074.23746  21815070.945                    21815074.699
        51.200          39.200
 18  2 21  8 55 30.0000000  0  9G02G07G23G09G30G06G13G16G05
 115785965.743 7  90222850.12545  22033341.430                    22033343.801
        46.300          35.800
 108963955.607 8  84907024.34247  20735153.367                    20735157.699
        52.100          42.300
 127941874.790 6  99695019.66544  24346539.000                    24346542.250
        41.100          24.700
 111992804.371 8  87267178.96347  21311526.094                    21311532.309
        53.000          43.300
 110973071.249 8  86472606.69647  21117478.641                    21117485.082
        51.900          43.600
 120530117.896 7  93919625.43145  22936131.563                    22936140.074
        45.600          33.200
 130367690.634 6 101585263.25043  24808152.859                    24808158.293
        38.000          19.000
 128229597.744 6  99919200.48643  24401284.547                    24401288.902
        41.700          20.900
 114562789.541 8  89269737.80546  21800579.805                    21800583.969
        51.100          38.700
 18  2 21  8 56  0.0000000  0  9G02G07G23G09G30G06G13G16G05
 115821393.399 7  90250456.08845  22040083.625                    22040085.406
        47.500          35.800
 108952258.407 8  84897909.64447  20732927.289                    20732931.426
        52.100          42.100
 128031391.575 7  99764772.92844  24363574.078                    24363576.535
        42.500          25.800
 112059090.949 8  87318830.82947  21324139.844                    21324146.242
        53.300          43.200
 110909209.342 8  86422844.17047  21105326.219                    21105333.199
        52.600          43.600
 120630927.804 7  93998178.58245  22955314.984                    22955323.129
        44.700          33.100
 130268100.727 6 101507660.69943  24789201.828                    24789206.883
        39.000          19.900
 128272564.364 6  99952680.93743  24409461.094                    24409465.336
        41.100          21.100
 114486951.937 8  89210643.56446  21786148.125                    21786152.961
        50.800          38.700
 18  2 21  8 56 30.0000000  0  9G02G07G23G09G30G06G13G16G05
 115857334.927 8  90278462.46245  22046922.656                    22046925.074
        48.300          35.800
 108941088.892 8  84889206.13347  20730801.875                    20730806.051
        52.700          42.700
 128120981.115 6  99834582.92444  24380621.875                    24380625.574
        41.400          24.700
 112125623.730 8  87370674.53847  21336800.938                    21336807.203
        52.100          42.800
 110845812.228 8  86373443.82847  21093261.742                    21093268.773
        51.900          43.400
 120731972.164 7  94076914.41345  22974543.203                    22974551.289
        44.900          32.700
 130168589.643 6 101430119.61243  24770265.266                    24770270.973
        38.200          19.600
 128316104.478 6  99986608.28043  24417746.773                    24417750.344
        41.500          20.900
 114411427.013 8  89151792.98346  21771776.320                    21771780.621
        51.200          38.800
 18  2 21  8 57  0.0000000  0  9G02G07G23G09G30G06G13G16G05
 115893788.889 7  90306868.12745  22053859.773                    22053861.680
        47.800          35.600
 108930446.459 8  84880913.32547  20728776.758                    20728780.813
        51.900          42.500
 128210642.591 6  99904448.92844  24397684.492                    24397687.488
        41.700          26.300
 112192401.587 8  87422709.21847  21349508.133                    21349514.527
        53.100          43.200
 110782881.326 8  86324406.76647  21081286.570                    21081293.434
        52.000          43.700
 120833247.892 7  94155830.52645  22993814.781                    22993823.504
        45.100          32.800
 130069157.581 6 101352640.12243  24751343.383                    24751349.281
        38.300          19.600
 128360216.375 7 100020981.19643  24426141.461                    24426144.281
        42.200          20.600
 114336216.668 8  89093187.52546  21757464.328                    21757468.734
        51.100          38.900
 18  2 21  8 57 30.0000000  0  9G02G07G23G09G30G06G13G16G05
 115930753.692 7  90335671.83745  22060893.656                    22060895.586
        47.800          35.100
 108920330.932 8  84873031.10647  20726851.703                    20726856.121
        52.100          42.200
 128300375.123 6  99974370.34944  24414759.797                    24414762.758
        41.900          24.600
 112259423.363 8  87474933.96347  21362261.781                    21362268.520
        52.500          42.800
 110720418.240 8  86275734.22747  21069400.563                    21069407.180
        51.900          43.800
 120934752.066 7  94234924.65545  23013130.922                    23013139.172
        44.900          32.700
 129969805.916 6 101275223.23743  24732437.555                    24732443.457
        39.500          19.000
 128404898.337 6 100055798.26643  24434643.711                    24434647.207
        41.600          20.600
 114261323.003 8  89034828.83046  21743212.617                    21743216.984
        51.700          37.700
 18  2 21  8 58  0.0000000  0  9G02G07G23G09G30G06G13G16G05
 115968228.303 7  90364872.81345  22068025.164                    22068027.012
        47.700          35.700
 108910742.297 8  84865559.44047  20725027.367                    20725031.445
        52.400          42.700
 128390178.193 6 100044346.69243  24431848.586                    24431851.813
        41.600          23.900
 112326687.976 8  87527347.93447  21375061.852                    21375068.242
        52.500          42.900
 110658424.432 8  86227427.35847  21057603.273                    21057609.930
        51.900          43.700
 121036481.654 7  94314194.43045  23032489.102                    23032497.531
        45.100          32.400
 129870535.156 6 101197869.42643  24713546.695                    24713552.586
        39.400          19.000
 128450148.721 6 100091058.28343  24443254.430                    24443256.855
        41.800          19.000
 114186747.636 8  88976718.15646  21729021.242                    21729025.777
        51.200          38.900
 18  2 21  8 58 30.0000000  0  9G02G07G23G09G30G06G13G16G05
 116006211.264 8  90394469.90646  22075253.242                    22075254.797
        48.200          36.200
 108901680.659 8  84858498.42147  20723302.789                    20723306.832
        52.700          43.000
 128480050.842 6 100114377.27844  24448951.672                    24448954.402
        41.500          25.400
 112394194.379 8  87579950.30947  21387908.039                    21387914.594
        52.400          43.300
 110596901.467 8  86179487.38947  21045895.867                    21045902.766
        51.700          43.800
 121138433.708 7  94393637.54145  23051890.086                    23051898.773
        44.500          32.800
 129771346.116 6 101120579.29243  24694672.156                    24694677.371
        38.700          18.600
 128495966.540 6 100126760.42943  24451972.914                    24451976.488
        40.900          19.000
 114112492.656 8  88918857.14346  21714891.188                    21714895.379
        51.600          38.800
 18  2 21  8 59  0.0000000  0  9G02G07G23G09G30G06G13G16G05
 116044700.856 8  90424461.79246  22082577.477                    22082578.980
        48.400          36.200
 108893145.675 8  84851847.79047  20721678.891                    20721683.074
        52.300          42.600
 128569992.569 7 100184461.68644  24466067.430                    24466069.719
        42.500          24.700
 112461941.405 8  87632740.18147  21400799.742                    21400806.133
        53.200          42.700
 110535850.802 8  86131915.44947  21034277.930                    21034285.270
        51.900          43.200
 121240605.237 7  94473251.66745  23071333.078                    23071341.512
        43.300          31.900
 129672239.643 6 101043353.47943  24675812.938                    24675817.578
        39.200          18.600
 128542349.842 6 100162903.26643  24460798.813                    24460803.477
        39.800          19.600
 114038560.740 8  88861247.85846  21700822.180                    21700826.875
        51.500          38.500
 18  2 21  8 59 30.0000000  0  9G02G07G23G09G30G06G13G16G05
 116083695.787 7  90454847.45146  22089998.258                    22089999.563
        47.300          36.800
 108885137.158 8  84845607.38647  20720154.563                    20720159.074
        52.500          42.900
 128660002.871 7 100254599.51044  24483194.609                    24483198.242
        42.900          24.600
 112529928.142 8  87685716.84947  21413737.328                    21413743.684
        51.900          42.600
 110475274.027 8  86084712.76647  21022750.742                    21022757.855
        52.100          43.500
 121342993.367 7  94553034.57445  23090816.781                    23090825.285
        44.300          31.700
 129573216.505 6 100966192.65642  24656968.148                    24656974.539
        36.900          17.800
 128589297.160 6 100199485.49643  24469733.820                    24469736.676
        39.900          19.000
 113964954.514 8  88803892.35446  21686815.438                    21686820.156
        51.600          38.800
                            4  1
RINEX FILE SPLICE; other post-header comments skipped       COMMENT
 18  2 21  9  0  0.0000000  0  9G02G07G23G09G30G06G13G16G05
 116123194.382 8  90485625.57946  22097514.992                    22097515.961
        48.800          36.600
 108877654.920 8  84839777.07647  20718730.867                    20718735.164
        52.900          42.600
 128750080.586 6 100324789.87544  24500334.578                    24500339.480
        41.800          25.300
 112598153.439 8  87738879.40347  21426720.281                    21426726.574
        52.900          43.400
 110415172.629 8  86037880.50547  21011313.961                    21011320.859
        52.600          43.000
 121445595.108 7  94632983.92945  23110341.117                    23110349.645
        43.700          31.800
 129474277.680 6 100889097.48043  24638141.359                    24638147.012
        37.500          18.600
 128636806.539 6 100236505.77942  24478774.195                    24478777.410
        39.800          17.400
 113891675.452 8  88746791.78646  21672871.250                    21672875.559
        51.500          39.400
 18  2 21  9  0 30.0000000  0  9G02G07G23G09G30G06G13G16G05
 116163195.324 7  90516795.13446  22105126.484                    22105127.969
        47.100          36.900
 108870698.847 8  84834356.76447  20717407.453                    20717411.289
        52.700          42.600
 128840225.282 7 100395032.42743  24517490.281                    24517493.055
        42.100          23.900
 112666616.167 8  87792226.96347  21439748.313                    21439754.469
        51.900          42.800
 110355547.909 8  85991419.68547  20999967.773                    20999974.371
        53.000          43.400
 121548407.361 7  94713097.31845  23129905.773                    23129914.340
        43.800          32.000
 129375423.880 6 100812068.60243  24619330.055                    24619336.152
        36.700          19.900
 128684876.573 6 100273962.92843  24487920.898                    24487924.996
        39.100          19.300
 113818724.845 8  88689947.15446  21658989.047                    21658993.391
        51.900          39.400
 18  2 21  9  1  0.0000000  0  9G02G07G23G09G30G06G13G16G05
 116203696.715 7  90548354.65846  22112833.727                    22112835.199
        47.900          37.500
 108864268.512 8  84829346.10647  20716183.891                    20716187.512
        52.900          42.800
 128930436.224 7 100465326.60244  24534657.008                    24534659.813
        42.900          26.200
 112735315.208 8  87845758.66847  21452821.102                    21452827.727
        52.600          42.400
 110296401.364 8  85945331.46747  20988712.656                    20988719.602
        51.900          43.600
 121651427.158 7  94793372.43845  23149509.461                    23149518.711
        44.100          32.800
 129276655.461 6 100735106.25943  24600535.242                    24600540.563
        37.100          19.300
 128733506.041 6 100311855.95143  24497176.227                    24497179.480
        39.100          19.300
 113746105.629 8  88633360.75446  21645170.547                    21645174.680
        52.000          39.600
 18  2 21  9  1 30.0000000  0  9G02G07G23G09G30G06G13G16G05
 116244697.188 7  90580303.05846  22120635.922                    22120637.590
        46.800          37.100
 108858364.044 8  84824745.22647  20715060.227                    20715064.082
        53.400          42.800
 129020712.938 7 100535672.03944  24551835.867                    24551839.781
        42.500          24.700
 112804249.655 8  87899473.80247  21465939.117                    21465945.660
        52.000          42.600
 110237734.522 8  85899617.04147  20977548.867                    20977555.414
        52.000          43.800
 121754651.669 7  94873807.06745  23169152.828                    23169161.398
        44.300          32.100
 129177973.776 6 100658211.49143  24581756.680                    24581762.070
        38.900          21.800
 128782692.437 6 100350183.00643  24506535.258                    24506538.324
        38.700          18.600
 113673819.667 8  88577034.02946  21631414.891                    21631418.961
        52.100          39.700
 18  2 21  9  2  0.0000000  0  9G02G07G23G09G30G06G13G16G05
 116286195.365 7  90612639.28646  22128532.641                    22128534.707
        46.400          37.000
 108852984.719 8  84820553.54247  20714036.523                    20714040.566
        51.900          43.100
 129111054.319 6 100606067.81744  24569027.008                    24569030.566
        41.100          24.200
 112873418.366 8  87953371.47847  21479101.422                    21479108.145
        52.000          43.000
 110179548.732 8  85854277.46547  20966476.375                    20966483.160
        53.000          43.900
 121858077.808 7  94954398.81645  23188834.188                    23188842.848
        44.000          32.100
 129079379.373 6 100581384.69543  24562995.039                    24562999.590
        37.300          19.900
 128832434.310 6 100388942.86543  24516000.148                    24516005.039
        37.100          18.600
 113601869.439 8  88520968.92546  21617723.211                    21617727.266
        52.300          40.100
 18  2 21  9  2 30.0000000  0  9G02G07G23G09G30G06G13G16G05
 116328189.518 7  90645361.98946  22136523.906                    22136525.941
        46.700          37.000
 108848130.600 8  84816771.10647  20713112.633                    20713116.430
        53.600          42.900
 129201459.909 6 100676513.68044  24586231.078                    24586234.816
        41.100          25.800
 112942820.280 8  88007450.87547  21492308.297                    21492314.477
        52.100          42.700
 110121845.388 8  85809313.81747  20955495.617                    20955502.234
        52.800          43.500
 121961702.624 7  95035145.38245  23208553.508                    23208562.125
        44.900          32.600
 128980873.000 6 100504626.55443  24544249.648                    24544254.582
        38.100          20.100
 128882730.298 6 100428134.50442  24525571.719                    24525574.770
        38.000          17.800
 113530256.924 8  88465166.96346  21604095.539                    21604100.074
        52.100          40.100
 18  2 21  9  3  0.0000000  0  9G02G07G23G09G30G06G13G16G05
 116370678.026 7  90678469.89846  22144609.016                    22144611.195
        47.300          37.100
 108843801.354 8  84813397.66447  20712288.836                    20712292.875
        52.700          42.700
 129291928.596 6 100747008.67644  24603446.398                    24603450.914
        40.800          24.600
 113012454.365 8  88061711.18447  21505559.242                    21505565.270
        52.300          42.600
 110064625.920 8  85764727.22447  20944607.328                    20944613.863
        52.200          43.700
 122065523.181 7  95116044.46945  23228309.969                    23228318.742
        45.200          32.000
 128882455.555 6 100427937.66643  24525521.609                    24525526.523
        38.800          20.900
 128933578.147 6 100467756.18743  24535248.125                    24535252.020
        37.900          20.100
 113458983.996 8  88409629.62146  21590532.938                    21590537.137
        52.300          40.200
 18  2 21  9  3 30.0000000  0  9G02G07G23G09G30G06G13G16G05
 116413658.970 7  90711961.52246  22152788.219                    22152790.137
        46.700          37.200
 108839996.358 8  84810432.72947  20711564.953                    20711568.852
        53.000          42.900
 129382459.957 6 100817552.52843  24620674.383                    24620678.074
        40.800          23.900
 113082319.331 8  88116151.39147  21518854.117                    21518860.082
        51.900          42.600
 110007891.464 8  85720518.55247  20933811.070                    20933817.602
        53.100          43.600
 122169536.279 7  95197093.59045  23248103.102                    23248111.477
        45.800          32.400
 128784127.477 6 100351318.42243  24506810.016                    24506815.055
        37.000          20.900
 128984976.408 6 100507806.74042  24545029.391                    24545032.254
        37.800          17.800
 113388052.456 8  88354358.29146  21577035.023                    21577039.352
        51.700          39.700
 18  2 21  9  4  0.0000000  0  9G02G07G23G09G30G06G13G16G05
 116457130.800 7  90745835.64546  22161060.438                    22161062.488
        47.300          36.800
 108836715.738 8  84807876.40447  20710940.773                    20710944.441
        52.000          42.900
 129473053.587 6 100888144.90643  24637913.930                    24637917.684
        40.800          22.800
 113152414.396 8  88170770.90347  21532192.883                    21532199.016
        51.600          42.800
 109951643.605 8  85676689.04947  20923107.664                    20923114.133
        52.800          44.200
 122273739.198 7  95278290.62645  23267932.391                    23267941.008
        44.200          31.800
 128685889.700 6 100274769.52743  24488115.586                    24488120.754
        39.400          21.100
 129036923.420 6 100548284.90043  24554913.586                    24554917.762
        37.200          18.600
 113317464.437 8  88299354.64346  21563602.305                    21563606.613
        52.200          39.800
 18  2 21  9  4 30.0000000  0  9G02G07G23G09G30G06G13G16G05
 116501091.722 7  90780090.89246  22169426.141                    22169427.945
        47.100          37.500
 108833958.349 8  84805727.78647  20710415.695                    20710419.371
        50.800          43.200
 129563708.713 6 100958785.20044  24655164.938                    24655168.383
        41.200          24.600
 113222738.226 8  88225568.68047  21545574.781                    21545581.254
        52.300          42.400
 109895883.430 8  85633239.56447  20912496.734                    20912503.262
        53.400          43.600
 122378128.698 7  95359633.04145  23287796.547                    23287805.184
        44.800          32.100
 128587742.781 6 100198291.46143  24469440.180                    24469444.738
        39.200          21.100
 129089416.716 6 100589188.74943  24564903.586                    24564907.707
        38.700          19.300
 113247221.806 8  88244620.12246  21550235.680                    21550239.676
        51.700          39.800
 18  2 21  9  5  0.0000000  0  9G02G07G23G09G30G06G13G16G05
 116545540.158 7  90814726.00446  22177884.531                    22177886.313
        47.700          36.600
 108831724.541 8  84803987.15947  20709990.867                    20709994.512
        50.700          42.800
 129654424.510 6 101029472.76144  24672427.000                    24672430.941
        40.900          24.300
 113293289.981 8  88280544.05446  21559000.398                    21559006.465
        52.500          41.500
 109840612.416 8  85590171.24947  20901978.953                    20901985.750
        53.000          43.500
 122482701.932 7  95441118.62945  23307696.945                    23307705.059
        45.300          31.200
 128489688.176 6 100121885.31443  24450780.172                    24450784.910
        37.800          21.100
 129142454.934 6 100630517.18843  24574996.438                    24575000.664
        38.300          19.000
 113177327.115 8  88190156.72646  21536934.930                    21536939.574
        51.300          39.900
 18  2 21  9  5 30.0000000  0  9G02G07G23G09G30G06G13G16G05
 116590474.247 7  90849739.55546  22186434.508                    22186437.113
        47.300          36.300
 108830013.581 8  84802653.93747  20709665.203                    20709669.125
        51.400          43.000
 129745200.281 6 101100207.04943  24689701.531                    24689705.480
        41.300          23.600
 113364068.409 8  88335696.05246  21572469.172                    21572475.387
        51.800          41.500
 109785831.713 8  85547484.99447  20891554.453                    20891561.066
        53.100          44.000
 122587455.803 7  95522744.96845  23327629.938                    23327638.914
        45.200          31.800
 128391726.131 6 100045551.29843  24432138.734                    24432143.473
        38.900          22.000
 129196036.294 6 100672268.91043  24585191.945                    24585197.066
        37.100          19.900
 113107782.673 8  88135966.25246  21523701.078                    21523705.367
        51.600          39.200
 18  2 21  9  6  0.0000000  0  9G02G07G23G09G30G06G13G16G05
 116635892.707 7  90885130.52846  22195077.883                    22195080.039
        46.600          36.800
 108828825.356 8  84801728.04747  20709439.063                    20709443.082
        52.500          42.700
 129836035.540 6 101170987.69343  24706987.250                    24706990.324
        41.300          22.300
 113435072.739 8  88391024.09346  21585980.953                    21585987.320
        51.900          41.800
 109731542.883 8  85505182.01247  20881223.852                    20881230.387
        53.300          44.100
 122692387.595 7  95604509.93945  23347598.008                    23347607.078
        44.100          32.000
 128293857.634 6  99969290.16943  24413514.555                    24413520.184
        40.600          22.300
 129250158.865 6 100714442.29143  24595491.125                    24595495.902
        38.300          19.900
 113038590.442 8  88082050.22246  21510534.617                    21510538.566
        51.100          39.500
 18  2 21  9  6 30.0000000  0  9G02G07G23G09G30G06G13G16G05
 116681793.633 7  90920897.45046  22203812.234                    22203815.012
        47.800          36.300
 108828159.477 8  84801209.16447  20709312.523                    20709316.184
        52.100          43.100
 129926929.369 7 101241813.96843  24724283.875                    24724287.535
        42.600          22.600
 113506301.856 8  88446527.27746  21599535.391                    21599541.887
        51.300          41.600
 109677747.085 8  85463263.20947  20870986.641                    20870993.199
        52.600          44.300
 122797494.205 7  95686411.14545  23367599.711                    23367608.090
        45.400          31.500
 128196083.432 6  99893102.49043  24394908.672                    24394914.082
        40.600          22.900
 129304820.477 6 100757035.68943  24605893.164                    24605897.660
        39.200          20.100
 112969752.483 8  88028410.26246  21497434.977                    21497438.918
        51.100          39.100
 18  2 21  9  7  0.0000000  0  9G02G07G23G09G30G06G13G16G05
 116728175.104 7  90957038.82146  22212638.883                    22212641.348
        47.800          37.200
 108828015.312 8  84801096.83247  20709284.969                    20709289.102
        52.700          43.200
 130017881.264 7 101312685.50243  24741592.266                    24741594.512
        42.500          22.600
 113577754.675 8  88502204.78746  21613132.156                    21613138.625
        52.100          41.600
 109624445.558 8  85421729.55947  20860843.859                    20860850.176
        53.700          44.100
 122902772.696 7  95768446.28645  23387634.094                    23387642.184
        44.900          31.600
 128098404.490 6  99816989.05243  24376321.281                    24376326.367
        41.800          22.900
 129360019.557 6 100800047.97043  24616398.461                    24616402.004
        39.000          20.100
 112901270.312 8  87975047.52646  21484403.398                    21484407.602
        51.700          39.200
 18  2 21  9  7 30.0000000  0  9G02G07G23G09G30G06G13G16G05
 116775035.145 8  90993553.11946  22221555.984                    22221558.059
        48.400          37.100
 108828392.139 8  84801390.45947  20709356.406                    20709360.578
        52.800          42.800
 130108890.340 6 101383601.59443  24758909.859                    24758913.598
        40.300          21.800
 113649429.981 8  88558055.64846  21626771.445                    21626778.168
        51.300          41.800
 109571639.307 8  85380581.83547  20850794.961                    20850801.047
        53.000          44.000
 123008219.849 7  95850612.85845  23407699.430                    23407708.336
        44.600          31.900
 128000821.300 7  99740950.24743  24357751.641                    24357757.039
        42.600          23.000
 129415754.138 6 100843477.44943  24627003.156                    24627008.406
        37.400          20.100
 112833145.549 8  87921963.30046  21471439.547                    21471443.848
        51.700          39.500
 18  2 21  9  8  0.0000000  0  9G02G07G23G09G30G06G13G16G05
 116822372.434 8  91030439.28046  22230564.336                    22230566.137
        48.500          37.200
 108829290.329 8  84802090.35047  20709527.531                    20709531.523
        52.100          43.000
 130199956.198 7 101454561.90643  24776239.078                    24776242.055
        42.200          21.100
 113721327.017 8  88614079.30146  21640453.188                    21640459.648
        50.700          41.600
 109519329.898 8  85339821.26547  20840840.938                    20840847.320
        52.300          44.100
 123113832.965 7  95932908.75245  23427796.930                    23427805.422
        45.400          31.600
 127903334.819 7  99664986.76844  24339200.945                    24339206.055
        42.700          24.700
 129472022.004 6 100887322.55143  24637710.313                    24637716.609
        39.000          21.800
 112765382.021 8  87869160.54846  21458544.750                    21458548.813
        51.400          39.800
 18  2 21  9  8 30.0000000  0  9G02G07G23G09G30G06G13G16G05
 116870184.974 7  91067695.78046  22239662.688                    22239664.359
        47.900          37.000
 108830708.543 8  84803195.44447  20709797.445                    20709801.586
        51.300          43.000
 130291077.872 7 101525565.72843  24793579.844                    24793583.070
        42.100          22.800
 113793444.605 8  88670274.80546  21654176.648                    21654183.297
        51.100          41.700
 109467518.356 8  85299448.63447  20830981.328                    20830987.730
        52.600          44.400
 123219608.957 7  96015331.55845  23447925.703                    23447933.844
        44.600          30.600
 127805945.814 7  99589099.26444  24320668.047                    24320673.434
        42.200          25.600
 129528821.458 6 100931581.80343  24648519.609                    24648524.195
        39.600          20.100
 112697981.043 8  87816640.31146  21445718.547                    21445722.695
        51.700          40.100
 18  2 21  9  9  0.0000000  0  9G02G07G23G09G30G06G13G16G05
 116918471.167 7  91105321.34746  22248850.914                    22248853.141
        47.600          36.000
 108832647.059 8  84804705.97247  20710166.516                    20710170.102
        49.900          43.200
 130382255.261 6 101596612.96543  24810930.375                    24810933.371
        41.300          21.500
 113865782.211 8  88726641.74946  21667941.859                    21667948.406
        51.200          41.300
 109416206.329 8  85259465.24047  20821217.258                    20821223.566
        53.000          44.100
 123325545.282 7  96097879.30745  23468084.617                    23468092.617
        44.400          31.000
 127708655.313 7  99513288.53143  24302153.977                    24302159.195
        42.200          23.300
 129586150.958 6 100976254.10243  24659428.602                    24659433.984
        39.000          19.300
 112630944.874 8  87764404.33446  21432962.539                    21432966.344
        51.700          40.200
 18  2 21  9  9 30.0000000  0  9G02G07G23G09G30G06G13G16G05
 116967228.527 7  91143314.06346  22258129.008                    22258131.316
        47.100          36.800
 108835104.626 8  84806620.95347  20710634.016                    20710638.297
        49.600          42.800
 130473487.266 6 101667702.74543  24828290.117                    24828294.184
        40.000          20.100
 113938338.049 8  88783178.75346  21681749.234                    21681755.418
        50.300          41.600
 109365394.303 8  85219871.45847  20811547.992                    20811554.336
        52.500          44.500
 123431638.284 7  96180549.13045  23488273.477                    23488281.840
        45.400          30.500
 127611463.636 7  99437554.83744  24283659.328                    24283664.559
        42.200          25.300
 129644007.759 6 101021337.30643  24670437.852                    24670443.469
        38.900          19.300
 112564274.742 8  87712453.59946  21420275.242                    21420279.609
        52.300          39.500
 18  2 21  9 10  0.0000000  0  9G02G07G23G09G30G06G13G16G05
 117016455.786 7  91181672.93545  22267497.000                    22267499.023
        47.500          35.800
 108838081.217 8  84808940.37847  20711200.445                    20711204.340
        50.800          43.000
 130564773.645 6 101738834.90343  24845661.383                    24845664.664
        40.300          21.300
 114011111.498 8  88839885.31147  21695597.555                    21695604.141
        50.600          42.200
 109315083.778 8  85180668.44947  20801974.359                    20801980.750
        53.700          44.700
 123537885.348 7  96263339.01244  23508491.258                    23508499.660
        45.100          29.800
 127514371.520 7  99361898.70944  24265183.500                    24265188.574
        42.100          25.100
 129702390.178 6 101066830.04443  24681548.375                    24681554.332
        41.800          21.700
 112497973.067 8  87660789.96046  21407658.320                    21407662.633
        51.600          39.900
 18  2 21  9 10 30.0000000  0  9G02G07G23G09G30G06G13G16G05
 117066150.177 7  91220395.78446  22276953.414                    22276955.363
        47.100          36.200
 108841575.585 8  84811663.25947  20711865.203                    20711869.492
        51.600          42.700
 130656113.290 6 101810008.57643  24863043.180                    24863047.324
        41.100          21.500
 114084101.205 8  88896760.37946  21709487.008                    21709493.543
        49.500          41.400
 109265275.563 8  85141856.86347  20792496.258                    20792503.094
        51.800          45.300
 123644283.225 7  96346246.41244  23528738.508                    23528747.063
        45.400          29.400
 127417379.893 6  99286320.88244  24246725.820                    24246731.113
        40.800          24.300
 129761295.553 6 101112730.28543  24692758.789                    24692763.023
        40.400          21.100
 112432041.753 8  87609414.91546  21395112.023                    21395116.242
        52.300          40.200
 18  2 21  9 11  0.0000000  0  9G02G07G23G09G30G06G13G16G05
 117116310.456 7  91259481.68445  22286498.750                    22286500.539
        47.100          35.500
 108845587.393 8  84814789.34347  20712628.797                    20712632.934
        52.500          42.600
 130747505.739 6 101881223.37943  24880434.789                    24880438.246
        40.900          21.100
 114157306.342 8  88953803.33247  21723417.266                    21723423.719
        49.600          42.300
 109215970.966 8  85103437.69347  20783113.891                    20783120.289
        52.300          45.100
 123750829.044 7  96429269.08844  23549013.383                    23549022.047
        44.500          28.400
 127320489.610 6  99210822.02844  24228288.422                    24228293.781
        41.400          25.400
 129820722.292 6 101159036.76843  24704067.047                    24704071.789
        38.800          18.600
 112366483.432 8  87558330.51546  21382636.680                    21382641.191
        52.300          40.700
 18  2 21  9 11 30.0000000  0  8G02G07G09G30G06G13G16G05
 117166934.713 7  91298929.12645  22296132.055                    22296134.082
        47.000          35.700
 108850116.320 8  84818318.40047  20713490.508                    20713494.734
        52.800          42.800
 114230725.958 8  89011013.40247  21737389.078                    21737395.168
        50.500          42.100
 109167171.175 8  85065411.88547  20773827.414                    20773834.168
        52.900          44.900
 123857519.957 7  96512404.82144  23569315.734                    23569324.340
        43.600          28.300
 127223701.623 6  99135402.88943  24209870.563                    24209875.457
        40.900          23.900
 129880668.591 6 101205748.18043  24715472.820                    24715478.813
        39.800          20.400
 112301299.911 8  87507538.16546  21370232.797                    21370237.270
        52.000          41.100
 18  2 21  9 12  0.0000000  0  8G02G07G09G30G06G13G16G05
 117218020.819 7  91338736.45245  22305853.742                    22305854.992
        46.300          35.900
 108855161.630 8  84822249.81447  20714450.344                    20714454.613
        52.300          42.800
 114304359.067 8  89068389.82347  21751400.695                    21751407.125
        50.000          42.300
 109118877.246 8  85027780.25247  20764637.492                    20764644.031
        53.000          44.800
 123964352.968 7  96595651.27144  23589645.797                    23589654.359
        43.800          27.100
 127127016.532 6  99060063.93644  24191471.758                    24191476.977
        40.400          25.100
 129941132.204 7 101252862.61843  24726980.523                    24726984.973
        42.800          21.300
 112236493.075 8  87457039.33446  21357900.500                    21357904.559
        51.600          40.600
 18  2 21  9 12 30.0000000  0  8G02G07G09G30G06G13G16G05
 117269566.779 7  91378902.11445  22315662.477                    22315664.469
        46.400          35.600
 108860723.259 8  84826583.54947  20715508.688                    20715512.969
        52.700          42.600
 114378204.550 8  89125931.74346  21765453.055                    21765459.387
        51.700          41.500
 109071090.212 8  84990543.61147  20755543.828                    20755550.457
        53.700          45.200
 124071325.087 7  96679006.12344  23610001.555                    23610010.391
        44.500          28.000
 127030435.044 6  98984805.70544  24173092.898                    24173097.738
        40.200          24.700
 130002110.844 6 101300378.33143  24738585.375                    24738588.477
        40.600          21.300
 112172065.238 8  87406835.81946  21345640.328                    21345644.660
        52.000          40.500
 18  2 21  9 13  0.0000000  0  8G02G07G09G30G06G13G16G05
 117321570.543 7  91419424.49746  22325558.047                    22325560.508
        46.100          36.000
 108866799.565 8  84831318.33247  20716665.547                    20716669.352
        53.200          42.600
 114452261.334 8  89183638.30246  21779545.703                    21779552.152
        51.300          41.900
 109023810.955 8  84953702.63347  20746546.938                    20746553.348
        53.700          44.600
 124178433.168 7  96762466.92544  23630383.781                    23630392.578
        43.800          28.400
 126933957.694 6  98909628.63344  24154733.578                    24154738.793
        40.200          24.800
 130063602.209 6 101348293.75843  24750285.125                    24750288.758
        38.400          18.600
 112108018.003 8  87356928.88246  21333452.461                    21333456.910
        51.500          41.200
 18  2 21  9 13 30.0000000  0  8G02G07G09G30G06G13G16G05
 117374030.189 7  91460302.09245  22335541.195                    22335542.945
        46.000          35.400
 108873390.103 8  84836453.81747  20717919.305                    20717923.574
        53.300          42.800
 114526528.375 8  89241508.70346  21793678.023                    21793684.766
        51.800          41.300
 108977040.598 8  84917258.20547  20737646.844                    20737653.445
        52.900          45.300
 124285674.363 7  96846031.44044  23650791.523                    23650799.723
        42.200          28.700
 126837585.183 6  98834533.27343  24136394.945                    24136399.523
        41.100          22.900
 130125604.699 6 101396607.28943  24762082.641                    24762089.160
        38.700          19.300
 112044353.141 8  87307319.90046  21321337.328                    21321341.367
        52.000          40.900
 18  2 21  9 14  0.0000000  0  8G02G07G09G30G06G13G16G05
 117426944.151 7  91501533.68345  22345610.203                    22345612.367
        46.400          35.100
 108880494.661 8  84841989.83547  20719271.547                    20719275.492
        53.000          43.500
 114601004.931 8  89299542.36446  21807850.891                    21807856.918
        51.500          41.000
 108930780.313 8  84881211.23447  20728843.727                    20728850.543
        53.200          45.000
 124393045.844 7  96929697.48644  23671223.203                    23671232.105
        42.400          27.000
 126741319.157 6  98759520.86244  24118075.750                    24118080.598
        40.600          25.300
 130188115.367 6 101445316.91343  24773980.211                    24773983.730
        40.900          21.700
 111981073.659 8  87258011.20846  21309296.008                    21309300.332
        51.400          40.900
 18  2 21  9 14 30.0000000  0  8G02G07G09G30G06G13G16G05
 117480309.616 7  91543117.08245  22355765.359                    22355767.777
        45.200          34.800
 108888112.131 8  84847925.52747  20720720.742                    20720724.820
        53.400          42.500
 114675689.725 8  89357738.29746  21822062.656                    21822068.883
        51.900          41.300
 108885030.927 8  84845562.36447  20720137.969                    20720144.477
        53.100          45.800
 124500544.436 7  97013462.56644  23691679.922                    23691688.934
        42.000          28.600
 126645159.696 6  98684591.48544  24099776.867                    24099781.859
        41.800          24.700
 130251132.436 6 101494421.01643  24785971.422                    24785975.895
        39.900          18.600
 111918181.016 8  87209003.95246  21297327.742                    21297332.195
        51.100          40.900
 18  2 21  9 15  0.0000000  0  8G02G07G09G30G06G13G16G05
 117534125.082 7  91585051.15845  22366006.508                    22366008.418
        45.800          35.400
 108896242.094 8  84854260.56447  20722268.195                    20722271.980
        53.000          42.600
 114750581.875 8  89416095.79346  21836314.242                    21836320.727
        51.100          41.400
 108839793.395 8  84810312.34347  20711529.797                    20711536.180
        53.800          45.300
 124608167.271 6  97097324.45844  23712159.430                    23712168.426
        41.400          28.800
 126549107.702 6  98609745.84744  24081498.609                    24081504.266
        41.600          26.500
 130314653.876 6 101543918.24643  24798057.906                    24798063.598
        38.800          19.600
 111855677.337 8  87160299.78946  21285433.664                    21285437.766
        51.600          40.600
 18  2 21  9 15 30.0000000  0  8G02G07G09G30G06G13G16G05
 117588388.475 7  91627334.24945  22376332.430                    22376334.352
        44.900          35.100
 108904883.519 8  84860994.14347  20723912.555                    20723916.387
        53.500          42.700
 114825680.362 8  89474614.07046  21850604.859                    21850611.207
        51.600          40.500
 108795068.771 8  84775461.98847  20703018.500                    20703025.285
        53.100          45.000
 124715911.383 7  97181280.85944  23732662.359                    23732671.188
        42.000          28.600
 126453164.036 6  98534984.64244  24063241.438                    24063246.172
        41.800          25.000
 130378677.395 6 101593806.70342  24810241.820                    24810246.055
        38.700          16.300
 111793564.884 8  87111900.46946  21273614.094                    21273618.055
        51.200          40.600
 18  2 21  9 16  0.0000000  0  7G02G07G09G30G06G13G05
 117643098.001 7  91669964.99545  22386743.188                    22386745.758
        46.100          35.000
 108914036.742 8  84868126.51547  20725654.234                    20725658.168
        52.800          43.000
 114900984.901 8  89533292.91546  21864935.016                    21864940.844
        50.300          40.200
 108750858.605 8  84741012.51347  20694605.727                    20694612.070
        53.000          44.700
 124823774.512 7  97265329.99844  23753188.938                    23753197.301
        42.600          28.800
 126357329.615 6  98460308.52444  24045004.906                    24045009.688
        41.700          24.300
 111731846.256 8  87063808.03946  21261869.641                    21261873.887
        52.100          40.400
 18  2 21  9 16 30.0000000  0  7G02G07G09G30G06G13G05
 117698251.038 7  91712941.33245  22397238.703                    22397241.188
        46.000          34.800
 108923700.378 8  84875656.62147  20727493.195                    20727497.195
        52.900          43.300
 114976493.760 8  89592130.97046  21879303.914                    21879310.070
        51.000          40.000
 108707163.196 8  84706964.14747  20686290.805                    20686297.586
        52.600          44.700
 124931753.002 6  97349469.02744  23773736.414                    23773744.574
        41.500          28.600
 126261605.213 6  98385718.12144  24026788.641                    24026793.465
        41.700          25.600
 111670522.380 8  87016023.20646  21250199.680                    21250204.094
        52.100          40.800
 18  2 21  9 17  0.0000000  0  7G02G07G09G30G06G13G05
 117753845.520 7  91756261.65345  22407818.102                    22407819.953
        46.800          35.300
 108933873.057 8  84883583.38047  20729429.133                    20729432.672
        53.500          43.400
 115052205.959 8  89651127.46846  21893711.359                    21893717.891
        49.800          40.600
 108663983.345 8  84673317.51547  20678073.875                    20678080.430
        52.300          44.800
 125039843.868 7  97433695.62544  23794305.891                    23794313.691
        42.600          28.400
 126165991.459 7  98311213.95644  24008594.242                    24008599.215
        42.000          25.800
 111609595.780 8  86968547.94446  21238606.023                    21238609.711
        52.700          40.600
 18  2 21  9 17 30.0000000  0  7G02G07G09G30G06G13G05
 117809879.611 7  91799924.54345  22418481.063                    22418483.289
        45.800          35.200
 108944554.391 8  84891906.49647  20731461.727                    20731465.598
        53.500          42.900
 115128120.528 8  89710281.65546  21908157.453                    21908164.008
        49.700          39.800
 108621320.073 8  84640073.41247  20669955.273                    20669961.832
        52.500          44.500
 125148044.198 7  97518007.51744  23814895.016                    23814903.914
        43.200          26.700
 126070489.068 6  98236796.55444  23990421.180                    23990425.789
        41.400          26.600
 111549068.177 8  86921383.57646  21227087.852                    21227091.828
        51.900          40.600
 18  2 21  9 18  0.0000000  0  7G02G07G09G30G06G13G05
 117866350.712 7  91843927.93345  22429226.797                    22429228.945
        45.400          35.000
 108955743.497 8  84900625.27647  20733590.883                    20733595.082
        53.200          43.300
 115204236.396 8  89769592.71246  21922641.578                    21922648.195
        48.900          39.700
 108579174.090 8  84607232.39347  20661935.344                    20661941.777
        52.400          44.300
 125256350.987 7  97602402.35344  23835505.555                    23835514.102
        42.800          27.800
 125975098.712 7  98162466.45344  23972269.125                    23972273.188
        42.800          25.000
 111488941.603 8  86874531.70846  21215646.188                    21215649.965
        52.300          40.500
 18  2 21  9 18 30.0000000  0  7G02G07G09G30G06G13G05
 117923257.079 7  91888270.49945  22440055.633                    22440058.449
        44.900          34.700
 108967439.605 8  84909739.11647  20735816.680                    20735820.656
        52.700          43.100
 115280552.733 8  89829059.96146  21937163.914                    21937170.906
        48.200          39.900
 108537546.420 8  84574795.24847  20654013.586                    20654019.934
        51.700          44.000
 125364761.371 6  97686877.91544  23856134.617                    23856143.809
        41.300          27.200
 125879821.219 7  98088224.30344  23954137.828                    23954142.551
        42.400          25.600
 111429218.096 8  86827993.91146  21204281.195                    21204285.359
        52.500          40.500
 18  2 21  9 19  0.0000000  0  7G02G07G09G30G06G13G05
 117980596.382 7  91932950.42945  22450967.164                    22450969.598
        44.900          33.800
 108979641.750 8  84919247.28047  20738138.438                    20738142.352
        53.200          42.800
 115357068.518 8  89888682.62846  21951724.734                    21951731.809
        49.500          39.200
 108496437.840 8  84542762.59147  20646190.992                    20646197.637
        51.700          44.500
 125473272.401 6  97771431.91644  23876784.211                    23876792.637
        41.900          27.800
 125784657.254 7  98014070.62144  23936029.500                    23936033.191
        43.900          26.700
 111369899.777 8  86781771.85946  21192993.117                    21192997.035
        51.600          40.600
 18  2 21  9 19 30.0000000  0  7G02G07G09G30G06G13G05
 118038366.390 7  91977965.96345  22461960.602                    22461962.637
        44.700          34.100
 108992349.464 8  84929149.39847  20740556.617                    20740560.910
        53.600          42.900
 115433782.839 8  89948460.00746  21966322.945                    21966329.516
        48.900          40.000
 108455849.247 8  84511135.12147  20638467.250                    20638473.613
        51.900          44.300
 125581881.265 6  97856062.12544  23897451.641                    23897460.250
        40.900          26.100
 125689608.000 7  97940006.31544  23917941.547                    23917946.387
        43.800          26.400
 111310988.754 8  86735867.16846  21181782.469                    21181786.641
        51.300          40.700
 18  2 21  9 20  0.0000000  0  7G02G07G09G30G06G13G05
 118096564.824 7  92023315.33045  22473035.281                    22473037.641
        44.700          34.000
 109005561.842 8  84939444.75747  20743071.195                    20743074.875
        52.800          43.100
 115510694.683 8  90008391.28946  21980958.805                    21980965.270
        49.300          39.600
 108415781.367 8  84479913.39947  20630842.461                    20630849.125
        52.300          43.900
 125690584.834 6  97940766.15244  23918137.438                    23918145.281
        39.900          26.800
 125594674.168 7  97866031.93444  23899875.984                    23899880.770
        43.500          26.400
 111252486.512 8  86690280.99846  21170650.195                    21170654.613
        50.900          40.600
 18  2 21  9 20 30.0000000  0  7G02G07G09G30G06G13G05
 118155189.556 7  92068996.89945  22484191.500                    22484193.598
        45.500          34.000
 109019277.277 8  84950132.10947  20745680.742                    20745684.770
        52.400          42.500
 115587802.840 8  90068475.54346  21995632.133                    21995638.750
        48.900          39.200
 108376234.775 8  84449097.87647  20623316.883                    20623323.773
        52.300          44.700
 125799380.117 6  98025541.64244  23938840.320                    23938848.730
        40.300          26.100
 125499856.098 7  97792147.76844  23881833.453                    23881837.035
        44.000          26.900
 111194394.993 8  86645014.87746  21159595.547                    21159599.742
        51.800          40.800
 18  2 21  9 21  0.0000000  0  7G02G07G09G30G06G13G05
 118214238.222 7  92115008.80545  22495428.234                    22495430.770
        46.800          34.600
 109033495.224 8  84961211.03247  20748386.242                    20748390.371
        51.100          42.400
 115665106.510 8  90128712.15046  22010342.547                    22010349.199
        48.700          39.400
 108337210.374 8  84418689.25747  20615890.844                    20615897.766
        53.000          44.700
 125908264.235 6  98110386.35844  23959560.359                    23959569.125
        39.700          24.400
 125405154.655 7  97718354.46244  23863811.898                    23863816.590
        43.200          27.800
 111136716.966 8  86600070.95746  21148619.633                    21148624.113
        50.700          40.600
 18  2 21  9 21 30.0000000  0  7G02G07G09G30G06G13G05
 118273709.160 7  92161349.78745  22506744.992                    22506747.535
        46.300          34.700
 109048215.250 8  84972681.17947  20751187.391                    20751191.000
        51.300          42.300
 115742604.904 8  90189100.48146  22025090.000                    22025096.777
        49.300          39.100
 108298709.168 8  84388688.31547  20608564.625                    20608570.980
        53.200          44.300
 126017234.547 6  98195298.23144  23980297.227                    23980305.250
        39.500          25.600
 125310570.981 7  97644652.93744  23845813.398                    23845817.664
        43.700          26.200
 111079453.924 8  86555450.40646  21137723.359                    21137727.559
        51.300          40.900
 18  2 21  9 22  0.0000000  0  7G02G07G09G30G06G13G05
 118333599.616 7  92208017.66645  22518141.664                    22518144.320
        45.800          34.500
 109063435.965 8  84984541.48047  20754083.906                    20754087.805
        51.400          42.400
 115820296.911 8  90249639.68146  22039874.469                    22039880.875
        49.200          39.400
 108260731.568 8  84359095.39447  20601337.383                    20601343.973
        52.800          44.500
 126126287.770 6  98280274.72644  24001048.938                    24001057.645
        40.100          26.600
 125216105.498 6  97571043.49544  23827837.477                    23827841.113
        41.600          26.200
 111022607.722 8  86511154.67246  21126905.320                    21126909.496
        51.900          40.700
 18  2 21  9 22 30.0000000  0  7G02G07G09G30G06G13G05
 118393907.379 7  92255010.71345  22529618.047                    22529620.375
        46.300          34.600
 109079156.610 8  84996791.32547  20757075.406                    20757079.383
        50.300          42.200
 115898181.558 8  90310329.00346  22054695.633                    22054701.629
        49.500          39.400
 108223278.413 8  84329911.12047  20594210.227                    20594217.129
        52.900          44.100
 126235421.168 6  98365313.67544  24021816.680                    24021825.508
        40.800          25.200
 125121759.184 7  97497526.91144  23809883.156                    23809887.895
        42.300          26.900
 110966180.522 8  86467185.41846  21116167.688                    21116172.043
        51.600          40.800
 18  2 21  9 23  0.0000000  0  7G02G07G09G30G06G13G05
 118454630.422 7  92302327.36145  22541173.211                    22541175.887
        46.000          34.200
 109095376.345 8  85009430.08047  20760162.023                    20760166.137
        50.900          42.800
 115976258.021 8  90371167.78246  22069552.820                    22069559.273
        49.700          39.200
 108186350.505 8  84301136.13447  20587183.313                    20587189.715
        52.900          44.400
 126344631.900 6  98450412.90944  24042598.594                    24042607.281
        40.900          26.900
 125027532.763 6  97424103.75244  23791952.789                    23791957.496
        41.800          27.100
 110910174.508 8  86423544.36046  21105510.344                    21105514.234
        52.000          40.700
 18  2 21  9 23 30.0000000  0  7G02G07G09G30G06G13G05
 118515766.186 7  92349965.58845  22552807.258                    22552809.531
        46.000          34.000
 109112094.027 8  85022456.84547  20763343.320                    20763347.309
        51.200          42.700
 116054525.308 8  90432155.24946  22084446.961                    22084453.207
        49.300          39.600
 108149948.442 8  84272770.89347  20580256.336                    20580262.906
        53.000          44.500
 126453916.981 6  98535570.06244  24063394.859                    24063404.105
        41.000          26.800
 124933427.284 7  97350774.82044  23774045.094                    23774049.711
        42.500          26.100
 110854590.999 8  86380232.53646  21094933.078                    21094937.445
        52.000          40.800
 18  2 21  9 24  0.0000000  0  7G02G07G09G30G06G13G05
 118577312.432 7  92397923.66745  22564518.703                    22564521.391
        46.200          33.700
 109129308.607 8  85035870.79447  20766619.102                    20766622.980
        52.300          43.200
 116132982.432 8  90493290.64446  22099376.641                    22099383.070
        50.700          39.400
 108114072.869 8  84244815.90947  20573429.367                    20573436.027
        53.400          44.500
 126563273.505 6  98620782.87444  24084204.641                    24084214.172
        41.100          25.300
 124839442.819 7  97277540.21844  23756160.242                    23756165.258
        42.500          25.800
 110799432.431 8  86337251.83046  21084436.828                    21084441.383
        52.100          41.200
 18  2 21  9 24 30.0000000  0  7G02G07G09G30G06G13G05
 118639266.975 7  92446199.89845  22576308.109                    22576310.680
        45.800          33.500
 109147019.261 8  85049671.27747  20769989.359                    20769993.027
        51.900          42.400
 116211628.418 8  90554573.21346  22114342.641                    22114348.492
        50.300          39.300
 108078724.374 8  84217271.63747  20566702.328                    20566709.145
        52.900          44.600
 126672698.529 6  98706049.06244  24105028.094                    24105036.723
        40.800          25.800
 124745580.945 6  97204401.11644  23738299.094                    23738303.840
        41.900          26.300
 110744700.691 8  86294603.72146  21074021.555                    21074025.852
        52.200          40.700
 18  2 21  9 25  0.0000000  0  7G02G07G09G30G06G13G05
 118701627.195 7  92494792.24145  22588175.055                    22588177.523
        45.000          33.100
 109165224.996 8  85063857.55947  20773453.688                    20773457.523
        52.400          42.700
 116290462.339 8  90616002.22046  22129343.805                    22129350.668
        50.100          39.200
 108043903.623 8  84190138.58547  20560076.352                    20560083.117
        53.200          44.800
 126782189.216 6  98791366.42244  24125863.898                    24125871.789
        41.300          26.900
 124651842.161 7  97131357.94544  23720460.797                    23720466.199
        42.700          26.700
 110690397.625 8  86252289.64846  21063688.117                    21063692.309
        52.200          41.500
 18  2 21  9 25 30.0000000  0  7G02G07G09G30G06G13G05
 118764391.096 7  92543699.15045  22600118.719                    22600121.090
        45.400          33.200
 109183924.958 8  85078428.94947  20777012.313                    20777016.305
        53.000          42.800
 116369483.408 8  90677577.05046  22144381.422                    22144387.828
        50.800          38.800
 108009611.307 8  84163417.30147  20553550.938                    20553557.773
        53.300          44.300
 126891742.700 7  98876732.72344  24146710.359                    24146720.000
        42.200          28.100
 124558227.260 7  97058411.28944  23702646.617                    23702651.301
        43.400          24.900
 110636525.711 8  86210311.53246  21053436.656                    21053441.012
        51.300          41.100
 18  2 21  9 26  0.0000000  0  7G02G07G09G30G06G13G05
 118827556.339 7  92592918.79745  22612138.898                    22612140.836
        45.000          32.700
 109203118.076 8  85093384.62347  20780664.656                    20780668.512
        52.800          43.200
 116448690.768 8  90739297.04846  22159453.977                    22159460.246
        51.200          39.200
 107975848.168 8  84137108.36147  20547126.203                    20547132.293
        53.100          44.800
 127001356.308 7  98962145.86744  24167569.359                    24167578.527
        42.400          27.100
 124464737.259 7  96985561.96244  23684856.398                    23684861.102
        44.200          25.100
 110583086.461 8  86168670.54646  21043267.422                    21043271.492
        51.900          41.100
 18  2 21  9 26 30.0000000  0  7G02G07G09G30G06G13G05
 118891120.521 7  92642449.30245  22624234.867                    22624236.563
        45.700          33.400
 109222802.952 8  85108723.48047  20784410.609                    20784414.160
        52.600          42.800
 116528083.253 8  90801161.29846  22174561.945                    22174568.262
        50.600          39.000
 107942614.491 8  84111211.98847  20540802.211                    20540808.477
        53.400          45.200
 127111026.807 7  99047603.33244  24188439.367                    24188448.250
        42.600          26.000
 124371372.682 7  96912810.36344  23667089.000                    23667093.980
        44.100          27.000
 110530081.609 8  86127368.07546  21033181.102                    21033185.137
        52.200          41.300
 18  2 21  9 27  0.0000000  0  7G02G07G09G30G06G13G05
 118955080.966 7  92692288.57645  22636405.781                    22636408.215
        45.300          33.400
 109242978.910 8  85124445.00247  20788250.086                    20788253.891
        53.000          42.500
 116607660.019 8  90863169.14046  22189704.547                    22189711.172
        49.700          39.000
 107909910.949 8  84085728.70947  20534578.656                    20534585.301
        53.500          45.300
 127220751.507 7  99133103.03244  24209318.977                    24209328.180
        42.000          26.900
 124278134.269 7  96840157.07544  23649346.516                    23649351.098
        43.400          26.800
 110477513.002 8  86086405.52146  21023177.633                    21023181.656
        52.500          41.100
 18  2 21  9 27 30.0000000  0  7G02G07G09G30G06G13G05
 119019435.539 7  92742434.96345  22648652.328                    22648654.234
        46.000          33.100
 109263644.765 8  85140548.26147  20792182.719                    20792186.313
        52.100          42.900
 116687420.239 8  90925319.93946  22204882.430                    22204888.961
        49.200          37.900
 107877738.085 8  84060658.94547  20528456.484                    20528462.809
        52.500          44.900
 127330527.549 6  99218642.75044  24230209.000                    24230217.902
        41.800          25.000
 124185022.912 7  96767602.79344  23631628.000                    23631632.617
        42.400          26.900
 110425382.802 8  86045784.58746  21013257.500                    21013261.836
        51.900          41.300
 18  2 21  9 28  0.0000000  0  7G02G07G09G30G06G13G05
 119084181.354 7  92792886.21045  22660972.836                    22660975.266
        45.600          33.100
 109284799.212 8  85157032.24247  20796208.148                    20796211.949
        52.000          42.600
 116767362.573 8  90987612.64346  22220095.047                    22220101.285
        49.400          38.400
 107846096.109 8  84036002.86547  20522435.141                    20522441.910
        52.900          44.900
 127440351.734 6  99304219.98644  24251107.703                    24251116.891
        40.200          25.400
 124092039.286 7  96695148.03844  23613933.898                    23613938.418
        42.700          27.100
 110373692.239 8  86005506.23246  21003421.055                    21003425.102
        52.300          41.100
 18  2 21  9 28 30.0000000  0  7G02G07G09G30G06G13G05
 119149316.680 7  92843640.95045  22673368.016                    22673370.027
        45.700          33.300
 109306441.187 8  85173896.12147  20800326.203                    20800330.484
        51.900          42.200
 116847486.461 8  91050046.81846  22235342.188                    22235348.695
        49.500          38.300
 107814985.791 8  84011761.05947  20516514.609                    20516521.711
        52.800          44.800
 127550221.473 6  99389832.68944  24272015.023                    24272023.891
        39.400          25.800
 123999184.091 7  96622793.36344  23596264.477                    23596268.664
        42.000          26.500
 110322444.208 8  85965572.70446  20993668.961                    20993673.063
        52.400          41.700
 18  2 21  9 29  0.0000000  0  7G02G07G09G30G06G13G05
 119214838.859 7  92894697.13745  22685836.516                    22685838.875
        45.300          34.000
 109328569.610 8  85191139.05847  20804537.414                    20804541.309
        52.800          43.000
 116927791.027 8  91112621.78046  22250623.688                    22250630.063
        49.300          38.100
 107784407.675 8  83987933.96347  20510696.055                    20510702.742
        52.500          45.100
 127660133.973 6  99475478.75944  24292930.875                    24292939.832
        40.000          24.900
 123906458.284 6  96550539.50844  23578618.344                    23578623.398
        41.400          25.100
 110271640.590 8  85925985.47446  20984001.578                    20984005.516
        52.800          41.400
 18  2 21  9 29 30.0000000  0  7G02G07G09G30G06G13G05
 119280745.190 7  92946052.69345  22698378.258                    22698380.176
        46.400          33.700
 109351183.621 8  85208760.36447  20808840.523                    20808844.707
        51.800          42.400
 117008275.177 8  91175336.66446  22265939.547                    22265946.047
        48.200          37.800
 107754362.066 8  83964521.80347  20504978.555                    20504985.133
        53.300          45.500
 127770086.187 6  99561155.75644  24313854.453                    24313862.918
        41.300          25.900
 123813862.658 7  96478387.09744  23560998.742                    23561003.234
        42.400          26.900
 110221282.813 8  85886745.64946  20974418.461                    20974422.543
        52.400          40.700
 18  2 21  9 30  0.0000000  0  7G02G07G09G30G06G13G05
 119347033.151 7  92997705.58345  22710992.031                    22710994.695
        46.200          34.300
 109374281.769 8  85226758.91947  20813236.047                    20813239.840
        51.900          42.400
 117088937.923 8  91238190.73546  22281288.742                    22281295.762
        49.000          37.800
 107724849.335 8  83941524.86947  20499362.734                    20499369.172
        53.600          45.000
 127880075.172 6  99646861.36744  24334784.656                    24334793.617
        39.700          25.400
 123721397.971 7  96406336.71344  23543402.945                    23543407.539
        42.100          27.900
 110171372.471 8  85847854.46446  20964921.133                    20964925.109
        52.600          40.700
 18  2 21  9 30 30.0000000  0  8G02G07G28G09G30G06G13G05
 119413700.838 7  93049654.37745  22723678.773                    22723681.277
        46.200          35.000
 109397863.091 8  85245133.97247  20817723.359                    20817727.102
        51.100          42.700
 128461001.207 6 100099486.85942  24445314.125                    24445319.957
        36.300          17.400
 117169778.700 8  91301183.52046  22296672.195                    22296678.863
        48.400          37.600
 107695870.204 8  83918943.72047  20493848.117                    20493854.488
        53.100          45.400
 127990098.465 6  99732593.75244  24355721.219                    24355730.520
        41.000          24.400
 123629064.851 7  96334388.85144  23525832.555                    23525837.449
        42.400          27.100
 110121912.067 8  85809313.90046  20955508.898                    20955513.328
        53.000          41.700
 18  2 21  9 31  0.0000000  0  8G02G07G28G09G30G06G13G05
 119480745.449 7  93101896.88945  22736437.625                    22736439.625
        45.600          34.000
 109421926.087 8  85263884.35647  20822302.469                    20822306.133
        52.000          42.400
 128363461.435 6 100023481.70343  24426755.461                    24426758.246
        40.600          20.400
 117250796.163 8  91364313.98746  22312089.570                    22312095.836
        48.800          37.000
 107667424.618 8  83896778.33147  20488435.094                    20488441.398
        53.200          45.400
 128100152.772 6  99818350.29444  24376663.813                    24376672.301
        40.800          24.100
 123536864.263 7  96262544.26144  23508287.578                    23508292.035
        43.300          27.100
 110072902.544 8  85771124.65046  20946182.969                    20946186.867
        52.200          41.400
 18  2 21  9 31 30.0000000  0  8G02G07G28G09G30G06G13G05
 119548164.154 7  93154430.91845  22749266.023                    22749269.059
        46.400          33.700
 109446469.659 8  85283009.21247  20826972.883                    20826976.914
        51.700          42.600
 128265958.960 6  99947505.93143  24408198.680                    24408204.969
        37.000          20.100
 117331989.458 8  91427581.46146  22327539.930                    22327546.727
        49.300          37.000
 107639513.075 8  83875029.07747  20483123.938                    20483130.180
        53.700          45.100
 128210235.246 6  99904128.79044  24397611.539                    24397620.836
        40.900          25.800
 123444797.089 7  96190803.61944  23490767.938                    23490772.051
        42.600          26.900
 110024346.336 8  85733288.65146  20936942.875                    20936946.965
        53.000          41.600
 18  2 21  9 32  0.0000000  0  8G02G07G28G09G30G06G13G05
 119615955.023 7  93207254.91745  22762165.992                    22762169.363
        45.700          34.100
 109471492.762 8  85302507.73147  20831734.492                    20831738.516
        52.000          42.400
 128168497.039 6  99871561.62143  24389653.297                    24389658.699
        39.500          22.600
 117413357.906 8  91490985.41746  22343024.063                    22343030.707
        49.300          37.200
 107612136.130 8  83853696.39347  20477914.172                    20477920.551
        53.100          45.500
 128320343.364 7  99989927.22144  24418565.578                    24418573.816
        42.000          26.500
 123352863.891 7  96119167.37244  23473273.367                    23473277.730
        43.000          27.300
 109976245.379 8  85695807.38447  20927789.680                    20927794.008
        52.700          42.000
 18  2 21  9 32 30.0000000  0  8G02G07G28G09G30G06G13G05
 119684115.147 7  93260366.64545  22775136.289                    22775139.414
        44.500          33.400
 109496994.478 8  85322379.19547  20836587.320                    20836591.352
        51.500          42.200
 128071078.158 6  99795650.86343  24371115.086                    24371119.730
        41.100          18.600
 117494900.578 8  91554525.12546  22358540.992                    22358547.648
        49.800          36.800
 107585294.103 8  83832780.52547  20472806.266                    20472812.563
        53.100          45.100
 128430474.227 6 100075743.42044  24439522.398                    24439531.094
        40.900          24.200
 123261065.643 6  96047636.29044  23455804.633                    23455809.387
        41.600          26.800
 109928600.989 8  85658681.88146  20918722.969                    20918727.480
        53.100          41.600
 18  2 21  9 33  0.0000000  0  8G02G07G28G09G30G06G13G05
 119752642.483 7  93313764.51745  22788176.445                    22788179.883
        43.800          31.800
 109522973.135 8  85342622.27747  20841531.172                    20841535.254
        51.600          42.100
 127973705.497 6  99719776.04743  24352585.797                    24352589.723
        39.800          19.300
 117576616.579 8  91618199.90646  22374091.320                    22374097.191
        49.600          37.000
 107558987.326 8  83812281.73847  20467800.047                    20467806.477
        52.800          45.000
 128540625.025 7 100161575.12344  24460484.180                    24460492.152
        42.800          25.600
 123169403.171 7  95976210.99344  23438361.859                    23438366.211
        43.000          26.900
 109881415.682 8  85621914.10246  20909744.117                    20909748.164
        52.800          41.200
 18  2 21  9 33 30.0000000  0  8G02G07G28G09G30G06G13G05
 119821533.803 7  93367446.02145  22801286.438                    22801289.668
        43.100          31.700
 109549427.351 8  85363235.94047  20846565.094                    20846568.934
        52.000          42.500
 127876381.239 6  99643938.97243  24334064.266                    24334069.805
        39.200          19.000
 117658504.478 8  91682008.62346  22389673.984                    22389681.160
        49.700          36.500
 107533215.534 8  83792199.82447  20462895.695                    20462902.039
        53.300          44.900
 128650792.347 6 100247419.76444  24481447.117                    24481456.152
        40.600          25.300
 123077876.663 7  95904891.66744  23420944.555                    23420949.352
        42.100          26.500
 109834690.339 8  85585504.74547  20900852.461                    20900856.867
        53.200          42.100
 18  2 21  9 34  0.0000000  0  8G02G07G28G09G30G06G13G05
 119890786.977 7  93421409.47845  22814464.898                    22814467.672
        43.400          30.500
 109576355.947 8  85384219.26047  20851689.453                    20851693.570
        52.500          42.300
 127779109.103 6  99568142.56043  24315554.234                    24315560.219
        40.100          22.000
 117740563.822 8  91745950.93846  22405289.555                    22405295.844
        50.700          36.700
 107507979.560 8  83772535.43047  20458093.570                    20458100.180
        53.200          44.500
 128760973.901 7 100333275.45344  24502415.063                    24502422.934
        43.600          27.300
 122986487.229 7  95833679.13344  23403554.211                    23403558.336
        43.300          27.800
 109788427.300 8  85549455.62047  20892049.148                    20892053.145
        51.900          42.000
 18  2 21  9 34 30.0000000  0  8G02G07G28G09G30G06G13G05
 119960399.358 7  93475652.85145  22827711.805                    22827714.461
        43.300          30.300
 109603758.334 8  85405571.75947  20856904.047                    20856907.879
        51.600          42.200
 127681891.857 6  99492388.92843  24297053.820                    24297060.313
        41.400          22.300
 117822793.897 8  91810026.29746  22420937.414                    22420943.656
        50.500          36.100
 107483279.739 8  83753288.82147  20453393.555                    20453400.375
        53.400          45.100
 128871166.989 7 100419140.09244  24523383.945                    24523392.898
        42.300          27.900
 122895235.947 7  95762574.26144  23386189.453                    23386194.117
        43.500          26.500
 109742628.822 8  85513768.49946  20883333.852                    20883338.352
        52.300          41.600
 18  2 21  9 35  0.0000000  0  8G02G07G28G09G30G06G13G05
 120030368.473 7  93530174.20945  22841026.828                    22841029.125
        43.400          30.500
 109631632.436 8  85427291.83947  20862208.172                    20862212.094
        52.300          42.400
 127584732.394 6  99416680.29543  24278564.867                    24278571.410
        40.800          22.200
 117905193.612 8  91874233.82246  22436617.555                    22436624.098
        50.700          36.500
 107459116.154 8  83734460.04847  20448795.219                    20448801.875
        53.600          45.500
 128981368.537 6 100505011.36244  24544354.273                    24544363.957
        41.100          25.800
 122804123.784 7  95691577.77744  23368851.188                    23368855.723
        43.000          27.800
 109697295.911 8  85478444.14746  20874707.180                    20874711.172
        52.300          41.600
 18  2 21  9 35 30.0000000  0  8G02G07G28G09G30G06G13G05
 120100691.727 7  93584971.51545  22854408.508                    22854411.117
        43.600          30.700
 109659977.593 8  85449378.96847  20867602.109                    20867605.941
        52.000          42.500
 127487633.627 6  99341018.95343  24260088.336                    24260093.941
        41.400          21.500
 117987762.197 8  91938572.96346  22452329.953                    22452336.270
        49.800          37.300
 107435489.200 8  83716049.43747  20444299.156                    20444305.828
        53.100          45.500
 129091576.054 7 100590887.26844  24565326.938                    24565334.789
        42.200          25.400
 122713151.118 7  95620690.00544  23351540.477                    23351544.438
        44.500          27.700
 109652430.960 8  85443484.43946  20866169.805                    20866173.906
        52.000          41.700
 18  2 21  9 36  0.0000000  0  8G02G07G28G09G30G06G13G05
 120171366.477 7  93640042.72045  22867857.789                    22867860.258
        43.700          30.200
 109688792.036 8  85471831.77946  20873085.453                    20873089.297
        52.800          41.700
 127390598.132 6  99265406.93243  24241622.234                    24241628.672
        40.400          21.500
 118070498.649 8  92003042.88546  22468073.930                    22468080.898
        49.700          36.200
 107412398.922 8  83698057.01247  20439905.156                    20439912.160
        53.700          45.800
 129201786.448 6 100676765.47744  24586298.625                    24586306.344
        40.100          25.200
 122622318.555 7  95549911.38544  23334254.531                    23334259.293
        44.100          26.600
 109608035.390 8  85408890.48746  20857721.391                    20857725.547
        53.000          41.400
 18  2 21  9 36 30.0000000  0  8G02G07G28G09G30G06G13G05
 120242390.339 7  93695385.96845  22881373.352                    22881375.535
        44.600          31.700
 109718074.707 8  85494649.43046  20878657.633                    20878661.289
        53.400          41.800
 127293629.006 6  99189846.62743  24223170.492                    24223175.813
        40.500          21.700
 118153402.161 8  92067642.98846  22483850.297                    22483856.934
        49.900          37.100
 107389845.611 8  83680483.01147  20435613.266                    20435620.152
        53.200          45.300
 129311997.071 6 100762643.83544  24607271.633                    24607280.484
        40.800          26.300
 122531627.393 7  95479242.97244  23316997.047                    23317001.840
        44.400          27.100
 109564111.051 8  85374663.73046  20849362.930                    20849367.211
        52.500          41.600
 18  2 21  9 37  0.0000000  0  8G02G07G28G09G30G06G13G05
 120313760.456 7  93750999.02145  22894955.109                    22894957.016
        44.500          32.100
 109747824.341 8  85517830.95947  20884318.969                    20884322.730
        52.500          42.500
 127196728.877 6  99114340.06943  24204730.648                    24204736.527
        40.900          22.600
 118236471.875 8  92132372.61746  22499657.352                    22499664.750
        50.200          37.100
 107367829.470 8  83663327.57847  20431423.820                    20431430.402
        53.400          45.400
 129422205.144 6 100848520.14243  24628243.219                    24628252.555
        38.600          22.300
 122441078.363 7  95408685.31244  23299766.203                    23299770.777
        43.800          26.700
 109520659.742 8  85340805.56146  20841094.461                    20841098.566
        52.900          41.400
 18  2 21  9 37 30.0000000  0  8G02G07G28G09G30G06G13G05
 120385474.236 7  93806879.86945  22908601.547                    22908604.203
        44.600          31.200
 109778039.510 8  85541375.23647  20890068.859                    20890072.887
        53.000          42.600
 127099900.927 6  99038889.77043  24186304.578                    24186310.965
        40.700          22.200
 118319706.842 8  92197230.98946  22515497.406                    22515503.809
        49.600          36.900
 107346350.561 8  83646590.76347  20427336.742                    20427343.289
        53.700          45.300
 129532407.813 6 100934392.32543  24649213.922                    24649222.914
        40.200          22.200
 122350671.999 7  95338238.81644  23282561.680                    23282567.258
        43.100          28.300
 109477682.535 8  85307316.82346  20832916.078                    20832920.293
        52.800          41.300
 18  2 21  9 38  0.0000000  0  8G02G07G28G09G30G06G13G05
 120457529.248 7  93863026.59345  22922312.352                    22922315.461
        43.600          31.900
 109808718.942 8  85565281.27547  20895907.055                    20895910.750
        52.800          42.600
 127003148.153 6  98963498.06243  24167892.625                    24167899.266
        39.700          21.100
 118403106.257 8  92262217.51746  22531367.539                    22531374.605
        49.900          36.300
 107325409.067 8  83630272.71547  20423351.539                    20423358.250
        53.100          45.400
 129642602.422 6 101020258.20843  24670183.594                    24670192.191
        38.600          22.600
 122260409.231 7  95267904.21244  23265385.320                    23265390.711
        42.600          27.700
 109435182.005 8  85274199.52646  20824828.398                    20824832.484
        52.000          41.400
 18  2 21  9 38 30.0000000  0  8G02G07G28G09G30G06G13G05
 120529922.930 7  93919437.21545  22936089.141                    22936091.633
        43.500          31.400
 109839861.424 8  85589548.15846  20901833.266                    20901836.801
        52.500          41.600
 126906473.307 6  98888167.04843  24149496.273                    24149501.863
        40.800          21.300
 118486669.219 8  92327331.49146  22547268.891                    22547275.656
        49.800          36.600
 107305005.166 8  83614373.56747  20419468.914                    20419475.480
        53.100          45.600
 129752786.143 6 101106115.59443  24691150.547                    24691159.754
        39.200          22.500
 122170290.825 7  95197682.11144  23248236.500                    23248241.625
        43.300          27.500
 109393159.896 8  85241455.01746  20816832.070                    20816835.934
        52.500          41.500
 18  2 21  9 39  0.0000000  0  8G02G07G28G09G30G06G13G05
 120602652.337 7  93976109.42545  22949928.242                    22949931.816
        42.200          32.100
 109871465.165 8  85614174.44547  20907847.039                    20907850.602
        51.600          42.100
 126809879.073 6  98812898.83143  24131114.953                    24131120.801
        40.100          21.800
 118570394.932 8  92392572.26646  22563201.680                    22563208.246
        49.100          36.300
 107285138.796 8  83598893.28747  20415688.414                    20415694.996
        53.400          45.200
 129862956.080 6 101191962.23243  24712115.727                    24712124.512
        39.400          22.000
 122080317.604 6  95127573.12444  23231115.359                    23231120.285
        41.600          27.100
 109351617.354 8  85209084.21046  20808926.859                    20808930.859
        52.300          41.300
 18  2 21  9 39 30.0000000  0  8G02G07G28G09G30G06G13G05
 120675714.863 6  94033041.22345  22963832.141                    22963835.598
        41.800          32.700
 109903529.213 8  85639159.39946  20913948.758                    20913952.047
        51.500          41.800
 126713368.843 6  98737696.10143  24112749.648                    24112755.406
        38.600          21.300
 118654282.235 8  92457938.97046  22579164.461                    22579171.418
        48.500          36.700
 107265810.146 8  83583832.00047  20412010.156                    20412016.977
        53.300          44.900
 129973109.541 6 101277796.02843  24733076.750                    24733086.332
        39.500          22.000
 121990490.440 7  95057577.95544  23214022.148                    23214027.125
        43.400          28.000
 109310556.048 8  85177088.37946  20801113.195                    20801117.027
        53.000          41.500
 18  2 21  9 40  0.0000000  0  8G02G07G28G09G30G06G13G05
 120749107.913 7  94090230.56745  22977798.563                    22977801.949
        43.000          31.600
 109936052.472 8  85664502.19046  20920137.531                    20920140.977
        51.700          41.600
 126616945.424 6  98662561.03543  24094400.789                    24094406.852
        38.200          22.200
 118738330.566 8  92523431.13945  22595158.289                    22595165.512
        48.100          35.700
 107247019.339 8  83569189.81847  20408434.352                    20408441.035
        53.600          45.200
 130083243.962 6 101363614.97743  24754035.945                    24754044.516
        40.800          21.300
 121900810.229 7  94987697.29244  23196956.227                    23196961.063
        42.100          29.300
 109269978.249 8  85145469.31046  20793391.250                    20793395.684
        53.200          41.600
 18  2 21  9 40 30.0000000  0  8G02G07G28G09G30G06G13G05
 120822828.980 7  94147675.50745  22991827.750                    22991830.402
        44.000          31.600
 109969032.904 8  85690201.22946  20926413.555                    20926417.188
        52.200          41.600
 126520611.536 6  98587495.72943  24076068.953                    24076075.297
        37.900          21.700
 118822538.959 8  92589048.03745  22611182.570                    22611189.742
        48.200          35.700
 107228766.366 9  83554966.72247  20404961.422                    20404967.402
        54.000          45.700
 130193356.382 6 101449416.87743  24774987.109                    24774997.707
        39.400          19.600
 121811277.344 7  94917931.43044  23179919.383                    23179923.945
        44.100          28.300
 109229885.295 8  85114228.04646  20785762.211                    20785766.211
        53.100          41.700
 18  2 21  9 41  0.0000000  0  7G02G07G28G09G30G13G05
 120896875.444 7  94205374.00745  23005917.906                    23005920.586
        43.500          31.900
 110002469.262 8  85716255.51747  20932776.305                    20932780.180
        52.100          42.100
 126424370.103 6  98512502.45843  24057755.609                    24057760.816
        38.700          21.100
 118906906.738 8  92654789.15445  22627237.383                    22627244.523
        48.400          35.500
 107211051.441 8  83541162.88447  20401590.023                    20401596.676
        53.000          45.600
 121721893.251 7  94848281.50544  23162909.492                    23162914.824
        43.800          28.400
 109190278.631 8  85083365.70047  20778225.336                    20778229.086
        52.100          42.000
 18  2 21  9 41 30.0000000  0  7G02G07G28G09G30G13G05
 120971244.830 7  94263324.13445  23020069.891                    23020072.273
        44.300          32.100
 110036360.518 8  85742664.27547  20939225.758                    20939229.215
        52.400          42.100
 126328224.231 6  98437583.62143  24039458.477                    24039464.711
        37.700          20.600
 118991433.317 7  92720653.96245  22643322.375                    22643329.516
        47.000          35.800
 107193874.822 8  83527778.50047  20398321.625                    20398327.980
        53.400          45.500
 121632658.948 7  94778748.30744  23145928.711                    23145933.816
        44.300          28.500
 109151160.665 8  85052884.17247  20770781.219                    20770785.648
        51.700          42.200
 18  2 21  9 42  0.0000000  0  7G02G07G28G09G30G13G05
 121045934.186 7  94321523.59645  23034283.414                    23034285.543
        44.900          31.600
 110070705.161 8  85769426.33147  20945761.102                    20945765.063
        52.300          42.200
 126232176.660 6  98362741.41943  24021181.813                    24021187.711
        39.500          21.700
 119076117.368 7  92786641.51245  22659437.727                    22659444.391
        46.700          34.800
 107177236.014 8  83514813.19647  20395155.406                    20395161.633
        52.500          45.400
 121543574.385 7  94709331.77444  23128977.031                    23128981.215
        44.700          28.600
 109112532.502 8  85022784.29847  20763430.469                    20763434.707
        52.000          42.000
 18  2 21  9 42 30.0000000  0  7G02G07G28G09G30G13G05
 121120940.514 7  94379970.06345  23048556.109                    23048558.645
        45.300          30.200
 110105501.096 8  85796540.03946  20952382.414                    20952386.563
        52.100          41.400
 126136230.214 6  98287977.99743  24002924.227                    24002929.605
        39.500          22.600
 119160957.854 7  92852750.97545  22675581.172                    22675588.840
        46.000          35.000
 107161134.858 8  83502266.83747  20392091.414                    20392098.008
        53.700          45.600
 121454640.735 7  94640032.84644  23112053.469                    23112057.902
        45.500          29.300
 109074395.393 8  84993067.06447  20756173.102                    20756177.469
        51.600          42.100
 18  2 21  9 43  0.0000000  0  7G02G07G28G09G30G13G05
 121196261.272 7  94438661.52845  23062889.570                    23062891.602
        45.900          30.500
 110140747.423 8  85824004.70246  20959089.547                    20959093.668
        53.300          41.400
 126040387.808 6  98213295.65643  23984685.195                    23984691.582
        37.400          21.300
 119245954.171 7  92918981.82345  22691756.047                    22691763.656
        46.200          34.800
 107145571.520 8  83490139.56847  20389129.563                    20389135.980
        53.500          44.800
 121365858.756 7  94570852.09844  23095158.984                    23095163.457
        44.900          28.700
 109036751.422 8  84963734.09547  20749009.695                    20749014.098
        51.900          42.500
 18  2 21  9 43 30.0000000  0  7G02G07G28G09G30G13G05
 121271893.441 7  94497595.67945  23077281.969                    23077284.207
        46.100          30.200
 110176442.360 8  85851818.92946  20965882.133                    20965886.313
        53.500          41.900
 125944652.072 6  98138696.40543  23966467.750                    23966472.984
        38.700          20.600
 119331105.141 7  92985333.19845  22707959.875                    22707966.910
        46.800          35.300
 107130545.669 8  83478431.11147  20386270.328                    20386277.430
        53.500          45.300
 121277228.889 7  94501789.88644  23078293.125                    23078297.676
        45.200          29.400
 108999601.687 8  84934786.24747  20741940.273                    20741944.602
        51.200          42.100
 18  2 21  9 44  0.0000000  0  7G02G07G28G09G30G13G05
 121347834.660 7  94556770.62945  23091732.469                    23091735.629
        46.200          30.200
 110212584.906 8  85879981.95146  20972760.000                    20972763.969
        53.100          41.100
 125849026.504 6  98064183.02243  23948271.313                    23948276.516
        40.500          22.800
 119416410.326 7  93051804.74445  22724192.578                    22724199.934
        46.300          34.900
 107116057.558 9  83467141.67747  20383513.328                    20383519.879
        54.300          45.900
 121188752.501 7  94432847.25844  23061456.313                    23061460.910
        45.500          28.900
 108962948.268 8  84906225.14047  20734965.281                    20734969.648
        52.300          42.300
 18  2 21  9 44 30.0000000  0  7G02G07G28G09G30G13G05
 121424082.326 7  94616184.35444  23106242.234                    23106245.859
        45.500          29.800
 110249173.326 9  85908492.37346  20979722.766                    20979726.695
        54.000          41.800
 125753513.622 6  97989757.42743  23930095.508                    23930101.031
        40.200          22.300
 119501868.834 7  93118395.76945  22740455.172                    22740462.293
        47.300          34.400
 107102107.030 8  83456271.13347  20380858.438                    20380864.766
        53.400          45.400
 121100429.833 7  94364024.42044  23044649.563                    23044653.930
        45.500          29.700
 108926792.667 8  84878051.93547  20728085.172                    20728089.855
        52.800          42.500
 18  2 21  9 45  0.0000000  0  7G02G07G28G09G30G13G05
 121500633.413 7  94675834.51245  23120809.602                    23120812.352
        45.200          30.800
 110286206.088 8  85937349.05946  20986769.680                    20986773.398
        52.300          41.500
 125658116.699 6  97915422.21843  23911942.133                    23911947.434
        40.400          21.500
 119587479.777 7  93185105.54845  22756746.758                    22756753.949
        46.800          34.900
 107088693.963 8  83445819.39747  20378306.078                    20378312.688
        53.500          45.400
 121012262.360 7  94295322.50845  23027871.484                    23027876.117
        46.000          30.100
 108891136.217 8  84850267.68546  20721299.906                    20721304.320
        52.700          41.800
 18  2 21  9 45 30.0000000  0  7G02G07G28G09G30G13G05
 121577485.501 7  94735719.21245  23135434.016                    23135437.023
        45.500          30.200
 110323681.838 8  85966550.93046  20993901.000                    20993905.207
        52.900          41.400
 125562838.295 6  97841179.33943  23893811.039                    23893816.012
        40.900          21.700
 119673242.246 7  93251933.41745  22773066.477                    22773073.363
        47.000          34.500
 107075818.155 8  83435786.29747  20375855.883                    20375862.949
        53.900          45.200
 120924250.821 7  94226742.09344  23011123.781                    23011127.914
        45.600          29.600
 108855980.907 8  84822873.92747  20714610.047                    20714614.473
        52.800          42.000
 18  2 21  9 46  0.0000000  0  7G02G07G28G09G30G13G05
 121654635.454 7  94795836.00545  23150115.094                    23150117.973
        45.600          31.300
 110361598.777 8  85996096.58646  21001116.313                    21001119.863
        53.300          41.400
 125467681.330 6  97767031.05843  23875702.969                    23875708.004
        40.600          22.200
 119759155.410 8  93318878.70745  22789415.578                    22789422.641
        48.000          34.400
 107063479.448 9  83426171.71847  20373507.922                    20373514.789
        54.100          45.700
 120836395.670 7  94158283.55945  22994405.422                    22994409.871
        46.300          30.600
 108821327.902 8  84795871.58047  20708016.055                    20708020.566
        52.200          43.200
 18  2 21  9 46 30.0000000  0  7G02G07G28G09G30G13G05
 121732080.712 7  94856182.91145  23164852.820                    23164855.816
        45.100          31.900
 110399955.741 8  86025985.12446  21008415.500                    21008419.246
        53.800          41.400
 125372649.033 6  97692979.96543  23857619.281                    23857624.469
        39.200          22.600
 119845218.497 7  93385940.82845  22805792.602                    22805799.746
        47.300          34.400
 107051677.730 9  83416975.57847  20371262.328                    20371269.141
        54.100          45.800
 120748697.813 7  94089947.57245  22977716.953                    22977721.242
        45.300          30.600
 108787178.829 8  84769261.91047  20701517.711                    20701522.199
        52.200          42.900
 18  2 21  9 47  0.0000000  0  7G02G07G28G09G30G13G05
 121809818.359 7  94916757.65145  23179646.078                    23179648.781
        43.400          31.800
 110438751.059 8  86056215.24246  21015798.016                    21015801.816
        52.900          41.600
 125277744.179 6  97619028.19343  23839559.313                    23839564.852
        40.000          22.000
 119931430.476 7  93453118.95145  22822198.063                    22822205.176
        47.200          34.400
 107040412.615 8  83408197.56647  20369118.719                    20369125.156
        53.300          45.700
 120661157.980 7  94021734.73545  22961058.820                    22961062.992
        46.200          30.800
 108753534.918 8  84743045.87547  20695115.500                    20695120.012
        52.100          42.400
 18  2 21  9 47 30.0000000  0  8G02G20G07G28G09G30G13G05
 121887845.579 7  94977558.02945  23194493.703                    23194496.762
        43.500          31.500
 129442864.897 5 100864612.86742  24632164.438                    24632168.715
        35.100          16.900
 110477982.953 8  86086785.54246  21023263.750                    21023267.625
        53.400          40.900
 125182969.524 6  97545177.83343  23821524.625                    23821529.285
        39.900          22.300
 120017790.564 7  93520412.49045  22838631.898                    22838638.449
        47.900          34.300
 107029683.954 8  83399837.56547  20367077.125                    20367083.402
        53.400          45.100
 120573777.042 7  93953645.70944  22944430.781                    22944435.160
        46.600          29.300
 108720397.576 8  84717224.56047  20688809.617                    20688813.820
        52.400          43.200
 18  2 21  9 48  0.0000000  0  8G02G20G07G28G09G30G13G05
 121966159.732 7  95038581.98345  23209396.953                    23209399.465
        43.500          32.300
 129335141.243 5 100780672.41942  24611664.875                    24611669.160
        35.200          17.400
 110517650.178 8  86117695.05546  21030812.039                    21030816.270
        52.900          41.100
 125088328.030 6  97471431.23043  23803515.016                    23803519.383
        38.700          22.200
 120104297.992 7  93587820.83645  22855093.891                    22855100.660
        47.600          34.200
 107019491.563 8  83391895.43247  20365137.414                    20365144.207
        53.000          45.100
 120486555.602 7  93885680.95744  22927833.422                    22927837.375
        46.400          29.600
 108687768.610 8  84691799.39747  20682600.578                    20682604.684
        51.000          43.100
 18  2 21  9 48 30.0000000  0  8G02G20G07G28G09G30G13G05
 122044758.325 7  95099827.59445  23224353.602                    23224356.469
        43.200          30.000
 129227535.076 6 100696823.38542  24591188.445                    24591192.410
        36.500          16.300
 110557751.168 8  86148942.57446  21038443.016                    21038446.809
        53.000          41.400
 124993822.698 6  97397790.78543  23785530.234                    23785536.090
        39.400          23.900
 120190952.010 7  93655343.42645  22871583.414                    22871590.188
        46.100          33.500
 107009835.288 8  83384371.06547  20363300.023                    20363306.500
        53.100          45.200
 120399495.095 7  93817841.61745  22911265.922                    22911270.227
        46.400          30.300
 108655649.780 8  84666771.72747  20676488.406                    20676492.789
        50.900          43.300
 18  2 21  9 49  0.0000000  0  8G02G20G07G28G09G30G13G05
 122123638.708 7  95161292.78245  23239363.313                    23239366.473
        42.100          30.500
 129120048.843 5 100613067.93942  24570733.828                    24570738.473
        35.400          17.800
 110598284.975 8  86180527.35046  21046156.195                    21046160.234
        53.300          40.900
 124899456.998 6  97324259.09743  23767573.875                    23767578.766
        39.400          22.500
 120277752.189 7  93722979.88145  22888101.227                    22888108.258
        47.000          34.000
 107000715.251 8  83377264.53247  20361564.555                    20361571.199
        53.500          45.200
 120312596.552 7  93750128.47745  22894729.453                    22894733.734
        46.100          30.700
 108624042.691 8  84642142.82547  20670473.945                    20670478.117
        51.400          43.100
 18  2 21  9 49 30.0000000  0  8G02G20G07G28G09G30G13G05
 122202797.541 7  95222974.94944  23254427.211                    23254430.094
        42.200          29.700
 129012684.296 6 100529407.26843  24550303.820                    24550308.184
        37.200          19.600
 110639249.084 8  86212447.42646  21053951.266                    21053954.801
        52.500          40.600
 124805233.200 6  97250837.99043  23749643.805                    23749648.363
        39.200          21.700
 120364697.286 7  93790729.27045  22904645.875                    22904652.742
        46.300          33.500
 106992130.718 8  83370575.28647  20359930.641                    20359937.301
        53.600          45.300
 120225860.226 7  93682541.74144  22878224.211                    22878228.563
        45.800          29.600
 108592948.352 8  84617913.46347  20664556.852                    20664561.371
        51.200          42.600
 18  2 21  9 50  0.0000000  0  8G02G20G07G28G09G30G13G05
 122282232.060 7  95284871.91345  23269542.633                    23269546.195
        42.600          30.000
 128905443.562 6 100445843.12743  24529895.656                    24529900.242
        36.100          19.000
 110680642.231 8  86244701.81346  21061828.344                    21061832.234
        52.700          40.600
 124711154.095 6  97177529.65743  23731740.719                    23731746.266
        38.700          22.000
 120451786.356 7  93858590.84845  22921218.922                    22921225.727
        46.600          33.700
 106984081.325 8  83364303.03147  20358398.977                    20358405.781
        53.400          46.000
 120139286.898 7  93615082.01345  22861749.961                    22861753.773
        45.300          30.000
 108562368.158 8  84594084.74447  20658737.867                    20658742.031
        51.000          43.100
 18  2 21  9 50 30.0000000  0  8G02G20G07G28G09G30G13G05
 122361939.893 7  95346981.86444  23284711.133                    23284713.859
        42.300          27.900
 128798329.354 6 100362377.44643  24509514.148                    24509517.082
        38.700          19.000
 110722463.084 8  86277289.48446  21069786.547                    21069790.480
        52.500          40.500
 124617223.305 6  97104336.90143  23713866.547                    23713871.809
        39.900          22.800
 120539018.747 7  93926564.11045  22937818.836                    22937825.043
        46.600          33.000
 106976566.921 8  83358447.65647  20356969.148                    20356975.449
        52.600          45.300
 120052877.405 7  93547749.95944  22845306.602                    22845310.402
        45.700          29.700
 108532303.693 8  84570657.88647  20653016.797                    20653020.633
        51.300          42.400
 18  2 21  9 51  0.0000000  0  8G02G20G07G28G09G30G13G05
 122441917.918 7  95409302.37744  23299930.633                    23299933.117
        43.000          29.300
 128691343.482 6 100279011.87643  24489154.266                    24489158.551
        39.200          18.300
 110764709.809 8  86310208.99846  21077825.852                    21077829.816
        53.000          41.100
 124523442.988 6  97031261.37443  23696020.281                    23696025.344
        38.400          22.000
 120626393.511 7  93994648.28145  22954445.445                    22954452.938
        45.500          34.000
 106969586.991 8  83353008.75447  20355640.805                    20355647.590
        53.300          45.100
 119966632.554 7  93480546.18944  22828894.516                    22828898.434
        44.500          29.200
 108502756.230 8  84547633.88947  20647394.039                    20647397.961
        51.600          42.600
 18  2 21  9 51 30.0000000  0  8G02G20G07G28G09G30G13G05
 122522163.109 7  95471831.05844  23315200.438                    23315202.934
        42.800          28.500
 128584488.181 6 100195747.92743  24468821.289                    24468824.809
        38.600          18.600
 110807380.766 8  86343459.09346  21085945.953                    21085950.070
        53.100          40.700
 124429816.321 6  96958305.58543  23678202.961                    23678208.785
        39.900          22.600
 120713909.872 7  94062842.81445  22971099.789                    22971106.008
        45.800          33.700
 106963141.300 8  83347986.14047  20354413.945                    20354421.031
        52.900          45.500
 119880553.229 7  93413471.40944  22812513.828                    22812517.953
        44.900          29.300
 108473726.868 8  84525013.60447  20641869.758                    20641874.141
        50.700          43.000
 18  2 21  9 52  0.0000000  0  8G02G20G07G28G09G30G13G05
 122602672.884 7  95534565.91644  23330521.008                    23330523.895
        44.900          27.800
 128477766.466 6 100112588.22743  24448512.133                    24448516.961
        39.200          20.600
 110850474.580 8  86377038.67446  21094146.250                    21094150.570
        52.600          41.000
 124336346.247 6  96885471.80144  23660416.828                    23660421.879
        40.700          24.900
 120801567.081 7  94131147.09645  22987780.180                    22987786.660
        46.400          33.300
 106957229.509 8  83343379.54847  20353289.086                    20353295.813
        52.300          45.200
 119794640.536 7  93346526.47244  22796165.383                    22796169.090
        44.700          29.300
 108445217.282 8  84502798.34447  20636444.766                    20636448.883
        51.400          42.300
 18  2 21  9 52 30.0000000  0  8G02G20G07G28G09G30G13G05
 122683444.145 7  95597504.52344  23345891.219                    23345894.266
        44.300          28.100
 128371179.923 6 100029533.80043  24428229.930                    24428234.730
        38.700          20.400
 110893989.270 8  86410946.21746  21102426.766                    21102431.094
        52.500          40.400
 124243035.944 6  96812762.52743  23642660.172                    23642666.129
        40.200          22.900
 120889364.227 7  94199560.40845  23004487.023                    23004494.105
        45.300          33.100
 106951851.107 8  83339188.59147  20352265.680                    20352272.539
        52.700          44.600
 119708894.963 7  93279711.76244  22779848.805                    22779852.609
        43.800          29.300
 108417228.724 8  84480989.07847  20631118.680                    20631122.672
        52.000          42.300
 18  2 21  9 53  0.0000000  0  8G02G20G07G28G09G30G13G05
 122764474.375 7  95660644.90544  23361311.008                    23361313.621
        44.500          28.700
 128264731.277 6  99946586.82543  24407972.414                    24407977.945
        39.400          19.300
 110937923.662 8  86445180.80046  21110787.250                    21110791.223
        52.000          40.900
 124149888.041 6  96740179.82643  23624934.859                    23624939.969
        40.000          22.500
 120977300.600 7  94268082.21845  23021221.430                    23021227.586
        45.900          33.000
 106947005.818 8  83335413.03747  20351343.875                    20351350.230
        52.100          45.800
 119623317.487 7  93213028.03544  22763563.117                    22763567.430
        42.600          29.100
 108389762.863 8  84459587.10247  20625892.156                    20625896.008
        50.700          43.000
 18  2 21  9 53 30.0000000  0  8G02G20G07G28G09G30G13G05
 122845760.761 7  95723984.90344  23376779.320                    23376781.941
        45.200          29.000
 128158422.696 6  99863748.95143  24387742.930                    24387747.742
        37.700          19.600
 110982275.991 8  86479741.07246  21119226.992                    21119231.137
        53.000          40.200
 124056905.494 6  96667725.94243  23607240.867                    23607246.438
        40.900          22.800
 121065375.361 7  94336711.86745  23037981.023                    23037987.980
        46.000          33.500
 106942693.171 8  83332052.53647  20350523.188                    20350529.590
        53.700          45.300
 119537908.915 7  93146475.91644  22747310.766                    22747314.930
        44.100          28.100
 108362820.725 8  84438593.23347  20620765.000                    20620769.656
        51.700          42.400
 18  2 21  9 54  0.0000000  0  8G02G20G07G28G09G30G13G05
 122927300.419 7  95787522.24544  23392295.430                    23392298.527
        44.600          28.400
 128052256.479 6  99781022.05142  24367540.047                    24367544.590
        38.400          17.800
 111027044.601 8  86514625.69146  21127746.461                    21127750.094
        52.700          40.900
 123964091.544 6  96595403.44044  23589578.680                    23589583.957
        41.200          24.100
 121153587.756 7  94405448.74245  23054767.633                    23054774.191
        45.600          32.800
 106938912.779 8  83329106.77947  20349803.758                    20349810.508
        53.000          45.300
 119452670.131 7  93080056.09244  22731089.867                    22731094.250
        44.000          28.500
 108336404.026 8  84418008.79147  20615738.125                    20615742.223
        51.600          42.300
 18  2 21  9 54 30.0000000  0  8G02G20G07G28G09G30G13G05
 123009090.536 7  95851254.75244  23407859.602                    23407862.551
        44.500          28.800
 127946234.974 6  99698407.88243  24347365.125                    24347369.172
        38.300          19.900
 111072227.641 8  86549833.23846  21136344.477                    21136348.504
        53.000          40.500
 123871448.463 7  96523214.08943  23571949.531                    23571954.750
        42.300          22.900
 121241936.874 7  94474292.17745  23071579.164                    23071586.770
        46.700          32.900
 106935664.141 8  83326575.37647  20349185.258                    20349192.203
        53.700          45.200
 119367601.923 7  93013769.19844  22714902.133                    22714906.516
        44.600          28.800
 108310513.807 8  84397834.58947  20610811.734                    20610815.895
        51.800          42.600
 18  2 21  9 55  0.0000000  0  8G02G20G07G28G09G30G13G05
 123091128.203 7  95915180.14744  23423471.305                    23423474.270
        44.100          28.500
 127840360.528 6  99615908.34643  24327217.688                    24327221.938
        37.000          19.900
 111117823.671 8  86585362.60746  21145021.219                    21145025.625
        53.000          40.200
 123778979.541 7  96451160.43143  23554353.563                    23554358.082
        43.100          23.800
 121330422.049 7  94543241.60945  23088418.344                    23088424.402
        46.000          32.400
 106932946.802 8  83324457.96747  20348668.250                    20348674.871
        51.400          45.300
 119282705.116 7  92947615.85744  22698746.828                    22698751.172
        44.400          27.300
 108285151.154 8  84378071.48447  20605985.258                    20605989.453
        52.600          42.700
 18  2 21  9 55 30.0000000  0  8G02G20G07G28G09G30G13G05
 123173410.438 7  95979296.12744  23439129.508                    23439131.953
        44.600          27.400
 127734635.581 6  99533525.27243  24307098.961                    24307103.109
        38.500          19.600
 111163831.140 8  86621212.57546  21153776.219                    21153780.258
        52.800          40.900
 123686687.835 7  96379244.86943  23536790.789                    23536795.500
        42.200          23.800
 121419042.432 7  94612296.41845  23105281.516                    23105289.305
        46.200          31.500
 106930760.277 8  83322754.17747  20348252.594                    20348258.992
        53.300          45.700
 119197980.802 7  92881596.92844  22682624.867                    22682628.313
        45.900          27.900
 108260317.377 8  84358720.48547  20601259.156                    20601263.457
        52.600          43.000
 18  2 21  9 56  0.0000000  0  8G02G20G07G28G09G30G13G05
 123255934.264 7  96043600.35144  23454832.828                    23454835.531
        43.800          27.800
 127629062.583 6  99451260.56043  24287008.688                    24287013.188
        37.300          20.100
 111210248.376 8  86657381.84246  21162609.008                    21162612.984
        53.200          40.100
 123594576.051 7  96307469.51644  23519263.211                    23519267.391
        43.000          24.800
 121507797.261 7  94681455.98445  23122171.313                    23122177.871
        47.000          31.900
 106929104.180 8  83321463.70747  20347937.273                    20347943.699
        53.200          45.700
 119113429.720 7  92815712.98444  22666535.031                    22666538.883
        45.200          29.200
 108236014.095 8  84339782.85947  20596634.977                    20596638.957
        53.400          42.500
 18  2 21  9 56 30.0000000  0  8G02G20G07G28G09G30G13G05
 123338697.501 7  96108091.14344  23470581.617                    23470585.000
        43.300          27.600
 127523643.593 6  99369115.95643  24266949.078                    24266952.805
        38.500          21.500
 111257073.599 8  86693869.02146  21171519.359                    21171523.520
        52.400          40.200
 123502647.002 6  96235836.55643  23501769.398                    23501774.047
        41.200          23.500
 121596685.832 7  94750719.75445  23139086.148                    23139093.695
        46.900          32.400
 106927977.948 8  83320586.12147  20347722.891                    20347729.340
        53.900          45.500
 119029052.786 7  92749964.73744  22650478.289                    22650482.168
        46.000          28.900
 108212242.371 8  84321259.43547  20592110.969                    20592115.176
        52.600          43.200
 18  2 21  9 57  0.0000000  0  8G02G20G07G28G09G30G13G05
 123421696.842 7  96172765.89844  23486376.023                    23486379.012
        43.900          26.100
 127418380.855 6  99287093.03543  24246917.172                    24246921.789
        38.300          21.300
 111304305.205 8  86730672.85346  21180507.570                    21180511.633
        52.300          40.800
 123410904.031 6  96164348.58244  23484310.727                    23484315.480
        41.500          24.600
 121685707.200 7  94820086.99445  23156026.125                    23156033.977
        46.000          31.600
 106927380.987 8  83320120.95847  20347609.484                    20347615.871
        53.900          45.400
 118944850.532 7  92684352.59344  22634455.734                    22634459.582
        45.500          29.000
 108189003.711 8  84303151.38547  20587689.047                    20587692.566
        52.300          42.400
 18  2 21  9 57 30.0000000  0  8G02G20G07G28G09G30G13G05
 123504929.263 7  96237622.28844  23502215.109                    23502217.977
        43.900          26.500
 127313277.277 6  99205194.18643  24226917.766                    24226921.270
        36.800          20.400
 111351941.476 8  86767792.00746  21189572.406                    21189576.430
        51.700          40.400
 123319350.110 6  96093007.90044  23466888.961                    23466893.426
        41.500          25.800
 121774860.591 7  94889557.13145  23172991.539                    23172998.570
        44.400          30.400
 106927312.722 8  83320067.76547  20347596.406                    20347603.141
        53.800          46.000
 118860823.975 7  92618877.36344  22618466.125                    22618469.473
        46.200          29.100
 108166298.664 8  84285459.13647  20583368.305                    20583372.488
        53.100          42.800
 18  2 21  9 58  0.0000000  0  8G02G20G07G28G09G30G13G05
 123588391.953 7  96302658.11244  23518097.781                    23518100.266
        44.300          27.000
 127208334.907 6  99123420.89743  24206947.109                    24206951.711
        37.800          20.600
 111399980.515 8  86805225.02046  21198713.898                    21198718.152
        52.600          40.500
 123227987.753 6  96021816.50644  23449502.938                    23449508.078
        41.100          24.500
 121864145.156 7  94959129.48945  23189982.008                    23189988.711
        44.500          30.500
 106927772.507 9  83320426.04047  20347684.047                    20347690.699
        54.000          45.800
 118776973.803 7  92553539.57444  22602509.734                    22602513.480
        45.200          28.700
 108144128.686 8  84268183.82547  20579149.336                    20579153.164
        52.500          42.900
 18  2 21  9 58 30.0000000  0  8G02G20G07G28G09G30G13G05
 123672082.087 7  96367871.14144  23534023.727                    23534026.289
        44.300          28.100
 127103555.986 6  99041775.05143  24187008.320                    24187013.035
        38.600          20.400
 111448420.991 8  86842970.85446  21207931.883                    21207935.898
        52.700          40.100
 123136819.719 6  95950776.54444  23432153.609                    23432158.496
        40.800          24.200
 121953560.209 7  95028803.50645  23206997.719                    23207004.734
        43.400          31.700
 106928759.883 8  83321195.42047  20347871.977                    20347878.582
        52.800          45.800
 118693301.205 7  92488340.14944  22586587.117                    22586591.223
        46.100          29.700
 108122495.150 8  84251326.51647  20575032.813                    20575036.930
        52.200          42.800
 18  2 21  9 59  0.0000000  0  8G02G20G07G28G09G30G13G05
 123755996.987 7  96433259.33144  23549991.773                    23549994.313
        43.600          27.100
 126998942.765 6  98960258.21443  24167101.352                    24167105.219
        38.000          20.400
 111497261.502 8  86881028.38746  21217226.070                    21217229.688
        53.500          39.800
 123045849.086 6  95879890.37344  23414843.445                    23414847.492
        40.600          25.100
 122043104.916 7  95098578.54545  23224036.367                    23224044.660
        42.300          30.700
 106930274.212 8  83322375.41247  20348159.789                    20348166.602
        52.300          45.700
 118609807.077 7  92423279.80444  22570698.984                    22570702.535
        45.500          28.800
 108101399.059 8  84234888.00747  20571018.109                    20571022.281
        51.500          42.800
 18  2 21  9 59 30.0000000  0  8G02G20G07G28G09G30G13G05
 123840133.660 7  96498820.32444  23566002.672                    23566005.695
        42.600          27.300
 126894498.385 6  98878873.02343  24147225.805                    24147230.414
        38.900          20.100
 111546499.670 8  86919395.78646  21226595.531                    21226599.309
        52.200          40.000
 122955078.843 6  95809160.38344  23397569.781                    23397574.914
        40.800          24.300
 122132778.545 7  95168454.06245  23241101.531                    23241108.055
        43.600          30.900
 106932314.873 8  83323965.53347  20348548.227                    20348555.211
        52.000          45.600
 118526491.986 7  92358358.95244  22554844.461                    22554848.105
        45.200          29.200
 108080841.668 8  84218869.25447  20567106.180                    20567110.414
        51.500          42.600
                            4  1
RINEX FILE SPLICE; other post-header comments skipped       COMMENT
 18  2 21 10  0  0.0000000  0  8G02G20G07G28G09G30G13G05
 123924489.155 7  96564551.82444  23582055.016                    23582057.926
        43.000          28.100
 126790224.665 6  98797620.76943  24127383.117                    24127387.438
        39.700          22.200
 111596134.012 8  86958071.88246  21236040.867                    21236044.672
        52.400          39.700
 122864511.815 6  95738588.72344  23380335.375                    23380339.926
        40.800          25.600
 122222580.281 7  95238429.39845  23258190.328                    23258197.652
        43.300          31.200
 106934881.209 8  83325965.27747  20349036.703                    20349043.484
        53.200          45.800
 118443356.734 7  92293578.25744  22539024.297                    22539028.387
        45.000          29.600
 108060823.868 8  84203270.95947  20563296.875                    20563301.027
        51.900          42.800
 18  2 21 10  0 30.0000000  0  8G02G20G07G28G09G30G13G05
 124009060.668 7  96630451.64544  23598148.375                    23598151.781
        42.300          27.000
 126686124.193 6  98716503.52543  24107573.859                    24107577.738
        40.500          21.500
 111646162.967 8  86997055.48146  21245560.922                    21245564.566
        53.000          40.000
 122774150.885 6  95668177.64644  23363140.094                    23363144.656
        40.500          25.000
 122312509.319 7  95308503.90745  23275303.484                    23275310.434
        44.700          31.300
 106937972.582 8  83328374.14147  20349624.969                    20349631.508
        52.900          45.600
 118360402.573 7  92228938.66045  22523238.844                    22523242.637
        45.700          30.800
 108041347.186 8  84188094.31447  20559590.602                    20559594.949
        52.100          42.900
 18  2 21 10  1  0.0000000  0  8G02G20G07G28G09G30G13G05
 124093845.288 7  96696517.52144  23614282.531                    23614285.379
        42.200          27.200
 126582199.342 6  98635523.14243  24087798.195                    24087801.930
        39.800          21.300
 111696584.766 8  87036345.18246  21255155.820                    21255159.621
        51.800          40.300
 122683999.212 6  95597929.66544  23345984.406                    23345989.605
        41.100          25.200
 122402565.113 7  95378677.21945  23292440.055                    23292447.637
        43.900          31.200
 106941588.522 8  83331191.75547  20350313.000                    20350319.191
        53.500          45.700
 118277630.039 7  92164440.59044  22507487.531                    22507491.391
        45.800          29.900
 108022412.682 8  84173340.15247  20555987.430                    20555991.840
        53.200          43.000
 18  2 21 10  1 30.0000000  0  8G02G20G07G28G09G30G13G05
 124178840.080 6  96762747.15044  23630456.258                    23630459.441
        41.400          27.100
 126478452.535 6  98554681.48843  24068056.117                    24068059.383
        41.400          22.500
 111747397.620 8  87075939.61146  21264825.203                    21264829.063
        52.600          40.300
 122594059.301 7  95527846.64044  23328870.016                    23328874.883
        43.100          25.000
 122492746.628 7  95448948.48744  23309601.297                    23309608.250
        44.400          29.700
 106945728.092 8  83334417.39247  20351100.680                    20351107.313
        52.800          45.200
 118195040.201 7  92100084.89345  22491770.891                    22491775.102
        45.100          30.500
 108004021.070 8  84159009.02547  20552487.430                    20552491.855
        52.600          43.000
 18  2 21 10  2  0.0000000  0  8G02G20G07G28G09G30G13G05
 124264042.260 7  96829138.40544  23646670.156                    23646673.082
        42.900          28.900
 126374886.064 6  98473980.36543  24048347.375                    24048351.590
        39.500          21.800
 111798599.748 8  87115837.35846  21274568.484                    21274572.746
        52.000          40.200
 122504334.115 7  95457930.97044  23311796.023                    23311800.047
        42.400          25.000
 122583053.191 7  95519317.18745  23326785.852                    23326793.918
        45.200          31.400
 106950390.674 8  83338050.57347  20351987.961                    20351994.488
        53.200          45.900
 118112634.009 7  92035872.28645  22476090.289                    22476094.219
        44.600          31.100
 107986173.681 8  84145101.96147  20549091.398                    20549095.855
        52.400          42.900
 18  2 21 10  2 30.0000000  0  8G02G20G07G28G09G30G13G05
 124349448.858 7  96895688.94144  23662922.664                    23662925.914
        42.400          28.700
 126271502.361 6  98393421.64943  24028674.555                    24028678.148
        40.400          22.000
 111850189.612 8  87156037.23946  21284385.922                    21284389.883
        53.000          40.100
 122414826.493 7  95388184.82044  23294762.430                    23294767.207
        43.400          25.500
 122673483.882 7  95589782.60845  23343994.648                    23344002.246
        46.500          31.400
 106955575.446 8  83342090.65747  20352974.398                    20352980.988
        53.000          45.400
 118030411.915 7  91971803.12945  22460443.516                    22460447.762
        44.900          31.000
 107968871.171 8  84131619.48147  20545798.859                    20545803.363
        52.700          43.000
 18  2 21 10  3  0.0000000  0  8G02G20G07G28G09G30G13G05
 124435056.805 7  96962396.37444  23679213.219                    23679216.313
        42.400          28.300
 126168303.987 6  98313007.34043  24009035.648                    24009040.125
        39.400          21.800
 111902165.319 8  87196537.78146  21294276.734                    21294280.426
        52.800          39.400
 122325539.561 7  95318610.60744  23277771.391                    23277776.965
        44.100          26.100
 122764038.016 7  95660344.23345  23361226.859                    23361233.398
        45.200          30.300
 106961281.721 8  83346537.10647  20354060.516                    20354067.086
        53.600          45.000
 117948375.014 7  91907878.29345  22444832.461                    22444837.109
        44.500          30.100
 107952115.085 8  84118562.79047  20542609.922                    20542614.945
        52.100          42.800
 18  2 21 10  3 30.0000000  0  8G02G20G07G28G09G30G13G05
 124520863.030 7  97029258.32444  23695541.516                    23695544.703
        42.200          28.700
 126065293.313 6  98232739.28743  23989433.867                    23989437.621
        39.800          22.300
 111954525.118 8  87237337.62446  21304240.266                    21304244.141
        52.400          39.900
 122236476.030 7  95249210.53444  23260823.883                    23260828.387
        43.000          26.000
 122854714.787 7  95731001.40045  23378482.313                    23378489.176
        44.700          30.700
 106967508.701 8  83351389.30247  20355245.078                    20355251.941
        53.700          45.600
 117866524.240 7  91844098.48345  22429256.555                    22429261.035
        43.800          30.700
 107935906.051 8  84105932.36447  20539525.758                    20539530.328
        52.500          43.500
 18  2 21 10  4  0.0000000  0  8G02G20G07G28G09G30G13G05
 124606865.008 7  97096272.79544  23711906.914                    23711910.703
        43.200          27.900
 125962472.633 6  98152619.27643  23969867.547                    23969872.000
        39.700          22.200
 112007267.475 8  87278435.55546  21314276.828                    21314280.691
        53.200          39.800
 122147638.842 7  95179986.77444  23243918.727                    23243923.324
        44.000          27.700
 122945513.478 7  95801753.60745  23395760.414                    23395767.379
        45.300          30.600
 106974255.763 8  83356646.74647  20356529.242                    20356535.945
        53.700          45.500
 117784860.499 7  91780464.41145  22413716.148                    22413720.898
        44.600          31.400
 107920245.245 8  84093729.13647  20536545.930                    20536550.547
        52.300          43.200
 18  2 21 10  4 30.0000000  0  8G02G20G07G28G09G30G13G05
 124693059.807 7  97163437.52844  23728310.188                    23728312.547
        42.500          29.100
 125859844.638 6  98072649.42143  23950337.500                    23950342.410
        39.000          22.500
 112060390.466 8  87319830.09046  21324385.797                    21324389.793
        52.600          39.900
 122059030.782 7  95110941.54744  23227057.539                    23227062.027
        43.700          27.900
 123036433.332 7  95872600.17245  23413061.500                    23413069.516
        45.100          31.000
 106981522.099 9  83362308.82247  20357911.789                    20357918.410
        54.100          45.200
 117703384.514 7  91716976.64944  22398211.773                    22398216.684
        45.200          29.900
 107905133.711 8  84081953.90647  20533670.063                    20533674.504
        52.400          43.600
 18  2 21 10  5  0.0000000  0  8G02G20G07G28G09G30G13G05
 124779444.474 6  97230750.20944  23744748.391                    23744751.332
        41.800          29.600
 125757411.447 6  97992831.40443  23930845.539                    23930849.961
        39.900          22.300
 112113892.150 8  87361519.70146  21334566.719                    21334570.809
        52.900          39.600
 121970654.874 7  95042077.27444  23210239.531                    23210244.730
        43.400          27.100
 123127473.495 7  95943540.50445  23430386.578                    23430392.582
        45.900          30.000
 106989306.745 9  83368374.78247  20359393.602                    20359400.180
        54.300          45.300
 117622097.249 7  91653635.94745  22382743.359                    22382748.430
        46.300          31.300
 107890572.480 8  84070607.48847  20530899.219                    20530903.508
        51.800          43.100
 18  2 21 10  5 30.0000000  0  8G02G20G07G28G09G30G13G05
 124866016.095 7  97298208.55244  23761221.945                    23761225.250
        42.000          28.000
 125655176.027 6  97913167.43343  23911390.461                    23911395.387
        39.800          22.800
 112167771.049 8  87403503.24246  21344819.531                    21344823.539
        53.000          39.900
 121882513.790 7  94973395.94844  23193467.242                    23193472.055
        44.500          28.100
 123218633.292 7  96014574.07545  23447733.133                    23447740.586
        45.300          31.100
 106997609.071 9  83374844.12847  20360973.320                    20360979.691
        54.300          45.400
 117540999.735 7  91590443.09145  22367310.961                    22367315.316
        46.000          31.200
 107876562.346 8  84059690.49747  20528233.055                    20528237.598
        52.700          43.100
 18  2 21 10  6  0.0000000  0  8G02G20G07G28G09G30G13G05
 124952771.925 7  97365810.43744  23777731.898                    23777734.395
        42.200          28.000
 125553140.506 6  97833659.26143  23891973.828                    23891978.168
        39.400          21.700
 112222025.309 8  87445779.28546  21355143.703                    21355147.641
        52.900          39.800
 121794610.589 7  94904899.97044  23176739.516                    23176744.359
        43.200          28.300
 123309911.859 7  96085700.18045  23465102.492                    23465110.223
        44.700          30.500
 107006428.149 9  83381716.13547  20362651.445                    20362658.055
        54.100          45.400
 117460092.371 7  91527398.39645  22351915.563                    22351919.445
        45.900          30.800
 107863104.271 8  84049203.68247  20525672.219                    20525676.570
        52.200          43.000
 18  2 21 10  6 30.0000000  0  8G02G20G07G28G09G30G13G05
 125039708.895 6  97433553.46644  23794275.516                    23794277.902
        41.800          27.100
 125451307.375 6  97754308.77543  23872596.219                    23872599.734
        40.800          22.000
 112276653.293 8  87488346.53646  21365539.195                    21365543.332
        52.500          40.000
 121706948.067 7  94836591.54844  23160057.398                    23160062.598
        44.000          28.400
 123401308.646 7  96156918.38445  23482495.250                    23482501.938
        44.900          30.200
 107015763.237 8  83388990.23647  20364427.586                    20364434.352
        53.200          45.400
 117379376.256 7  91464502.73145  22336555.031                    22336560.129
        46.500          31.600
 107850199.251 8  84039147.81747  20523216.414                    20523220.855
        53.200          42.600
 18  2 21 10  7  0.0000000  0  8G02G20G07G28G09G30G13G05
 125126823.665 7  97501435.05544  23810852.008                    23810855.844
        42.100          29.200
 125349679.187 6  97675117.99243  23853256.867                    23853261.000
        39.400          22.800
 112331653.034 8  87531203.45946  21376005.375                    21376009.367
        52.900          39.800
 121619529.002 7  94768472.82644  23143422.727                    23143427.555
        43.400          28.100
 123492822.626 7  96228227.95045  23499909.961                    23499917.141
        46.300          30.800
 107025613.362 8  83396665.65647  20366302.375                    20366308.688
        52.900          44.900
 117298852.604 7  91401757.03245  22321232.109                    22321236.457
        46.500          30.700
 107837847.564 8  84029523.11247  20520865.828                    20520870.461
        52.700          42.700
 18  2 21 10  7 30.0000000  0  8G02G20G07G28G09G30G13G05
 125214113.781 6  97569453.26444  23827463.156                    23827466.379
        41.800          28.000
 125248258.169 6  97596088.63243  23833956.023                    23833961.430
        40.500          22.800
 112387022.711 8  87574348.65746  21386541.891                    21386545.820
        52.900          39.700
 121532356.156 7  94700545.99144  23126833.680                    23126838.824
        43.800          28.200
 123584453.164 7  96299628.31445  23517346.578                    23517354.125
        44.500          31.300
 107035977.679 8  83404741.74247  20368274.539                    20368281.336
        53.600          45.300
 117218522.047 7  91339161.79845  22305945.875                    22305949.883
        46.500          31.900
 107826050.729 8  84020330.76747  20518621.047                    20518625.441
        52.100          42.300
 18  2 21 10  8  0.0000000  0  8G02G20G07G28G09G30G13G05
 125301576.325 6  97637605.82044  23844106.375                    23844110.223
        41.000          27.500
 125147046.837 6  97517222.68743  23814697.477                    23814701.422
        41.600          22.500
 112442760.874 8  87617780.97546  21397148.352                    21397152.043
        53.200          39.900
 121445432.604 7  94632813.37644  23110292.898                    23110297.633
        43.300          27.300
 123676199.566 7  96371118.91645  23534805.688                    23534812.473
        45.300          30.100
 107046855.339 8  83413217.83947  20370344.453                    20370351.020
        52.600          44.900
 117138385.723 7  91276717.91445  22290696.375                    22290700.000
        46.800          31.400
 107814809.584 8  84011571.43247  20516481.781                    20516486.168
        52.000          42.900
 18  2 21 10  8 30.0000000  0  8G02G20G07G28G09G30G13G05
 125389208.585 6  97705890.61744  23860782.523                    23860785.859
        40.100          26.300
 125046047.981 6  97438522.28043  23795477.945                    23795481.234
        41.300          22.300
 112498865.381 8  87661498.76246  21407824.531                    21407829.039
        52.600          40.200
 121358760.884 7  94565277.01144  23093799.734                    23093804.488
        44.100          27.600
 123768060.889 7  96442699.16545  23552286.047                    23552293.078
        44.500          30.700
 107058245.382 8  83422093.19947  20372511.813                    20372518.426
        53.000          45.000
 117058443.944 7  91214425.63045  22275483.930                    22275488.027
        46.900          31.000
 107804124.678 8  84003245.52347  20514448.828                    20514453.090
        52.900          42.600
 18  2 21 10  9  0.0000000  0  8G02G20G07G28G09G30G13G05
 125477007.090 6  97774304.95944  23877489.758                    23877493.574
        40.000          27.300
 124945263.996 6  97359989.31443  23776298.664                    23776303.039
        40.100          22.200
 112555334.496 8  87705500.65946  21418570.688                    21418574.559
        53.100          39.900
 121272344.017 7  94497939.23344  23077355.547                    23077360.125
        43.700          28.400
 123860036.480 7  96514368.40245  23569788.484                    23569795.238
        44.600          30.000
 107070146.900 8  83431367.11047  20374776.789                    20374783.078
        52.300          45.100
 116978697.980 7  91152285.92345  22260309.188                    22260313.008
        45.700          32.000
 107793996.731 8  83995353.61347  20512521.289                    20512525.863
        52.300          42.700
 18  2 21 10  9 30.0000000  0  8G02G20G07G28G09G30G13G05
 125564969.241 6  97842846.81244  23894229.055                    23894232.176
        40.900          26.700
 124844697.431 6  97281625.77444  23757161.953                    23757165.516
        40.400          24.100
 112612166.975 8  87749785.69646  21429385.477                    21429389.539
        52.600          39.500
 121186184.911 7  94430802.28044  23060960.188                    23060964.340
        44.900          27.700
 123952125.753 7  96586126.20245  23587312.789                    23587320.199
        45.300          30.400
 107082559.136 8  83441038.98147  20377138.586                    20377145.168
        52.700          44.800
 116899148.969 7  91090299.67845  22245171.492                    22245175.309
        46.800          32.400
 107784427.055 8  83987896.71647  20510700.328                    20510704.754
        51.800          43.100
 18  2 21 10 10  0.0000000  0  8G02G20G07G28G09G30G13G05
 125653092.165 6  97911513.95344  23910997.961                    23911001.535
        40.400          27.200
 124744350.367 6  97203433.24243  23738065.977                    23738070.203
        40.800          21.500
 112669360.385 8  87794351.97046  21440269.180                    21440273.137
        52.600          40.100
 121100286.164 7  94363868.23044  23044614.273                    23044618.719
        43.900          28.300
 124044327.632 7  96657971.75244  23604858.070                    23604865.395
        44.000          28.900
 107095480.856 8  83451107.85147  20379597.625                    20379604.289
        52.000          44.700
 116819797.296 7  91028467.20545  22230071.305                    22230075.160
        46.600          32.400
 107775416.013 8  83980875.11447  20508985.703                    20508989.980
        51.900          42.900
 18  2 21 10 10 30.0000000  0  8G02G20G07G28G09G30G13G05
 125741372.736 6  97980303.91544  23927797.586                    23927800.383
        40.900          27.100
 124644225.428 6  97125413.85943  23719013.633                    23719017.246
        40.800          23.600
 112726912.893 8  87839198.06946  21451220.828                    21451224.871
        52.500          39.600
 121014650.927 7  94297139.51544  23028318.164                    23028322.766
        43.900          28.900
 124136641.557 7  96729904.64244  23622425.086                    23622431.203
        43.900          28.900
 107108911.227 8  83461573.06947  20382153.422                    20382160.039
        53.300          45.300
 116740644.154 7  90966789.44445  22215009.313                    22215013.242
        47.000          32.800
 107766964.361 8  83974289.40847  20507377.461                    20507381.648
        52.600          43.100
 18  2 21 10 11  0.0000000  0  8G02G20G07G28G09G30G13G05
 125829807.934 6  98049214.38644  23944625.781                    23944629.492
        41.700          26.400
 124544325.184 6  97047569.50043  23700002.719                    23700007.199
        38.900          22.900
 112784822.653 8  87884322.54546  21462240.711                    21462244.973
        53.000          39.500
 120929281.930 7  94230618.26044  23012073.117                    23012077.383
        44.100          28.200
 124229066.549 7  96801924.09144  23640012.367                    23640019.984
        43.200          28.900
 107122849.152 8  83472433.78947  20384805.820                    20384812.516
        53.400          45.100
 116661690.374 7  90905267.02745  22199984.883                    22199988.797
        47.600          33.300
 107759072.812 8  83968140.13747  20505875.641                    20505880.523
        51.800          42.900
 18  2 21 10 11 30.0000000  0  8G02G20G07G28G09G30G13G05
 125918395.052 6  98118243.22044  23961483.727                    23961486.992
        41.000          25.600
 124444652.480 6  96969902.49143  23681035.719                    23681040.016
        39.200          22.800
 112843088.311 8  87929724.34446  21473328.375                    21473332.379
        52.900          40.000
 120844181.798 7  94164306.51044  22995878.617                    22995883.559
        44.000          28.200
 124321602.212 7  96874029.69844  23657622.102                    23657629.219
        43.700          29.300
 107137293.918 8  83483689.45047  20387554.406                    20387560.988
        53.500          45.100
 116582937.115 7  90843900.85745  22184998.250                    22185002.410
        47.200          33.100
 107751742.561 8  83962428.24647  20504481.008                    20504485.426
        52.600          43.300
 18  2 21 10 12  0.0000000  0  8G02G20G07G28G09G30G13G05
 126007131.057 7  98187388.08944  23978370.797                    23978373.297
        43.600          25.900
 124345209.336 6  96892414.34043  23662111.969                    23662117.090
        39.900          23.200
 112901708.221 8  87975402.18746  21484483.289                    21484487.328
        52.300          39.900
 120759353.223 7  94098206.36044  22979736.734                    22979741.422
        44.100          28.300
 124414247.679 7  96946220.93044  23675251.164                    23675257.828
        43.300          26.700
 107152244.427 8  83495339.19447  20390399.648                    20390406.023
        53.300          45.100
 116504384.923 8  90782691.37345  22170050.414                    22170054.422
        48.300          33.200
 107744974.192 8  83957154.18747  20503193.203                    20503197.020
        52.500          43.000
 18  2 21 10 12 30.0000000  0  8G02G20G07G28G09G30G13G05
 126096013.049 7  98256646.72844  23995283.641                    23995286.828
        43.100          26.700
 124245998.439 6  96815107.16143  23643233.258                    23643237.496
        39.200          23.200
 112960680.322 8  88021354.46246  21495705.797                    21495709.156
        52.100          40.100
 120674799.193 7  94032320.14544  22963646.227                    22963651.789
        44.000          27.300
 124507002.062 7  97018497.02344  23692902.969                    23692908.969
        42.900          27.500
 107167699.491 8  83507382.09147  20393340.883                    20393346.664
        53.600          44.800
 116426034.840 8  90721639.37445  22155140.805                    22155145.145
        48.300          33.500
 107738767.751 8  83952317.99547  20502011.836                    20502016.133
        52.500          43.600
 18  2 21 10 13  0.0000000  0  8G02G20G07G28G09G30G13G05
 126185038.557 6  98326017.19144  24012224.477                    24012227.684
        41.400          25.800
 124147022.525 6  96737983.08844  23624398.438                    23624402.820
        40.400          25.400
 113020002.584 8  88067579.58846  21506994.133                    21506998.113
        52.100          40.400
 120590522.612 7  93966650.11844  22947609.070                    22947613.875
        43.700          26.700
 124599864.709 7  97090857.47044  23710573.609                    23710580.840
        44.600          29.300
 107183658.208 8  83519817.45447  20396377.328                    20396383.988
        53.300          45.200
 116347887.695 8  90660745.50845  22140269.906                    22140274.371
        48.800          33.800
 107733124.438 8  83947920.59547  20500938.109                    20500942.363
        52.700          43.400
 18  2 21 10 13 30.0000000  0  8G02G20G07G28G09G30G13G05
 126274204.037 6  98395496.74644  24029192.180                    24029195.004
        41.300          25.300
 124048283.912 6  96661043.90144  23605608.813                    23605613.703
        40.600          25.000
 113079673.184 8  88114076.14946  21518348.984                    21518353.203
        51.600          39.900
 120506526.173 7  93901198.40944  22931625.008                    22931630.164
        43.300          26.500
 124692834.908 7  97163301.70144  23728264.766                    23728272.035
        43.400          26.900
 107200119.599 8  83532644.50347  20399509.805                    20399515.977
        53.200          45.000
 116269944.405 8  90600010.49445  22125437.734                    22125442.418
        48.500          34.700
 107728045.013 8  83943962.59547  20499971.289                    20499975.844
        52.500          43.500
 18  2 21 10 14  0.0000000  0  8G02G20G07G28G09G30G13G05
 126363506.945 6  98465083.34544  24046186.391                    24046189.375
        40.500          24.900
 123949785.021 6  96584291.51943  23586865.078                    23586869.949
        40.000          22.800
 113139690.445 8  88160842.83746  21529769.875                    21529773.898
        52.400          40.000
 120422812.548 7  93835967.04644  22915694.344                    22915699.293
        43.400          26.000
 124785911.902 7  97235829.18544  23745976.688                    23745983.586
        43.200          26.500
 107217082.520 8  83545862.35747  20402737.828                    20402744.199
        53.600          45.200
 116192206.081 8  90539435.19245  22110644.422                    22110649.465
        48.100          33.800
 107723529.646 8  83940444.11947  20499112.172                    20499116.367
        51.800          42.700
 18  2 21 10 14 30.0000000  0  8G02G20G07G28G09G30G13G05
 126452944.162 6  98534774.64044  24063204.547                    24063208.465
        39.600          24.600
 123851528.428 6  96507727.95643  23568167.195                    23568172.117
        40.400          23.500
 113200052.472 8  88207878.17046  21541256.398                    21541260.457
        52.100          40.000
 120339384.505 7  93770958.22944  22899818.250                    22899823.754
        44.100          28.200
 124879094.862 7  97308439.23344  23763709.648                    23763715.973
        43.900          27.800
 107234545.812 8  83559470.11447  20406061.055                    20406067.438
        53.700          44.700
 116114673.750 8  90479020.39745  22095890.438                    22095895.027
        48.000          34.000
 107719579.246 8  83937365.87547  20498360.516                    20498364.996
        51.700          43.900
 18  2 21 10 15  0.0000000  0  8G02G20G07G28G09G30G13G05
 126542512.871 6  98604568.34244  24080250.047                    24080253.121
        38.700          24.900
 123753516.964 6  96431355.39543  23549516.734                    23549521.156
        40.200          23.000
 113260758.072 8  88255181.20146  21552808.227                    21552812.367
        51.800          40.000
 120256245.228 7  93706174.42044  22883998.039                    22884002.836
        45.000          27.500
 124972383.189 7  97381131.39044  23781461.188                    23781469.113
        43.000          27.800
 107252508.640 9  83573467.12547  20409479.250                    20409485.902
        54.100          44.500
 116037348.160 8  90418766.70345  22081175.930                    22081180.684
        48.700          34.200
 107716194.491 8  83934728.39947  20497716.359                    20497720.387
        51.600          43.300
 18  2 21 10 15 30.0000000  0  8G02G20G07G28G09G30G13G05
 126632210.350 6  98674462.43444  24097318.617                    24097322.496
        39.500          26.500
 123655753.158 6  96355175.83444  23530913.031                    23530917.898
        39.500          25.000
 113321804.651 8  88302749.94846  21564425.031                    21564429.152
        51.700          39.600
 120173396.910 7  93641617.33744  22868231.969                    22868236.715
        44.000          27.800
 125065776.241 7  97453905.08344  23799234.672                    23799241.371
        43.200          27.100
 107270969.877 8  83587852.50447  20412992.313                    20412998.984
        53.400          44.300
 115960230.046 8  90358674.67445  22066500.711                    22066505.547
        48.700          34.000
 107713375.976 8  83932532.14647  20497180.141                    20497184.152
        51.700          43.400
 18  2 21 10 16  0.0000000  0  8G02G20G07G28G09G30G13G05
 126722033.359 6  98744454.31744  24114411.227                    24114415.414
        38.400          26.400
 123558239.188 6  96279190.93244  23512356.242                    23512361.254
        40.300          24.000
 113383190.683 8  88350583.21446  21576106.648                    21576110.359
        50.500          40.000
 120090842.721 7  93577289.45144  22852522.719                    22852527.586
        44.100          28.600
 125159273.000 6  97526759.65644  23817025.633                    23817032.230
        41.000          26.000
 107289928.179 8  83602625.20247  20416599.469                    20416606.156
        53.500          44.800
 115883320.456 8  90298745.13045  22051865.172                    22051870.129
        48.800          34.200
 107711124.039 8  83930777.38547  20496752.047                    20496755.535
        50.800          43.200
 18  2 21 10 16 30.0000000  0  8G02G20G07G28G09G30G13G05
 126811978.893 6  98814541.68844  24131527.875                    24131531.098
        39.100          25.800
 123460977.670 6  96203402.76144  23493848.180                    23493853.188
        39.600          25.200
 113444914.371 8  88398679.58446  21587852.156                    21587856.063
        50.500          40.100
 120008585.181 7  93513192.71344  22836869.453                    22836873.977
        44.700          27.900
 125252872.793 7  97599694.52044  23834837.023                    23834844.250
        43.700          27.900
 107309382.566 8  83617784.46847  20420301.883                    20420308.168
        53.400          44.600
 115806620.629 8  90238979.03545  22037269.867                    22037274.773
        48.600          34.700
 107709439.222 8  83929464.53447  20496431.211                    20496434.973
        52.100          43.000
 18  2 21 10 17  0.0000000  0  8G02G20G07G28G09G30G13G05
 126902044.233 6  98884722.40744  24148666.242                    24148670.648
        39.300          26.000
 123363970.941 6  96127813.11544  23475388.438                    23475392.965
        39.400          24.800
 113506973.625 8  88447037.43346  21599661.617                    21599665.762
        49.800          40.000
 119926627.056 7  93449329.26244  22821273.391                    22821278.063
        45.700          28.600
 125346574.850 6  97672709.01744  23852667.930                    23852676.090
        40.600          26.200
 107329331.788 8  83633329.30947  20424098.016                    20424104.570
        53.800          44.600
 115730130.895 8  90179376.65245  22022714.570                    22022719.105
        49.300          34.900
 107708321.860 8  83928593.85447  20496218.289                    20496222.563
        51.400          43.300
 18  2 21 10 17 30.0000000  0  9G02G20G07G28G09G30G15G13G05
 126992226.692 6  98954994.37044  24165829.195                    24165831.430
        40.200          25.600
 123267222.048 6  96052424.37444  23456977.570                    23456981.973
        39.900          24.700
 113569366.990 8  88495655.62246  21611535.117                    21611538.656
        50.400          39.800
 119844971.277 7  93385701.44344  22805734.820                    22805739.766
        46.400          29.400
 125440378.685 7  97745802.85044  23870518.539                    23870525.500
        44.500          28.100
 107349774.958 8  83649259.05647  20427988.211                    20427994.887
        52.900          44.600
 129791413.757 6 101136206.19043  24698491.164                    24698496.727
        40.600          22.000
 115653852.757 8  90119939.15045  22008199.602                    22008204.219
        49.600          34.800
 107707772.610 8  83928165.86047  20496113.781                    20496117.945
        51.600          43.200
 18  2 21 10 18  0.0000000  0  9G02G20G07G28G09G30G15G13G05
 127082523.028 6  99025355.12444  24183010.227                    24183014.719
        39.100          25.300
 123170733.508 6  95977238.51844  23438616.672                    23438621.242
        39.400          26.500
 113632092.766 8  88544532.83946  21623471.305                    21623475.281
        50.200          39.300
 119763620.336 7  93322311.12445  22790254.344                    22790258.066
        45.800          30.300
 125534283.375 7  97818975.30144  23888387.195                    23888395.289
        42.800          27.300
 107370710.766 8  83665572.66747  20431972.180                    20431978.535
        52.900          44.600
 129690191.628 6 101057331.81243  24679229.016                    24679234.629
        41.400          22.600
 115577786.775 8  90060666.96345  21993724.820                    21993729.313
        49.800          35.200
 107707792.100 8  83928181.03547  20496117.445                    20496121.973
        51.300          42.600
 18  2 21 10 18 30.0000000  0  9G02G20G07G28G09G30G15G13G05
 127172930.240 6  99095802.21544  24200215.289                    24200218.281
        38.800          24.100
 123074507.531 6  95902257.25144  23420305.039                    23420309.961
        39.900          25.600
 113695148.552 8  88593667.22346  21635470.500                    21635474.355
        49.500          39.800
 119682576.974 7  93259160.49545  22774832.398                    22774836.754
        46.200          30.700
 125628288.115 6  97892225.64544  23906276.703                    23906284.305
        41.300          28.100
 107392137.836 8  83682269.09147  20436049.320                    20436056.145
        52.800          44.900
 129589021.936 6 100978498.28143  24659977.422                    24659983.113
        41.100          22.800
 115501933.867 8  90001560.80345  21979290.352                    21979294.633
        50.100          35.200
 107708380.477 8  83928639.50847  20496229.602                    20496233.813
        50.200          43.500
 18  2 21 10 19  0.0000000  0  9G02G20G07G28G09G30G15G13G05
 127263445.509 6  99166333.56243  24217439.250                    24217442.555
        39.200          23.500
 122978546.835 6  95827482.69244  23402044.430                    23402048.898
        39.800          26.600
 113758532.841 8  88643057.57746  21647531.969                    21647536.219
        50.000          39.800
 119601844.014 7  93196251.72945  22759469.438                    22759474.203
        46.600          30.800
 125722392.191 6  97965553.42744  23924184.156                    23924191.590
        41.700          26.800
 107414055.151 8  83699347.51747  20440220.359                    20440227.098
        52.900          44.900
 129487905.737 7 100899706.44244  24640735.469                    24640741.730
        43.700          25.500
 115426295.009 8  89942621.44045  21964896.578                    21964900.895
        50.100          34.900
 107709538.659 8  83929541.98047  20496449.992                    20496454.410
        50.700          43.400
 18  2 21 10 19 30.0000000  0  9G02G20G07G28G09G30G15G13G05
 127354066.024 6  99236946.90544  24234683.750                    24234687.051
        36.800          24.300
 122882854.156 6  95752916.99844  23383835.125                    23383839.418
        40.800          25.800
 113822243.856 8  88692702.51546  21659655.109                    21659659.750
        49.800          39.400
 119521424.166 7  93133586.94845  22744165.719                    22744170.313
        46.900          31.800
 125816595.113 7  98038958.25744  23942109.914                    23942116.906
        42.500          25.800
 107436461.707 8  83716807.16747  20444484.289                    20444490.910
        53.200          44.900
 129386844.381 7 100820957.38044  24621504.305                    24621510.145
        42.100          24.600
 115350871.635 8  89883849.99045  21950544.305                    21950548.605
        48.700          35.800
 107711266.942 8  83930888.68747  20496778.758                    20496783.074
        51.200          43.200
 18  2 21 10 20  0.0000000  0  9G02G20G07G28G09G30G15G13G05
 127444788.653 6  99307639.79643  24251948.039                    24251951.332
        37.900          22.500
 122787431.438 6  95678561.65644  23365676.938                    23365680.957
        41.000          26.500
 113886279.363 8  88742600.29046  21671841.266                    21671845.582
        49.500          38.700
 119441320.094 7  93071168.23445  22728922.945                    22728926.750
        47.800          31.200
 125910895.710 6  98112439.17944  23960055.227                    23960062.063
        41.600          28.200
 107459355.862 8  83734646.76847  20448841.070                    20448847.141
        53.700          44.400
 129285838.485 7 100742251.52444  24602283.406                    24602289.730
        43.300          24.000
 115275663.897 8  89825246.56445  21936232.711                    21936237.086
        49.400          35.200
 107713565.086 8  83932679.43947  20497216.031                    20497220.488
        51.300          42.800
 18  2 21 10 20 30.0000000  0  9G02G20G07G28G09G30G15G13G05
 127535610.881 6  99378410.35243  24269229.891                    24269234.375
        37.200          22.600
 122692281.705 6  95604419.01644  23347570.398                    23347574.453
        40.300          26.800
 113950637.991 8  88792749.85546  21684088.570                    21684092.707
        50.700          38.300
 119361534.314 7  93008997.53145  22713740.055                    22713743.793
        47.300          31.800
 126005293.558 7  98185995.85444  23978019.180                    23978025.805
        43.400          28.700
 107482736.650 8  83752865.55747  20453290.070                    20453296.699
        52.800          44.800
 129184889.150 7 100663589.68744  24583073.031                    24583078.793
        43.300          24.000
 115200673.253 8  89766812.31845  21921962.094                    21921966.430
        49.200          35.400
 107716433.950 8  83934914.91747  20497761.898                    20497766.172
        51.600          43.100
 18  2 21 10 21  0.0000000  0  9G02G20G07G28G09G30G15G13G05
 127626529.580 6  99449256.00843  24286532.383                    24286535.809
        37.200          22.600
 122597407.403 6  95530491.00944  23329516.148                    23329520.590
        41.400          25.800
 114015317.700 8  88843149.62746  21696396.305                    21696400.324
        49.900          39.700
 119282069.767 7  92947077.13945  22698618.492                    22698622.488
        47.900          31.900
 126099787.868 7  98259627.72544  23996001.000                    23996007.844
        44.200          27.100
 107506602.839 8  83771462.58747  20457831.828                    20457838.410
        53.400          44.300
 129083997.278 7 100584972.65943  24563874.039                    24563879.980
        44.300          23.000
 115125900.455 8  89708547.81045  21907733.219                    21907737.684
        49.600          35.400
 107719874.026 8  83937595.48247  20498416.359                    20498421.008
        50.300          42.900
 18  2 21 10 21 30.0000000  0  9G02G20G07G28G09G30G15G13G05
 127717541.811 6  99520174.60943  24303850.680                    24303854.848
        37.800          22.500
 122502811.380 7  95456779.83844  23311515.414                    23311519.809
        42.900          27.400
 114080316.841 8  88893798.30446  21708765.430                    21708769.777
        51.300          38.700
 119202928.992 7  92885409.06245  22683558.352                    22683562.277
        47.000          31.000
 126194377.927 7  98333334.17244  24014000.359                    24014007.855
        42.900          26.500
 107530953.137 8  83790436.84347  20462465.539                    20462472.012
        53.900          44.800
 128983164.079 7 100506401.35844  24544685.852                    24544692.285
        43.000          24.300
 115051346.533 8  89650453.86646  21893546.469                    21893550.410
        48.700          36.200
 107723885.328 8  83940721.17047  20499179.773                    20499183.930
        50.800          42.600
 18  2 21 10 22  0.0000000  0  9G02G20G07G28G09G30G15G13G05
 127808644.669 6  99591163.77343  24321187.383                    24321190.637
        37.900          22.000
 122408495.990 7  95383287.35244  23293567.781                    23293571.781
        42.400          28.400
 114145633.344 8  88944694.27946  21721194.109                    21721198.551
        50.800          39.400
 119124114.616 7  92823995.30845  22668560.563                    22668564.305
        46.700          32.000
 126289062.982 7  98407114.67944  24032019.047                    24032025.602
        43.400          26.000
 107555786.263 8  83809787.31747  20467191.328                    20467197.664
        53.700          45.100
 128882390.131 7 100427876.22544  24525509.453                    24525515.348
        44.200          24.600
 114977012.387 8  89592531.16546  21879401.016                    21879405.211
        49.100          36.400
 107728468.122 8  83944292.17347  20500051.844                    20500056.176
        50.800          43.000
 18  2 21 10 22 30.0000000  0  9G02G20G07G28G09G30G15G13G05
 127899835.191 6  99662221.25643  24338540.383                    24338544.676
        39.600          22.000
 122314463.251 7  95310015.09844  23275673.477                    23275678.180
        42.200          27.300
 114211265.148 8  88995835.92946  21733683.844                    21733688.246
        50.500          38.800
 119045629.109 8  92762837.79245  22653625.352                    22653629.234
        48.300          31.200
 126383841.964 7  98480968.39344  24050054.102                    24050060.973
        43.600          27.200
 107581100.728 8  83829512.87047  20472008.531                    20472014.730
        53.400          44.800
 128781676.778 7 100349398.30544  24506344.477                    24506350.273
        43.300          24.400
 114902898.723 8  89534780.26946  21865297.141                    21865301.383
        49.200          36.100
 107733622.690 8  83948308.71547  20501032.969                    20501037.020
        52.400          43.100
 18  2 21 10 23  0.0000000  0  9G02G20G07G28G09G30G15G13G05
 127991110.481 6  99733344.81943  24355909.055                    24355913.375
        39.900          22.900
 122220716.410 7  95236965.62644  23257834.570                    23257838.832
        43.600          28.000
 114277210.645 8  89047222.00946  21746233.289                    21746237.184
        50.000          39.000
 118967475.352 7  92701938.80045  22638752.375                    22638756.633
        47.600          30.400
 126478714.476 6  98554894.96444  24068107.656                    24068115.281
        41.700          27.600
 107606895.471 8  83849612.66247  20476916.898                    20476923.219
        53.800          45.100
 128681025.234 7 100270968.54544  24487191.164                    24487196.648
        43.500          25.400
 114829006.660 8  89477202.04545  21851236.383                    21851240.922
        49.600          35.700
 107739349.543 8  83952771.19447  20502122.344                    20502126.801
        51.900          43.400
 18  2 21 10 23 30.0000000  0  9G02G20G07G28G09G30G15G13G05
 128082467.582 6  99804532.07243  24373294.469                    24373297.359
        39.600          22.900
 122127257.463 7  95164140.48944  23240049.313                    23240053.422
        43.800          27.600
 114343468.022 8  89098851.12146  21758841.531                    21758845.332
        51.200          38.800
 118889656.075 7  92641300.43945  22623944.063                    22623948.223
        46.400          30.900
 126573679.681 7  98628893.72444  24086179.742                    24086185.980
        42.300          27.800
 107633169.056 8  83870085.58847  20481916.672                    20481923.336
        53.400          44.900
 128580436.143 7 100192587.47444  24468049.328                    24468055.254
        42.800          25.000
 114755337.149 8  89419797.23645  21837217.656                    21837221.734
        48.700          35.100
 107745648.565 8  83957679.51047  20503321.734                    20503325.984
        52.200          43.300
 18  2 21 10 24  0.0000000  0  9G02G20G07G28G09G30G15G13G05
 128173903.873 6  99875781.08543  24390693.977                    24390697.551
        40.900          22.800
 122034089.212 7  95091541.84944  23222320.938                    23222325.063
        43.200          28.300
 114410035.555 8  89150721.92246  21771508.680                    21771512.477
        51.600          39.400
 118812174.008 7  92580924.85645  22609199.734                    22609203.629
        47.600          30.600
 126668737.050 6  98702964.36444  24104267.750                    24104275.199
        40.400          25.500
 107659920.463 8  83890930.83347  20487007.133                    20487013.883
        53.400          44.900
 128479910.644 7 100114255.93243  24448919.789                    24448926.051
        42.500          23.200
 114681891.392 8  89362566.77745  21823241.063                    21823245.660
        49.100          35.000
 107752520.582 8  83963034.32447  20504628.977                    20504633.516
        51.900          43.200
 18  2 21 10 24 30.0000000  0  9G02G20G07G28G09G30G15G13G05
 128265416.290 6  99947089.37643  24408109.000                    24408112.074
        40.900          23.600
 121941214.705 7  95019172.12244  23204647.289                    23204651.141
        43.800          29.300
 114476911.195 8  89202832.79746  21784234.648                    21784238.809
        50.800          39.000
 118735031.631 7  92520813.95745  22594520.094                    22594523.891
        46.100          30.600
 126763885.658 6  98777106.09344  24122373.781                    24122380.887
        41.800          27.500
 107687148.174 8  83912147.22647  20492188.414                    20492195.008
        53.200          44.600
 128379450.058 6 100035974.94043  24429803.297                    24429809.055
        41.700          23.200
 114608670.181 8  89305511.29145  21809307.258                    21809311.879
        48.500          34.600
 107759965.576 8  83968835.60247  20506045.758                    20506050.215
        51.800          43.600
 18  2 21 10 25  0.0000000  0  9G02G20G07G28G09G30G15G13G05
 128357001.825 6 100018454.65743  24425536.469                    24425540.289
        40.800          22.600
 121848636.137 7  94947032.98144  23187030.508                    23187034.184
        44.100          27.800
 114544093.161 8  89255182.35746  21797019.375                    21797023.121
        50.700          39.200
 118658231.230 7  92460969.54045  22579905.219                    22579909.777
        47.100          31.400
 126859124.848 6  98851318.33444  24140499.086                    24140504.961
        41.200          26.200
 107714850.848 8  83933733.72247  20497459.867                    20497466.500
        53.600          44.900
 128279055.089 7  99957745.13844  24410698.430                    24410704.574
        43.200          24.200
 114535674.546 8  89248631.57045  21795416.805                    21795421.035
        48.500          35.100
 107767983.224 8  83975083.11547  20507571.586                    20507576.117
        51.600          43.800
 18  2 21 10 25 30.0000000  0  9G02G20G07G28G09G30G15G13G05
 128448657.588 6 100089874.65343  24442978.117                    24442981.684
        39.800          22.800
 121756355.812 7  94875126.25044  23169469.633                    23169473.844
        43.500          28.900
 114611579.753 8  89307769.29646  21809861.766                    21809865.672
        49.500          38.900
 118581775.733 7  92401393.88545  22565355.789                    22565360.566
        46.200          30.200
 126954453.808 6  98925600.58244  24158638.078                    24158645.801
        41.000          25.400
 107743027.142 8  83955689.27247  20502822.078                    20502828.566
        52.900          45.100
 128178726.826 7  99879567.30444  24391607.172                    24391612.629
        42.300          25.700
 114462905.344 8  89191928.29045  21781569.445                    21781573.785
        48.600          34.800
 107776574.046 8  83981777.25547  20509206.375                    20509210.918
        50.500          43.800
 18  2 21 10 26  0.0000000  0  9G02G20G07G28G09G30G15G13G05
 128540381.056 6 100161347.39843  24460432.711                    24460436.598
        39.400          22.900
 121664376.651 7  94803454.19244  23151967.016                    23151970.270
        44.000          28.300
 114679369.210 8  89360592.24046  21822760.984                    21822765.344
        50.700          38.800
 118505667.811 7  92342089.04845  22550873.336                    22550877.289
        46.100          30.800
 127049871.997 6  98999952.41944  24176794.484                    24176802.145
        41.600          26.700
 107771675.915 8  83978012.98547  20508273.586                    20508280.012
        52.700          44.700
 128078466.500 7  99801442.40344  24372528.336                    24372534.125
        43.300          26.600
 114390363.661 7  89135402.29845  21767765.227                    21767769.633
        47.600          35.200
 107785738.177 8  83988918.12747  20510950.086                    20510954.758
        52.000          43.500
 18  2 21 10 26 30.0000000  0  9G02G20G07G28G09G30G15G13G05
 128632168.973 6 100232870.38443  24477898.422                    24477902.820
        40.200          22.200
 121572701.104 7  94732018.71544  23134521.617                    23134525.328
        43.500          27.900
 114747459.395 8  89413649.51146  21835718.195                    21835722.453
        49.400          39.000
 118429909.729 7  92283056.82545  22536456.586                    22536461.934
        44.300          30.700
 127145378.585 7  99074372.97044  24194972.477                    24194977.094
        42.200          28.000
 107800795.510 8  84000703.56947  20513814.711                    20513821.449
        53.400          44.500
 127978274.833 7  99723370.98744  24353462.180                    24353467.922
        43.300          25.600
 114318050.149 7  89079054.10945  21754004.563                    21754008.945
        47.800          35.900
 107795475.783 8  83996505.86747  20512802.961                    20512807.871
        51.400          43.100
 18  2 21 10 27  0.0000000  0  9G02G20G07G28G09G30G15G13G05
 128724018.804 6 100304441.61143  24495377.953                    24495381.477
        40.400          22.000
 121481331.941 7  94660821.97444  23117134.469                    23117138.176
        42.900          29.600
 114815848.732 8  89466939.87246  21848732.992                    21848736.527
        49.900          38.800
 118354504.373 7  92224299.43645  22522107.531                    22522112.391
        46.400          31.000
 127240972.829 6  99148861.98944  24213160.703                    24213168.379
        40.800          25.600
 107830384.825 8  84023760.17347  20519445.469                    20519451.781
        52.400          44.600
 127878153.247 7  99645354.19544  24334410.383                    24334415.387
        43.900          24.800
 114245966.099 8  89022884.71546  21740287.531                    21740291.625
        49.400          36.400
 107805787.351 8  84004540.84447  20514765.266                    20514769.961
        51.600          43.300
 18  2 21 10 27 30.0000000  0  9G02G20G07G28G09G30G15G13G05
 128815927.434 6 100376058.65243  24512867.945                    24512871.301
        41.100          22.300
 121390271.776 7  94589866.02144  23099806.469                    23099810.094
        43.500          28.700
 114884535.158 8  89520461.75246  21861803.570                    21861807.531
        50.000          38.200
 118279454.202 7  92165818.81045  22507825.602                    22507830.707
        46.300          31.400
 127336654.018 7  99223418.73043  24231368.336                    24231375.426
        43.300          22.600
 107860442.323 8  84047181.60047  20525165.156                    20525171.695
        52.900          44.700
 127778102.824 7  99567392.82344  24315370.656                    24315375.848
        42.500          25.800
 114174112.376 8  88966894.80846  21726614.203                    21726618.156
        49.400          36.100
 107816672.194 8  84013022.53647  20516836.547                    20516841.117
        51.400          43.200
 18  2 21 10 28  0.0000000  0  9G02G20G07G28G09G30G15G13G05
 128907892.172 6 100447719.42743  24530367.398                    24530371.355
        40.600          21.500
 121299523.104 7  94519152.78044  23082537.633                    23082541.359
        43.500          29.700
 114953517.202 8  89574213.98146  21874929.820                    21874934.227
        51.300          38.300
 118204761.828 7  92107616.99245  22493612.781                    22493617.602
        43.900          31.600
 127432421.535 6  99298042.62644  24249593.727                    24249599.609
        41.400          26.100
 107890966.639 8  84070966.77847  20530973.859                    20530980.234
        52.500          44.700
 127678124.489 7  99489487.66444  24296345.578                    24296350.570
        43.500          27.100
 114102489.962 7  88911085.14646  21712985.078                    21712989.359
        47.900          37.000
 107828131.046 8  84021951.50547  20519017.156                    20519021.645
        52.200          43.400
 18  2 21 10 28 30.0000000  0  9G02G20G07G28G09G30G15G13G05
 128999910.045 6 100519421.60543  24547878.852                    24547881.867
        41.600          20.900
 121209088.303 7  94448684.11344  23065328.492                    23065331.961
        43.700          29.100
 115022792.568 8  89628194.77246  21888112.758                    21888117.094
        49.900          38.300
 118130429.710 7  92049695.88545  22479467.719                    22479472.539
        46.700          32.000
 127528274.318 7  99372733.08744  24267833.070                    24267841.320
        44.200          27.300
 107921956.337 8  84095114.58847  20536871.180                    20536877.277
        53.200          44.000
 127578219.159 7  99411639.37044  24277334.430                    24277339.172
        44.000          26.300
 114031099.835 8  88855456.49246  21699400.016                    21699404.219
        50.500          37.400
 107840163.493 8  84031327.42747  20521306.672                    20521311.191
        52.300          43.300
 18  2 21 10 29  0.0000000  0  9G02G20G07G28G09G30G15G13G05
 129091978.286 6 100591163.03543  24565399.031                    24565402.172
        41.500          21.500
 121118969.976 7  94378462.05445  23048178.867                    23048183.109
        43.300          30.400
 115092359.358 8  89682402.63246  21901351.094                    21901355.160
        49.700          38.600
 118056460.383 7  91992057.46745  22465391.758                    22465396.359
        46.200          32.400
 127624212.062 6  99447489.63844  24286089.500                    24286097.141
        41.800          24.900
 107953409.997 8  84119623.93247  20542856.297                    20542862.941
        53.400          44.300
 127478388.069 7  99333848.95043  24258336.984                    24258342.211
        43.900          23.600
 113959943.005 8  88800009.62346  21685859.117                    21685863.387
        49.500          37.500
 107852769.587 8  84041150.35347  20523705.852                    20523710.367
        51.400          43.700
 18  2 21 10 29 30.0000000  0  9G02G20G07G28G09G30G15G13G05
 129184093.847 6 100662941.35143  24582927.273                    24582930.723
        40.900          20.400
 121029170.683 7  94308488.60044  23031090.984                    23031094.777
        42.900          29.600
 115162216.212 8  89736836.53546  21914644.039                    21914648.102
        51.000          38.100
 117982856.428 7  91934703.76545  22451385.703                    22451390.203
        45.300          31.800
 127720233.790 6  99522311.72944  24304360.852                    24304369.406
        41.000          24.800
 107985326.341 8  84144493.80147  20548929.852                    20548936.578
        52.600          44.200
 127378632.484 7  99256117.34044  24239353.648                    24239359.004
        43.400          24.500
 113889020.478 8  88744745.32446  21672362.977                    21672366.977
        50.700          36.900
 107865949.634 8  84051420.50847  20526213.992                    20526218.410
        51.500          43.500
 18  2 21 10 30  0.0000000  0  8G20G07G28G09G30G15G13G05
 120939693.573 7  94238766.18844  23014063.906                    23014067.789
        42.600          29.700
 115232361.844 8  89791495.45646  21927992.109                    21927996.453
        50.800          37.900
 117909620.931 7  91877637.17645  22437449.281                    22437453.430
        46.000          31.800
 127816339.384 7  99597199.13344  24322649.664                    24322657.840
        42.700          26.200
 108017704.318 8  84169723.38847  20555091.461                    20555097.629
        52.000          44.700
 127278953.918 7  99178445.75244  24220385.313                    24220390.652
        44.600          24.700
 113818333.766 8  88689664.78946  21658911.633                    21658915.613
        49.800          37.400
 107879704.467 8  84062138.55947  20528831.195                    20528835.617
        52.300          43.100
 18  2 21 10 30 30.0000000  0  8G20G07G28G09G30G15G13G05
 120850540.529 7  94169296.30645  22997098.820                    22997102.563
        43.100          30.500
 115302793.593 8  89846377.32046  21941395.102                    21941399.246
        50.800          38.100
 117836755.856 7  91820859.22445  22423583.547                    22423587.477
        44.100          31.800
 127912527.450 6  99672150.78644  24340953.469                    24340961.832
        40.300          26.000
 108050541.860 8  84195311.07547  20561339.805                    20561346.461
        52.700          43.900
 127179352.226 7  99100834.06044  24201431.906                    24201436.965
        43.200          24.400
 113747883.436 8  88634768.43846  21645505.469                    21645509.441
        48.100          37.000
 107894032.425 8  84073303.18747  20531557.930                    20531562.168
        51.600          43.100
 18  2 21 10 31  0.0000000  0  8G20G07G28G09G30G15G13G05
 120761714.598 7  94100081.30544  22980195.719                    22980199.715
        43.300          29.400
 115373509.678 8  89901480.74746  21954851.953                    21954856.395
        52.100          37.800
 117764263.680 7  91764371.86445  22409788.672                    22409792.824
        46.000          31.400
 128008797.525 7  99747166.34844  24359273.797                    24359282.191
        42.200          27.800
 108083837.797 8  84221255.95747  20567675.586                    20567681.902
        52.300          44.300
 127079829.495 7  99023283.89144  24182494.195                    24182498.406
        43.400          24.200
 113677670.229 8  88580056.85546  21632144.188                    21632148.195
        49.700          36.500
 107908933.854 8  84084914.68547  20534393.531                    20534397.855
        52.100          43.100
 18  2 21 10 31 30.0000000  0  8G20G07G28G09G30G15G13G05
 120673218.086 7  94031122.99744  22963355.102                    22963359.711
        42.700          29.900
 115444508.111 8  89956804.19146  21968362.555                    21968366.953
        52.700          37.800
 117692146.848 7  91708176.93845  22396065.133                    22396069.098
        46.600          32.400
 128105148.764 6  99822245.12344  24377608.445                    24377617.566
        40.100          25.200
 108117590.500 8  84247556.77047  20574098.586                    20574105.230
        52.400          44.300
 126980386.445 7  98945795.79743  24163570.250                    24163574.879
        42.600          23.300
 113607695.134 8  88525530.81046  21618828.359                    21618832.547
        50.500          37.200
 107924408.695 8  84096973.00147  20537338.289                    20537342.676
        52.000          42.900
 18  2 21 10 32  0.0000000  0  8G20G07G28G09G30G15G13G05
 120585053.132 7  93962423.03644  22946578.219                    22946581.824
        42.300          29.700
 115515787.240 8  90012346.35346  21981926.445                    21981930.734
        52.200          37.600
 117620407.781 7  91652276.39245  22382413.844                    22382417.672
        46.600          31.500
 128201580.227 7  99897386.45344  24395958.914                    24395967.086
        43.100          27.200
 108151798.340 8  84274212.22947  20580608.148                    20580615.066
        52.500          44.000
 126881024.122 7  98868370.65444  24144662.672                    24144667.203
        43.200          24.700
 113537958.971 8  88471190.95146  21605557.680                    21605561.809
        49.100          36.300
 107940456.875 8  84109478.06947  20540392.266                    20540396.414
        51.600          43.000
 18  2 21 10 32 30.0000000  0  8G20G07G28G09G30G15G13G05
 120497222.584 7  93893983.67745  22929864.641                    22929868.414
        43.300          30.400
 115587345.345 8  90068105.89246  21995543.656                    21995547.691
        52.200          37.300
 117549049.024 7  91596672.20345  22368834.445                    22368838.566
        45.800          31.100
 128298091.464 6  99972589.93644  24414324.984                    24414332.984
        41.300          27.700
 108186460.074 8  84301221.36447  20587204.000                    20587211.066
        52.700          44.100
 126781743.782 7  98791009.35243  24125769.664                    24125774.668
        42.300          22.500
 113468463.153 8  88417038.36046  21592333.180                    21592336.961
        49.600          36.700
 107957078.354 8  84122429.85747  20543555.000                    20543559.188
        51.700          43.100
 18  2 21 10 33  0.0000000  0  8G20G07G28G09G30G15G13G05
 120409729.174 7  93825806.99544  22913214.852                    22913218.930
        42.600          29.300
 115659180.269 8  90124081.14346  22009213.188                    22009217.496
        52.400          38.000
 117478072.949 7  91541366.19945  22355328.320                    22355332.855
        46.400          33.000
 128394681.655 7 100047854.91344  24432706.281                    24432713.602
        42.800          27.700
 108221574.136 8  84328582.97547  20593886.039                    20593892.969
        53.000          44.300
 126682546.378 6  98713712.70944  24106893.508                    24106897.656
        41.900          24.000
 113399208.538 8  88363073.73746  21579154.641                    21579158.598
        49.400          36.300
 107974273.278 8  84135828.48847  20546827.523                    20546831.539
        51.900          43.700
 18  2 21 10 33 30.0000000  0  8G20G07G28G09G30G15G13G05
 120322575.280 7  93757894.87944  22896630.102                    22896634.199
        43.000          29.900
 115731290.407 8  90180270.84546  22022935.461                    22022939.309
        52.300          37.000
 117407482.150 7  91486360.40045  22341895.297                    22341899.211
        46.700          32.100
 128491350.175 6 100123180.97744  24451099.383                    24451109.500
        41.200          26.100
 108257139.137 8  84356295.95447  20600653.906                    20600660.781
        53.300          44.400
 126583433.096 7  98636481.59143  24088032.703                    24088036.555
        42.200          22.000
 113330196.131 8  88309297.82846  21566022.250                    21566026.188
        49.100          37.100
 107992041.068 8  84149673.51447  20550208.406                    20550212.656
        52.000          42.800
 18  2 21 10 34  0.0000000  0  8G20G07G28G09G30G15G13G05
 120235763.784 7  93690249.57844  22880110.555                    22880114.363
        42.400          29.900
 115803674.006 8  90236673.63246  22036709.586                    22036713.684
        51.700          37.800
 117337278.822 7  91431656.54745  22328535.953                    22328539.852
        46.400          32.700
 128588096.254 7 100198567.41444  24469511.156                    24469519.770
        43.000          25.700
 108293153.410 8  84384359.01647  20607507.422                    20607513.676
        52.900          44.300
 126484405.029 6  98559316.88144  24069187.773                    24069192.082
        41.500          25.500
 113261426.953 8  88255711.46346  21552935.875                    21552939.590
        49.100          36.600
 108010381.536 8  84163964.77847  20553698.672                    20553702.617
        51.700          42.900
 18  2 21 10 34 30.0000000  0  8G20G07G28G09G30G15G13G05
 120149296.966 7  93622872.84844  22863656.172                    22863660.273
        43.100          29.800
 115876329.032 8  90293287.91846  22050535.430                    22050539.504
        52.000          37.600
 117267465.631 7  91377256.66845  22315251.305                    22315255.051
        46.500          31.900
 128684918.991 7 100274013.65244  24487936.109                    24487944.336
        43.000          26.800
 108329615.473 8  84412771.00847  20614446.125                    20614452.348
        53.900          44.100
 126385463.354 7  98482219.50144  24050360.063                    24050365.426
        42.100          24.800
 113192902.075 7  88202315.46246  21539895.813                    21539899.742
        47.500          37.900
 108029294.612 8  84178702.22647  20557297.508                    20557302.059
        51.300          43.000
 18  2 21 10 35  0.0000000  0  8G20G07G28G09G30G15G13G05
 120063177.429 7  93555766.72545  22847268.273                    22847272.117
        43.000          30.400
 115949253.833 8  90350112.42246  22064412.609                    22064416.676
        52.800          37.900
 117198044.615 7  91323162.41245  22302040.719                    22302045.059
        44.400          33.300
 128781817.886 7 100349519.18944  24506375.453                    24506384.055
        43.100          28.500
 108366523.822 9  84441530.75647  20621469.250                    20621475.699
        54.200          44.300
 126286609.072 7  98405190.22244  24031548.563                    24031553.559
        43.900          24.700
 113124622.196 7  88149110.37046  21526902.680                    21526906.816
        47.800          37.500
 108048779.971 8  84193885.61447  20561005.727                    20561009.633
        51.700          43.700
 18  2 21 10 35 30.0000000  0  8G20G07G28G09G30G15G13G05
 119977407.923 7  93488933.36145  22830946.750                    22830950.758
        42.600          30.900
 116022446.571 8  90407145.71246  22078340.719                    22078344.828
        52.500          37.500
 117129018.664 7  91269375.97445  22288905.094                    22288909.121
        46.200          32.500
 128878792.302 7 100425083.59744  24524828.227                    24524837.641
        42.500          27.000
 108403877.112 8  84470637.20547  20628577.477                    20628584.066
        53.200          44.500
 126187843.646 7  98328230.17244  24012754.297                    24012759.039
        43.400          26.000
 113056588.854 8  88096097.38446  21513956.422                    21513960.410
        48.700          37.900
 108068837.692 8  84209514.99647  20564822.672                    20564826.387
        52.900          43.300
 18  2 21 10 36  0.0000000  0  9G21G20G07G28G09G30G15G13G05
 135104455.324 6 105276233.64243  25709529.133                    25709533.125
        37.500          19.900
 119891990.407 7  93422374.26145  22814692.180                    22814696.258
        43.600          30.400
 116095905.430 8  90464386.36746  22092319.250                    22092323.582
        52.100          37.000
 117060389.548 7  91215898.76745  22275845.828                    22275850.484
        46.500          33.500
 128975841.103 6 100500705.99744  24543296.977                    24543305.363
        41.400          27.300
 108441673.370 8  84500088.83047  20635770.188                    20635776.348
        53.200          44.500
 126089167.856 7  98251339.97244  23993977.133                    23993981.316
        43.900          25.100
 112988802.314 8  88043276.70946  21501057.227                    21501061.219
        48.500          37.700
 108089466.873 8  84225589.68347  20568748.117                    20568752.191
        52.100          43.300
 18  2 21 10 36 30.0000000  0  9G21G20G07G28G09G30G15G13G05
 135062459.108 6 105243509.36043  25701537.680                    25701541.910
        38.000          18.300
 119806928.030 7  93356091.90744  22798505.047                    22798509.391
        44.000          29.300
 116169628.510 8  90521832.90646  22106348.195                    22106352.355
        51.800          36.900
 116992160.214 7  91162733.09245  22262861.867                    22262866.305
        47.600          33.400
 129072964.049 6 100576386.12044  24561779.367                    24561787.043
        41.600          25.700
 108479911.467 8  84529884.73847  20643046.789                    20643053.023
        53.900          44.500
 125990583.154 7  98174520.71844  23975216.930                    23975221.078
        44.100          25.500
 112921264.069 8  87990649.51846  21488204.859                    21488208.973
        49.300          38.300
 108110667.528 8  84242109.66047  20572782.242                    20572786.559
        52.800          43.000
