     2.11           OBSERVATION DATA    G (GPS)             RINEX VERSION / TYPE
teqc  2016Nov7                          20180328 12:56:15UTCPGM / RUN BY / DATE
Linux 2.4.21-27.ELsmp|Opteron|gcc|Linux x86_64|=+           COMMENT
teqc  2016Nov7                          20180328 12:56:14UTCCOMMENT
     2.11           OBSERVATION DATA    M (MIXED)           COMMENT
teqc  2016Nov7                          20180328 12:56:11UTCCOMMENT
teqc  2016Nov7      IGN-RGP             20180221 09:16:00UTCCOMMENT
teqc  2015Jun23     IGN-RGP             20180221 09:06:48UTCCOMMENT
Linux2.4.20-8|i386|gcc|Win32-MinGW32|=                      COMMENT
   0.000      (antenna height)                              COMMENT
 +48.64478779 (latitude)                                    COMMENT
  +2.82290348 (longitude)                                   COMMENT
0189.374      (elevation)                                   COMMENT
BIT 2 OF LLI FLAGS DATA COLLECTED UNDER A/S CONDITION       COMMENT
19780M001 (COGO code)                                       COMMENT
SXJ3                                                        MARKER NAME
19780M001                                                   MARKER NUMBER
Automatic           GIE COOP&TECH                           OBSERVER / AGENCY
5010k65923          TRIMBLE NETR5       4.03                REC # / TYPE / VERS
1441003057          TRM55971.00     NONE                    ANT # / TYPE
  4217168.3290   207943.7820  4764693.1160                  APPROX POSITION XYZ
        1.2400        0.0000        0.0000                  ANTENNA: DELTA H/E/N
     1     1                                                WAVELENGTH FACT L1/2
     9    L1    L2    C1    P1    P2    D1    D2    S1    S2# / TYPES OF OBSERV
    30.0000                                                 INTERVAL
    18                                                      LEAP SECONDS
 SNR is mapped to RINEX snr flag value [0-9]                COMMENT
  L1 & L2: min(max(int(snr_dBHz/6), 0), 9)                  COMMENT
teqc_2016 edited: GLONASS # 25 - 30 excluded                COMMENT
Forced Modulo Decimation to 30 seconds                      COMMENT
teqc_2016 edited: all GLONASS satellites excluded           COMMENT
teqc_2016 edited: all SBAS satellites excluded              COMMENT
teqc_2016 edited: all Galileo satellites excluded           COMMENT
  2018     2    21     8     0    0.0000000     GPS         TIME OF FIRST OBS
                                                            END OF HEADER
 18  2 21  8  0  0.0000000  0  8G07G05G30G02G23G09G16G06
 113429824.582 8  88386904.56546  21584978.430                    21584982.160
      2215.902                          50.000          39.400
 124387274.331 7  96925178.67144  23670116.313                    23670120.859
      3273.656                          44.600          28.600
 120453066.977 8  93859566.78245  22921457.719                    22921464.363
      3433.082                          48.300          35.700
 115164544.475 7  89738666.28346  21915099.641                    21915100.746
       857.621                          46.000          39.300
 118753154.755 8  92534973.77245  22597981.133                    22597982.406
     -2541.527                          48.900          34.600
 106472313.129 8  82965471.52747  20261004.711                    20261010.141
     -1069.039                          52.500          46.300
 127326484.452 6  99215485.66143  24229433.625                    24229436.180
       812.203                          41.400          22.200
 111388831.071 8  86796545.69547  21196597.766                    21196604.719
     -1906.602                          50.500          42.400
 18  2 21  8  0 30.0000000  0  8G07G05G30G02G23G09G16G06
 113363559.472 8  88335269.43846  21572368.586                    21572372.703
      2201.645        1715.827          50.200          38.900
 124289116.528 7  96848692.05644  23651436.867                    23651441.773
      3270.094        2548.257          42.100          26.700
 120350186.425 8  93779400.14746  22901880.547                    22901887.199
      3425.539        2669.411          49.300          36.900
 115139078.779 8  89718822.87246  21910253.328                    21910254.883
       839.949         654.790          48.100          38.800
 118829487.688 8  92594453.95345  22612506.484                    22612508.500
     -2547.395       -1984.837          48.900          34.100
 106504572.574 8  82990608.75447  20267143.203                    20267149.074
     -1081.617        -842.599          52.000          45.800
 127302404.254 7  99196721.85043  24224850.922                    24224853.547
       793.035         618.249          42.100          22.200
 111446292.044 8  86841320.48047  21207532.531                    21207539.695
     -1924.191       -1499.024          50.200          42.500
 18  2 21  8  1  0.0000000  0  8G07G05G30G02G23G09G16G06
 113297721.549 8  88283967.16946  21559839.891                    21559843.637
      2187.504        1704.678          50.900          39.400
 124191063.968 7  96772287.46844  23632777.852                    23632783.984
      3266.758        2545.488          44.700          29.400
 120247532.703 8  93699410.26246  22882346.266                    22882352.934
      3418.016        2663.452          49.400          36.600
 115114146.350 7  89699394.99546  21905508.992                    21905509.961
       822.195         640.884          46.800          38.600
 118905995.128 8  92654070.12345  22627065.898                    22627066.887
     -2553.059       -1989.395          49.000          33.200
 106537206.173 8  83016037.52647  20273352.945                    20273358.801
     -1093.879        -852.313          52.800          45.300
 127278901.027 6  99178407.61743  24220378.664                    24220381.188
       773.883         603.202          40.000          22.300
 111504274.625 8  86886501.71247  21218566.133                    21218572.945
     -1941.379       -1512.583          50.400          43.000
 18  2 21  8  1 30.0000000  0  8G07G05G30G02G23G09G16G06
 113232312.460 8  88232999.05846  21547393.141                    21547396.836
      2173.188        1693.596          50.700          39.400
 124093118.057 7  96695965.99645  23614140.578                    23614146.039
      3263.105        2542.750          44.500          31.500
 120145108.290 8  93619599.06346  22862855.125                    22862861.715
      3410.430        2657.533          49.500          36.800
 115089747.936 7  89680383.23546  21900866.117                    21900867.031
       804.414         627.077          45.700          38.200
 118982675.849 8  92713821.32145  22641657.469                    22641659.605
     -2558.840       -1993.826          48.500          33.800
 106570212.805 8  83041756.97747  20279634.086                    20279639.590
     -1106.340        -861.938          51.800          45.400
 127255976.346 6  99160544.21043  24216016.063                    24216019.680
       754.688         588.259          39.400          21.800
 111562776.942 8  86932087.92347  21229698.414                    21229705.813
     -1958.664       -1525.999          49.200          42.900
 18  2 21  8  2  0.0000000  0  8G07G05G30G02G23G09G16G06
 113167334.038 8  88182366.53046  21535028.000                    21535031.805
      2158.691        1682.340          50.700          39.800
 123995280.833 7  96619729.17345  23595522.406                    23595528.266
      3259.426        2539.879          44.300          30.400
 120042915.478 8  93539968.33546  22843408.375                    22843415.336
      3402.445        2651.437          49.800          37.300
 115065884.469 7  89661788.32246  21896325.117                    21896325.742
       786.660         613.117          47.000          37.500
 119059528.641 8  92773706.59545  22656282.008                    22656283.656
     -2564.605       -1998.311          48.600          33.400
 106603591.053 8  83067765.99247  20285985.742                    20285991.152
     -1118.773        -871.607          53.000          45.300
 127233630.869 6  99143132.14643  24211764.172                    24211767.383
       735.176         573.139          41.100          22.000
 111621796.816 8  86978077.43147  21240929.625                    21240936.766
     -1975.918       -1539.447          49.900          42.300
 18  2 21  8  2 30.0000000  0  8G07G05G30G02G23G09G16G06
 113102787.987 8  88132070.90846  21522745.570                    21522749.020
      2144.289        1671.087          51.100          40.200
 123897552.891 7  96543577.56744  23576925.555                    23576931.047
      3255.715        2536.990          43.700          29.900
 119940957.157 8  93460520.32646  22824006.727                    22824013.160
      3394.719        2645.321          49.600          36.700
 115042557.336 7  89643611.33946  21891885.945                    21891886.816
       768.656         599.174          45.900          36.900
 119136552.840 8  92833725.43445  22670939.297                    22670941.195
     -2570.359       -2002.765          48.000          32.400
 106637340.173 8  83094063.99647  20292408.031                    20292413.480
     -1131.168        -881.228          52.100          44.900
 127211866.622 6  99126173.03443  24207621.531                    24207626.063
       715.914         558.023          39.600          22.600
 111681332.780 8  87024469.08747  21252258.883                    21252266.055
     -1993.191       -1552.844          48.900          42.600
 18  2 21  8  3  0.0000000  0  8G07G05G30G02G23G09G16G06
 113038675.932 8  88082113.46246  21510545.453                    21510548.824
      2129.867        1659.808          51.500          40.300
 123799936.605 7  96467512.94244  23558349.984                    23558355.094
      3252.059        2534.083          42.600          29.300
 119839235.516 8  93381256.74946  22804649.391                    22804656.117
      3386.805        2639.155          48.700          36.800
 115019767.217 7  89625852.81246  21887548.984                    21887550.430
       750.750         585.232          45.200          37.400
 119213746.609 8  92893876.40545  22685628.813                    22685630.738
     -2575.902       -2007.125          48.300          32.700
 106671458.685 8  83120649.84047  20298900.648                    20298906.043
     -1143.418        -890.795          52.800          45.700
 127190684.648 7  99109667.61243  24203590.633                    24203594.438
       696.414         542.884          42.000          22.500
 111741382.470 8  87071261.05047  21263686.211                    21263693.023
     -2010.160       -1566.137          48.700          42.500
 18  2 21  8  3 30.0000000  0  8G07G05G30G02G23G09G16G06
 112974999.769 8  88032495.67046  21498428.453                    21498431.762
      2115.273        1648.447          51.900          40.200
 123702433.357 7  96391536.37244  23539795.258                    23539800.461
      3248.211        2531.120          44.300          29.100
 119737753.135 8  93302179.60346  22785337.906                    22785344.699
      3378.680        2632.867          49.000          36.500
 114997515.069 7  89608513.47946  21883314.727                    21883315.539
       732.668         571.221          46.600          36.500
 119291109.070 8  92954158.83045  22700350.063                    22700352.488
     -2581.652       -2011.524          48.300          33.100
 106705945.496 8  83147522.67847  20305463.648                    20305468.750
     -1155.715        -900.367          52.700          46.200
 127170086.543 7  99093617.11943  24199671.320                    24199675.230
       676.887         527.710          42.400          22.300
 111801944.090 8  87118451.92046  21275210.430                    21275217.625
     -2027.273       -1579.441          48.900          41.700
 18  2 21  8  4  0.0000000  0  8G07G05G30G02G23G09G16G06
 112911761.862 8  87983219.37246  21486394.789                    21486398.055
      2100.500        1637.017          52.300          40.400
 123605044.221 7  96315648.72645  23521263.844                    23521268.266
      3244.273        2528.115          45.900          30.700
 119636513.034 8  93223291.24345  22766072.344                    22766079.340
      3370.445        2626.534          48.500          35.800
 114975802.322 7  89591594.46046  21879182.688                    21879183.770
       714.688         557.177          45.900          37.100
 119368639.757 8  93014572.34745  22715103.773                    22715106.328
     -2587.281       -2015.917          48.100          33.900
 106740800.013 8  83174682.04347  20312096.328                    20312101.574
     -1168.125        -909.949          52.500          46.300
 127150074.003 6  99078022.96843  24195862.742                    24195867.734
       657.074         512.428          40.600          22.500
 111863016.178 8  87166040.54247  21286832.398                    21286839.031
     -2044.352       -1592.689          48.300          42.200
 18  2 21  8  4 30.0000000  0  8G07G05G30G02G23G09G16G06
 112848963.576 8  87934285.64546  21474444.609                    21474448.137
      2085.988        1625.588          51.700          40.600
 123507771.136 7  96239851.50845  23502752.961                    23502757.914
      3240.461        2525.061          43.900          31.900
 119535517.461 7  93144593.44346  22746853.773                    22746860.406
      3362.426        2620.165          47.300          36.400
 114954629.424 7  89575096.09546  21875153.461                    21875154.770
       696.773         543.146          47.500          37.800
 119446337.155 7  93075115.75845  22729889.516                    22729891.449
     -2592.629       -2020.213          47.900          33.300
 106776020.783 8  83202126.79247  20318798.703                    20318803.898
     -1180.094        -919.435          53.000          46.600
 127130647.749 6  99062885.66243  24192166.648                    24192171.750
       637.742         497.187          40.400          22.000
 111924596.472 8  87214025.17947  21298550.469                    21298557.445
     -2061.125       -1605.856          49.700          42.400
 18  2 21  8  5  0.0000000  0  8G07G05G30G02G23G09G16G06
 112786606.026 8  87885695.34446  21462578.172                    21462581.930
      2071.148        1614.107          52.300          40.700
 123410616.031 7  96164146.24645  23484265.141                    23484270.406
      3236.402        2521.990          44.700          31.500
 119434768.533 7  93066087.81546  22727681.984                    22727688.547
      3354.129        2613.715          46.700          36.500
 114933996.663 7  89559018.61346  21871227.063                    21871228.324
       678.625         529.103          46.500          38.000
 119524199.689 8  93135787.84845  22744706.289                    22744708.309
     -2598.289       -2024.480          48.300          33.200
 106811606.317 8  83229855.77647  20325570.398                    20325575.594
     -1192.297        -928.874          53.500          46.600
 127111809.007 6  99048206.13443  24188580.734                    24188585.387
       617.996         481.895          39.900          21.500
 111986682.653 8  87262404.00847  21310365.039                    21310371.949
     -2078.035       -1618.983          48.900          42.300
 18  2 21  8  5 30.0000000  0  8G07G05G30G02G23G09G16G06
 112724690.951 8  87837449.83246  21450796.602                    21450799.906
      2056.516        1602.630          52.800          40.600
 123313580.476 7  96088534.16845  23465799.617                    23465804.543
      3232.590        2518.934          44.300          31.100
 119334268.621 7  92987776.23446  22708557.148                    22708563.797
      3346.000        2607.269          45.500          36.500
 114913905.341 7  89543363.03146  21867403.750                    21867405.656
       660.668         515.071          46.700          38.500
 119602226.067 7  93196587.60445  22759554.156                    22759556.762
     -2603.531       -2028.670          47.400          33.200
 106847555.273 8  83257867.94147  20332411.055                    20332417.047
     -1204.246        -938.243          53.000          46.300
 127093558.725 6  99033985.14843  24185107.719                    24185111.953
       598.625         466.682          41.600          21.300
 112049272.511 8  87311175.30947  21322275.711                    21322282.379
     -2094.680       -1632.003          49.700          42.100
 18  2 21  8  6  0.0000000  0  8G07G05G30G02G23G09G16G06
 112663220.508 8  87789550.78546  21439098.773                    21439102.375
      2041.508        1591.064          52.200          40.500
 123216665.908 7  96013016.31645  23447357.445                    23447361.594
      3228.434        2515.742          45.800          31.100
 119234020.712 7  92909661.02546  22689480.508                    22689487.754
      3337.316        2600.686          47.600          36.800
 114894356.608 7  89528130.23346  21863684.008                    21863685.480
       642.574         500.977          47.900          39.200
 119680415.696 8  93257514.57045  22774433.367                    22774435.324
     -2609.062       -2032.922          48.000          33.900
 106883867.002 8  83286162.79347  20339320.766                    20339326.684
     -1216.418        -947.678          53.200          46.300
 127075898.641 6  99020224.06543  24181747.375                    24181752.707
       578.809         451.322          41.100          22.000
 112112364.463 8  87360337.85547  21334281.797                    21334288.422
     -2111.379       -1645.007          50.100          42.000
 18  2 21  8  6 30.0000000  0  8G07G05G30G02G23G09G16G06
 112602196.386 8  87741999.51746  21427486.258                    21427489.695
      2026.695        1579.424          52.500          39.900
 123119873.709 7  95937593.78545  23428938.820                    23428942.777
      3224.469        2512.577          47.800          31.200
 119134027.481 7  92831744.26246  22670452.656                    22670459.352
      3328.918        2594.012          47.200          37.300
 114875351.234 7  89513320.84246  21860067.391                    21860069.051
       624.410         486.819          47.100          38.300
 119758767.798 7  93318568.13545  22789343.641                    22789345.352
     -2614.387       -2037.143          47.400          33.300
 106920540.539 8  83314739.56747  20346299.664                    20346305.418
     -1228.445        -957.075          52.300          46.400
 127058830.210 6  99006924.01943  24178498.594                    24178504.551
       559.059         435.916          37.800          19.900
 112175956.727 8  87409890.25647  21346382.836                    21346389.328
     -2128.039       -1658.002          48.600          42.300
 18  2 21  8  7  0.0000000  0  8G07G05G30G02G23G09G16G06
 112541620.230 8  87694797.32946  21415959.094                    21415962.246
      2011.625        1567.718          52.700          40.100
 123023205.732 7  95862268.10145  23410544.242                    23410547.770
      3220.055        2509.245          47.800          32.300
 119034291.243 7  92754027.75146  22651473.867                    22651480.734
      3320.168        2587.274          47.800          37.400
 114856890.352 8  89498935.71846  21856554.766                    21856556.164
       606.258         472.651          48.500          37.900
 119837280.944 7  93379747.19145  22804283.906                    22804285.914
     -2619.809       -2041.338          47.300          33.600
 106957574.572 9  83343597.25847  20353346.859                    20353352.715
     -1240.461        -966.466          54.100          46.600
 127042354.174 6  98994085.57843  24175364.391                    24175367.785
       539.168         420.479          39.000          20.900
 112240047.070 8  87459830.77246  21358578.797                    21358585.156
     -2144.664       -1670.946          50.400          41.600
 18  2 21  8  7 30.0000000  0  8G07G05G30G02G23G09G16G06
 112481493.163 8  87647945.07946  21404517.469                    21404520.652
      1996.691        1556.101          52.800          40.400
 122926663.200 7  95787040.16245  23392172.070                    23392176.398
      3216.043        2506.038          43.000          31.300
 118934814.031 7  92676513.07946  22632543.492                    22632550.582
      3311.602        2580.572          46.400          37.500
 114838973.438 8  89484974.47946  21853145.227                    21853146.375
       588.074         458.537          48.500          38.600
 119915953.576 7  93441050.51245  22819254.680                    22819257.055
     -2625.055       -2045.430          47.800          33.700
 106994967.422 9  83372734.53547  20360462.500                    20360468.871
     -1252.410        -975.719          54.000          46.300
 127026471.419 6  98981709.41843  24172341.938                    24172345.227
       519.453         405.072          39.500          20.600
 112304632.894 8  87510157.36746  21370869.328                    21370875.688
     -2161.145       -1683.745          50.200          41.600
 18  2 21  8  8  0.0000000  0  8G07G05G30G02G23G09G16G06
 112421817.062 8  87601444.22346  21393161.297                    21393164.375
      1981.645        1544.335          52.400          40.200
 122830248.287 7  95711911.68145  23373824.586                    23373829.219
      3211.633        2502.656          43.600          31.900
 118835598.501 7  92599202.31946  22613663.414                    22613670.238
      3302.840        2573.696          46.600          38.300
 114821602.299 8  89471438.51146  21849839.516                    21849840.570
       569.914         444.327          48.300          38.500
 119994784.685 7  93502477.32145  22834255.961                    22834258.281
     -2630.375       -2049.558          47.900          33.000
 107032718.138 8  83402150.66547  20367646.344                    20367652.195
     -1264.320        -985.031          52.300          46.500
 127011183.295 6  98969796.56943  24169432.648                    24169435.703
       499.848         389.627          36.700          19.300
 112369712.286 8  87560868.56246  21383253.688                    21383259.707
     -2177.523       -1696.563          48.800          41.300
 18  2 21  8  8 30.0000000  0  8G07G05G30G02G23G09G16G06
 112362593.624 8  87555296.09546  21381891.227                    21381894.402
      1966.457        1532.580          51.100          39.400
 122733962.463 7  95636883.80245  23355502.219                    23355506.184
      3207.223        2499.293          45.900          33.000
 118736647.118 7  92522097.37446  22594833.914                    22594840.852
      3293.809        2566.836          47.700          38.400
 114804777.292 8  89458328.11046  21846638.070                    21846639.082
       551.578         430.148          49.500          38.300
 120073773.392 7  93564026.93645  22849287.469                    22849288.781
     -2635.727       -2053.622          47.600          33.500
 107070825.580 8  83431844.77647  20374897.742                    20374903.699
     -1276.285        -994.272          53.800          47.000
 126996490.628 6  98958347.78243  24166637.625                    24166640.043
       479.746         374.125          38.600          18.600
 112435283.173 8  87611962.73746  21395731.453                    21395737.586
     -2193.965       -1709.288          49.900          41.400
 18  2 21  8  9  0.0000000  0  8G07G05G30G02G23G09G16G06
 112303824.067 8  87509501.64146  21370707.953                    21370711.484
      1951.355        1520.777          50.500          39.100
 122637807.315 7  95561957.72845  23337204.656                    23337208.316
      3203.023        2495.897          43.600          31.600
 118637962.188 7  92445200.05846  22576054.883                    22576061.523
      3284.918        2559.871          46.400          37.900
 114788499.007 8  89445643.72546  21843540.469                    21843541.316
       533.516         415.943          49.500          38.600
 120152918.319 7  93625698.29845  22864347.672                    22864350.059
     -2640.773       -2057.665          47.400          33.800
 107109288.397 8  83461815.79447  20382217.109                    20382223.027
     -1288.027       -1003.498          52.900          46.400
 126982394.498 5  98947363.81042  24163954.617                    24163957.227
       459.813         358.629          34.800          17.800
 112501343.233 8  87663438.06846  21408302.219                    21408308.309
     -2210.148       -1721.971          49.500          41.600
 18  2 21  8  9 30.0000000  0  8G07G05G30G02G23G09G16G06
 112245510.339 8  87464062.38346  21359611.219                    21359614.512
      1936.293        1508.953          50.200          38.500
 122541784.276 7  95487134.55345  23318931.898                    23318935.395
      3198.668        2492.470          46.500          32.900
 118539546.584 7  92368512.59446  22557326.805                    22557333.578
      3276.078        2552.898          47.800          38.200
 114772768.499 8  89433386.18046  21840548.055                    21840547.910
       515.309         401.746          49.700          39.200
 120232218.843 7  93687490.87545  22879438.094                    22879440.395
     -2645.855       -2061.643          47.200          33.500
 107148105.722 8  83492063.06147  20389603.703                    20389609.824
     -1299.738       -1012.643          53.900          46.400
 126968896.154 6  98936845.62843  24161385.469                    24161388.086
       440.066         343.150          39.900          18.300
 112567890.652 8  87715293.15146  21420965.938                    21420971.734
     -2226.262       -1734.567          49.300          41.100
 18  2 21  8 10  0.0000000  0  8G07G05G30G02G23G09G16G06
 112187654.244 8  87418979.71346  21348601.344                    21348604.754
      1920.813        1497.008          50.000          39.400
 122445895.350 7  95412415.93145  23300684.828                    23300688.727
      3194.035        2488.934          43.800          31.400
 118441402.831 7  92292036.95846  22538650.633                    22538657.121
      3266.926        2545.763          47.600          38.100
 114757586.519 8  89421556.05646  21837658.578                    21837658.953
       496.848         387.439          49.400          38.500
 120311673.670 7  93749403.72045  22894557.523                    22894560.141
     -2651.094       -2065.691          47.100          33.400
 107187276.547 8  83522585.77047  20397058.063                    20397064.043
     -1311.648       -1021.846          52.200          46.600
 126955996.950 6  98926794.30743  24158931.328                    24158933.125
       419.848         327.503          37.900          19.300
 112634923.411 8  87767526.42146  21433721.914                    21433727.621
     -2242.516       -1747.182          48.400          40.900
 18  2 21  8 10 30.0000000  0  8G07G05G30G02G23G09G16G06
 112130256.928 8  87374254.53446  21337678.742                    21337682.738
      1905.680        1485.074          50.900          38.600
 122350142.013 7  95337802.98745  23282463.563                    23282467.727
      3189.625        2485.377          44.000          31.700
 118343533.214 8  92215774.94746  22520026.695                    22520033.055
      3257.801        2538.616          48.800          38.300
 114742953.505 8  89410153.69746  21834873.703                    21834874.336
       478.688         373.197          49.100          39.200
 120391281.799 7  93811436.00745  22909706.461                    22909709.137
     -2656.105       -2069.642          47.000          34.000
 107226799.490 8  83553382.86047  20404579.180                    20404584.582
     -1323.187       -1030.972          53.800          46.700
 126943697.559 5  98917210.40543  24156590.188                    24156593.918
       399.930         311.950          35.800          19.300
 112702439.148 8  87820136.03846  21446569.711                    21446575.871
     -2258.453       -1759.682          50.300          40.500
 18  2 21  8 11  0.0000000  0  8G07G05G30G02G23G09G16G06
 112073319.680 8  87329887.85346  21326844.313                    21326847.980
      1890.223        1473.122          49.900          39.400
 122254526.072 7  95263297.05545  23264268.492                    23264272.469
      3184.906        2481.821          43.200          32.300
 118245939.878 7  92139728.22146  22501455.430                    22501461.746
      3248.512        2531.437          46.400          38.300
 114728869.938 8  89399179.48246  21832194.078                    21832194.590
       460.289         358.941          49.100          39.400
 120471041.906 7  93873586.72745  22924884.211                    22924886.844
     -2661.207       -2073.566          46.300          33.400
 107266673.068 8  83584453.16147  20412166.578                    20412172.203
     -1334.918       -1040.034          52.600          46.400
 126931998.305 6  98908094.08243  24154363.219                    24154366.988
       379.977         296.333          38.100          19.300
 112770435.317 8  87873120.00946  21459509.227                    21459515.180
     -2274.504       -1772.112          48.600          40.700
 18  2 21  8 11 30.0000000  0  8G07G05G30G02G23G09G16G06
 112016844.387 8  87285881.14246  21316097.438                    21316101.148
      1874.855        1461.094          51.100          39.500
 122159049.377 7  95188899.66045  23246099.938                    23246103.613
      3180.305        2478.165          46.400          32.000
 118148625.577 8  92063898.91646  22482936.969                    22482943.895
      3239.203        2524.142          49.000          37.300
 114715336.608 8  89388634.02346  21829618.219                    21829619.328
       441.918         344.612          48.000          38.900
 120550953.024 7  93935855.10445  22940091.703                    22940093.500
     -2666.195       -2077.491          47.800          33.600
 107306896.378 8  83615795.99147  20419821.078                    20419826.547
     -1346.457       -1049.126          53.000          46.800
 126920900.634 6  98899446.53443  24152251.078                    24152254.570
       360.051         280.726          37.600          20.400
 112838910.008 8  87926476.86046  21472539.250                    21472545.699
     -2290.320       -1784.520          50.000          40.700
 18  2 21  8 12  0.0000000  0  8G07G05G30G02G23G09G16G06
 111960832.572 8  87242235.58246  21305439.258                    21305442.719
      1859.301        1449.012          51.800          40.300
 122063713.251 7  95114611.75945  23227958.016                    23227961.938
      3175.410        2474.457          46.200          31.800
 118051592.764 8  91988288.95346  22464471.742                    22464478.391
      3229.711        2516.763          49.200          36.900
 114702353.944 7  89378517.65746  21827147.234                    21827148.844
       423.574         330.291          47.600          38.600
 120631014.488 7  93998240.65045  22955326.469                    22955328.891
     -2671.266       -2081.409          47.900          32.900
 107347468.283 8  83647410.45347  20427541.328                    20427546.691
     -1358.234       -1058.192          52.800          46.400
 126910405.497 6  98891268.49843  24150254.148                    24150257.492
       339.867         265.033          36.700          20.100
 112907861.055 8  87980204.89646  21485660.477                    21485666.309
     -2306.359       -1796.907          50.000          39.800
 18  2 21  8 12 30.0000000  0  8G07G05G30G02G23G09G16G06
 111905285.551 8  87198952.18946  21294868.695                    21294872.332
      1843.785        1436.925          52.000          40.400
 121968519.602 7  95040434.90345  23209843.055                    23209846.977
      3170.719        2470.751          42.400          31.200
 117954843.608 7  91912900.02846  22446061.266                    22446067.430
      3220.098        2509.382          46.200          37.600
 114689922.325 7  89368830.67246  21824781.422                    21824782.969
       405.172         315.972          47.200          38.000
 120711224.575 7  94060742.00545  22970589.906                    22970592.223
     -2676.113       -2085.233          47.600          33.200
 107388387.286 8  83679295.37847  20435328.094                    20435333.340
     -1369.770       -1067.201          53.000          45.600
 126900513.318 6  98883560.28643  24148371.359                    24148375.688
       319.793         249.346          38.900          20.600
 112977285.988 8  88034302.22946  21498871.555                    21498877.324
     -2322.008       -1809.187          48.800          39.500
 18  2 21  8 13  0.0000000  0  8G07G05G30G02G23G09G16G06
 111850204.360 8  87156031.79046  21284387.109                    21284390.625
      1828.156        1424.798          51.400          41.000
 121873469.948 7  94966370.24545  23191755.414                    23191759.387
      3165.898        2467.020          43.200          31.900
 117858380.654 7  91837734.10646  22427704.289                    22427711.695
      3210.512        2501.907          47.000          36.800
 114678042.628 7  89359573.76246  21822520.914                    21822522.473
       386.660         301.612          46.700          38.400
 120791582.376 7  94123358.46645  22985881.188                    22985883.465
     -2681.168       -2089.077          47.500          33.300
 107429652.335 9  83711449.94847  20443180.336                    20443186.152
     -1381.355       -1076.161          54.100          45.900
 126891225.228 6  98876322.79843  24146604.500                    24146608.086
       299.387         233.648          39.500          21.300
 113047182.598 8  88088767.12346  21512172.102                    21512177.977
     -2337.840       -1821.411          51.200          39.900
 18  2 21  8 13 30.0000000  0  8G07G05G30G02G23G09G16G06
 111795591.929 8  87113476.65746  21273994.758                    21273998.133
      1812.656        1412.588          51.800          41.000
 121778565.582 7  94892418.81345  23173695.813                    23173700.484
      3161.063        2463.159          47.300          32.800
 117762207.083 8  91762793.69046  22409403.484                    22409409.875
      3200.949        2494.341          48.500          36.900
 114666715.913 7  89350747.75046  21820365.531                    21820367.137
       368.371         287.231          47.300          38.100
 120872087.662 7  94186089.83145  23001201.180                    23001203.359
     -2685.875       -2092.896          47.600          32.800
 107471263.023 8  83743873.85247  20451098.477                    20451103.828
     -1392.707       -1085.153          53.800          45.800
 126882542.984 6  98869557.40043  24144952.281                    24144956.406
       279.367         217.868          40.500          21.300
 113117549.399 8  88143598.42146  21525562.625                    21525568.707
     -2353.250       -1833.621          50.200          40.200
 18  2 21  8 14  0.0000000  0  8G07G05G30G02G23G09G16G06
 111741448.272 8  87071286.80546  21263691.188                    21263695.156
      1797.113        1400.409          51.600          40.900
 121683808.902 7  94818582.46045  23155665.008                    23155668.539
      3156.070        2459.300          47.300          32.500
 117666324.244 7  91688079.81346  22391157.648                    22391164.598
      3191.293        2486.762          47.500          36.900
 114655941.658 8  89342352.22646  21818315.555                    21818316.496
       349.953         272.890          48.300          38.400
 120952738.368 7  94248934.53145  23016547.961                    23016550.668
     -2690.734       -2096.665          47.200          33.400
 107513217.067 8  83776565.30547  20459081.875                    20459087.969
     -1404.086       -1094.053          53.700          45.000
 126874466.000 6  98863263.62043  24143415.367                    24143418.453
       259.176         202.165          39.600          22.900
 113188382.945 8  88198793.39246  21539041.594                    21539047.906
     -2368.801       -1845.696          49.500          39.900
 18  2 21  8 14 30.0000000  0  8G07G05G30G02G23G09G16G06
 111687774.861 8  87029463.37846  21253477.492                    21253481.238
      1781.492        1388.249          51.400          40.200
 121589201.798 7  94744862.64245  23137661.352                    23137664.918
      3151.336        2455.490          46.100          31.300
 117570734.693 7  91613594.46546  22372967.578                    22372974.055
      3181.680        2479.200          46.800          37.700
 114645720.705 8  89334387.85646  21816370.797                    21816371.926
       331.734         258.578          49.100          39.300
 121033533.337 7  94311891.63645  23031922.883                    23031925.730
     -2695.266       -2100.320          47.200          33.100
 107555513.380 8  83809523.46747  20467130.555                    20467136.348
     -1415.301       -1102.840          52.800          45.400
 126866995.104 6  98857442.10743  24141994.445                    24141996.871
       239.137         186.462          40.200          22.600
 113259681.097 8  88254350.37646  21552609.484                    21552615.574
     -2384.055       -1857.663          50.100          40.200
 18  2 21  8 15  0.0000000  0  8G07G05G30G02G23G09G16G06
 111634573.163 8  86988007.50946  21243353.313                    21243357.465
      1765.492        1375.898          51.100          40.400
 121494745.702 7  94671260.53445  23119686.070                    23119689.988
      3146.066        2451.481          45.400          30.500
 117475440.917 7  91539339.58646  22354833.672                    22354840.910
      3171.461        2471.404          47.300          37.800
 114636053.379 8  89326854.86046  21814530.953                    21814532.195
       313.023         244.134          49.900          38.800
 121114471.722 7  94374960.48445  23047325.734                    23047327.691
     -2700.320       -2104.100          46.800          32.000
 107598150.916 8  83842747.51247  20475244.344                    20475250.070
     -1426.937       -1111.775          51.800          45.400
 126860131.426 6  98852093.77043  24140688.305                    24140691.164
       218.691         170.616          41.300          22.800
 113331441.597 8  88310267.60246  21566265.000                    21566271.305
     -2399.730       -1869.714          48.600          40.500
 18  2 21  8 15 30.0000000  0  8G07G05G30G02G23G09G16G06
 111581844.794 8  86946920.46246  21233319.422                    21233323.371
      1749.750        1363.605          50.900          40.100
 121400442.190 7  94597777.29344  23101740.984                    23101744.285
      3140.965        2447.518          46.700          29.900
 117380445.394 7  91465317.11546  22336756.711                    22336763.461
      3161.504        2463.633          47.600          37.500
 114626940.330 8  89319753.78246  21812797.359                    21812797.910
       294.512         229.718          48.800          39.400
 121195552.691 7  94438140.44745  23062754.148                    23062756.840
     -2705.070       -2107.794          47.300          32.600
 107641128.509 8  83876236.53547  20483422.617                    20483428.520
     -1438.258       -1120.569          53.200          45.100
 126853875.163 6  98847218.74543  24139497.883                    24139500.523
       198.438         154.869          41.300          22.800
 113403662.227 8  88366543.35846  21580007.984                    21580014.777
     -2414.945       -1881.645          48.700          40.400
 18  2 21  8 16  0.0000000  0  8G07G05G30G02G23G09G16G06
 111529591.852 8  86906203.88746  21223376.344                    21223379.934
      1733.859        1351.218          51.900          40.600
 121306292.691 7  94524414.04145  23083825.305                    23083828.652
      3135.785        2443.460          47.000          31.800
 117285751.078 7  91391529.36046  22318737.180                    22318743.859
      3151.488        2455.774          47.600          38.100
 114618382.507 8  89313085.33846  21811168.813                    21811169.289
       276.012         215.283          49.100          38.800
 121276775.799 8  94501431.16045  23078210.961                    23078212.918
     -2709.699       -2111.482          48.200          31.800
 107684445.527 8  83909990.05847  20491665.617                    20491671.320
     -1449.539       -1129.394          53.900          45.000
 126848227.876 7  98842818.25343  24138423.359                    24138426.625
       178.238         138.998          43.100          23.800
 113476341.231 8  88423176.30946  21593838.688                    21593845.055
     -2430.242       -1893.523          50.200          40.600
 18  2 21  8 16 30.0000000  0  8G07G05G30G02G23G09G16G06
 111477814.624 8  86865857.98946  21213523.781                    21213527.293
      1717.832        1338.824          52.100          40.600
 121212299.179 7  94451172.34745  23065939.242                    23065941.840
      3130.504        2439.397          45.800          31.000
 117191359.743 7  91317977.69446  22300774.945                    22300782.297
      3141.250        2447.859          47.600          38.300
 114610379.508 8  89306849.22346  21809645.836                    21809646.664
       257.461         200.855          49.600          39.200
 121358139.070 7  94564831.09745  23093693.617                    23093696.020
     -2714.461       -2115.120          47.700          32.800
 107728100.138 8  83944006.62747  20499973.133                    20499978.516
     -1460.879       -1138.160          53.900          45.500
 126843189.586 7  98838892.31844  24137464.609                    24137468.027
       157.641         123.181          43.700          24.700
 113549475.553 8  88480164.04346  21607755.617                    21607761.457
     -2445.406       -1905.327          50.700          41.100
 18  2 21  8 17  0.0000000  0  8G07G05G30G02G23G09G16G06
 111426514.784 8  86825884.08246  21203761.656                    21203765.543
      1702.008        1326.508          51.400          41.300
 121118463.652 7  94378053.79045  23048082.289                    23048085.973
      3125.203        2435.316          45.700          31.000
 117097273.893 7  91244664.07346  22282870.953                    22282878.184
      3131.004        2439.961          46.800          38.500
 114602932.028 8  89301045.97846  21808228.242                    21808229.156
       238.961         186.503          48.000          38.700
 121439641.709 7  94628339.60745  23109203.391                    23109205.340
     -2719.094       -2118.647          46.400          33.500
 107772091.253 9  83978285.40947  20508344.320                    20508350.023
     -1471.973       -1146.807          54.400          45.400
 126838760.858 7  98835441.36244  24136622.125                    24136625.020
       137.609         107.430          43.800          24.900
 113623062.894 8  88537504.76446  21621759.016                    21621765.285
     -2460.391       -1916.967          50.700          41.200
 18  2 21  8 17 30.0000000  0  8G07G05G30G02G23G09G16G06
 111375693.722 8  86786283.25246  21194090.703                    21194094.223
      1686.105        1313.984          52.100          41.100
 121024788.276 7  94305060.02545  23030256.031                    23030260.270
      3119.949        2431.097          45.600          32.100
 117003495.926 7  91171590.37946  22265025.406                    22265032.586
      3120.770        2431.877          47.500          38.700
 114596040.074 7  89295675.61546  21806916.875                    21806917.777
       220.449         172.006          47.300          38.700
 121521282.534 7  94691955.81345  23124738.953                    23124741.242
     -2723.566       -2122.280          47.600          32.600
 107816417.732 9  84012825.51647  20516779.297                    20516784.953
     -1483.098       -1155.571          54.100          45.300
 126834942.679 6  98832466.14444  24135895.750                    24135898.535
       117.156          91.501          41.600          25.100
 113697101.013 8  88595196.73546  21635847.969                    21635854.402
     -2475.363       -1928.723          50.300          41.000
 18  2 21  8 18  0.0000000  0  8G07G05G30G02G23G09G16G06
 111325352.818 8  86747056.57746  21184511.227                    21184515.313
      1669.809        1301.488          51.800          41.100
 120931273.991 7  94232191.75945  23012461.375                    23012464.617
      3114.344        2426.896          47.100          31.700
 116910028.347 7  91098758.52446  22247239.328                    22247246.555
      3110.211        2423.784          47.600          38.200
 114589704.386 7  89290738.71446  21805711.195                    21805712.277
       201.688         157.549          46.700          38.700
 121603061.025 7  94755679.28645  23140300.836                    23140302.984
     -2728.422       -2125.854          46.300          32.400
 107861078.515 9  84047626.11447  20525278.391                    20525283.754
     -1494.336       -1164.231          54.600          46.000
 126831735.586 7  98829967.11844  24135284.883                    24135288.227
        96.547          75.609          42.600          25.400
 113771587.549 8  88653238.11246  21650022.516                    21650028.910
     -2490.586       -1940.348          50.600          41.400
 18  2 21  8 18 30.0000000  0  8G07G05G30G02G23G09G16G06
 111275493.137 8  86708204.88146  21175023.367                    21175026.855
      1653.801        1288.992          51.400          41.100
 120837923.183 7  94159450.88045  22994697.281                    22994700.297
      3108.762        2422.612          46.900          31.500
 116816873.244 7  91026170.17646  22229511.984                    22229519.582
      3099.898        2415.661          47.300          38.100
 114583925.185 7  89286235.43446  21804610.969                    21804612.367
       183.223         143.108          47.500          38.100
 121684975.853 7  94819509.00745  23155888.641                    23155891.344
     -2732.914       -2129.377          47.000          33.200
 107906072.119 8  84082686.05547  20533840.414                    20533846.020
     -1505.418       -1172.852          53.900          45.600
 126829139.684 7  98827944.35244  24134790.867                    24134794.402
        76.203          59.728          42.100          25.200
 113846519.887 8  88711626.87046  21664281.242                    21664287.520
     -2505.316       -1951.905          50.300          40.900
 18  2 21  8 19  0.0000000  0  8G07G05G30G02G23G09G16G06
 111226116.287 8  86669729.40846  21165626.875                    21165630.934
      1637.902        1276.447          50.100          41.300
 120744737.290 7  94086838.49545  22976964.719                    22976966.941
      3103.555        2418.343          46.400          31.200
 116724033.323 7  90953827.40346  22211845.148                    22211853.117
      3089.426        2407.462          47.300          37.900
 114578702.904 7  89282166.12046  21803617.570                    21803618.602
       164.824         128.631          47.400          38.300
 121767026.204 7  94883444.32945  23171502.242                    23171504.781
     -2737.176       -2132.875          47.600          33.700
 107951397.678 8  84118004.65547  20542465.383                    20542470.941
     -1516.398       -1181.455          53.100          45.700
 126827155.905 6  98826398.57443  24134412.789                    24134417.156
        56.012          43.813          40.400          23.500
 113921895.864 8  88770361.32946  21678624.898                    21678631.594
     -2519.809       -1963.375          49.200          41.300
 18  2 21  8 19 30.0000000  0  8G07G05G30G02G23G09G16G06
 111177223.253 8  86631630.95446  21156322.766                    21156326.996
      1621.598        1263.856          49.600          40.900
 120651718.071 7  94014355.99845  22959263.438                    22959266.289
      3097.699        2413.939          46.200          31.000
 116631510.603 7  90881731.80346  22194238.813                    22194246.414
      3078.676        2399.155          46.800          38.000
 114574037.491 7  89278530.73446  21802729.578                    21802730.789
       146.113         114.159          47.300          37.800
 121849210.907 8  94947484.31845  23187141.867                    23187144.035
     -2741.832       -2136.359          48.300          33.200
 107997053.621 9  84153580.70847  20551153.445                    20551159.332
     -1527.477       -1190.038          54.200          45.700
 126825784.502 6  98825329.93744  24134152.023                    24134155.918
        35.281          27.891          40.100          25.200
 113997712.801 8  88829439.39646  21693052.641                    21693058.758
     -2534.684       -1974.814          50.200          40.500
 18  2 21  8 20  0.0000000  0  8G07G05G30G02G23G09G16G06
 111128815.192 8  86593910.39546  21147111.039                    21147115.148
      1605.664        1251.294          49.600          40.700
 120558867.180 7  93942004.68945  22941594.594                    22941597.367
      3092.285        2409.635          46.300          31.600
 116539307.440 7  90809885.21246  22176692.680                    22176700.172
      3068.219        2390.880          46.300          36.900
 114569929.156 7  89275329.42546  21801947.906                    21801949.137
       127.770          99.777          47.400          38.300
 121931528.961 8  95011628.24745  23202806.023                    23202808.645
     -2746.059       -2139.749          48.500          33.200
 108043038.754 8  84189413.27047  20559903.820                    20559909.871
     -1538.199       -1198.509          53.300          45.400
 126825025.815 6  98824738.75543  24134007.766                    24134011.457
        15.195          12.053          40.500          23.000
 114073968.161 8  88888859.09546  21707563.984                    21707569.965
     -2549.000       -1986.097          51.600          40.800
 18  2 21  8 20 30.0000000  0  8G07G05G30G02G23G09G16G06
 111080893.893 8  86556569.13146  21137991.758                    21137995.793
      1589.398        1238.647          50.000          40.700
 120466186.927 7  93869786.30545  22923958.211                    22923960.820
      3086.598        2405.172          47.100          32.200
 116447426.581 7  90738289.76546  22159208.164                    22159215.914
      3057.418        2382.503          46.500          36.300
 114566378.633 8  89272562.77646  21801272.422                    21801273.535
       109.266          85.277          48.800          38.700
 122013979.588 8  95075875.45645  23218496.594                    23218498.746
     -2750.457       -2143.170          48.400          33.600
 108089352.361 8  84225501.78247  20568717.219                    20568722.719
     -1549.113       -1207.005          53.500          44.800
 126824880.501 6  98824625.51943  24133980.242                    24133983.938
        -5.250          -3.874          39.900          23.900
 114150659.958 8  88948618.88746  21722157.813                    21722164.148
     -2563.551       -1997.392          51.900          40.900
 18  2 21  8 21  0.0000000  0  8G07G05G30G02G23G09G16G06
 111033460.110 8  86519607.75346  21128965.203                    21128969.105
      1572.930        1225.906          49.500          40.500
 120373678.760 8  93797702.02945  22906354.688                    22906357.016
      3080.719        2400.641          48.200          31.900
 116355870.282 7  90666947.22446  22141785.836                    22141793.254
      3046.324        2373.983          46.300          37.600
 114563385.839 8  89270230.72946  21800703.055                    21800703.832
        90.355          70.717          49.200          38.600
 122096561.566 8  95140225.03545  23234211.055                    23234213.219
     -2754.945       -2146.641          49.100          34.300
 108135993.080 8  84261845.19747  20577592.563                    20577597.957
     -1560.187       -1215.554          53.500          45.100
 126825349.155 6  98824990.71443  24134068.820                    24134073.391
       -25.828         -19.881          40.200          22.800
 114227785.635 8  89008716.79146  21736834.242                    21736840.598
     -2578.145       -2008.717          50.900          41.100
 18  2 21  8 21 30.0000000  0  8G07G05G30G02G23G09G16G06
 110986515.164 8  86483027.28646  21120032.188                    21120036.004
      1556.738        1213.215          50.200          40.400
 120281344.116 7  93725752.94945  22888784.352                    22888786.055
      3074.977        2396.121          47.400          31.800
 116264640.603 7  90595859.18746  22124425.531                    22124432.684
      3035.652        2365.501          47.200          36.900
 114560950.607 8  89268333.14046  21800239.453                    21800240.387
        71.988          56.248          48.300          39.100
 122179273.981 8  95204676.24745  23249951.039                    23249952.973
     -2759.121       -2149.983          48.900          33.300
 108182959.489 8  84298442.39247  20586529.930                    20586535.566
     -1570.898       -1223.981          53.500          45.000
 126826431.852 6  98825834.34443  24134274.570                    24134279.133
       -46.254         -35.802          39.700          22.500
 114305342.353 8  89069150.56546  21751593.219                    21751599.363
     -2592.285       -2019.849          51.500          40.900
 18  2 21  8 22  0.0000000  0  8G07G05G30G02G23G09G16G06
 110940060.146 8  86446828.58146  21111192.359                    21111195.582
      1540.301        1200.437          50.300          40.900
 120189185.677 7  93653941.18745  22871247.000                    22871248.691
      3069.098        2391.493          47.000          30.700
 116173739.977 7  90525027.55546  22107127.742                    22107134.840
      3024.512        2356.872          46.200          37.800
 114559073.532 8  89266870.48246  21799882.742                    21799882.836
        53.223          41.725          48.300          38.400
 122262115.708 8  95269228.21945  23265715.219                    23265717.207
     -2763.500       -2153.359          48.600          33.700
 108230250.482 8  84335292.50647  20595529.141                    20595534.453
     -1581.816       -1232.431          53.600          45.300
 126828129.004 6  98827156.79843  24134597.641                    24134601.375
       -66.766         -51.816          40.800          22.300
 114383327.614 8  89129918.26346  21766433.039                    21766439.727
     -2606.566       -2030.955          51.100          40.800
 18  2 21  8 22 30.0000000  0  8G07G05G30G02G23G09G16G06
 110894096.110 8  86411012.43046  21102445.547                    21102449.164
      1523.996        1187.683          50.200          41.400
 120097204.283 7  93582267.37445  22853743.813                    22853745.371
      3063.094        2386.875          46.200          32.100
 116083170.495 7  90454453.94446  22089892.609                    22089899.555
      3013.387        2348.253          45.300          37.800
 114557754.535 8  89265842.68746  21799631.336                    21799632.113
        34.777          27.219          48.800          39.000
 122345085.854 8  95333880.24945  23281504.063                    23281506.168
     -2767.781       -2156.689          48.200          34.000
 108277864.641 8  84372394.44547  20604589.438                    20604595.098
     -1592.434       -1240.805          52.500          44.700
 126830440.621 6  98828958.05943  24135038.211                    24135041.719
       -87.254         -67.780          40.400          22.300
 114461739.013 8  89191018.02846  21781354.359                    21781360.965
     -2620.703       -2042.016          50.200          40.600
 18  2 21  8 23  0.0000000  0  8G07G05G30G02G23G09G16G06
 110848624.166 8  86375579.76947  21093792.953                    21093796.074
      1507.648        1174.916          51.500          42.600
 120005402.123 7  93510733.22645  22836274.383                    22836276.879
      3057.211        2382.210          46.700          32.400
 115992934.828 8  90384140.46146  22072721.656                    22072728.480
      3002.355        2339.576          48.100          38.700
 114556993.944 8  89265250.00746  21799486.703                    21799487.598
        16.082          12.768          49.300          38.800
 122428183.338 7  95398631.51545  23297316.539                    23297319.000
     -2771.918       -2159.959          47.900          34.000
 108325801.090 8  84409747.51447  20613711.609                    20613717.266
     -1603.121       -1249.116          52.800          44.700
 126833367.275 7  98831238.56043  24135595.063                    24135598.238
      -107.711         -83.720          42.000          21.500
 114540574.180 8  89252448.02446  21796356.008                    21796362.586
     -2634.770       -2052.935          50.000          39.900
 18  2 21  8 23 30.0000000  0  8G07G05G30G02G23G09G16G06
 110803645.867 8  86340531.75847  21085233.688                    21085236.934
      1491.031        1162.043          51.300          42.300
 119913781.544 7  93439340.58645  22818839.906                    22818841.992
      3050.969        2377.433          47.000          33.600
 115903035.225 8  90314088.83446  22055614.383                    22055621.563
      2991.145        2330.835          49.500          39.000
 114556791.665 8  89265092.38146  21799448.406                    21799449.129
        -2.566          -1.766          49.100          38.900
 122511407.335 8  95463481.35045  23313153.930                    23313155.996
     -2776.246       -2163.237          48.200          33.500
 108374058.675 8  84447350.81747  20622894.945                    20622900.371
     -1613.902       -1257.467          52.600          45.100
 126836909.294 6  98833998.55343  24136269.117                    24136272.648
      -128.410         -99.735          41.100          22.000
 114619830.589 8  89314206.25646  21811438.273                    21811445.031
     -2648.922       -2063.892          50.000          39.900
 18  2 21  8 24  0.0000000  0  8G07G05G30G02G23G09G16G06
 110759162.046 8  86305869.05247  21076768.906                    21076771.938
      1474.637        1149.211          50.700          42.100
 119822344.097 7  93368090.63845  22801439.266                    22801442.180
      3044.930        2372.710          45.500          33.600
 115813473.747 7  90244300.70046  22038571.180                    22038578.262
      2979.828        2321.993          47.900          40.100
 114557147.674 8  89265369.78346  21799515.844                    21799516.469
       -21.145         -16.253          48.900          38.700
 122594756.593 7  95528428.79845  23329014.781                    23329016.949
     -2780.230       -2166.471          46.900          33.600
 108422635.812 8  84485203.12447  20632138.641                    20632144.199
     -1624.508       -1265.745          51.500          44.500
 126841066.706 6  98837238.06343  24137060.891                    24137063.516
      -148.801        -115.705          41.700          21.100
 114699505.331 8  89376290.46446  21826599.844                    21826606.391
     -2662.687       -2074.693          48.900          39.900
 18  2 21  8 24 30.0000000  0  8G07G05G30G02G23G09G16G06
 110715173.203 8  86271592.03747  21068398.117                    21068401.258
      1458.070        1136.371          51.000          43.000
 119731090.804 7  93296984.18945  22784074.438                    22784076.977
      3038.660        2367.892          46.000          33.900
 115724252.485 7  90174777.67146  22021593.203                    22021600.383
      2968.410        2313.153          46.600          39.700
 114558061.962 8  89266082.21246  21799690.063                    21799690.730
       -39.684         -30.732          49.600          38.900
 122678230.354 7  95593473.25045  23344899.000                    23344901.430
     -2784.449       -2169.672          47.800          33.200
 108471531.241 8  84523303.44947  20641443.531                    20641448.816
     -1635.059       -1273.981          50.900          44.500
 126845839.920 6  98840957.44243  24137968.594                    24137972.086
      -169.367        -131.680          40.700          20.100
 114779595.765 7  89438698.59146  21841839.945                    21841846.785
     -2676.500       -2085.429          46.600          39.300
 18  2 21  8 25  0.0000000  0  8G07G05G30G02G23G09G16G06
 110671681.357 8  86237702.32547  21060121.531                    21060125.285
      1441.484        1123.408          50.900          42.900
 119640024.839 7  93226023.68945  22766745.484                    22766747.793
      3032.410        2362.970          47.300          34.600
 115635374.379 8  90105522.01046  22004680.234                    22004687.699
      2956.875        2304.195          48.900          40.300
 114559534.893 7  89267229.93546  21799970.211                    21799971.258
       -58.340         -45.273          47.200          38.900
 122761827.713 7  95658614.01545  23360807.086                    23360809.305
     -2788.539       -2172.896          47.000          33.400
 108520744.303 8  84561651.28047  20650808.211                    20650814.133
     -1645.719       -1282.248          52.000          45.200
 126851228.735 6  98845156.51243  24138993.883                    24138997.012
      -189.840        -147.689          39.400          20.600
 114860099.909 7  89501429.08046  21857159.508                    21857165.953
     -2690.254       -2096.186          47.300          38.400
 18  2 21  8 25 30.0000000  0  8G07G05G30G02G23G09G16G06
 110628687.283 8  86204200.44947  21051940.148                    21051943.590
      1424.828        1110.505          51.100          43.000
 119549147.018 7  93155209.79645  22749452.195                    22749454.867
      3025.945        2358.099          47.900          34.500
 115546841.235 8  90036535.16746  21987833.102                    21987840.000
      2945.336        2295.242          49.900          40.300
 114561566.003 8  89268812.61046  21800356.734                    21800357.352
       -77.090         -59.754          48.300          38.500
 122845547.732 7  95723850.37645  23376738.398                    23376740.785
     -2792.699       -2176.049          44.600          33.400
 108570273.439 8  84600245.39547  20660233.367                    20660239.207
     -1656.266       -1290.393          52.100          45.300
 126857233.688 6  98849835.70443  24140137.211                    24140139.383
      -210.352        -163.693          41.600          19.300
 114941014.785 7  89564479.61846  21872557.195                    21872563.801
     -2703.996       -2106.781          46.300          38.000
 18  2 21  8 26  0.0000000  0  8G07G05G30G02G23G09G16G06
 110586191.723 8  86171087.02547  21043853.500                    21043857.199
      1408.199        1097.510          49.900          43.000
 119458459.198 7  93084543.97845  22732194.781                    22732197.918
      3019.660        2353.112          46.200          35.400
 115458655.390 7  89967818.92046  21971051.844                    21971058.598
      2933.727        2286.170          46.900          40.600
 114564155.435 8  89270830.34246  21800849.344                    21800850.070
       -95.730         -74.271          48.600          38.400
 122929389.386 7  95789181.50445  23392693.281                    23392695.402
     -2796.785       -2179.221          44.800          32.100
 108620117.498 8  84639084.91747  20669718.445                    20669723.945
     -1666.738       -1298.604          51.700          45.200
 126863854.953 6  98854995.14043  24141397.078                    24141399.027
      -230.977        -179.749          38.800          19.600
 115022337.856 7  89627848.22846  21888032.266                    21888039.004
     -2717.551       -2117.389          46.400          38.000
 18  2 21  8 26 30.0000000  0  8G07G05G30G02G23G09G16G06
 110544195.834 8  86138362.96147  21035862.086                    21035865.328
      1391.543        1084.530          49.200          43.400
 119367964.309 7  93014028.50245  22714973.992                    22714977.656
      3013.313        2348.103          46.400          35.700
 115370819.075 7  89899375.04646  21954336.898                    21954344.027
      2922.059        2277.083          47.400          40.400
 114567303.330 8  89273283.23346  21801448.461                    21801449.195
      -114.137         -88.749          48.200          37.900
 123013351.554 7  95854606.55345  23408669.461                    23408672.914
     -2800.699       -2182.324          45.200          32.600
 108670275.201 8  84678168.83347  20679263.305                    20679269.012
     -1677.102       -1306.705          50.800          45.700
 126871091.879 6  98860634.30243  24142774.000                    24142776.383
      -251.387        -195.695          39.200          18.300
 115104066.454 7  89691532.83246  21903584.508                    21903591.340
     -2730.992       -2127.882          46.400          38.100
 18  2 21  8 27  0.0000000  0  8G07G05G30G02G23G09G16G06
 110502700.925 8  86106029.27047  21027965.469                    21027969.402
      1374.699        1071.457          49.300          43.000
 119277663.499 7  92943664.24245  22697790.375                    22697794.297
      3006.566        2342.977          46.600          35.800
 115283334.774 7  89831205.48246  21937689.758                    21937696.168
      2910.176        2267.851          47.000          39.800
 114571009.698 7  89276171.30146  21802153.805                    21802154.852
      -133.008        -103.319          47.200          38.700
 123097433.716 7  95920125.07145  23424671.266                    23424673.250
     -2804.797       -2185.467          43.900          31.400
 108720745.630 8  84717496.42647  20688867.320                    20688872.945
     -1687.527       -1314.860          51.000          45.600
 126878945.219 6  98866753.81743  24144268.578                    24144270.633
      -271.984        -211.786          39.500          18.300
 115186198.211 7  89755531.58046  21919214.047                    21919220.855
     -2744.492       -2138.361          46.700          37.700
 18  2 21  8 27 30.0000000  0  8G07G05G30G02G23G09G16G06
 110461708.097 8  86074086.80047  21020164.852                    21020168.645
      1358.066        1058.431          49.500          43.300
 119187558.817 7  92873452.80145  22680643.797                    22680647.461
      3000.180        2337.882          46.500          35.700
 115196204.857 7  89763312.02546  21921108.938                    21921115.469
      2898.441        2258.651          46.600          39.800
 114575274.741 7  89279494.69146  21802965.000                    21802966.594
      -151.387        -117.811          46.800          38.200
 123181634.792 7  95985736.26245  23440693.492                    23440696.086
     -2808.664       -2188.524          43.000          31.500
 108771527.747 8  84757066.89847  20698531.016                    20698536.539
     -1697.883       -1322.923          51.300          45.500
 126887415.121 6  98873353.69643  24145880.219                    24145882.074
      -292.766        -227.709          39.700          18.300
 115268730.664 7  89819842.56146  21934919.453                    21934926.242
     -2757.727       -2148.714          46.900          38.100
 18  2 21  8 28  0.0000000  0  8G07G05G30G02G23G09G16G06
 110421217.951 8  86042536.04447  21012459.977                    21012463.617
      1341.258        1045.390          49.800          43.600
 119097651.670 8  92803395.26846  22663535.273                    22663538.902
      2993.484        2332.773          48.900          36.800
 115109431.319 8  89695696.30146  21904596.828                    21904603.281
      2886.438        2249.375          49.000          39.400
 114580097.752 7  89283252.86146  21803883.086                    21803884.398
      -170.078        -132.279          46.500          38.100
 123265953.624 7  96051439.23245  23456738.711                    23456741.695
     -2812.598       -2191.564          44.700          31.300
 108822620.037 8  84796879.05947  20708253.586                    20708259.359
     -1708.273       -1330.958          52.900          45.200
 126896501.524 6  98880434.01042  24147609.211                    24147611.277
      -313.117        -243.755          40.300          17.400
 115351660.870 8  89884463.46946  21950701.031                    21950707.609
     -2770.973       -2159.013          48.300          38.400
 18  2 21  8 28 30.0000000  0  8G07G05G30G02G23G09G16G06
 110381231.388 8  86011377.70447  21004850.633                    21004854.156
      1324.387        1032.236          50.000          43.400
 119007944.269 7  92733493.41445  22646464.344                    22646468.402
      2986.801        2327.476          47.500          35.800
 115023016.198 8  89628359.87146  21888152.172                    21888158.941
      2874.461        2239.991          49.300          39.100
 114585478.542 7  89287445.67546  21804907.203                    21804908.160
      -188.762        -146.811          46.800          38.400
 123350389.470 7  96117233.34645  23472806.211                    23472808.898
     -2816.520       -2194.633          44.600          31.400
 108874021.152 8  84836931.86047  20718034.914                    20718040.730
     -1718.660       -1339.001          52.700          45.700
 126906204.012 6  98887994.35442  24149455.055                    24149457.215
      -333.746        -259.728          39.600          16.300
 115434986.045 8  89949392.16746  21966556.992                    21966564.188
     -2784.156       -2169.262          48.000          39.000
 18  2 21  8 29  0.0000000  0  8G07G05G30G02G23G09G16G06
 110341749.507 8  85980612.60747  20997337.648                    20997341.188
      1307.621        1019.118          50.000          43.900
 118918438.758 8  92663748.87046  22629432.102                    22629436.188
      2980.117        2322.263          49.400          37.000
 114936961.747 8  89561304.48746  21871776.477                    21871783.207
      2862.406        2230.604          49.000          39.600
 114591417.146 7  89292073.14146  21806037.320                    21806038.543
      -207.246        -161.276          46.200          38.600
 123434941.285 7  96183117.86045  23488895.750                    23488898.863
     -2820.387       -2197.626          43.200          30.900
 108925729.939 8  84877224.41547  20727874.906                    20727880.426
     -1728.727       -1346.979          53.200          45.500
 126916522.717 6  98896034.87142  24151418.719                    24151420.070
      -354.371        -275.785          40.400          16.900
 115518703.579 8  90014626.57246  21982487.672                    21982494.887
     -2797.168       -2179.414          48.200          39.200
 18  2 21  8 29 30.0000000  0  8G07G05G30G02G23G09G16G06
 110302772.973 8  85950241.29647  20989920.539                    20989924.258
      1290.727        1006.006          50.500          43.300
 118829136.560 8  92594162.74346  22612438.445                    22612442.438
      2973.277        2316.975          48.200          36.200
 114851270.135 8  89494531.83646  21855469.945                    21855476.699
      2850.273        2221.189          48.100          39.200
 114597913.487 7  89297135.21646  21807273.133                    21807274.461
      -225.949        -175.736          47.200          38.400
 123519608.021 7  96249091.90645  23505006.938                    23505010.191
     -2824.184       -2200.552          43.800          31.200
 108977745.188 8  84917755.75947  20737773.133                    20737778.746
     -1739.074       -1354.881          53.500          45.300
 126927457.771 6  98904555.73842  24153499.664                    24153501.223
      -375.012        -291.792          40.900          16.900
 115602810.827 7  90080164.65646  21998493.000                    21998500.156
     -2810.102       -2189.478          47.400          39.400
 18  2 21  8 30  0.0000000  0  8G07G05G30G02G23G09G16G06
 110264302.658 8  85920264.44247  20982599.633                    20982603.563
      1273.902         992.884          51.400          43.200
 118740039.949 8  92524736.81946  22595483.508                    22595487.758
      2966.473        2311.625          48.100          36.000
 114765943.591 8  89428043.63546  21839232.883                    21839239.625
      2838.176        2211.673          48.900          39.200
 114604966.937 7  89302631.40646  21808614.945                    21808617.277
      -244.375        -190.187          45.900          38.900
 123604388.690 7  96315154.71745  23521141.063                    23521143.563
     -2827.883       -2203.494          44.200          31.800
 109030065.704 8  84958524.98747  20747729.500                    20747734.941
     -1749.090       -1362.796          53.100          45.300
 126939008.869 6  98913556.51442  24155698.648                    24155698.953
      -395.332        -307.736          40.100          15.600
 115687305.031 7  90146004.26246  22014571.938                    22014579.113
     -2822.805       -2199.479          46.600          39.200
 18  2 21  8 30 30.0000000  0  8G07G05G30G02G23G09G16G06
 110226339.735 8  85890682.95647  20975375.656                    20975379.395
      1256.883         979.673          50.200          42.800
 118651150.258 7  92455472.13046  22578568.141                    22578572.633
      2959.449        2306.209          47.200          36.000
 114680984.600 8  89361841.84746  21823065.922                    21823072.727
      2825.754        2202.105          49.300          39.000
 114612577.818 7  89308561.96746  21810063.703                    21810065.617
      -263.113        -204.677          47.100          39.300
 123689282.798 7  96381305.94845  23537295.305                    23537298.602
     -2831.785       -2206.460          42.400          30.000
 109082690.591 8  84999531.38447  20757743.555                    20757748.973
     -1759.273       -1370.679          52.200          45.200
 126951176.022 6  98923037.35242  24158013.563                    24158014.078
      -415.949        -323.761          39.000          15.600
 115772183.891 7  90212143.59746  22030723.719                    22030731.215
     -2835.738       -2209.437          46.700          38.900
 18  2 21  8 31  0.0000000  0  8G07G05G30G02G23G09G16G06
 110188885.024 8  85861497.47547  20968248.352                    20968252.508
      1239.961         966.428          50.300          42.600
 118562470.039 8  92386370.67446  22561693.367                    22561697.406
      2952.422        2300.694          48.300          36.200
 114596395.261 8  89295928.10346  21806968.867                    21806975.313
      2813.383        2192.430          50.200          39.900
 114620745.735 7  89314926.57746  21811618.164                    21811620.133
      -281.676        -219.183          47.000          38.700
 123774289.305 7  96447544.75745  23553471.727                    23553474.793
     -2835.441       -2209.386          43.100          30.800
 109135618.522 9  85040773.92647  20767815.250                    20767820.738
     -1769.348       -1378.582          54.300          45.300
 126963958.624 6  98932997.79942  24160446.430                    24160446.887
      -436.211        -339.788          39.900          16.300
 115857444.546 7  90278580.43046  22046948.289                    22046955.641
     -2848.383       -2219.372          46.500          39.300
 18  2 21  8 31 30.0000000  0  8G07G05G30G02G23G09G16G06
 110151939.119 8  85832708.46947  20961217.641                    20961221.273
      1222.996         953.205          50.800          42.100
 118474000.570 8  92317433.42546  22544857.867                    22544862.191
      2945.473        2295.252          48.700          36.900
 114512177.377 8  89230303.81146  21790942.961                    21790949.938
      2801.059        2182.797          50.700          40.500
 114629470.141 7  89321724.81546  21813278.188                    21813280.320
      -300.105        -233.604          47.100          38.700
 123859407.138 7  96513870.29244  23569669.133                    23569671.809
     -2839.250       -2212.256          42.800          29.900
 109188848.030 8  85082251.46547  20777944.484                    20777950.664
     -1779.348       -1386.367          52.700          45.400
 126977356.987 6  98943438.03642  24162995.992                    24162996.609
      -456.750        -355.720          39.700          14.800
 115943084.046 7  90345312.46146  22063244.742                    22063252.477
     -2860.965       -2229.144          46.700          39.400
 18  2 21  8 32  0.0000000  0  8G07G05G30G02G23G09G16G06
 110115503.073 8  85804316.75546  20954283.820                    20954287.941
      1206.043         939.976          50.700          41.900
 118385744.267 7  92248662.30346  22528063.469                    22528067.781
      2938.227        2289.663          46.800          36.600
 114428333.344 8  89164970.83146  21774988.086                    21774994.758
      2788.563        2173.056          50.200          41.100
 114638750.704 7  89328956.41646  21815043.875                    21815046.207
      -318.652        -248.047          46.400          38.900
 123944635.425 7  96580281.92145  23585887.703                    23585890.199
     -2842.824       -2215.097          42.600          30.000
 109242378.085 8  85123963.19547  20788130.922                    20788136.609
     -1789.426       -1394.170          52.900          45.300
 126991370.511 6  98954357.66042  24165663.383                    24165663.207
      -477.582        -371.738          39.200          14.800
 116029099.831 7  90412337.69946  22079613.133                    22079621.223
     -2873.492       -2238.899          47.000          39.200
 18  2 21  8 32 30.0000000  0  8G07G05G30G02G23G09G16G06
 110079578.065 8  85776323.23547  20947447.328                    20947451.371
      1188.930         926.691          50.800          42.300
 118297703.340 8  92180058.99545  22511309.758                    22511314.105
      2931.133        2284.058          48.100          35.900
 114344865.418 8  89099930.92446  21759104.398                    21759111.613
      2775.977        2163.264          51.900          41.600
 114648587.492 7  89336621.43546  21816915.781                    21816918.121
      -337.113        -262.477          46.200          38.300
 124029973.269 7  96646778.90144  23602127.195                    23602129.430
     -2846.406       -2217.948          43.400          29.600
 109296207.672 8  85165908.32847  20798374.195                    20798380.398
     -1799.367       -1401.927          53.700          45.000
 127005999.291 6  98965756.70142  24168446.930                    24168446.145
      -497.887        -387.676          39.000          16.300
 116115489.303 7  90479654.11946  22096053.008                    22096060.508
     -2885.809       -2248.534          47.200          39.800
 18  2 21  8 33  0.0000000  0  8G07G05G30G02G23G09G16G06
 110044164.710 8  85748728.42747  20940708.719                    20940712.258
      1171.953         913.388          51.200          42.600
 118209878.918 8  92111624.39646  22494597.469                    22494601.645
      2923.785        2278.385          49.300          36.800
 114261775.881 8  89035185.87546  21743293.336                    21743300.043
      2763.395        2153.396          51.800          41.700
 114658980.328 7  89344719.73846  21818893.586                    21818896.293
      -355.613        -276.921          46.300          38.300
 124115419.981 7  96713360.71544  23618387.367                    23618389.328
     -2849.957       -2220.755          43.700          29.800
 109350335.674 8  85208085.99447  20808674.227                    20808680.469
     -1809.246       -1409.658          53.200          45.300
 127021243.181 6  98977635.03442  24171348.102                    24171346.777
      -518.301        -403.666          39.200          15.600
 116202249.929 7  90547259.75246  22112562.688                    22112570.402
     -2898.152       -2258.181          46.300          39.200
 18  2 21  8 33 30.0000000  0  8G07G05G30G02G23G09G16G06
 110009262.891 8  85721532.20947  20934067.398                    20934070.941
      1154.859         900.127          50.000          42.800
 118122273.200 8  92043360.20546  22477926.305                    22477930.723
      2916.480        2272.734          48.700          36.600
 114179066.216 8  88970736.84446  21727553.883                    21727560.488
      2750.563        2143.531          51.700          41.800
 114669928.243 7  89353250.57346  21820976.508                    21820979.320
      -374.191        -291.318          46.600          38.500
 124200974.197 7  96780026.32044  23634667.180                    23634669.773
     -2853.602       -2223.514          43.500          28.500
 109404760.263 8  85250494.76147  20819031.188                    20819037.203
     -1819.191       -1417.324          53.700          45.100
 127037101.171 6  98989991.87342  24174365.469                    24174364.832
      -538.832        -419.600          39.400          16.900
 116289378.275 7  90615151.92846  22129142.758                    22129149.973
     -2910.410       -2267.644          46.800          38.700
 18  2 21  8 34  0.0000000  0  8G07G05G30G02G23G09G16G06
 109974874.053 8  85694735.71547  20927523.547                    20927526.910
      1137.734         886.755          50.300          42.800
 118034888.383 8  91975268.13946  22461297.773                    22461301.484
      2909.031        2266.937          50.500          36.700
 114096738.895 8  88906585.74747  21711887.555                    21711893.969
      2737.832        2133.527          51.600          42.300
 114681431.116 7  89362213.83446  21823165.336                    21823168.195
      -392.715        -305.765          46.300          38.100
 124286635.427 7  96846775.28944  23650968.188                    23650970.711
     -2857.129       -2226.324          43.800          28.100
 109459480.671 8  85293134.03247  20829443.734                    20829449.996
     -1828.992       -1425.040          52.300          45.000
 127053573.491 6  99002827.42842  24177500.188                    24177499.988
      -559.402        -435.582          37.900          15.600
 116376871.929 7  90683328.74846  22145792.492                    22145799.598
     -2922.441       -2277.149          46.300          38.000
 18  2 21  8 34 30.0000000  0  8G07G05G30G02G23G09G16G06
 109940998.785 8  85668339.41747  20921076.984                    20921080.793
      1120.582         873.440          49.900          42.100
 117947725.794 8  91907349.24146  22444711.320                    22444715.406
      2901.617        2261.168          50.200          36.900
 114014795.978 8  88842734.15946  21696293.789                    21696301.031
      2724.965        2123.552          50.900          41.700
 114693488.411 7  89371609.11346  21825459.961                    21825462.734
      -411.160        -320.118          46.600          38.100
 124372402.545 7  96913606.76144  23667289.391                    23667291.652
     -2860.734       -2229.026          45.200          28.000
 109514495.623 8  85336002.81547  20839913.250                    20839919.383
     -1838.746       -1432.640          52.500          45.500
 127070659.915 6  99016141.48942  24180751.844                    24180751.852
      -579.844        -451.473          37.500          15.600
 116464728.166 7  90751788.11146  22162510.938                    22162517.918
     -2934.555       -2286.484          46.300          37.900
 18  2 21  8 35  0.0000000  0  8G07G05G30G02G23G09G16G06
 109907637.996 8  85642344.00647  20914728.922                    20914732.406
      1103.309         860.063          50.300          42.300
 117860788.149 8  91839605.63046  22428167.938                    22428172.117
      2894.004        2255.278          50.700          37.700
 113933239.721 8  88779183.89046  21680774.352                    21680781.344
      2711.973        2113.475          51.700          41.400
 114706099.872 7  89381436.20546  21827859.898                    21827862.488
      -429.730        -334.516          47.200          37.900
 124458274.869 7  96980520.23544  23683630.141                    23683632.418
     -2864.270       -2231.748          42.300          27.500
 109569804.047 8  85379100.27947  20850437.898                    20850444.609
     -1848.625       -1440.243          52.500          45.300
 127088359.518 6  99029933.42842  24184119.289                    24184119.902
      -600.266        -467.374          38.100          14.800
 116552944.345 7  90820527.93946  22179297.953                    22179304.809
     -2946.551       -2295.816          45.600          38.200
 18  2 21  8 35 30.0000000  0  8G07G05G30G02G23G09G16G06
 109874792.257 8  85616749.94146  20908478.484                    20908481.723
      1086.371         846.734          49.500          41.700
 117774077.246 8  91772038.69246  22411667.492                    22411671.004
      2886.594        2249.429          51.300          37.800
 113852072.127 8  88715936.46046  21665328.242                    21665335.535
      2699.125        2103.424          51.200          41.700
 114719264.948 7  89391694.68446  21830365.000                    21830367.895
      -447.957        -348.821          47.700          38.300
 124544251.314 7  97047514.81944  23699991.641                    23699993.434
     -2867.395       -2234.375          43.100          26.700
 109625404.673 8  85422425.43047  20861018.461                    20861024.672
     -1858.117       -1447.753          52.600          45.500
 127106672.352 6  99044203.18042  24187603.531                    24187605.094
      -620.547        -483.292          38.700          16.300
 116641517.526 7  90889545.94246  22196152.766                    22196159.816
     -2958.273       -2304.984          45.700          37.700
 18  2 21  8 36  0.0000000  0  8G07G05G30G02G23G09G16G06
 109842462.274 8  85591557.75747  20902325.758                    20902329.496
      1069.070         833.339          49.000          42.200
 117687594.458 8  91704649.50646  22395210.367                    22395213.520
      2879.027        2243.495          50.700          37.200
 113771295.246 8  88652993.47346  21649957.258                    21649964.266
      2686.156        2093.264          50.100          41.900
 114732983.187 7  89402384.21346  21832975.664                    21832977.879
      -466.488        -363.186          47.000          38.600
 124630331.258 7  97114590.07244  23716371.523                    23716373.934
     -2870.977       -2237.060          43.700          26.700
 109681296.390 8  85465977.41047  20871654.484                    20871660.586
     -1867.789       -1455.300          52.200          45.900
 127125598.248 6  99058950.58642  24191204.867                    24191207.371
      -641.000        -499.171          37.600          16.300
 116730445.049 7  90958840.06346  22213074.883                    22213082.273
     -2970.125       -2314.147          45.800          37.300
 18  2 21  8 36 30.0000000  0  8G07G05G30G02G23G09G16G06
 109810648.928 8  85566768.14946  20896271.867                    20896275.563
      1051.871         819.849          48.900          41.900
 117601342.356 8  91637440.07846  22378797.000                    22378800.582
      2871.203        2237.431          51.200          37.200
 113690911.377 8  88590356.71246  21634660.578                    21634667.836
      2672.895        2082.970          51.200          41.600
 114747254.384 7  89413504.59846  21835692.188                    21835693.629
      -484.926        -377.591          47.800          38.300
 124716513.869 7  97181745.30544  23732772.203                    23732774.055
     -2874.555       -2239.760          44.400          27.600
 109737478.118 8  85509755.36547  20882345.711                    20882351.746
     -1877.535       -1462.866          51.400          45.900
 127145136.077 6  99074174.88642  24194922.680                    24194925.957
      -661.430        -515.093          36.800          16.300
 116819724.262 7  91028408.22446  22230064.344                    22230071.242
     -2981.836       -2323.311          45.000          36.900
 18  2 21  8 37  0.0000000  0  8G07G05G30G02G23G09G16G06
 109779352.916 8  85542381.64946  20890316.484                    20890320.168
      1034.477         806.315          49.100          41.800
 117515322.921 8  91570411.95546  22362428.086                    22362431.590
      2863.359        2231.283          51.500          37.000
 113610922.637 8  88528027.85747  21619439.133                    21619446.285
      2659.703        2072.593          51.200          42.200
 114762078.002 8  89425055.45046  21838512.898                    21838514.805
      -503.371        -392.012          48.500          38.300
 124802798.169 7  97248979.77944  23749191.305                    23749193.098
     -2877.926       -2242.464          44.000          26.200
 109793948.740 8  85553758.43447  20893091.586                    20893097.695
     -1887.160       -1470.442          52.900          45.400
 127165285.661 5  99089875.89242  24198757.117                    24198760.590
      -681.871        -531.122          35.200          15.600
 116909352.447 7  91098248.33246  22247119.938                    22247127.082
     -2993.398       -2332.422          46.200          36.800
 18  2 21  8 37 30.0000000  0  8G07G05G30G02G23G09G16G06
 109748574.641 8  85518398.57846  20884459.617                    20884463.012
      1017.285         792.900          48.200          41.800
 117429537.730 8  91503566.35246  22346103.742                    22346107.211
      2855.512        2225.212          51.100          37.700
 113531330.739 8  88466008.21747  21604293.352                    21604300.875
      2646.348        2062.292          51.200          42.200
 114777453.029 8  89437035.97246  21841438.594                    21841440.414
      -521.785        -406.292          48.700          39.000
 124889183.286 7  97316292.81344  23765630.695                    23765631.980
     -2881.137       -2245.045          44.200          26.600
 109850706.820 8  85597985.50447  20903892.391                    20903898.363
     -1896.734       -1477.858          51.800          46.100
 127186046.633 6  99106053.23942  24202708.563                    24202711.371
      -702.387        -546.946          37.400          14.800
 116999326.524 7  91168357.97046  22264241.375                    22264248.973
     -3004.984       -2341.339          45.600          36.700
 18  2 21  8 38  0.0000000  0  8G07G05G30G02G23G09G16G06
 109718314.530 8  85494819.27146  20878701.695                    20878705.297
      1000.105         779.453          48.600          41.700
 117343988.725 8  91436904.79546  22329824.586                    22329827.703
      2847.656        2219.043          50.600          37.100
 113452137.845 8  88404299.48447  21589223.695                    21589230.969
      2633.156        2051.931          51.400          42.300
 114793379.171 8  89449445.93346  21844469.539                    21844471.086
      -539.949        -420.583          48.800          39.000
 124975668.239 7  97383683.64544  23782087.586                    23782089.539
     -2884.496       -2247.639          43.800          26.600
 109907751.233 8  85642435.68447  20914747.297                    20914753.273
     -1906.199       -1485.270          51.900          45.900
 127207418.108 5  99122706.34542  24206774.570                    24206777.723
      -722.543        -562.809          35.200          14.800
 117089643.742 7  91238734.98646  22281428.742                    22281435.781
     -3016.211       -2350.192          46.300          37.500
 18  2 21  8 38 30.0000000  0  8G07G05G30G02G23G09G16G06
 109688573.757 8  85471644.65247  20873042.289                    20873045.582
       982.742         765.970          49.100          42.200
 117258678.406 8  91370429.23246  22313590.063                    22313593.898
      2839.766        2212.867          50.100          37.600
 113373346.217 8  88342903.45047  21574229.984                    21574236.957
      2619.695        2041.466          52.200          42.400
 114809856.125 8  89462285.10146  21847605.031                    21847606.504
      -558.410        -434.870          48.900          39.400
 125062252.405 7  97451151.77544  23798564.617                    23798565.996
     -2887.805       -2250.202          43.600          26.500
 109965081.006 8  85687108.22447  20925657.031                    20925662.898
     -1915.734       -1492.658          52.500          45.800
 127229400.075 5  99139835.10442  24210957.961                    24210961.008
      -742.797        -578.653          33.300          13.900
 117180301.508 7  91309377.38146  22298679.844                    22298687.422
     -3027.566       -2359.000          46.800          36.600
 18  2 21  8 39  0.0000000  0  8G07G05G30G02G23G09G16G06
 109659352.062 8  85448874.52247  20867481.695                    20867484.742
       965.348         752.496          50.300          42.000
 117173608.154 8  91304140.74446  22297401.734                    22297405.496
      2831.617        2206.611          49.600          37.100
 113294957.379 8  88281821.26047  21559313.320                    21559320.238
      2606.113        2031.021          52.000          42.600
 114826882.535 8  89475552.41946  21850844.750                    21850846.910
      -576.816        -449.117          49.100          39.200
 125148934.677 7  97518696.36244  23815059.609                    23815061.230
     -2891.133       -2252.669          43.200          26.500
 110022694.550 8  85732001.89047  20936620.336                    20936626.227
     -1925.223       -1499.977          52.900          45.700
 127251991.427 6  99157438.69042  24215257.867                    24215260.391
      -763.387        -594.401          36.600          13.900
 117271296.546 7  91380282.58346  22315995.914                    22316003.344
     -3038.891       -2367.697          46.300          36.500
 18  2 21  8 39 30.0000000  0  8G07G05G30G02G23G09G16G06
 109630650.211 8  85426509.44647  20862020.320                    20862022.930
       948.129         738.992          51.400          42.800
 117088780.149 8  91238041.02246  22281259.641                    22281262.922
      2823.590        2200.269          49.500          37.100
 113216973.368 8  88221054.53547  21544473.445                    21544479.801
      2592.719        2020.472          52.000          42.200
 114844458.023 8  89489247.59746  21854189.500                    21854191.016
      -594.941        -463.379          48.300          39.200
 125235714.112 7  97586316.67644  23831572.914                    23831575.133
     -2894.262       -2255.217          42.500          26.700
 110080590.674 8  85777115.74047  20947637.953                    20947643.719
     -1934.516       -1507.312          52.800          45.700
 127275191.516 5  99175516.64542  24219671.750                    24219675.621
      -783.457        -610.199          34.600          13.900
 117362626.012 7  91451448.37846  22333374.688                    22333382.555
     -3049.758       -2376.354          46.500          36.800
 18  2 21  8 40  0.0000000  0  8G07G05G30G02G23G09G16G06
 109602469.658 8  85404550.58347  20856657.586                    20856660.352
       930.621         725.431          50.500          42.000
 117004196.835 8  91172131.95846  22265163.750                    22265167.086
      2815.418        2193.933          49.200          36.400
 113139396.909 8  88160605.37147  21529710.758                    21529717.816
      2579.051        2009.867          51.300          42.100
 114862582.668 8  89503370.68646  21857638.141                    21857640.391
      -613.293        -477.643          48.300          39.800
 125322590.321 7  97654012.35244  23848105.078                    23848106.723
     -2897.594       -2257.732          42.800          26.800
 110138768.919 8  85822449.43447  20958708.727                    20958714.766
     -1943.961       -1514.638          52.200          45.800
 127299000.277 5  99194068.82742  24224202.453                    24224207.430
      -803.777        -625.935          34.500          12.600
 117454287.823 7  91522873.12846  22350817.797                    22350825.098
     -3060.930       -2384.951          45.600          36.400
 18  2 21  8 40 30.0000000  0  8G07G05G30G02G23G09G16G06
 109574810.020 8  85382997.63047  20851393.617                    20851396.816
       913.313         711.918          50.700          42.800
 116919859.657 8  91106414.68346  22249114.633                    22249118.207
      2807.102        2187.477          48.000          37.000
 113062229.511 8  88100474.95447  21515026.438                    21515033.262
      2565.426        1999.221          50.700          42.000
 114881255.333 8  89517920.81646  21861191.242                    21861193.414
      -631.430        -491.856          48.400          38.300
 125409562.343 6  97721782.72644  23864655.227                    23864657.711
     -2900.566       -2260.182          41.400          24.300
 110197227.685 8  85868001.70747  20969832.945                    20969838.848
     -1953.266       -1521.892          52.100          45.300
 127323416.875 5                  24228850.156
      -824.121                          33.700
 117546278.685 7  91594554.27146  22368322.797                    22368330.414
     -3071.766       -2393.447          45.900          36.400
 18  2 21  8 41  0.0000000  0  8G07G05G30G02G23G09G16G06
 109547671.589 8  85361850.82347  20846229.211                    20846233.039
       895.941         698.335          50.700          42.300
 116835770.833 8  91040890.94546  22233113.070                    22233116.379
      2798.789        2181.006          48.800          36.500
 112985472.731 8  88040664.51747  21500420.227                    21500426.570
      2551.703        1988.492          51.100          42.000
 114900474.744 7  89532896.95846  21864848.641                    21864850.828
      -649.703        -506.073          47.800          38.600
 125496628.895 6  97789626.75344  23881222.852                    23881225.914
     -2903.715       -2262.650          41.600          25.400
 110255965.356 8  85913771.30047  20981010.391                    20981016.055
     -1962.582       -1529.159          52.700          44.600
 127348439.545 6                  24233611.188
      -844.457                          36.800
 117638595.342 7  91666489.28745  22385890.219                    22385898.078
     -3082.621       -2401.904          46.000          35.800
 18  2 21  8 41 30.0000000  0  8G07G05G30G02G23G09G16G06
 109521055.698 8  85341111.18447  20841164.102                    20841167.922
       878.590         684.772          49.800          42.300
 116751931.967 7  90975561.97346  22217158.625                    22217162.176
      2790.465        2174.483          47.100          36.600
 112909129.353 8  87981176.22046  21485892.195                    21485898.813
      2537.961        1977.763          51.700          41.600
 114920240.872 7  89548299.12146  21868609.984                    21868612.246
      -667.859        -520.247          47.800          38.600
 125583789.917 6  97857544.38844  23897809.133                    23897812.500
     -2906.820       -2265.077          39.800          24.300
 110314981.515 8  85959757.91247  20992240.680                    20992246.602
     -1971.727       -1536.359          51.900          44.300
 127374069.018 5                  24238488.711
      -864.297                          35.200
 117731235.724 7  91738676.56145  22403518.984                    22403526.559
     -3093.246       -2410.261          44.800          35.900
 18  2 21  8 42  0.0000000  0  8G07G05G30G02G23G09G16G06
 109494962.556 8  85320778.87747  20836198.633                    20836202.949
       860.910         671.131          50.700          42.300
 116668345.681 8  90910429.81146  22201253.148                    22201256.969
      2781.797        2167.827          48.700          36.600
 112833201.058 8  87922011.35547  21471443.461                    21471450.113
      2523.871        1966.892          51.600          42.600
 114940552.993 7  89564126.72546  21872475.266                    21872477.328
      -686.375        -534.496          47.200          37.800
 125671044.356 6  97925534.80443  23914413.047                    23914416.219
     -2910.160       -2267.549          38.900          22.800
 110374274.831 8  86005960.47947  21003523.539                    21003529.543
     -1981.219       -1543.613          52.800          44.200
 127400304.397 5                  24243476.898
      -884.617                          31.200
 117824196.751 7  91811113.68845  22421209.078                    22421216.773
     -3104.160       -2418.630          45.100          35.700
 18  2 21  8 42 30.0000000  0  8G07G05G30G02G23G09G16G06
 109469391.987 8  85300853.76847  20831332.797                    20831336.773
       843.688         657.626          51.300          42.300
 116585013.902 8  90845495.96846  22185395.523                    22185398.730
      2773.492        2161.284          49.300          36.900
 112757689.232 8  87863171.01047  21457073.844                    21457080.387
      2510.172        1956.114          52.100          42.300
 114961409.832 7  89580378.79146  21876444.164                    21876446.105
      -704.191        -548.546          46.900          37.500
 125758390.692 6  97993596.81243  23931035.133                    23931037.586
     -2913.129       -2269.852          39.600          22.800
 110433843.568 8  86052377.66347  21014859.211                    21014865.078
     -1990.164       -1550.673          52.300          44.200
 127427143.694 6                  24248588.156
      -904.703                          39.000
 117917474.997 7  91883798.00045  22438959.203                    22438966.816
     -3114.469       -2426.752          45.000          35.400
 18  2 21  8 43  0.0000000  0  8G07G05G30G02G23G09G16G06
 109444345.200 8  85281336.80147  20826567.008                    20826570.723
       826.160         644.002          50.900          42.300
 116501938.175 8  90780761.64646  22169587.273                    22169590.477
      2764.934        2154.590          50.200          37.100
 112682596.434 8  87804657.14947  21442784.563                    21442791.078
      2496.070        1945.194          52.000          42.100
 114982811.068 7  89597055.06546  21880516.844                    21880518.227
      -722.473        -562.708          47.500          37.500
 125845828.857 6  98061730.41943  23947673.117                    23947676.508
     -2916.125       -2272.258          38.900          22.200
 110493687.214 8  86099009.06547  21026247.008                    21026252.770
     -1999.395       -1557.822          52.500          43.800
 127454587.512 5  99315304.64842  24253811.195                    24253812.156
      -924.941        -720.349          34.600          16.300
 118011068.269 7  91956727.78146  22456769.422                    22456776.938
     -3125.039       -2434.920          44.400          36.100
 18  2 21  8 43 30.0000000  0  8G07G05G30G02G23G09G16G06
 109419822.509 8  85262228.21247  20821900.492                    20821904.375
       808.586         630.351          50.500          42.500
 116419121.114 8  90716228.86346  22153827.414                    22153830.813
      2756.195        2147.818          49.400          37.000
 112607924.398 8  87746471.16147  21428575.023                    21428581.652
      2481.953        1934.219          52.100          42.800
 115004755.918 7  89614154.93446  21884692.820                    21884694.133
      -740.617        -576.835          46.700          37.700
 125933357.831 6  98129934.77243  23964329.555                    23964332.754
     -2919.043       -2274.596          37.100          22.300
 110553804.368 8  86145853.59347  21037686.969                    21037692.836
     -2008.531       -1564.916          52.200          43.100
 127482633.840 5  99337158.93942  24259146.383                    24259149.473
      -945.035        -736.087          35.400          16.900
 118104973.412 7  92029900.56045  22474639.227                    22474646.645
     -3135.348       -2442.985          44.300          35.800
 18  2 21  8 44  0.0000000  0  8G07G05G30G02G23G09G16G06
 109395823.661 8  85243527.81847  20817333.656                    20817337.219
       791.199         616.736          50.800          42.600
 116336563.974 8  90651898.62246  22138117.523                    22138120.090
      2747.535        2141.051          49.200          36.900
 112533674.781 8  87688614.33447  21414445.633                    21414452.359
      2467.867        1923.240          51.900          43.400
 115027242.859 7  89631677.21446  21888971.641                    21888973.141
      -758.605        -590.873          46.800          36.500
 126020976.484 6  98198208.98743  23981002.609                    23981006.105
     -2922.152       -2276.940          37.500          22.200
 110614193.612 8  86192910.13747  21049178.602                    21049184.305
     -2017.473       -1571.954          52.100          43.400
 127511282.387 6  99359482.43742  24264598.531                    24264601.254
      -964.926        -751.682          38.600          17.800
 118199187.360 7  92103313.99045  22492568.023                    22492575.313
     -3145.582       -2450.963          45.600          35.900
 18  2 21  8 44 30.0000000  0  8G07G05G30G02G23G09G16G06
 109372349.457 8  85225236.23347  20812866.898                    20812869.918
       773.828         603.142          51.000          42.800
 116254269.232 8  90587772.83646  22122457.156                    22122460.559
      2738.879        2134.246          49.600          36.900
 112459849.799 8  87631088.39047  21400397.289                    21400403.688
      2453.836        1912.201          51.500          43.600
 115050271.736 7  89649621.77646  21893353.867                    21893355.570
      -776.477        -604.916          46.700          36.900
 126108684.299 6  98266552.72543  23997692.758                    23997696.246
     -2925.082       -2279.242          38.700          21.800
 110674854.194 8  86240178.11447  21060722.000                    21060727.551
     -2026.449       -1578.977          52.300          42.600
 127540532.282 6  99382274.50642  24270165.523                    24270167.988
      -984.832        -767.263          37.000          17.400
 118293707.577 7  92176966.08245  22510554.469                    22510561.770
     -3155.625       -2458.865          44.900          35.300
 18  2 21  8 45  0.0000000  0  8G07G05G30G02G23G09G16G06
 109349400.060 8  85207353.59347  20808499.719                    20808503.590
       756.273         589.472          50.800          42.800
 116172238.651 8  90523852.90346  22106847.391                    22106850.094
      2729.973        2127.325          49.500          37.100
 112386450.957 8  87573894.49347  21386430.211                    21386436.551
      2439.520        1901.102          52.100          43.300
 115073841.348 7  89667987.69246  21897838.891                    21897840.367
      -794.668        -618.975          47.200          36.900
 126196480.145 6  98334964.97843  24014400.602                    24014403.180
     -2927.949       -2281.512          39.700          21.100
 110735784.506 8  86287656.27647  21072316.594                    21072322.176
     -2035.543       -1585.986          53.000          43.700
 127570382.476 5  99405534.40643  24275844.898                    24275847.652
     -1004.934        -782.931          35.200          18.300
 118388530.759 7  92250854.24345  22528598.430                    22528606.234
     -3165.738       -2466.722          44.800          35.400
 18  2 21  8 45 30.0000000  0  8G07G05G30G02G23G09G16G06
 109326976.175 8  85189880.44147  20804232.188                    20804236.059
       738.801         575.877          50.800          42.300
 116090474.505 8  90460140.57546  22091288.047                    22091290.898
      2721.043        2120.406          49.800          38.100
 112313480.502 8  87517034.40447  21372544.508                    21372550.656
      2425.207        1889.974          52.200          43.500
 115097950.905 7  89686774.35646  21902427.023                    21902428.461
      -812.590        -632.970          47.600          37.600
 126284363.708 6  98403445.64543  24031124.898                    24031126.961
     -2930.797       -2283.744          39.200          21.500
 110796983.803 8  86335344.02947  21083962.313                    21083968.129
     -2044.414       -1592.949          52.900          43.400
 127600832.138 6  99429261.40743  24281639.563                    24281643.504
     -1025.016        -798.391          39.900          20.600
 118483654.374 7  92324976.50345  22546700.008                    22546707.918
     -3175.625       -2474.472          44.600          35.000
 18  2 21  8 46  0.0000000  0  8G07G05G30G02G23G09G16G06
 109305077.231 8  85172816.34247  20800065.070                    20800068.648
       721.105         562.151          50.100          42.000
 116008978.506 8  90396637.19546  22075779.805                    22075783.145
      2711.969        2113.345          49.000          37.100
 112240939.836 8  87460509.21847  21358740.523                    21358746.238
      2410.770        1878.720          51.400          42.900
 115122599.146 7  89705980.76346  21907117.742                    21907119.219
      -830.727        -647.029          47.200          37.900
 126372333.827 6  98471993.75443  24047864.805                    24047867.008
     -2933.992       -2286.086          40.000          20.400
 110858450.514 8  86383240.16747  21095658.984                    21095664.719
     -2053.465       -1599.933          52.200          43.600
 127631879.913 6  99453454.40643  24287547.531                    24287550.770
     -1044.965        -813.981          38.200          19.000
 118579075.125 7  92399330.28445  22564857.797                    22564865.832
     -3185.781       -2482.226          44.100          34.400
 18  2 21  8 46 30.0000000  0  8G07G05G30G02G23G09G16G06
 109283703.996 8  85156161.88946  20795997.703                    20796001.441
       703.699         548.533          50.800          41.700
 115927752.523 8  90333344.22146  22060323.336                    22060326.684
      2703.031        2106.382          49.900          37.600
 112168830.951 8  87404320.48447  21345018.305                    21345024.504
      2396.422        1867.509          51.900          42.300
 115147785.363 7  89725606.38446  21911910.383                    21911912.340
      -848.469        -660.953          47.700          37.500
 126460389.881 6  98540608.82843  24064621.422                    24064624.027
     -2936.723       -2288.263          39.300          21.300
 110920183.548 8  86431343.82347  21107406.641                    21107412.410
     -2062.242       -1606.814          52.300          43.400
 127663525.094 6  99478113.00643  24293568.852                    24293572.555
     -1064.762        -829.505          36.800          19.600
 118674790.160 7  92473913.39745  22583071.977                    22583079.750
     -3195.426       -2489.808          43.800          34.700
 18  2 21  8 47  0.0000000  0  8G07G05G30G02G23G09G16G06
 109262857.351 8  85139917.75946  20792030.906                    20792034.375
       686.129         534.846          51.000          41.700
 115846798.798 8  90270263.40146  22044918.109                    22044921.621
      2693.824        2099.216          50.200          37.900
 112097156.284 8  87348470.10047  21331379.305                    21331385.273
      2381.762        1856.185          52.100          42.600
 115173508.986 8  89745650.76146  21916805.656                    21916807.191
      -866.441        -674.895          48.200          38.000
 126548530.921 6  98609290.11543  24081393.984                    24081396.727
     -2939.449       -2290.460          40.500          21.100
 110982182.403 8  86479654.61147  21119204.555                    21119210.113
     -2071.020       -1613.692          52.800          43.400
 127695767.294 6  99503236.73843  24299704.844                    24299708.309
     -1084.621        -844.950          38.200          20.400
 118770797.245 7  92548724.07245  22601340.750                    22601348.617
     -3205.039       -2497.348          44.100          33.500
 18  2 21  8 47 30.0000000  0  8G07G05G30G02G23G09G16G06
 109242537.019 8  85124083.71447  20788163.938                    20788167.352
       668.543         521.164          51.000          42.000
 115766120.383 8  90207397.10346  22029565.406                    22029569.043
      2684.648        2092.051          49.000          38.100
 112025917.023 8  87292958.99747  21317822.742                    21317828.742
      2367.367        1844.865          51.200          42.300
 115199768.548 7  89766112.74846  21921802.641                    21921804.137
      -884.320        -688.810          47.900          38.600
 126636756.242 6  98678037.03443  24098182.813                    24098185.355
     -2942.379       -2292.635          39.500          21.300
 111044445.418 8  86528171.23847  21131052.805                    21131059.109
     -2079.871       -1620.579          52.200          43.700
 127728605.304 6  99528824.71443  24305954.586                    24305957.199
     -1104.547        -860.388          36.600          18.600
 118867092.879 7  92623759.58245  22619665.750                    22619674.137
     -3214.676       -2504.814          43.400          33.600
 18  2 21  8 48  0.0000000  0  8G07G05G30G02G23G09G16G06
 109222743.543 8  85108660.24247  20784397.156                    20784400.719
       650.973         507.465          50.600          42.300
 115685718.633 8  90144746.38946  22014265.273                    22014269.637
      2675.445        2084.858          49.200          38.700
 111955115.304 8  87237788.83147  21304349.406                    21304355.359
      2352.762        1833.482          50.700          42.300
 115226563.289 8  89786991.75146  21926901.867                    21926903.086
      -902.062        -702.700          48.800          38.100
 126725065.305 6  98746849.24443  24114987.984                    24114989.844
     -2944.973       -2294.787          40.700          20.400
 111106971.578 8  86576892.91647  21142950.828                    21142957.238
     -2088.547       -1627.378          52.100          43.400
 127762037.326 6  99554875.64643  24312314.906                    24312318.977
     -1124.266        -875.832          37.000          18.600
 118963674.388 7  92699017.85945  22638045.156                    22638052.297
     -3224.004       -2512.178          44.000          33.500
 18  2 21  8 48 30.0000000  0  8G07G05G30G02G23G09G16G06
 109203477.010 8  85093647.36047  20780730.883                    20780734.465
       633.512         493.866          50.500          42.400
 115605594.945 7  90082312.35946  21999017.836                    21999022.207
      2666.219        2077.676          47.900          38.100
 111884752.894 8  87182960.98247  21290959.648                    21290966.125
      2338.211        1822.120          50.700          42.100
 115253892.347 8  89808287.10146  21932102.641                    21932103.566
      -919.820        -716.492          48.600          38.500
 126813457.171 6  98815725.97643  24131807.797                    24131810.508
     -2947.687       -2296.868          41.000          20.600
 111169759.864 8  86625818.83847  21154899.430                    21154905.758
     -2097.238       -1634.100          52.400          44.300
 127796062.612 6  99581388.82343  24318791.492                    24318793.980
     -1144.051        -891.182          37.700          18.300
 119060538.894 7  92774496.65545  22656477.688                    22656484.977
     -3233.375       -2519.433          43.700          32.800
 18  2 21  8 49  0.0000000  0  8G07G05G30G02G23G09G16G06
 109184737.324 8  85079045.01147  20777165.063                    20777168.848
       615.949         480.129          50.500          42.200
 115525752.150 8  90020097.20946  21983824.313                    21983828.781
      2656.816        2070.311          48.200          38.800
 111814831.336 8  87128476.65646  21277654.227                    21277660.328
      2323.504        1810.610          50.300          41.800
 115281754.405 8  89829997.77946  21937404.086                    21937405.445
      -937.523        -730.350          48.200          38.000
 126901931.097 6  98884666.63543  24148643.609                    24148646.566
     -2950.414       -2299.030          40.600          21.300
 111232808.816 8  86674947.87947  21166897.164                    21166903.633
     -2105.910       -1640.887          52.600          44.200
 127830680.038 5  99608363.36443  24325378.711                    24325381.410
     -1163.719        -906.556          35.400          18.600
 119157683.190 7  92850193.47945  22674963.281                    22674970.691
     -3242.645       -2526.687          43.300          33.200
 18  2 21  8 49 30.0000000  0  8G07G05G30G02G23G09G16G06
 109166524.984 8  85064853.57047  20773699.430                    20773703.094
       598.270         466.456          50.300          42.000
 115446191.410 8  89958101.82946  21968684.617                    21968688.891
      2647.355        2062.969          48.900          39.200
 111745352.529 8  87074337.33347  21264432.500                    21264438.949
      2308.625        1799.096          50.400          42.200
 115310148.505 7  89852123.03746  21942806.742                    21942808.566
      -955.305        -744.150          47.800          37.200
 126990486.410 6  98953670.75243  24165495.625                    24165497.973
     -2953.148       -2301.078          40.800          19.300
 111296117.483 8  86724279.29247  21178944.445                    21178950.824
     -2114.523       -1647.593          52.700          43.700
 127865888.577 6  99635798.65243  24332077.344                    24332081.434
     -1183.453        -921.944          37.000          18.300
 119255104.515 7  92926106.16445  22693502.922                    22693509.563
     -3251.820       -2533.833          43.900          32.700
 18  2 21  8 50  0.0000000  0  8G07G05G30G02G23G09G16G06
 109148840.183 8  85051073.21347  20770334.172                    20770337.680
       580.652         452.754          50.700          42.000
 115366916.209 8  89896328.93846  21953599.258                    21953603.227
      2637.645        2055.530          49.300          39.400
 111676318.437 8  87020544.53446  21251295.672                    21251302.355
      2293.602        1787.526          51.300          41.300
 115339073.518 7  89874661.99146  21948311.313                    21948312.988
      -972.988        -757.925          47.200          36.900
 127079121.800 6  99022737.21543  24182362.586                    24182365.160
     -2955.930       -2303.237          41.600          19.600
 111359684.923 8  86773812.35147  21191040.992                    21191047.035
     -2123.332       -1654.321          52.800          43.800
 127901687.606 6  99663693.93243  24338891.289                    24338893.895
     -1203.242        -937.210          36.000          18.300
 119352800.105 7  93002232.56545  22712092.930                    22712100.375
     -3261.074       -2540.931          45.300          33.100
 18  2 21  8 50 30.0000000  0  8G07G05G30G02G23G09G16G06
 109131682.918 8  85037703.93947  20767069.258                    20767073.125
       562.938         438.964          51.500          42.000
 115287927.775 8  89834779.51446  21938567.961                    21938572.816
      2628.035        2047.986          49.300          39.400
 111607730.547 8  86967099.42847  21238244.578                    21238250.770
      2278.641        1775.860          52.300          42.800
 115368528.264 7  89897613.73646  21953915.984                    21953917.762
      -990.719        -771.753          46.800          36.700
 127167837.038 6  99091865.93443  24199244.539                    24199246.645
     -2958.598       -2305.304          41.400          19.300
 111423509.785 8  86823545.99347  21203186.266                    21203192.770
     -2131.957       -1661.062          52.400          44.200
 127938075.110 6  99692047.81443  24345815.539                    24345817.750
     -1222.754        -952.572          36.600          18.600
 119450766.885 7  93078570.28345  22730736.117                    22730742.629
     -3270.129       -2548.033          45.100          33.800
 18  2 21  8 51  0.0000000  0  8G07G05G30G02G23G09G16G06
 109115053.470 8  85024745.92947  20763904.563                    20763908.121
       545.512         425.339          50.700          42.700
 115209228.035 8  89773455.04746  21923591.828                    21923596.406
      2618.520        2040.534          49.500          39.800
 111539590.665 8  86914003.43447  21225278.148                    21225284.250
      2263.922        1764.268          52.300          42.600
 115398511.786 7  89920977.51045  21959621.742                    21959624.098
     -1008.172        -785.391          45.700          35.800
 127256631.414 6  99161056.33343  24216141.320                    24216143.930
     -2961.023       -2307.305          41.300          19.300
 111487590.987 8  86873479.38547  21215380.922                    21215387.172
     -2140.203       -1667.618          52.600          43.900
 127975050.156 6  99720859.52842  24352850.672                    24352853.191
     -1242.184        -967.693          37.400          17.800
 119549001.874 7  93155116.98845  22749428.813                    22749435.867
     -3278.855       -2554.876          45.100          33.100
 18  2 21  8 51 30.0000000  0  8G07G05G30G02G23G09G16G06
 109098951.867 8  85012199.22947  20760840.703                    20760844.102
       527.969         411.557          51.700          42.700
 115130819.156 8  89712357.22446  21908671.313                    21908675.668
      2608.793        2032.886          49.500          39.700
 111471900.509 8  86861257.86347  21212396.914                    21212403.016
      2248.883        1752.497          53.300          43.700
 115429022.628 7  89944752.16745  21965427.523                    21965429.988
     -1025.727        -799.147          44.900          35.400
 127345503.942 6  99230307.58743  24233053.000                    24233055.484
     -2963.641       -2309.412          41.700          19.000
 111551927.410 8  86923611.65347  21227623.633                    21227629.996
     -2148.766       -1674.315          52.800          43.900
 128012612.143 6  99750128.61342  24359999.383                    24360001.508
     -1261.934        -983.024          38.300          16.300
 119647502.174 7  93231870.43645  22768173.328                    22768180.371
     -3287.719       -2561.803          45.300          32.600
 18  2 21  8 52  0.0000000  0  8G07G05G30G02G23G09G16G06
 109083377.974 8  85000063.73447  20757877.227                    20757880.820
       510.055         397.872          51.100          42.700
 115052702.769 8  89651487.31846  21893806.531                    21893810.973
      2598.684        2025.293          49.400          39.900
 111404661.548 8  86808863.87847  21199602.055                    21199608.238
      2233.559        1740.779          53.400          43.700
 115460059.758 7  89968936.93645  21971333.484                    21971336.391
     -1043.648        -812.767          44.100          35.600
 127434453.762 6  99299619.12843  24249979.688                    24249981.859
     -2966.617       -2311.376          41.400          18.600
 111616517.688 8  86973941.72847  21239915.016                    21239921.340
     -2157.543       -1680.861          52.600          43.200
 128050759.050 6  99779853.43542  24367258.133                    24367261.184
     -1281.391        -998.114          36.900          17.800
 119746264.634 7  93308828.17445  22786966.867                    22786974.160
     -3296.676       -2568.529          45.100          32.100
 18  2 21  8 52 30.0000000  0  8G07G05G30G02G23G09G16G06
 109068332.110 8  84988339.68847  20755013.727                    20755017.191
       492.641         384.149          51.500          42.300
 114974881.437 8  89590847.31746  21878997.695                    21879001.922
      2588.996        2017.599          50.600          39.600
 111337875.833 8  86756823.07147  21186892.875                    21186899.145
      2218.527        1728.979          53.700          43.700
 115491622.083 7  89993530.94845  21977340.133                    21977342.395
     -1060.836        -826.397          44.300          35.800
 127523480.306 6  99368990.40843  24266921.594                    24266922.820
     -2968.891       -2313.356          41.600          18.300
 111681361.046 8  87024469.00247  21252254.266                    21252260.207
     -2165.652       -1687.424          52.900          43.800
 128089489.451 6  99810032.95742  24374628.906                    24374631.293
     -1300.668       -1013.324          37.800          16.900
 119845286.665 7  93385988.15545  22805810.227                    22805817.039
     -3305.145       -2575.253          44.500          32.300
 18  2 21  8 53  0.0000000  0  8G07G05G30G02G23G09G16G06
 109053814.258 8  84977027.08146  20752250.969                    20752254.926
       475.152         370.471          50.500          41.800
 114897357.438 8  89530439.00646  21864245.227                    21864249.453
      2579.156        2009.875          50.000          39.400
 111271544.816 8  86705136.57547  21174270.234                    21174276.773
      2203.461        1717.178          53.400          43.700
 115523708.319 7  90018533.21246  21983446.305                    21983448.242
     -1078.102        -839.948          43.300          36.500
 127612582.727 7  99438420.79142  24283877.844                    24283878.203
     -2971.129       -2315.294          42.000          17.800
 111746456.209 8  87075192.49347  21264641.375                    21264647.535
     -2173.930       -1693.914          52.200          43.800
 128128802.356 6  99840666.39642  24382109.016                    24382112.633
     -1320.187       -1028.390          37.200          16.900
 119944565.061 7  93463347.91445  22824702.063                    22824709.113
     -3313.504       -2581.842          43.200          31.500
 18  2 21  8 53 30.0000000  0  8G07G05G30G02G23G09G16G06
 109039824.577 8  84966126.03447  20749588.828                    20749592.480
       457.637         356.762          51.300          42.200
 114820132.872 8  89470264.02046  21849549.758                    21849553.785
      2569.219        2002.073          50.000          39.200
 111205670.274 8  86653805.77247  21161734.797                    21161741.246
      2188.297        1705.302          53.900          43.400
 115556317.154 7  90043942.69946  21989651.430                    21989653.895
     -1095.531        -853.509          45.000          36.800
 127701760.365 6  99507909.85143  24300846.547                    24300848.746
     -2973.730       -2317.222          41.700          19.000
 111811802.170 8  87126111.41347  21277076.484                    21277082.426
     -2182.344       -1700.432          53.400          43.900
 128168696.409 6  99871752.65042  24389700.766                    24389704.582
     -1339.414       -1043.444          38.300          17.800
 120044097.057 7  93540905.27945  22843642.523                    22843649.012
     -3321.867       -2588.376          43.500          31.000
 18  2 21  8 54  0.0000000  0  8G07G05G30G02G23G09G16G06
 109026363.162 8  84955636.61346  20747027.445                    20747030.887
       439.848         342.980          51.200          41.200
 114743209.179 8  89410323.47146  21834911.383                    21834915.176
      2559.000        1994.192          50.300          38.800
 111140253.858 8  86602831.94647  21149286.273                    21149292.594
      2172.781        1693.332          53.700          43.400
 115589447.496 7  90069758.55046  21995956.086                    21995958.328
     -1113.168        -867.088          46.200          37.900
 127791012.557 7  99577456.91943  24317831.578                    24317832.746
     -2976.398       -2319.194          42.300          19.000
 111877397.724 8  87177224.82047  21289558.930                    21289564.758
     -2190.809       -1706.942          52.600          42.900
 128209170.717 6  99903291.03742  24397402.195                    24397406.789
     -1358.996       -1058.592          36.700          16.300
 120143879.627 7  93618657.90345  22862630.250                    22862637.258
     -3330.219       -2594.900          43.400          31.000
 18  2 21  8 54 30.0000000  0  8G07G05G30G02G23G09G16G06
 109013429.687 8  84945558.58946  20744565.984                    20744569.738
       422.480         329.355          49.800          41.800
 114666588.315 8  89350618.89346  21820331.313                    21820335.000
      2549.074        1986.386          50.500          38.400
 111075296.959 8  86552216.18647  21136925.195                    21136931.750
      2157.664        1681.443          52.800          43.600
 115623098.032 7  90095979.74246  22002360.203                    22002361.961
     -1130.156        -880.513          45.100          37.900
 127880338.256 7  99647061.29643  24334829.594                    24334831.137
     -2978.543       -2321.007          42.500          18.300
 111943241.575 8  87228531.71147  21302088.750                    21302094.438
     -2198.758       -1713.274          52.100          43.400
 128250223.602 6  99935280.27942  24405214.328                    24405219.293
     -1377.996       -1073.526          37.300          16.900
 120243909.616 7  93696603.31445  22881665.469                    22881672.641
     -3338.289       -2601.212          44.500          30.400
 18  2 21  8 55  0.0000000  0  8G07G05G30G02G23G09G16G06
 109001024.263 8  84935892.02747  20742205.758                    20742209.313
       404.656         315.591          50.700          42.200
 114590272.804 8  89291152.25746  21805808.914                    21805812.406
      2538.711        1978.379          51.400          38.400
 111010801.508 8  86501959.98847  21124652.266                    21124658.820
      2142.105        1669.391          53.200          43.200
 115657267.398 7  90122605.20546  22008861.734                    22008863.641
     -1147.687        -894.024          46.900          38.500
 127969737.039 6  99716722.63943  24351841.883                    24351843.563
     -2981.254       -2322.955          41.200          19.300
 112009332.978 8  87280031.50047  21314665.445                    21314671.480
     -2207.207       -1719.752          52.400          42.900
 128291853.430 6  99967719.07542  24413137.016                    24413141.727
     -1397.422       -1088.544          37.900          15.600
 120344184.379 7  93774739.46645  22900746.734                    22900754.168
     -3346.555       -2607.584          43.400          30.200
 18  2 21  8 55 30.0000000  0  8G07G05G30G02G23G09G16G06
 108989146.767 8  84926636.84246  20739945.352                    20739948.859
       387.160         301.877          51.800          41.900
 114514264.675 8  89231925.14646  21791345.172                    21791348.715
      2528.480        1970.354          50.900          38.200
 110946768.831 8  86452064.39947  21112467.219                    21112473.531
      2126.727        1657.376          52.500          42.800
 115691954.284 7  90149633.92446  22015462.688                    22015464.750
     -1164.762        -907.448          46.700          38.400
 128059207.984 6  99786440.17143  24368867.586                    24368869.301
     -2983.551       -2324.802          41.700          19.300
 112075670.503 8  87331723.06647  21327289.094                    21327294.875
     -2215.359       -1726.133          52.600          43.300
 128334058.875 6 100000606.35742  24421168.047                    24421173.063
     -1416.191       -1103.444          37.700          16.300
 120444700.695 7  93853063.83845  22919874.609                    22919881.543
     -3354.434       -2613.814          44.700          30.300
 18  2 21  8 56  0.0000000  0  8G07G05G30G02G23G09G16G06
 108977797.299 8  84917793.09446  20737785.875                    20737789.188
       369.383         288.123          51.300          41.700
 114438566.424 8  89172939.50546  21776940.492                    21776943.832
      2518.008        1962.254          50.400          38.700
 110883200.786 8  86402530.86547  21100370.641                    21100376.867
      2111.098        1645.232          52.100          43.000
 115727157.382 7  90177064.89446  22022161.477                    22022163.453
     -1182.047        -920.866          46.600          37.700
 128148750.342 6  99856213.39143  24385907.094                    24385908.758
     -2986.059       -2326.700          41.100          20.100
 112142253.323 8  87383605.77747  21339959.016                    21339965.195
     -2223.633       -1732.525          52.700          42.800
 128376838.374 6 100033941.00342  24429308.789                    24429314.770
     -1435.922       -1118.414          37.900          15.600
 120545455.861 7  93931574.32745  22939048.008                    22939054.840
     -3362.570       -2620.027          44.200          30.900
 18  2 21  8 56 30.0000000  0  8G07G05G30G02G23G09G16G06
 108966976.301 8  84909361.15047  20735726.641                    20735729.543
       351.883         274.452          52.000          42.100
 114363180.067 8  89114196.88746  21762595.016                    21762598.191
      2507.629        1954.174          51.200          38.600
 110820099.067 8  86353360.69947  21088362.914                    21088368.695
      2095.625        1633.162          52.400          42.600
 115762875.481 7  90204897.16946  22028958.438                    22028960.504
     -1199.141        -934.170          45.200          37.600
 128238363.752 6  99926041.93943  24402959.391                    24402962.063
     -2988.223       -2328.491          39.900          19.300
 112209080.462 8  87435678.85547  21352675.914                    21352681.445
     -2231.645       -1738.805          52.800          43.300
 128420191.065 6 100067722.27242  24437558.992                    24437563.914
     -1454.437       -1133.176          36.900          14.800
 120646447.030 7  94010268.71345  22958266.070                    22958272.809
     -3370.336       -2626.066          44.700          30.900
 18  2 21  8 57  0.0000000  0  8G07G05G30G02G23G09G16G06
 108956682.904 8  84901340.31447  20733768.125                    20733770.906
       334.371         260.741          51.500          42.000
 114288107.159 8  89055698.51646  21748308.938                    21748312.438
      2497.203        1945.998          51.200          39.100
 110757464.864 8  86304554.83547  21076443.664                    21076449.504
      2080.039        1620.986          52.900          42.700
 115799106.885 7  90233129.41846  22035853.109                    22035854.539
     -1216.152        -947.507          47.300          37.300
 128328047.184 6  99995925.09343  24420025.914                    24420028.961
     -2990.609       -2330.334          39.900          19.000
 112276150.462 8  87487941.17747  21365439.180                    21365444.824
     -2239.668       -1745.103          52.600          43.100
 128464115.108 6 100101948.77942  24445917.859                    24445922.891
     -1473.488       -1148.038          37.500          16.300
 120747670.855 7  94089144.36245  22977528.570                    22977535.254
     -3377.992       -2632.088          45.100          31.600
 18  2 21  8 57 30.0000000  0  8G07G05G30G02G23G09G16G06
 108946917.093 8  84893730.60047  20731909.578                    20731912.902
       316.832         247.074          52.200          42.400
 114213349.922 8  88997446.13346  21734083.344                    21734086.480
      2486.641        1937.783          51.400          39.400
 110695299.838 8  86256114.55847  21064614.352                    21064619.902
      2064.395        1608.815          52.200          42.300
 115835850.084 7  90261760.47646  22042844.922                    22042846.828
     -1233.180        -960.759          46.400          37.600
 128417799.812 6 100065862.11143  24437105.992                    24437108.578
     -2992.949       -2332.079          37.600          19.600
 112343462.334 8  87540391.96747  21378247.938                    21378253.816
     -2247.672       -1751.358          52.500          42.900
 128508608.787 6 100136619.12342  24454384.477                    24454390.789
     -1492.707       -1162.774          36.500          13.900
 120849124.491 7  94168199.09545  22996834.711                    22996841.320
     -3385.520       -2637.978          45.000          31.500
 18  2 21  8 58  0.0000000  0  8G07G05G30G02G23G09G16G06
 108937678.792 8  84886531.92947  20730151.578                    20730154.703
       299.238         233.372          52.100          43.000
 114138909.991 8  88939440.99146  21719917.484                    21719921.008
      2476.082        1929.543          51.500          39.600
 110633605.503 8  86208041.05847  21052874.328                    21052879.633
      2048.625        1596.568          52.200          43.000
 115873104.070 7  90290789.53746  22049934.234                    22049936.035
     -1250.215        -974.008          46.700          37.500
 128507621.164 6 100135852.71043  24454197.625                    24454200.977
     -2995.078       -2333.832          38.100          19.900
 112411014.957 8  87593030.35747  21391102.805                    21391108.770
     -2255.711       -1757.585          52.700          43.200
 128553670.570 6 100171732.28442  24462961.133                    24462965.129
     -1511.609       -1177.462          36.400          16.300
 120950804.961 7  94247430.58845  23016184.273                    23016190.648
     -3393.094       -2643.841          45.700          31.500
 18  2 21  8 58 30.0000000  0  9G07G13G05G30G02G23G09G16G06
 108928968.041 8  84879744.33747  20728493.703                    20728496.992
       281.547         219.586          52.600          42.500
 129652472.884 6 101027802.96243  24672018.492                    24672022.504
      3300.535        2571.813          39.800          19.900
 114064789.315 8  88881684.62646  21705813.211                    21705816.648
      2465.375        1921.152          52.200          40.400
 110572383.309 8  86160335.46447  21041223.938                    21041229.371
      2032.891        1584.212          52.100          43.100
 115910867.311 7  90320215.42046  22057120.344                    22057122.422
     -1267.332        -987.280          46.800          37.500
 128597510.141 6 100205896.00243  24471303.148                    24471306.637
     -2997.395       -2335.627          38.400          18.600
 112478807.194 8  87645855.45247  21404003.313                    21404009.133
     -2263.691       -1763.862          52.400          42.200
 128599299.243 6 100207287.01642  24471641.461                    24471648.551
     -1530.410       -1192.299          36.200          13.900
 121052709.207 7  94326836.44445  23035575.789                    23035582.707
     -3400.363       -2649.672          45.600          32.000
 18  2 21  8 59  0.0000000  0  9G07G13G05G30G02G23G09G16G06
 108920784.719 8  84873367.73347  20726936.609                    20726940.188
       264.012         205.919          52.100          42.600
 129553501.658 6 100950682.54043  24653184.180                    24653188.879
      3297.641        2569.601          39.300          20.900
 113990990.883 8  88824179.36446  21691770.125                    21691773.461
      2454.566        1912.753          53.200          41.000
 110511634.974 8  86112999.10547  21029664.078                    21029669.523
      2017.012        1571.908          52.800          42.100
 115949138.330 7  90350036.97046  22064403.328                    22064404.746
     -1284.156       -1000.425          47.000          37.600
 128687466.620 6 100275991.94242  24488421.203                    24488425.449
     -2999.664       -2337.431          38.800          17.400
 112546838.165 8  87698866.57947  21416949.508                    21416955.156
     -2271.680       -1770.050          52.300          42.500
 128645493.418 5 100243282.43142  24480433.516                    24480438.902
     -1549.332       -1206.915          35.500          14.800
 121154834.532 7  94406414.58345  23055009.781                    23055016.176
     -3407.758       -2655.359          46.700          32.300
 18  2 21  8 59 30.0000000  0  9G07G13G05G30G02G23G09G16G06
 108913128.438 8  84867401.80947  20725479.359                    20725483.016
       246.277         192.234          52.600          42.100
 129454615.582 6 100873628.55443  24634367.039                    24634371.730
      3294.629        2567.382          39.100          20.900
 113917517.063 8  88766927.03346  21677788.359                    21677791.359
      2443.551        1904.312          53.200          41.100
 110451361.884 8  86066033.06347  21018194.273                    21018200.070
      2001.063        1559.542          52.800          42.700
 115987915.596 7  90380253.00746  22071783.148                    22071783.918
     -1301.094       -1013.553          47.000          37.700
 128777489.786 6 100346139.75642  24505552.203                    24505555.816
     -3001.879       -2339.076          37.600          17.800
 112615106.719 8  87752062.83247  21429940.492                    21429946.309
     -2279.668       -1776.193          51.800          42.700
 128692251.037 5                  24489330.531
     -1568.215                          33.200
 121257177.830 7  94486162.56245  23074485.234                    23074491.828
     -3415.176       -2660.992          47.200          32.500
                            4  1
RINEX FILE SPLICE; other post-header comments skipped       COMMENT
 18  2 21  9  0  0.0000000  0  9G07G13G05G30G02G23G09G16G06
 108905999.152 8  84861846.52947  20724122.563                    20724126.867
       228.785                          52.300          42.600
 129355815.647 6 100796641.61643  24615565.500                    24615571.113
      3291.828                          37.000          19.300
 113844369.484 8  88709928.92146  21663869.109                    21663872.449
      2432.754                          53.100          41.500
 110391565.649 8  86019438.59747  21006815.953                    21006821.566
      1985.184                          53.000          42.400
 116027197.661 7  90410862.40046  22079258.109                    22079259.379
     -1317.801                          47.000          38.400
 128867578.612 6 100416338.78642  24522695.461                    24522700.219
     -3003.750                          36.500          17.400
 112683611.835 8  87805443.42647  21442976.734                    21442981.922
     -2287.449                          51.800          42.500
 128739570.554 5                  24498333.883
     -1586.594                          31.200
 121359736.215 7  94566078.12945  23094001.344                    23094007.586
     -3422.234                          46.200          33.000
 18  2 21  9  0 30.0000000  0  9G07G13G05G30G02G23G09G16G06
 108899396.761 8  84856701.82047  20722866.359                    20722870.184
       211.195         164.880          52.100          42.600
 129257102.660 6 100719722.43843  24596780.414                    24596786.328
      3288.953        2562.885          37.000          18.300
 113771549.455 8  88653186.04346  21650011.445                    21650014.902
      2421.762        1887.299          52.900          40.900
 110332247.618 8  85973216.75047  20995527.680                    20995534.152
      1969.238        1534.705          52.700          43.100
 116066983.260 7  90441864.15346  22086828.961                    22086830.141
     -1334.586       -1039.705          46.800          38.700
 128957732.758 6 100486588.72742  24539850.336                    24539855.832
     -3006.242       -2342.471          37.100          17.400
 112752352.410 8  87859007.49247  21456057.578                    21456063.285
     -2295.340       -1788.416          52.100          42.300
 128787450.586 5                  24507443.758
     -1605.613                          32.300
 121462506.669 7  94646158.95645  23113558.367                    23113564.820
     -3429.199       -2671.987          46.600          33.000
 18  2 21  9  1  0.0000000  0  9G07G13G05G30G02G23G09G16G06
 108893320.793 8  84851967.29547  20721710.211                    20721714.184
       193.766         151.205          51.900          42.600
 129158477.013 5 100642871.26242  24578011.953                    24578018.090
      3286.031        2560.621          35.500          17.800
 113699059.872 8  88596700.64346  21636217.242                    21636220.672
      2410.691        1878.674          53.000          41.900
 110273409.244 8  85927368.66147  20984331.195                    20984337.363
      1953.199        1522.223          53.000          42.900
 116107270.460 7  90473256.77546  22094495.156                    22094497.027
     -1351.379       -1052.725          47.500          37.900
 129047951.527 5 100556888.95242  24557018.813                    24557023.980
     -3008.477       -2344.161          35.400          17.400
 112821327.318 8  87912754.16247  21469182.891                    21469188.379
     -2303.070       -1794.485          52.000          42.000
 128835889.834 5                  24516663.664
     -1623.937                          33.100
 121565486.213 7  94726402.70145  23133154.555                    23133161.344
     -3436.148       -2677.395          46.900          33.600
 18  2 21  9  1 30.0000000  0  9G07G13G05G30G02G23G09G16G06
 108887771.181 8  84847642.91747  20720653.961                    20720658.035
       176.320         137.531          51.100          42.800
 129059939.795 5 100566089.07342  24559261.172                    24559267.195
      3282.953        2558.286          34.800          16.300
 113626902.378 8  88540474.02346  21622486.305                    21622489.836
      2399.703        1870.015          53.300          41.800
 110215051.829 8  85881895.33547  20973226.094                    20973232.250
      1937.195        1509.719          52.700          43.500
 116148057.633 7  90505038.98046  22102256.320                    22102258.738
     -1367.844       -1065.699          45.300          38.700
 129138234.102 5 100627238.96742  24574198.836                    24574203.656
     -3010.367       -2345.827          34.000          17.800
 112890535.415 8  87966682.52846  21482352.945                    21482358.133
     -2310.730       -1800.536          50.500          41.800
 128884885.493 5                  24525987.633
     -1642.398                          32.300
 121668671.749 7  94806806.95645  23152790.094                    23152796.883
     -3442.918       -2682.719          46.300          33.300
 18  2 21  9  2  0.0000000  0  9G07G13G05G30G02G23G09G16G06
 108882747.039 8  84843727.99847  20719698.023                    20719702.242
       158.723         123.930          51.600          42.100
 128961491.400 5 100489376.07342  24540526.977                    24540533.137
      3280.129        2556.069          34.500          17.400
 113555079.335 8  88484508.01347  21608818.914                    21608822.246
      2388.516        1861.361          53.000          42.600
 110157176.591 8  85836797.74847  20962213.086                    20962219.035
      1921.199        1497.235          52.300          43.800
 116189343.353 7  90537209.66746  22110113.094                    22110115.160
     -1384.492       -1078.576          46.200          37.900
 129228579.309 5 100697637.75542  24591391.680                    24591396.004
     -3012.727       -2347.449          33.100          16.300
 112959975.392 8  88020791.59046  21495566.867                    21495572.738
     -2318.453       -1806.486          51.900          41.300
 128934436.238 5                  24535417.898
     -1661.023                          31.300
 121772060.105 7  94887369.26245  23172464.492                    23172471.633
     -3449.566       -2687.897          46.500          33.400
 18  2 21  9  2 30.0000000  0  9G07G13G05G30G02G23G09G16G06
 108878248.601 8  84840222.71247  20718841.945                    20718846.066
       141.086         110.198          51.700          42.200
 128863132.786 6 100412733.03043  24521809.992                    24521816.070
      3276.949        2553.573          36.600          18.300
 113483592.856 8  88428804.25646  21595215.641                    21595219.039
      2377.098        1852.502          53.200          41.900
 110099785.130 8  85792077.11647  20951291.898                    20951297.766
      1904.844        1484.570          52.300          43.700
 116231126.042 7  90569767.59646  22118063.859                    22118066.102
     -1401.125       -1091.534          45.200          38.100
 129318986.747 5 100768085.00742  24608595.336                    24608600.238
     -3014.715       -2349.049          34.600          17.400
 113029646.416 8  88075080.68146  21508824.969                    21508830.262
     -2326.297       -1812.572          50.800          41.600
 128984540.753 5                  24544952.078
     -1679.457                          31.600
 121875648.521 7  94968087.45845  23192176.461                    23192183.438
     -3456.309       -2693.114          45.900          33.600
 18  2 21  9  3  0.0000000  0  9G07G13G05G30G02G23G09G16G06
 108874275.489 8  84837126.77547  20718086.047                    20718090.148
       123.777          96.623          50.900          43.100
 128764864.846 5 100336160.62942  24503110.867                    24503116.625
      3274.324        2551.269          34.900          17.400
 113412444.836 8  88373364.24346  21581676.117                    21581679.863
      2365.957        1843.740          52.700          41.300
 110042878.840 8  85747734.55447  20940463.086                    20940469.141
      1888.875        1471.993          52.500          44.300
 116273404.083 7  90602711.51146  22126109.023                    22126111.328
     -1417.480       -1104.342          45.800          37.200
 129409455.576 5 100838580.14642  24625810.414                    24625815.117
     -3016.641       -2350.594          34.700          16.300
 113099547.434 8  88129548.99446  21522126.672                    21522132.277
     -2333.762       -1818.472          51.200          41.700
 129035196.684 5                  24554590.539
     -1697.637                          31.200
 121979434.051 7  95048959.24845  23211926.781                    23211933.957
     -3462.641       -2698.167          46.000          33.400
 18  2 21  9  3 30.0000000  0  9G07G13G05G30G02G23G09G16G06
 108870827.522 8  84834440.03747  20717430.117                    20717434.164
       106.090          82.953          51.000          42.500
 128666688.444 6 100259659.55842  24484428.883                    24484434.031
      3270.891        2548.862          37.400          16.900
 113341637.424 8  88318189.63346  21568202.219                    21568205.391
      2354.551        1834.862          52.300          41.300
 109986459.249 8  85703771.23647  20929726.539                    20929732.660
      1872.449        1459.321          52.900          43.800
 116316176.013 7  90636040.25646  22134247.883                    22134250.137
     -1433.996       -1117.152          44.700          37.800
 129499985.505 5 100909122.82342  24643038.453                    24643042.066
     -3018.758       -2352.226          35.900          16.300
 113169677.539 8  88184195.80847  21535471.828                    21535477.461
     -2341.457       -1824.425          51.200          42.000
 129086403.094 4                  24564333.695
     -1715.730                          27.600
 122083413.872 7  95129982.42445  23231713.156                    23231720.309
     -3469.270       -2703.187          45.600          32.700
 18  2 21  9  4  0.0000000  0  9G07G13G05G30G02G23G09G16G06
 108867904.322 8  84832162.21447  20716873.688                    20716877.703
        88.668          69.348          50.300          42.700
 128568603.990 5 100183230.06342  24465764.344                    24465768.703
      3267.848        2546.479          34.000          16.300
 113271172.292 8  88263281.74146  21554792.961                    21554795.906
      2343.070        1825.933          52.700          41.500
 109930527.478 8  85660188.04147  20919083.188                    20919089.145
      1856.207        1446.625          52.800          44.300
 116359439.744 7  90669752.22346  22142481.109                    22142483.008
     -1450.348       -1129.900          44.900          36.900
 129590575.848 5 100979712.62042  24660277.047                    24660280.820
     -3020.703       -2353.741          35.300          16.300
 113240035.490 8  88239020.16246  21548860.539                    21548865.938
     -2349.129       -1830.341          51.300          41.700
 129138157.905 5                  24574184.656
     -1734.508                          31.600
 122187584.781 7  95211154.51845  23251536.219                    23251543.699
     -3475.547       -2708.120          46.100          33.700
 18  2 21  9  4 30.0000000  0  7G07G13G05G30G02G09G06
 108865504.288 8  84830292.05447  20716416.867                    20716420.465
        71.207          55.734          51.000          43.100
 128470611.530 6 100106872.41643  24447116.852                    24447120.621
      3264.707        2544.047          38.300          18.300
 113201050.898 8  88208641.69546  21541449.031                    21541452.336
      2331.559        1816.986          52.700          40.900
 109875084.167 8  85616985.45947  20908532.891                    20908538.602
      1839.863        1433.920          52.700          44.500
 116403193.148 7  90703845.75345  22150807.352                    22150808.656
     -1466.719       -1142.614          45.300          35.800
 113310619.482 8  88294020.65447  21562292.242                    21562297.684
     -2356.617       -1836.191          51.700          42.100
 122291943.103 7  95292472.64745  23271394.984                    23271402.824
     -3481.793       -2712.936          45.600          32.700
 18  2 21  9  5  0.0000000  0  7G07G13G05G30G02G09G06
 108863628.108 8  84828830.09447  20716059.695                    20716063.648
        53.770          42.170          51.700          42.700
 128372713.031 6 100030587.90043  24428487.063                    24428491.949
      3261.707        2541.638          37.000          18.600
 113131276.081 8  88154271.70646  21528171.594                    21528174.961
      2320.000        1807.973          52.700          41.100
 109820131.147 8  85574164.93847  20898075.430                    20898081.746
      1823.527        1421.199          52.400          43.900
 116447434.921 7  90738319.82545  22159226.445                    22159227.277
     -1482.918       -1155.232          46.000          35.300
 113381429.021 8  88349196.90046  21575766.836                    21575772.461
     -2364.094       -1842.014          51.200          41.800
 122396486.405 7  95373934.91745  23291288.336                    23291297.098
     -3487.879       -2717.697          44.700          32.900
 18  2 21  9  5 30.0000000  0  7G07G13G05G30G02G09G06
 108862275.498 8  84827776.10947  20715802.711                    20715806.137
        36.266          28.578          52.200          42.600
 128274909.072 6  99954377.14143  24409876.117                    24409879.926
      3258.406        2539.137          39.400          20.400
 113061850.615 8  88100173.93846  21514960.445                    21514963.590
      2308.289        1798.874          52.400          40.600
 109765669.972 8  85531727.66647  20887711.805                    20887717.809
      1807.086        1408.396          52.800          44.500
 116492163.664 7  90773173.36745  22167737.336                    22167738.633
     -1499.145       -1167.872          45.000          35.300
 113452463.287 8  88404548.26246  21589284.086                    21589289.672
     -2371.652       -1847.843          51.700          41.400
 122501211.946 7  95455539.19245  23311217.289                    23311225.902
     -3493.918       -2722.387          43.900          32.800
 18  2 21  9  6  0.0000000  0  7G07G13G05G30G02G09G06
 108861446.528 8  84827130.15447  20715644.820                    20715648.348
        19.063          14.985          51.100          42.400
 128177200.802 6  99878240.85942  24391281.492                    24391285.918
      3255.652        2536.702          36.900          17.400
 112992776.658 8  88046350.08446  21501816.031                    21501819.238
      2296.723        1789.715          51.800          41.400
 109711702.472 8  85489675.07947  20877442.055                    20877447.996
      1790.828        1395.571          52.500          44.700
 116537378.336 7  90808405.54245  22176341.711                    22176342.906
     -1515.113       -1180.466          45.000          34.600
 113523721.782 8  88460074.33646  21602844.359                    21602850.125
     -2378.863       -1853.650          51.800          41.700
 122606117.269 7  95537283.55545  23331179.477                    23331188.867
     -3499.664       -2727.014          43.900          32.200
 18  2 21  9  6 30.0000000  0  7G07G13G05G30G02G09G06
 108861140.557 8  84826891.72146  20715586.141                    20715590.297
         1.367           1.333          51.500          41.400
 128079588.895 6  99802179.63542  24372706.914                    24372710.887
      3251.973        2534.108          40.200          17.800
 112924056.021 8  87992801.54546  21488738.719                    21488742.227
      2284.617        1780.444          52.700          40.900
 109658229.473 8  85448007.80647  20867266.555                    20867273.074
      1774.102        1382.656          52.900          44.600
 116583076.794 7  90844014.70545  22185037.750                    22185038.773
     -1531.410       -1193.083          45.400          34.600
 113595203.042 8  88515773.99847  21616446.867                    21616452.727
     -2386.562       -1859.494          51.700          42.600
 122711199.022 7  95619165.38245  23351176.359                    23351185.254
     -3505.742       -2731.618          44.500          32.800
 18  2 21  9  7  0.0000000  0  7G07G13G05G30G02G09G06
 108861358.184 8  84827061.30147  20715627.648                    20715631.570
       -15.922         -12.225          51.800          42.000
 127982075.292 6  99726195.11443  24354151.469                    24354154.625
      3248.926        2531.593          40.600          19.300
 112855691.411 8  87939530.43446  21475729.625                    21475733.031
      2272.949        1771.243          52.400          41.200
 109605253.502 8  85406727.83447  20857185.625                    20857192.090
      1757.672        1369.761          51.900          44.800
 116629258.321 7  90880000.28645  22193825.914                    22193827.004
     -1547.422       -1205.568          45.200          34.200
 113666907.260 8  88571647.39947  21630091.594                    21630098.004
     -2393.824       -1865.231          52.500          42.300
 122816455.466 7  95701183.35545  23371205.820                    23371214.938
     -3511.328       -2736.090          43.800          32.200
 18  2 21  9  7 30.0000000  0  7G07G13G05G30G02G09G06
 108862096.624 8  84827636.70847  20715768.156                    20715771.938
       -33.352         -25.744          51.500          42.700
 127884658.684 6  99650286.07443  24335613.172                    24335617.199
      3245.609        2528.984          41.800          21.700
 112787682.458 8  87886536.44646  21462788.164                    21462791.723
      2260.945        1761.936          53.200          40.800
 109552773.521 8  85365834.34747  20847199.109                    20847205.250
      1741.043        1356.846          52.800          45.200
 116675918.976 7  90916359.21845  22202705.063                    22202706.141
     -1563.449       -1218.021          45.100          34.000
 113738831.176 8  88627691.98547  21643778.219                    21643784.695
     -2401.230       -1870.931          52.100          42.500
 122921881.420 7  95783333.40045  23391268.031                    23391276.547
     -3517.047       -2740.471          44.700          32.100
 18  2 21  9  8  0.0000000  0  7G07G13G05G30G02G09G06
 108863357.205 8  84828618.98247  20716008.445                    20716011.977
       -50.719         -39.315          52.600          42.600
 127787340.804 7  99574454.03243  24317094.594                    24317098.199
      3242.441        2526.426          42.400          20.900
 112720033.939 8  87833823.30946  21449914.711                    21449918.469
      2248.879        1752.558          52.500          41.500
 109500792.019 8  85325329.28047  20837307.547                    20837313.730
      1724.379        1343.885          53.100          45.200
 116723058.331 7  90953091.14945  22211675.383                    22211676.781
     -1579.375       -1230.433          45.600          34.700
 113810975.006 8  88683907.93247  21657506.805                    21657513.012
     -2408.504       -1876.633          52.300          42.300
 123027475.066 7  95865614.12445  23411361.469                    23411370.465
     -3522.547       -2744.766          43.900          32.300
 18  2 21  9  8 30.0000000  0  7G07G13G05G30G02G09G06
 108865137.485 8  84830006.21147  20716346.984                    20716350.648
       -68.145         -52.792          51.500          42.900
 127690121.363 7  99498698.59743  24298594.078                    24298597.992
      3238.832        2523.899          42.300          21.500
 112652746.016 8  87781391.16946  21437110.289                    21437113.965
      2236.785        1743.162          53.400          41.900
 109449308.920 8  85285212.58347  20827510.438                    20827516.805
      1707.664        1330.922          52.400          45.300
 116770673.367 7  90990193.74645  22220736.680                    22220738.227
     -1595.277       -1242.758          45.500          35.100
 113883336.440 8  88740293.45247  21671276.773                    21671283.379
     -2415.793       -1882.273          52.000          42.600
 123133232.283 7  95948022.29945  23431486.094                    23431495.406
     -3528.004       -2748.997          43.900          31.300
 18  2 21  9  9  0.0000000  0  7G07G13G05G30G02G09G06
 108867436.852 8  84831797.93347  20716784.594                    20716787.957
       -85.301         -66.306          52.200          42.600
 127593000.589 6  99423020.08843  24280112.133                    24280115.879
      3235.672        2521.314          41.000          20.100
 112585820.100 8  87729241.10746  21424375.078                    21424378.340
      2224.684        1733.718          52.700          40.900
 109398325.039 8  85245484.89747  20817808.453                    20817814.695
      1691.039        1317.916          52.700          45.600
 116818761.614 7  91027665.08745  22229887.500                    22229889.086
     -1610.883       -1255.027          46.300          35.400
 113955914.080 8  88796847.43847  21685088.000                    21685094.297
     -2422.918       -1887.890          52.500          42.300
 123239149.650 7  96030555.26845  23451642.133                    23451651.008
     -3533.336       -2753.157          43.900          30.300
 18  2 21  9  9 30.0000000  0  7G07G13G05G30G02G09G06
 108870255.873 8  84833994.56847  20717321.125                    20717324.703
      -102.586         -79.717          51.600          42.500
 127495980.543 7  99347420.03943  24261650.609                    24261654.078
      3232.289        2518.729          42.800          22.200
 112519259.218 8  87677375.48547  21411708.688                    21411712.488
      2212.582        1724.264          52.900          42.200
 109347842.582 8  85206147.91747  20808201.758                    20808208.148
      1674.391        1304.951          52.000          45.500
 116867322.339 7  91065504.56845  22239128.445                    22239129.945
     -1626.523       -1267.225          46.700          35.200
 114028707.945 8  88853569.90246  21698940.055                    21698946.473
     -2430.027       -1893.426          51.800          41.800
 123345225.212 7  96113211.50645  23471828.102                    23471836.652
     -3538.398       -2757.127          43.900          31.700
 18  2 21  9 10  0.0000000  0  7G07G13G05G30G02G09G06
 108873595.126 8  84836596.58047  20717956.688                    20717960.426
      -119.957         -93.261          52.000          42.500
 127399062.647 7  99271899.69744  24243208.008                    24243211.602
      3228.852        2516.050          43.200          24.300
 112453066.407 8  87625796.68146  21399112.430                    21399116.340
      2200.336        1714.681          52.800          41.800
 109297863.772 8  85167203.40247  20798691.203                    20798697.273
      1657.602        1291.816          51.100          45.300
 116916355.006 7  91103711.80546  22248458.773                    22248461.023
     -1642.262       -1279.472          46.200          36.600
 114101718.072 8  88910460.89846  21712833.289                    21712839.758
     -2437.250       -1899.065          49.100          41.300
 123451457.144 7  96195989.58945  23492042.992                    23492051.637
     -3543.699       -2761.206          42.200          30.700
 18  2 21  9 10 30.0000000  0  7G07G13G05G30G02G09G06
 108877453.139 8  84839602.82147  20718690.820                    20718694.813
      -137.336        -106.723          51.700          43.400
 127302247.685 6  99196459.51443  24224784.609                    24224788.508
      3225.305        2513.345          41.100          23.200
 112387243.404 8  87574506.03546  21386587.047                    21386590.508
      2187.828        1705.018          52.700          41.600
 109248389.172 8  85128651.77047  20789276.523                    20789282.582
      1640.633        1278.697          51.500          45.100
 116965856.641 7  91142284.46946  22257879.188                    22257880.910
     -1658.016       -1291.642          47.000          36.800
 114174942.861 8  88967519.16146  21726767.383                    21726773.613
     -2444.535       -1904.646          49.900          41.400
 123557841.911 7  96278886.76744  23512287.211                    23512295.352
     -3548.781       -2765.150          42.900          29.900
 18  2 21  9 11  0.0000000  0  7G07G13G05G30G02G09G06
 108881829.436 8  84843012.91847  20719523.336                    20719527.449
      -154.531        -120.173          51.100          42.300
 127205536.137 7  99121099.94544  24206381.219                    24206385.465
      3222.094        2510.700          43.200          24.700
 112321792.596 8  87523505.41346  21374131.477                    21374135.949
      2175.484        1695.331          51.900          41.800
 109199419.899 8  85090493.89947  20779957.758                    20779964.227
      1623.945        1265.574          52.500          44.800
 117015825.775 7  91181221.42245  22267387.781                    22267389.793
     -1673.328       -1303.742          46.800          35.900
 114248381.327 8  89024743.92046  21740742.523                    21740748.344
     -2451.551       -1910.166          50.300          40.700
 123664376.468 7  96361900.65944  23532560.227                    23532568.523
     -3553.555       -2768.974          43.600          28.500
 18  2 21  9 11 30.0000000  0  7G07G13G05G30G02G09G06
 108886722.933 8  84846826.05347  20720454.656                    20720458.637
      -171.727        -133.598          51.800          42.400
 127108928.485 6  99045821.31543  24187996.844                    24188000.816
      3218.668        2507.980          40.300          22.300
 112256715.121 8  87472795.70446  21361747.922                    21361751.461
      2163.047        1685.611          52.700          41.100
 109150956.472 8  85052730.19147  20770735.578                    20770741.543
      1606.961        1252.412          52.300          44.900
 117066259.864 7  91220520.69045  22276985.359                    22276986.801
     -1688.871       -1315.806          46.400          35.600
 114322031.808 8  89082133.88846  21754757.430                    21754763.207
     -2458.480       -1915.678          50.000          40.700
 123771057.280 7  96445028.54044  23552861.727                    23552869.520
     -3558.441       -2772.745          44.700          29.100
 18  2 21  9 12  0.0000000  0  7G07G13G05G30G02G09G06
 108892132.979 8  84851041.67546  20721484.047                    20721487.988
      -188.855        -146.952          51.500          41.900
 127012425.306 7  98970624.14044  24169633.008                    24169635.891
      3214.992        2505.303          43.900          24.800
 112192012.921 8  87422378.40546  21349435.289                    21349439.270
      2150.484        1675.908          52.200          41.400
 109102999.955 8  85015361.47647  20761609.664                    20761615.953
      1590.164        1239.319          51.900          45.000
 117117156.787 7  91260180.59945  22286669.984                    22286672.047
     -1704.187       -1327.734          45.500          35.800
 114395893.374 8  89139688.33546  21768813.148                    21768818.074
     -2465.480       -1921.074          49.900          39.700
 123877881.409 7  96528268.07644  23573188.930                    23573197.230
     -3563.047       -2776.373          44.900          29.300
 18  2 21  9 12 30.0000000  0  7G07G13G05G30G02G09G06
 108898059.753 8  84855659.93547  20722611.938                    20722615.574
      -206.133        -160.407          51.900          42.100
 126916027.465 6  98895509.00744  24151288.078                    24151292.727
      3211.539        2502.505          40.700          25.500
 112127688.526 8  87372255.50846  21337194.758                    21337198.563
      2137.863        1666.000          51.900          41.400
 109055551.663 8  84978388.77547  20752580.523                    20752586.719
      1573.137        1226.035          52.000          44.700
 117168514.820 7  91300199.80045  22296442.859                    22296444.879
     -1719.586       -1339.745          45.500          35.400
 114469965.163 8  89197406.60546  21782908.258                    21782913.984
     -2472.602       -1926.574          50.200          39.200
 123984846.126 7  96611617.16944  23593543.172                    23593551.730
     -3567.703       -2780.027          44.100          29.400
 18  2 21  9 13  0.0000000  0  7G07G13G05G30G02G09G06
 108904501.530 8  84860679.51147  20723837.766                    20723841.520
      -223.422        -173.784          52.100          42.300
 126819735.473 7  98820476.35444  24132965.180                    24132969.039
      3207.969        2499.782          42.600          25.500
 112063743.532 8  87322428.24046  21325026.305                    21325030.387
      2125.031        1656.139          52.100          41.300
 109008612.431 8  84941812.75147  20743648.367                    20743654.438
      1556.074        1212.806          53.400          44.600
 117220331.893 7  91340576.67345  22306303.469                    22306305.418
     -1735.012       -1351.656          44.700          35.000
 114544246.061 8  89255287.80246  21797043.359                    21797049.492
     -2479.672       -1931.998          50.300          38.900
 124091948.286 7  96695073.35644  23613924.180                    23613932.633
     -3572.344       -2783.569          43.200          29.600
 18  2 21  9 13 30.0000000  0  7G07G13G05G30G02G09G06
 108911458.068 8  84866100.19047  20725161.422                    20725165.293
      -240.414        -187.189          51.400          42.600
 126723550.194 6  98745526.86144  24114661.320                    24114665.641
      3204.391        2496.913          39.700          25.400
 112000179.874 8  87272898.10446  21312930.789                    21312934.395
      2112.430        1646.160          52.100          41.600
 108962183.534 8  84905634.39347  20734813.352                    20734819.047
      1539.184        1199.498          53.100          45.000
 117272606.275 7  91381309.87645  22316251.305                    22316252.695
     -1749.973       -1363.544          45.300          34.500
 114618735.182 8  89313331.25946  21811218.414                    21811223.637
     -2486.312       -1937.420          50.400          38.900
 124199185.111 7  96778634.48745  23634330.680                    23634340.082
     -3576.770       -2787.076          42.300          30.400
 18  2 21  9 14  0.0000000  0  7G07G13G05G30G02G09G06
 108918929.239 8  84871921.88447  20726583.352                    20726586.980
      -257.648        -200.511          51.500          43.000
 126627473.518 7  98670661.96744  24096378.172                    24096382.391
      3200.766        2494.124          42.000          24.100
 111937000.657 8  87223667.54246  21300908.063                    21300912.066
      2099.512        1636.200          51.700          41.500
 108916266.297 8  84869854.71947  20726075.727                    20726081.180
      1522.051        1186.229          53.400          45.100
 117325336.606 7  91422398.38345  22326285.102                    22326286.543
     -1765.332       -1375.331          45.300          34.300
 114693431.960 8  89371536.51946  21825432.789                    21825437.859
     -2493.410       -1942.760          50.300          38.400
 124306554.029 7  96862298.52644  23654762.852                    23654770.883
     -3581.070       -2790.435          42.000          28.700
 18  2 21  9 14 30.0000000  0  7G07G13G05G30G02G09G06
 108926913.528 8  84878143.40547  20728102.250                    20728106.586
      -274.832        -213.844          52.000          42.100
 126531505.055 6  98595881.42644  24078116.359                    24078120.082
      3197.059        2491.298          41.000          24.700
 111874206.905 8  87174737.34746  21288958.859                    21288962.484
      2086.570        1626.131          51.900          41.600
 108870861.024 8  84834473.99547  20717435.039                    20717440.984
      1504.883        1172.917          52.600          44.700
 117378519.589 7  91463839.59545  22336405.664                    22336407.074
     -1780.406       -1387.054          44.500          34.700
 114768334.637 8  89429902.22446  21839686.438                    21839691.336
     -2500.285       -1948.119          50.700          38.300
 124414051.361 6  96946062.63644  23675219.000                    23675227.086
     -3585.516       -2793.729          40.900          28.800
 18  2 21  9 15  0.0000000  0  7G07G13G05G30G02G09G06
 108935410.619 8  84884764.51847  20729719.477                    20729723.387
      -291.793        -227.128          52.100          42.100
 126435645.761 6  98521185.93344  24059874.133                    24059878.500
      3193.520        2488.480          41.300          25.600
 111811800.893 8  87126109.27846  21277083.555                    21277087.313
      2073.723        1616.064          52.700          41.500
 108825968.919 9  84799493.13147  20708892.453                    20708898.266
      1487.801        1159.588          54.000          45.000
 117432153.805 7  91505632.42745  22346611.914                    22346613.480
     -1795.281       -1398.730          45.500          34.400
 114843442.470 8  89488427.78646  21853978.836                    21853983.578
     -2506.926       -1953.404          50.900          38.100
 124521674.354 6  97029924.67244  23695698.930                    23695706.930
     -3589.402       -2796.930          41.600          29.100
 18  2 21  9 15 30.0000000  0  7G07G13G05G30G02G09G06
 108944419.442 8  84891784.36847  20731434.016                    20731437.402
      -308.930        -240.429          51.900          42.200
 126339896.528 6  98446576.24144  24041654.836                    24041658.648
      3189.691        2485.582          41.100          25.800
 111749784.811 8  87077785.05546  21265281.703                    21265285.957
      2060.609        1605.871          51.400          41.700
 108781590.879 9  84764912.84347  20700447.898                    20700453.203
      1470.625        1146.199          54.500          44.700
 117486237.234 7  91547775.29145  22356904.336                    22356905.316
     -1810.336       -1410.391          45.800          35.300
 114918754.395 8  89547112.38246  21868310.352                    21868315.801
     -2513.906       -1958.731          51.400          38.600
 124629420.054 6  97113882.30945  23716202.305                    23716210.348
     -3593.691       -2800.116          41.300          31.200
 18  2 21  9 16  0.0000000  0  7G07G13G05G30G02G09G06
 108953939.713 8  84899202.75347  20733245.406                    20733249.520
      -325.937        -253.714          51.500          42.000
 126244257.645 7  98372052.51444  24023454.805                    24023458.984
      3185.961        2482.694          42.500          25.300
 111688160.713 8  87029766.26547  21253555.195                    21253559.035
      2047.477        1595.669          51.300          42.000
 108737727.960 8  84730733.95347  20692100.727                    20692106.375
      1453.422        1132.786          53.800          44.900
 117540767.473 7  91590266.33545  22367281.516                    22367282.344
     -1825.211       -1422.004          46.100          35.500
 114994269.526 8  89605955.33146  21882680.305                    21882685.684
     -2520.734       -1964.016          49.400          38.900
 124737285.561 6  97197933.30444  23736728.781                    23736736.789
     -3597.641       -2803.221          41.500          29.300
 18  2 21  9 16 30.0000000  0  7G07G13G05G30G02G09G06
 108963970.479 8  84907018.93247  20735154.648                    20735158.211
      -342.828        -266.944          52.300          42.400
 126148730.254 6  98297615.64744  24005277.086                    24005280.898
      3182.383        2479.833          41.900          25.000
 111626929.913 8  86982053.95446  21241903.625                    21241907.262
      2034.441        1585.443          51.800          41.500
 108694380.804 8  84696956.95547  20683851.969                    20683857.949
      1436.316        1119.430          52.300          45.100
 117595742.319 7  91633103.82845  22377742.727                    22377743.629
     -1839.961       -1433.491          46.000          35.000
 115069986.577 8  89664955.60446  21897088.930                    21897094.328
     -2527.223       -1969.199          48.500          38.600
 124845267.687 7  97282075.17844  23757276.055                    23757285.105
     -3601.285       -2806.198          42.400          29.800
 18  2 21  9 17  0.0000000  0  7G07G13G05G30G02G09G06
 108974510.386 8  84915231.83347  20737160.148                    20737163.461
      -359.840        -280.128          52.100          42.800
 126053315.119 7  98223266.25444  23987119.305                    23987123.887
      3178.508        2476.927          43.400          25.500
 111566094.948 8  86934650.08547  21230327.039                    21230330.691
      2021.184        1575.180          52.300          42.200
 108651550.292 8  84663582.52847  20675701.836                    20675707.535
      1419.074        1106.016          53.100          44.800
 117651159.786 7  91676286.23345  22388288.602                    22388289.441
     -1854.672       -1444.934          46.100          35.000
 115145904.607 8  89724112.49246  21911535.563                    21911541.035
     -2533.984       -1974.395          48.900          39.700
 124953363.457 7  97366305.58644  23777846.586                    23777855.109
     -3605.027       -2809.044          42.800          29.300
 18  2 21  9 17 30.0000000  0  7G07G13G05G30G02G09G06
 108985558.826 8  84923841.00847  20739262.422                    20739266.160
      -376.852        -293.417          52.400          42.600
 125958012.672 7  98149004.68744  23968984.289                    23968987.957
      3174.691        2473.908          43.700          26.400
 111505657.345 8  86887555.84746  21218825.875                    21218830.305
      2007.844        1564.744          51.900          41.200
 108609237.188 8  84630611.28247  20667649.734                    20667655.836
      1401.660        1092.480          52.700          45.000
 117707017.753 7  91719811.86545  22398917.500                    22398918.922
     -1869.324       -1456.428          46.100          34.900
 115222022.391 8  89783425.04046  21926020.305                    21926026.199
     -2540.695       -1979.632          49.800          39.500
 125061569.741 7  97450622.13044  23798437.539                    23798446.176
     -3608.652       -2811.962          43.300          29.900
 18  2 21  9 18  0.0000000  0  7G07G13G05G30G02G09G06
 108997115.184 8  84932845.95247  20741461.680                    20741465.219
      -393.746        -306.545          52.700          42.300
 125862823.915 7  98074831.68544  23950870.297                    23950874.477
      3170.953        2470.990          43.700          26.400
 111445619.391 8  86840773.03446  21207400.898                    21207405.164
      1994.430        1554.371          51.200          41.300
 108567442.508 8  84598043.99447  20659696.492                    20659702.523
      1384.449        1079.055          52.700          44.400
 117763313.973 7  91763678.99845  22409630.711                    22409632.434
     -1883.859       -1467.734          45.900          34.400
 115298339.191 8  89842892.65046  21940543.164                    21940549.301
     -2547.223       -1984.744          50.300          39.600
 125169883.899 7  97535022.70844  23819048.469                    23819057.445
     -3612.391       -2814.698          43.900          29.500
 18  2 21  9 18 30.0000000  0  7G07G13G05G30G02G09G06
 109009178.231 8  84942245.72747  20743757.273                    20743760.820
      -410.570        -319.657          52.600          43.300
 125767749.092 7  98000747.48144  23932778.148                    23932782.438
      3167.270        2468.057          42.900          26.200
 111385982.656 8  86794302.86246  21196052.516                    21196057.281
      1981.137        1543.986          51.900          41.600
 108526166.781 8  84565881.09747  20651842.266                    20651848.320
      1367.098        1065.584          51.900          44.700
 117820046.263 7  91807885.92545  22420426.039                    22420427.875
     -1898.344       -1479.004          44.900          33.900
 115374853.655 8  89902514.29646  21955103.414                    21955109.340
     -2553.785       -1989.838          49.700          40.200
 125278302.465 7  97619504.66344  23839680.195                    23839689.320
     -3615.836       -2817.337          43.800          28.500
 18  2 21  9 19  0.0000000  0  7G07G13G05G30G02G09G06
 109021747.407 8  84952039.88847  20746149.250                    20746152.406
      -427.457        -332.822          52.700          43.300
 125672789.416 7  97926752.97244  23914707.086                    23914711.582
      3163.273        2465.024          42.000          25.900
 111326749.741 8  86748147.34247  21184781.133                    21184785.488
      1967.645        1533.437          51.900          42.000
 108485411.242 8  84534123.53047  20644086.500                    20644092.492
      1349.738        1052.055          50.600          44.800
 117877212.651 7  91852431.10445  22431304.633                    22431306.691
     -1912.797       -1490.259          43.900          33.100
 115451565.237 7  89962289.54346  21969700.953                    21969707.289
     -2560.414       -1994.964          47.800          39.900
 125386823.023 7  97704066.07544  23860331.250                    23860339.957
     -3619.035       -2819.963          42.200          27.900
 18  2 21  9 19 30.0000000  0  7G07G13G05G30G02G09G06
 109034822.445 8  84962228.22947  20748637.039                    20748640.844
      -444.250        -345.957          51.800          42.900
 125577946.206 7  97852849.24344  23896658.938                    23896663.789
      3159.488        2462.003          43.100          25.900
 111267922.886 8  86702308.23246  21173586.883                    21173591.188
      1954.227        1522.874          50.900          40.800
 108445176.914 8  84502772.11647  20636429.906                    20636436.340
      1332.488        1038.503          52.900          44.800
 117934811.196 7  91897313.02045  22442265.445                    22442267.219
     -1927.102       -1501.453          43.300          34.200
 115528473.211 8  90022217.80046  21984336.219                    21984342.398
     -2566.801       -2000.051          49.600          40.600
 125495442.904 7  97788704.87544  23881001.211                    23881009.246
     -3622.137       -2822.511          42.400          28.000
 18  2 21  9 20  0.0000000  0  7G07G13G05G30G02G09G06
 109048402.456 8  84972810.05447  20751221.391                    20751225.156
      -461.156        -359.079          52.200          43.100
 125483220.234 6  97779036.85744  23878633.289                    23878638.379
      3155.379        2458.909          41.800          26.200
 111209503.597 8  86656786.72646  21162469.961                    21162474.180
      1940.438        1512.216          51.500          41.400
 108405464.599 8  84471827.45847  20628873.258                    20628879.563
      1314.965        1024.894          52.100          44.900
 117992839.630 7  91942529.94145  22453307.781                    22453309.742
     -1941.473       -1512.651          44.200          33.900
 115605576.595 8  90082298.35046  21999008.242                    21999014.684
     -2573.387       -2005.157          49.300          39.900
 125604159.101 7  97873418.73444  23901689.133                    23901697.727
     -3625.477       -2825.013          42.300          29.100
 18  2 21  9 20 30.0000000  0  7G07G13G05G30G02G09G06
 109062485.930 8  84983784.18447  20753901.656                    20753905.258
      -477.875        -372.161          50.700          43.000
 125388611.972 6  97705316.18744  23860629.086                    23860634.195
      3151.648        2455.836          41.300          26.400
 111151494.001 8  86611584.44046  21151430.836                    21151434.914
      1926.762        1501.533          51.400          41.500
 108366274.956 8  84441290.07947  20621415.531                    20621421.848
      1297.609        1011.329          52.700          44.800
 118051295.943 7  91988080.25645  22464431.469                    22464433.656
     -1955.648       -1523.750          43.800          34.100
 115682874.300 8  90142530.30946  22013717.820                    22013723.836
     -2579.852       -2010.201          48.500          39.800
 125712968.596 7  97958205.29044  23922395.344                    23922402.980
     -3628.508       -2827.399          42.300          26.700
 18  2 21  9 21  0.0000000  0  7G07G13G05G30G02G09G06
 109077072.358 8  84995150.23847  20756677.117                    20756680.855
      -494.508        -385.151          52.300          43.500
 125294122.233 6  97631687.86044  23842648.391                    23842653.898
      3147.617        2452.798          41.400          25.400
 111093896.819 8  86566703.51646  21140470.828                    21140474.473
      1913.055        1490.868          51.300          41.500
 108327608.986 8  84411160.75547  20614057.586                    20614063.898
      1280.211         997.759          52.500          45.300
 118110177.882 7  92033962.28245  22475636.281                    22475638.559
     -1969.855       -1534.714          45.100          34.600
 115760365.539 8  90202913.07346  22028463.711                    22028469.898
     -2586.305       -2015.158          49.500          40.100
 125821868.675 6  98043062.44944  23943118.078                    23943126.520
     -3631.426       -2829.659          40.700          27.800
 18  2 21  9 21 30.0000000  0  7G07G13G05G30G02G09G06
 109092161.002 8  85006907.62947  20759548.242                    20759552.402
      -511.316        -398.179          51.500          42.300
 125199751.949 6  97558152.59544  23824691.047                    23824694.906
      3143.691        2449.711          40.600          25.200
 111036713.313 8  86522144.95346  21129589.172                    21129592.742
      1899.160        1480.104          52.200          41.100
 108289467.317 8  84381439.98147  20606799.578                    20606806.266
      1262.570         984.125          52.500          45.100
 118169483.369 7  92080174.34445  22486921.898                    22486924.199
     -1983.953       -1545.676          45.300          35.000
 115838049.260 8  90263445.81246  22043246.742                    22043252.633
     -2592.645       -2020.132          49.600          39.600
 125930856.232 7  98127987.75844  23963857.883                    23963866.656
     -3634.301       -2831.878          42.100          27.800
 18  2 21  9 22  0.0000000  0  7G07G13G05G30G02G09G06
 109107750.575 8  85019055.34747  20762514.813                    20762518.309
      -528.047        -411.178          51.400          42.700
 125105501.585 6  97484710.78144  23806755.711                    23806759.895
      3139.547        2446.543          39.900          24.300
 110979945.396 8  86477910.21346  21118786.305                    21118790.180
      1885.234        1469.282          51.900          41.100
 108251850.493 8  84352128.17447  20599641.320                    20599647.973
      1245.070         970.479          53.200          44.600
 118229209.791 7  92126714.39645  22498287.281                    22498289.844
     -1997.844       -1556.577          45.300          34.500
 115915924.407 8  90324127.72946  22058065.789                    22058071.320
     -2599.066       -2025.099          50.200          39.100
 126039928.370 6  98212978.97544  23984613.523                    23984622.262
     -3637.094       -2834.066          41.500          27.700
 18  2 21  9 22 30.0000000  0  7G07G13G05G30G02G09G06
 109123840.304 8  85031592.80847  20765576.500                    20765580.480
      -544.516        -424.185          51.000          43.200
 125011372.197 6  97411363.22743  23788843.477                    23788847.371
      3135.730        2443.400          40.900          22.300
 110923595.256 8  86434001.00846  21108063.469                    21108066.895
      1871.477        1458.382          51.700          41.400
 108214759.374 8  84323226.01047  20592582.867                    20592589.207
      1227.688         956.802          52.500          45.000
 118289355.020 7  92173580.78845  22509732.898                    22509735.012
     -2011.703       -1567.448          45.200          34.300
 115993990.119 8  90384958.12546  22072921.008                    22072927.094
     -2605.160       -2030.060          49.400          38.900
 126149082.183 7  98298033.82644  24005385.352                    24005394.301
     -3639.652       -2836.158          42.400          28.900
 18  2 21  9 23  0.0000000  0  7G07G13G05G30G02G09G06
 109140429.460 8  85044519.41847  20768733.398                    20768737.266
      -561.281        -437.155          51.900          42.600
 124917364.543 6  97338110.55044  23770954.328                    23770958.133
      3131.523        2440.191          40.500          24.200
 110867665.180 8  86390419.12746  21097420.359                    21097423.738
      1857.348        1447.454          52.500          41.300
 108178194.846 8  84294734.17147  20585625.250                    20585631.297
      1209.961         943.094          52.900          44.900
 118349917.101 7  92220771.99545  22521257.477                    22521260.023
     -2025.695       -1578.255          45.700          34.000
 116072245.589 8  90445936.39146  22087813.109                    22087818.574
     -2611.730       -2035.007          51.100          38.700
 126258314.946 7  98383150.20844  24026171.141                    24026179.832
     -3642.441       -2838.183          42.700          27.900
 18  2 21  9 23 30.0000000  0  7G07G13G05G30G02G09G06
 109157516.851 8  85057834.26347  20771984.875                    20771988.949
      -577.863        -450.103          51.300          42.600
 124823479.622 6  97264953.48843  23753088.148                    23753092.285
      3127.457        2436.997          40.200          22.800
 110812156.421 8  86347165.56546  21086857.313                    21086860.926
      1843.211        1436.444          52.000          41.400
 108142157.418 8  84266653.06247  20578767.344                    20578773.664
      1192.508         929.409          53.600          45.200
 118410893.441 7  92268285.99845  22532860.805                    22532863.141
     -2039.477       -1589.012          45.400          34.000
 116150689.785 8  90507061.71146  22102740.133                    22102745.918
     -2617.895       -2039.892          50.300          38.800
 126367623.610 6  98468325.74344  24046971.367                    24046981.871
     -3644.812       -2840.122          41.700          28.300
 18  2 21  9 24  0.0000000  0  7G07G13G05G30G02G09G06
 109175101.271 8  85071536.39747  20775331.023                    20775334.922
      -594.434        -462.946          50.800          42.800
 124729717.433 6  97191892.06343  23735245.664                    23735249.785
      3123.363        2433.847          39.300          22.900
 110757071.303 8  86304242.10246  21076374.773                    21076378.734
      1829.156        1425.479          52.600          41.300
 108106647.619 8  84238983.10447  20572010.156                    20572016.543
      1174.918         915.732          53.800          44.600
 118472281.739 7  92316121.00445  22544543.000                    22544544.895
     -2053.051       -1599.621          45.300          33.900
 116229321.621 8  90568333.24946  22117703.328                    22117708.734
     -2624.105       -2044.709          50.800          38.800
 126477005.192 7  98553558.07644  24067786.086                    24067796.586
     -3647.191       -2841.946          42.600          28.900
 18  2 21  9 24 30.0000000  0  7G07G13G05G30G02G09G06
 109193182.021 8  85085625.25747  20778771.805                    20778775.328
      -610.977        -475.857          51.200          42.900
 124636079.623 6  97118927.56243  23717427.305                    23717431.844
      3119.195        2430.596          40.900          22.600
 110702411.795 8  86261650.27646  21065973.438                    21065977.375
      1814.859        1414.378          52.500          41.700
 108071666.178 8  84211724.84747  20565353.273                    20565359.277
      1157.234         901.971          53.600          44.600
 118534079.880 7  92364275.37045  22556302.289                    22556304.945
     -2066.742       -1610.260          44.600          33.600
 116308140.214 8  90629750.30646  22132702.125                    22132707.441
     -2630.359       -2049.571          51.000          38.700
 126586456.854 7  98638845.00544  24088614.586                    24088624.863
     -3649.477       -2843.759          44.000          29.600
 18  2 21  9 25  0.0000000  0  7G07G13G05G30G02G09G06
 109211758.155 8  85100100.14647  20782306.883                    20782310.484
      -627.391        -488.736          50.900          42.300
 124542566.743 6  97046060.42544  23699631.922                    23699636.426
      3115.059        2427.332          41.000          24.600
 110648179.865 8  86219391.62646  21055653.469                    21055657.059
      1800.602        1403.220          51.900          40.900
 108037213.801 8  84184878.84047  20558797.445                    20558803.621
      1139.613         888.197          52.900          45.000
 118596285.348 7  92412747.13945  22568139.992                    22568142.051
     -2080.234       -1620.832          44.600          33.300
 116387144.750 8  90691312.25846  22147736.461                    22147741.680
     -2636.602       -2054.425          50.800          38.400
 126695975.811 7  98724184.36544  24109455.742                    24109465.957
     -3651.738       -2845.486          43.300          28.500
 18  2 21  9 25 30.0000000  0  7G07G13G05G30G02G09G06
 109230828.740 8  85114960.32947  20785935.641                    20785939.355
      -643.961        -501.534          51.500          42.100
 124449179.633 7  96973291.27644  23681861.219                    23681865.859
      3110.734        2424.052          42.000          26.200
 110594377.870 8  86177467.99346  21045415.414                    21045419.203
      1786.148        1392.047          52.800          41.100
 108003291.115 8  84158445.58047  20552342.008                    20552347.934
      1121.813         874.469          53.400          45.000
 118658895.992 7  92461534.62645  22580054.203                    22580056.156
     -2093.875       -1631.317          44.300          33.400
 116466334.320 8  90753018.38946  22162805.055                    22162810.668
     -2642.887       -2059.189          51.000          38.300
 126805559.138 7  98809573.91544  24130308.719                    24130318.309
     -3653.895       -2847.088          43.600          27.900
 18  2 21  9 26  0.0000000  0  7G07G13G05G30G02G09G06
 109250392.605 8  85130204.89047  20789659.086                    20789662.594
      -660.348        -514.330          51.500          42.400
 124355919.079 7  96900620.73644  23664114.234                    23664118.938
      3106.492        2420.758          42.800          25.700
 110541007.267 8  86135880.50546  21035259.172                    21035263.309
      1771.770        1380.822          52.400          41.100
 107969898.732 8  84132425.54847  20545987.719                    20545993.520
      1104.313         860.681          53.800          44.700
 118721909.495 7  92510636.01445  22592045.656                    22592048.316
     -2107.113       -1641.728          44.500          33.400
 116545708.017 8  90814867.99546  22177909.250                    22177915.078
     -2648.816       -2063.962          50.900          37.500
 126915204.107 7  98895011.47844  24151173.453                    24151183.777
     -3655.836       -2848.661          42.300          29.200
 18  2 21  9 26 30.0000000  0  7G07G13G05G30G02G09G06
 109270448.277 8  85145832.68747  20793475.273                    20793479.125
      -676.684        -527.068          51.100          42.700
 124262785.560 7  96828049.18144  23646391.617                    23646396.453
      3102.391        2417.505          43.600          25.300
 110488069.685 8  86094630.43846  21025185.344                    21025189.328
      1757.465        1369.589          52.300          41.400
 107937036.930 8  84106818.94347  20539734.430                    20539740.309
      1086.594         846.930          53.200          45.400
 118785323.379 7  92560049.38745  22604113.047                    22604114.918
     -2120.375       -1652.076          43.600          33.200
 116625264.601 8  90876860.10846  22193048.617                    22193054.082
     -2654.871       -2068.651          48.200          38.000
 127024907.373 7  98980494.53044  24172048.391                    24172059.371
     -3657.652       -2850.112          42.400          29.300
 18  2 21  9 27  0.0000000  0  7G07G13G05G30G02G09G06
 109290995.020 8  85161843.14947  20797385.281                    20797388.609
      -693.137        -539.811          51.800          42.700
 124169779.851 7  96755577.22344  23628693.617                    23628697.711
      3097.992        2414.125          42.200          27.100
 110435566.952 8  86053719.21347  21015194.242                    21015198.391
      1742.781        1358.255          51.600          42.000
 107904706.260 8  84081626.21247  20533581.906                    20533587.941
      1068.738         833.099          52.300          45.900
 118849134.932 7  92609772.64845  22616255.852                    22616258.281
     -2133.738       -1662.402          43.200          33.700
 116705003.195 8  90938994.05046  22208222.414                    22208228.164
     -2661.105       -2073.384          49.600          37.600
 127134666.216 7  99066020.82144  24192935.344                    24192945.906
     -3659.426       -2851.509          42.300          29.400
 18  2 21  9 27 30.0000000  0  7G07G13G05G30G02G09G06
 109312031.739 8  85178235.40347  20801388.320                    20801391.859
      -709.449        -552.570          51.800          42.600
 124076902.814 7  96683205.52544  23611019.719                    23611024.445
      3093.668        2410.727          42.000          27.300
 110383501.305 8  86013148.57946  21005286.578                    21005290.973
      1728.051        1346.822          52.100          41.500
 107872907.394 8  84056847.87147  20527531.195                    20527537.188
      1050.996         819.260          53.000          44.900
 118913342.060 7  92659804.14045  22628473.391                    22628476.414
     -2146.867       -1672.683          44.100          34.200
 116784923.038 8  91001269.22346  22223430.680                    22223436.059
     -2667.199       -2078.147          49.400          36.900
 127244477.897 7  99151588.28144  24213831.820                    24213842.672
     -3661.398       -2852.903          42.300          28.400
 18  2 21  9 28  0.0000000  0  7G07G13G05G30G02G09G06
 109333556.900 8  85195008.26347  20805484.328                    20805487.996
      -725.648        -565.218          51.700          43.000
 123984154.963 6  96610934.49644  23593370.477                    23593374.789
      3089.375        2407.410          41.600          27.400
 110331873.795 8  85972919.34847  20995462.023                    20995466.453
      1713.570        1335.455          52.500          42.200
 107841640.296 8  84032483.89547  20521581.070                    20521587.227
      1033.371         805.456          52.500          44.800
 118977941.670 7  92710141.44245  22640766.820                    22640769.234
     -2159.793       -1682.815          45.000          34.200
 116865022.581 8  91063684.41946  22238673.195                    22238678.867
     -2672.949       -2082.752          49.700          37.300
 127354338.939 6  99237194.21244  24234738.836                    24234746.910
     -3662.969       -2854.119          41.300          28.400
 18  2 21  9 28 30.0000000  0  7G07G13G05G30G02G09G06
 109355569.567 8  85212160.98847  20809673.453                    20809677.191
      -741.977        -577.852          51.400          42.600
 123891537.147 6  96538764.79644  23575746.227                    23575750.289
      3084.957        2404.034          40.700          27.900
 110280687.366 8  85933033.81647  20985721.695                    20985726.258
      1698.742        1323.976          51.900          42.000
 107810905.877 8  84008535.00347  20515732.680                    20515738.789
      1015.504         791.624          53.300          45.100
 119042932.290 7  92760783.43845  22653134.313                    22653136.926
     -2172.910       -1692.940          44.700          33.200
 116945301.420 8  91126239.33846  22253950.398                    22253955.555
     -2679.051       -2087.380          48.600          37.200
 127464246.911 6  99322836.71144  24255653.430                    24255663.031
     -3664.457       -2855.300          38.900          28.700
 18  2 21  9 29  0.0000000  0  7G07G13G05G30G02G09G06
 109378068.570 8  85229692.69647  20813954.672                    20813958.719
      -758.121        -590.498          51.100          42.900
 123799050.219 6  96466697.06544  23558146.789                    23558150.047
      3080.559        2400.592          41.600          27.500
 110229943.852 8  85893493.41247  20976065.789                    20976069.914
      1683.988        1312.440          52.800          42.900
 107780704.568 8  83985001.52647  20509985.617                    20509991.492
       997.824         777.741          53.500          45.300
 119108311.102 7  92811727.93445  22665575.859                    22665578.066
     -2185.848       -1703.013          45.300          34.400
 117025758.557 8  91188933.17946  22269260.375                    22269266.082
     -2684.891       -2092.026          49.100          37.300
 127574198.871 6  99408513.56644  24276575.711                    24276584.727
     -3665.711       -2856.439          40.200          26.500
 18  2 21  9 29 30.0000000  0  7G07G13G05G30G02G09G06
 109401053.309 8  85247602.87047  20818328.414                    20818332.406
      -774.246        -603.091          52.300          42.600
 123706695.196 6  96394732.12644  23540571.977                    23540575.293
      3076.371        2397.173          41.800          26.400
 110179645.000 8  85854299.49747  20966494.234                    20966498.359
      1669.250        1300.876          52.300          42.200
 107751036.964 8  83961883.91247  20504339.938                    20504345.953
       980.086         763.897          53.100          45.100
 119174075.596 7  92862972.94445  22678090.172                    22678092.734
     -2198.500       -1712.993          45.200          34.400
 117106393.210 8  91251765.35846  22284604.758                    22284610.738
     -2690.758       -2096.624          50.000          36.800
 127684192.217 6  99494222.60944  24297506.688                    24297516.910
     -3667.074       -2857.474          40.300          27.800
 18  2 21  9 30  0.0000000  0  7G07G13G05G30G02G09G06
 109424522.235 8  85265890.33547  20822794.789                    20822798.246
      -790.316        -615.655          52.200          43.200
 123614472.798 6  96322870.54844  23523022.625                    23523026.160
      3071.816        2393.701          41.800          27.500
 110129792.241 8  85815453.19147  20957007.883                    20957011.496
      1654.355        1289.250          52.500          42.600
 107721903.340 9  83939182.39147  20498795.961                    20498801.645
       962.242         750.006          54.000          45.000
 119240223.355 7  92914516.59345  22690678.086                    22690680.055
     -2211.332       -1722.938          44.600          34.200
 117187204.308 8  91314735.02046  22299982.375                    22299987.883
     -2696.531       -2101.218          49.900          36.900
 127794223.834 6  99579961.38144  24318446.570                    24318455.145
     -3668.352       -2858.437          41.400          28.300
 18  2 21  9 30 30.0000000  0  7G07G13G05G30G02G09G06
 109448474.240 8  85284554.21847  20827352.742                    20827356.094
      -806.355        -628.217          50.800          43.100
 123522383.479 7  96251112.66644  23505498.406                    23505501.910
      3067.469        2390.203          42.900          26.500
 110080387.969 8  85776956.35447  20947606.453                    20947610.148
      1639.457        1277.559          53.500          42.600
 107693304.247 8  83916897.38747  20493353.555                    20493359.398
       944.496         736.089          53.300          44.900
 119306752.216 7  92966357.21345  22703337.438                    22703340.285
     -2223.965       -1732.822          45.100          34.200
 117268191.108 8  91377841.59246  22315393.563                    22315399.520
     -2702.437       -2105.778          49.100          36.500
 127904291.102 6  99665728.04044  24339391.758                    24339398.918
     -3669.383       -2859.338          40.700          28.100
 18  2 21  9 31  0.0000000  0  7G07G13G05G30G02G09G06
 109472907.836 8  85303593.37247  20832002.445                    20832005.738
      -822.641        -640.698          51.800          42.800
 123430428.268 7  96179459.26144  23487999.742                    23488003.465
      3062.730        2386.728          42.300          27.200
 110031433.197 8  85738809.77847  20938290.594                    20938294.473
      1624.188        1265.860          52.500          42.400
 107665239.690 8  83895028.89447  20488013.172                    20488018.848
       926.414         722.213          53.500          44.800
 119373659.489 7  93018492.71545  22716069.891                    22716072.215
     -2236.703       -1742.604          45.000          34.400
 117349352.344 8  91441084.08646  22330837.930                    22330843.973
     -2708.430       -2110.279          49.500          37.000
 128014390.789 6  99751519.87244  24360343.867                    24360351.469
     -3670.750       -2860.155          37.900          25.800
 18  2 21  9 31 30.0000000  0  7G07G13G05G30G02G09G06
 109497822.230 8  85323007.17747  20836743.500                    20836746.520
      -838.547        -653.159          52.500          42.500
 123338608.321 7  96107911.27644  23470526.906                    23470530.297
      3058.301        2383.216          42.500          26.800
 109982930.579 8  85701015.53047  20929061.008                    20929065.012
      1609.129        1254.114          53.400          42.500
 107637710.419 8  83873577.51447  20482774.383                    20482780.137
       908.656         708.328          52.900          44.800
 119440942.539 7  93070921.02845  22728873.875                    22728875.941
     -2249.004       -1752.314          45.400          33.900
 117430687.447 8  91504462.06146  22346316.555                    22346321.738
     -2714.160       -2114.777          50.400          37.000
 128124520.218 6  99837335.03144  24381297.938                    24381307.500
     -3671.574       -2860.885          37.300          24.400
 18  2 21  9 32  0.0000000  0  7G07G13G05G30G02G09G06
 109523216.167 8  85342794.66347  20841575.703                    20841578.758
      -854.316        -665.569          52.100          42.400
 123246924.040 7  96036468.99844  23453080.023                    23453083.488
      3054.023        2379.705          43.200          28.700
 109934881.955 8  85663575.04947  20919917.430                    20919921.277
      1594.082        1242.316          52.600          42.400
 107610716.868 8  83852543.57847  20477637.578                    20477643.305
       890.875         694.422          53.000          44.900
 119508599.365 7  93123640.58445  22741748.602                    22741750.746
     -2261.281       -1761.967          45.300          34.000
 117512195.543 8  91567974.84446  22361826.516                    22361832.410
     -2719.723       -2119.239          50.800          37.400
 128234676.802 6  99923171.27344  24402260.156                    24402270.289
     -3672.250       -2861.511          39.700          27.700
 18  2 21  9 32 30.0000000  0  7G07G13G05G30G02G09G06
 109549088.678 8  85362955.05547  20846499.438                    20846502.461
      -870.246        -678.006          52.800          42.700
 123155376.306 7  95965133.10544  23435658.844                    23435663.031
      3049.469        2376.142          42.600          28.100
 109887288.474 8  85626489.22247  20910860.953                    20910864.230
      1579.016        1230.460          52.800          42.200
 107584259.186 8  83831927.20247  20472602.883                    20472608.859
       873.113         680.479          52.900          44.900
 119576626.962 7  93176649.06145  22754693.836                    22754695.785
     -2273.625       -1771.606          44.900          34.400
 117593875.676 8  91631621.66746  22377369.961                    22377375.266
     -2725.398       -2123.717          51.200          36.400
 128344857.620 7 100009026.31444  24423229.266                    24423237.113
     -3672.797       -2862.098          42.800          24.900
 18  2 21  9 33  0.0000000  0  7G07G13G05G30G02G09G06
 109575438.100 8  85383487.04447  20851513.367                    20851516.473
      -886.250        -690.396          52.100          42.600
 123063965.946 7  95893904.26644  23418264.375                    23418268.262
      3044.762        2372.563          43.400          28.200
 109840152.771 8  85589760.10346  20901891.281                    20901894.656
      1563.566        1218.546          51.500          41.900
 107558337.790 8  83811728.71947  20467670.203                    20467676.082
       855.129         666.554          52.700          44.700
 119645023.296 7  93229944.86645  22767708.766                    22767711.027
     -2286.035       -1781.132          45.700          33.900
 117675726.931 8  91695401.83946  22392945.680                    22392951.000
     -2731.301       -2128.153          50.700          37.000
 128455059.829 6 100094898.12144  24444201.188                    24444206.957
     -3673.730       -2862.624          40.800          26.700
 18  2 21  9 33 30.0000000  0  7G07G13G05G30G02G09G06
 109602263.451 8  85404389.91547  20856617.742                    20856621.133
      -902.145        -702.735          52.400          42.400
 122972693.628 7  95822782.98744  23400896.250                    23400899.578
      3039.961        2368.959          43.800          28.200
 109793476.138 8  85553388.70546  20893008.953                    20893012.293
      1548.098        1206.587          52.300          41.100
 107532952.844 8  83791948.24547  20462839.727                    20462845.605
       837.129         652.599          53.000          44.500
 119713785.637 7  93283525.87245  22780794.422                    22780796.414
     -2298.262       -1790.625          45.500          34.700
 117757748.369 8  91759314.61846  22408553.703                    22408559.191
     -2737.027       -2132.577          51.300          37.100
 128565280.481 6 100180784.21144  24465174.563                    24465183.234
     -3674.473       -2863.071          40.700          24.400
 18  2 21  9 34  0.0000000  0  7G07G13G05G30G02G09G06
 109629563.116 8  85425662.38146  20861812.883                    20861816.238
      -917.844        -715.008          52.100          41.800
 122881559.948 7  95751769.74044  23383553.852                    23383558.051
      3035.520        2365.398          43.900          28.400
 109747260.399 8  85517376.43946  20884214.172                    20884217.809
      1532.934        1194.649          51.900          41.000
 107508104.678 8  83772586.03947  20458111.156                    20458117.383
       819.406         638.695          53.000          44.800
 119782911.310 7  93337390.00945  22793948.141                    22793950.469
     -2310.070       -1799.973          44.500          33.700
 117839939.043 8  91823359.27646  22424194.086                    22424199.605
     -2742.457       -2136.915          51.000          36.800
 128675516.752 6 100266682.63943  24486150.828                    24486159.164
     -3674.684       -2863.426          38.100          22.200
 18  2 21  9 34 30.0000000  0  7G07G13G05G30G02G09G06
 109657336.637 8  85447304.08547  20867097.789                    20867101.266
      -933.605        -727.265          51.200          42.200
 122790566.193 7  95680865.53444  23366238.344                    23366242.508
      3030.770        2361.760          43.900          29.400
 109701508.037 8  85481725.23846  20875507.898                    20875511.176
      1517.387        1182.610          51.800          41.100
 107483793.796 8  83753642.50047  20453485.164                    20453491.285
       801.410         624.755          52.800          45.200
 119852397.914 7  93391535.37245  22807171.000                    22807173.676
     -2322.125       -1809.288          44.500          33.500
 117922298.381 8  91887535.34645  22439866.117                    22439871.824
     -2748.121       -2141.249          50.300          35.700
 128785766.112 6 100352591.15244  24507130.039                    24507140.168
     -3675.277       -2863.711          39.900          26.000
 18  2 21  9 35  0.0000000  0  8G07G13G05G30G02G09G28G06
 109685581.931 8  85469313.40547  20872472.391                    20872476.555
      -949.414        -739.594          50.800          42.200
 122699713.238 7  95610071.03644  23348949.820                    23348953.906
      3026.004        2358.026          44.900          29.700
 109656220.025 8  85446435.88246  20866889.695                    20866893.207
      1501.805        1170.422          52.600          40.600
 107460020.282 8  83735117.68847  20448961.172                    20448967.508
       783.488         610.712          52.900          45.500
 119922242.989 7  93445960.06945  22820462.352                    22820464.863
     -2334.121       -1818.654          43.900          34.200
 118004825.303 8  91951842.01845  22455570.328                    22455576.207
     -2753.699       -2145.683          50.200          35.500
 127595523.660 6  99425140.78843  24280629.766                    24280635.133
      3230.391        2517.298          38.200          21.300
 128896025.635 6 100438507.55744  24528112.398                    24528122.641
     -3675.609       -2864.035          39.000          24.300
 18  2 21  9 35 30.0000000  0  8G07G13G05G30G02G09G28G06
 109714298.435 8  85491689.89547  20877937.039                    20877940.891
      -964.973        -751.788          52.100          42.100
 122609001.654 7  95539386.69645  23331687.766                    23331692.129
      3021.398        2354.380          45.200          30.400
 109611398.845 8  85411510.28446  20858360.961                    20858364.355
      1486.262        1158.324          52.300          41.400
 107436784.593 8  83717011.95647  20444539.695                    20444545.910
       765.598         596.758          53.200          45.700
 119992443.980 7  93500662.08845  22833821.328                    22833823.613
     -2345.785       -1827.828          43.700          33.800
 118087519.204 8  92016278.79045  22471306.820                    22471312.523
     -2759.246       -2149.995          49.300          35.700
 127498637.769 6  99349645.36243  24262192.977                    24262198.480
      3228.473        2515.700          39.000          22.000
 129006292.735 6 100524429.98544  24549095.820                    24549104.246
     -3675.691       -2864.174          39.200          25.400
 18  2 21  9 36  0.0000000  0  7G07G13G05G30G02G09G28
 109743484.167 8  85514432.01847  20883490.891                    20883494.980
      -980.660        -763.960          51.600          42.100
 122518431.799 7  95468812.79845  23314453.102                    23314457.172
      3016.535        2350.673          46.100          30.400
 109567045.745 8  85376949.42246  20849920.953                    20849924.023
      1470.590        1146.145          52.700          41.600
 107414086.605 8  83699325.20947  20440220.305                    20440226.145
       747.586         582.798          53.800          45.200
 120062998.125 7  93555639.29445  22847247.641                    22847249.844
     -2357.598       -1836.988          43.900          34.400
 118170378.823 8  92080844.68645  22487073.984                    22487079.977
     -2764.777       -2154.266          49.900          34.600
 127401815.107 6  99274199.13943  24243767.516                    24243773.262
      3226.453        2514.053          38.600          19.900
 18  2 21  9 36 30.0000000  0  7G07G13G05G30G02G09G28
 109773138.287 8  85537539.11647  20889133.969                    20889137.840
      -996.266        -776.127          51.900          42.200
 122428005.197 7  95398350.51844  23297245.219                    23297249.578
      3011.754        2346.919          45.900          29.400
 109523162.808 8  85342754.92446  20841570.109                    20841573.523
      1454.863        1133.896          52.300          41.600
 107391926.794 8  83682057.82747  20436003.484                    20436009.480
       729.609         568.806          52.300          45.500
 120133903.244 7  93610889.98745  22860740.422                    22860742.793
     -2369.305       -1846.070          43.300          33.700
 118253403.613 8  92145539.29145  22502873.688                    22502879.105
     -2770.262       -2158.567          49.100          34.500
 127305058.693 6  99198804.62443  24225355.109                    24225361.078
      3224.082        2512.328          38.100          21.100
 18  2 21  9 37  0.0000000  0  7G07G13G05G30G02G09G28
 109803259.596 8  85561010.25347  20894866.422                    20894869.871
     -1011.887        -788.236          51.900          42.100
 122337722.660 7  95328000.49445  23280065.445                    23280069.016
      3007.004        2343.175          45.400          30.500
 109479751.843 8  85308928.19847  20833309.070                    20833312.773
      1439.090        1121.623          51.800          42.400
 107370305.460 8  83665210.02947  20431888.617                    20431895.199
       711.555         554.798          51.700          45.200
 120205156.542 7  93666411.99745  22874299.742                    22874301.723
     -2380.926       -1855.098          44.100          33.400
 118336592.779 8  92210361.99245  22518703.742                    22518709.625
     -2775.781       -2162.821          48.800          33.600
 127208371.447 6  99123463.95543  24206956.211                    24206961.660
      3221.773        2510.437          37.500          20.400
 18  2 21  9 37 30.0000000  0  7G07G13G05G30G02G09G28
 109833846.154 8  85584843.93447  20900686.602                    20900689.848
     -1027.105        -800.260          52.500          42.000
 122247584.195 7  95257762.75744  23262912.094                    23262916.328
      3002.383        2339.462          44.600          29.400
 109436813.503 8  85275469.75447  20825138.242                    20825141.496
      1423.594        1109.361          53.200          42.300
 107349222.122 8  83648781.45347  20427876.492                    20427882.672
       693.992         540.882          53.000          45.000
 120276754.933 7  93722202.92345  22887924.148                    22887926.664
     -2392.074       -1863.984          44.600          34.400
 118419944.906 8  92275311.67045  22534565.352                    22534570.848
     -2780.898       -2167.024          48.300          33.400
 127111756.050 6  99048179.26643  24188571.227                    24188576.004
      3219.395        2508.583          37.300          20.100
 18  2 21  9 38  0.0000000  0  7G07G13G05G30G02G09G28
 109864896.834 8  85609039.26147  20906595.414                    20906598.781
     -1042.742        -812.332          52.300          42.400
 122157590.890 7  95187638.11844  23245787.008                    23245791.297
      2997.391        2335.656          44.100          29.800
 109394350.463 8  85242381.66447  20817057.789                    20817061.141
      1407.523        1096.953          53.400          42.600
 107328677.123 8  83632772.36047  20423967.219                    20423973.492
       675.930         526.872          52.800          44.300
 120348696.150 7  93778260.98445  22901614.203                    22901616.258
     -2403.762       -1872.907          44.400          34.600
 118503459.265 7  92340387.77045  22550457.109                    22550463.094
     -2786.512       -2171.243          47.900          33.400
 127015215.523 6  98972952.97943  24170198.180                    24170204.965
      3216.648        2506.539          37.300          19.600
 18  2 21  9 38 30.0000000  0  7G07G13G05G30G02G09G28
 109896410.248 8  85633595.17747  20912592.219                    20912595.445
     -1058.082        -824.313          52.700          42.100
 122067743.357 7  95117627.05944  23228689.063                    23228693.883
      2992.508        2331.860          43.200          28.700
 109352364.298 9  85209665.16347  20809068.297                    20809071.645
      1391.563        1084.569          54.000          42.600
 107308670.467 8  83617182.75547  20420159.836                    20420166.207
       657.930         512.901          53.200          45.000
 120420977.415 7  93834583.99845  22915368.617                    22915370.852
     -2415.027       -1881.656          44.500          33.400
 118587134.885 7  92405589.49645  22566381.094                    22566386.055
     -2791.816       -2175.392          47.900          33.600
 126918752.562 6  98897787.04843  24151842.688                    24151848.688
      3214.086        2504.564          37.700          19.300
 18  2 21  9 39  0.0000000  0  7G07G13G05G30G02G09G28
 109928384.666 8  85658510.29847  20918676.828                    20918680.230
     -1073.594        -836.319          51.800          42.100
 121978042.477 7  95047730.29044  23211619.766                    23211624.301
      2987.543        2327.999          42.800          28.500
 109310856.312 8  85177321.27047  20801169.633                    20801173.074
      1375.465        1072.064          53.800          43.800
 107289202.190 8  83602012.66747  20416455.078                    20416461.234
       639.887         498.876          52.200          44.900
 120493595.954 7  93891169.85745  22929187.352                    22929189.180
     -2426.312       -1890.442          43.900          33.500
 118670970.974 7  92470916.30945  22582334.070                    22582339.637
     -2797.363       -2179.607          47.200          32.800
 126822369.896 6  98822683.73843  24133501.461                    24133507.461
      3211.234        2502.375          37.900          19.600
 18  2 21  9 39 30.0000000  0  7G07G13G05G30G02G09G28
 109960819.031 8  85683783.82246  20924848.930                    20924852.238
     -1088.840        -848.226          51.800          41.100
 121888489.045 7  94977948.40744  23194577.586                    23194582.438
      2982.684        2324.183          42.600          28.300
 109269827.972 8  85145351.12947  20793361.781                    20793365.828
      1359.637        1059.636          53.200          43.000
 107270272.358 8  83587262.14447  20412852.977                    20412859.230
       622.020         484.920          52.900          45.400
 120566549.083 7  93948016.42745  22943069.930                    22943071.824
     -2437.277       -1899.064          44.100          33.000
 118754966.366 8  92536367.21945  22598318.672                    22598323.188
     -2802.535       -2183.689          48.500          33.100
 126726070.809 6  98747645.51843  24115176.320                    24115181.801
      3208.590        2500.184          38.900          19.600
 18  2 21  9 40  0.0000000  0  7G07G13G05G30G02G09G28
 109993712.524 8  85709415.11046  20931107.844                    20931111.602
     -1104.176        -860.096          50.800          41.500
 121799084.124 7  94908282.26444  23177564.797                    23177569.074
      2977.652        2320.353          43.400          28.200
 109229281.850 8  85113756.74647  20785646.422                    20785650.305
      1343.457        1047.103          53.700          43.400
 107251881.295 8  83572931.44147  20409353.539                    20409359.723
       603.988         470.948          52.700          45.600
 120639834.355 7  94005121.80745  22957015.719                    22957017.340
     -2448.434       -1907.645          44.600          32.100
 118839120.669 8  92601941.98245  22614332.156                    22614337.605
     -2807.852       -2187.787          48.100          32.900
 126629858.411 6  98672674.87343  24096868.086                    24096872.410
      3205.215        2497.906          37.900          19.300
 18  2 21  9 40 30.0000000  0  7G07G13G05G30G02G09G28
 110027063.014 8  85735402.50346  20937453.875                    20937458.113
     -1119.328        -871.988          50.800          40.900
 121709828.140 7  94838732.15944  23160579.688                    23160584.203
      2972.719        2316.429          43.000          28.500
 109189219.280 8  85082539.15747  20778022.547                    20778026.203
      1327.316        1034.498          52.100          43.000
 107234029.014 8  83559020.57647  20405956.141                    20405962.543
       586.063         456.912          53.000          44.900
 120713449.316 7  94062484.09145  22971024.109                    22971025.801
     -2459.195       -1916.184          44.800          31.500
 118923432.935 7  92667639.81245  22630376.477                    22630380.922
     -2813.027       -2191.900          46.900          32.900
 126533735.411 6  98597773.86643  24078576.906                    24078580.445
      3202.520        2495.538          38.100          19.900
 18  2 21  9 41  0.0000000  0  7G07G13G05G30G02G09G28
 110060868.672 8  85761744.56246  20943887.211                    20943891.176
     -1134.434        -883.741          50.500          41.000
 121620721.904 7  94769298.75544  23143623.414                    23143627.676
      2967.660        2312.596          43.400          28.200
 109149641.063 8  85051698.98447  20770490.805                    20770494.980
      1311.238        1021.960          52.000          42.900
 107216715.081 8  83545529.19847  20402661.617                    20402667.945
       568.059         442.983          53.500          45.700
 120787390.757 7  94120100.77445  22985094.445                    22985096.023
     -2470.207       -1924.595          44.600          31.300
 119007901.872 7  92733459.74145  22646450.227                    22646455.367
     -2818.211       -2195.901          47.200          33.400
 126437704.021 6  98522944.29643  24060302.070                    24060306.375
      3199.449        2493.142          39.100          19.600
 18  2 21  9 41 30.0000000  0  7G07G13G05G30G02G09G28
 110095128.647 8  85788440.64146  20950406.516                    20950410.656
     -1149.570        -895.566          51.000          41.100
 121531766.652 7  94699982.98544  23126695.922                    23126699.719
      2962.598        2308.608          44.100          29.300
 109110549.790 8  85021238.24447  20763052.133                    20763056.340
      1294.910        1009.241          50.500          42.100
 107199939.902 8  83532457.62947  20399469.578                    20399475.465
       550.188         428.974          52.600          45.900
 120861656.360 7  94177970.03445  22999227.039                    22999228.258
     -2480.766       -1933.000          44.500          30.800
 119092527.078 7  92799401.44245  22662553.867                    22662558.953
     -2823.445       -2200.004          46.200          32.200
 126341767.619 6  98448188.66143  24042046.609                    24042050.109
      3196.172        2490.632          37.300          18.300
 18  2 21  9 42  0.0000000  0  7G07G13G05G30G02G09G28
 110129841.947 8  85815489.95946  20957012.344                    20957016.789
     -1164.660        -907.285          51.300          41.100
 121442962.772 7  94630785.18745  23109797.008                    23109801.121
      2957.527        2304.706          43.600          30.000
 109071947.164 8  84991158.27347  20755706.102                    20755710.121
      1278.594         996.553          51.000          42.400
 107183703.573 8  83519805.95147  20396379.578                    20396386.020
       532.258         414.999          53.400          44.600
 120936243.735 7  94236090.03745  23013419.875                    23013421.488
     -2491.559       -1941.314          44.300          30.500
 119177307.771 7  92865464.30645  22678686.492                    22678692.266
     -2828.551       -2204.007          46.200          32.300
 126245929.523 6  98373509.63743  24023808.344                    24023812.629
      3192.836        2488.068          37.300          18.600
 18  2 21  9 42 30.0000000  0  7G07G13G05G30G02G09G28
 110165006.336 8  85842890.77646  20963703.633                    20963708.121
     -1179.691        -919.070          52.100          41.300
 121354311.379 7  94561706.21545  23092927.602                    23092931.348
      2952.484        2300.663          44.600          30.600
 109033834.224 8  84961459.87246  20748453.578                    20748457.855
      1262.191         983.734          51.000          41.600
 107168005.789 8  83507573.90847  20393392.570                    20393398.969
       514.270         400.920          53.300          45.500
 121011149.791 7  94294458.34844  23027674.523                    23027675.688
     -2502.133       -1949.615          43.400          29.700
 119262242.816 7  92931647.42245  22694849.984                    22694855.406
     -2833.762       -2208.073          45.900          31.500
 126150192.296 6  98298909.24843  24005590.297                    24005594.707
      3189.410        2485.357          37.400          18.600
 18  2 21  9 43  0.0000000  0  7G07G13G05G30G02G09G28
 110200620.932 8  85870642.39246  20970481.523                    20970485.586
     -1194.641        -930.727          52.200          41.800
 121265813.225 7  94492746.64445  23076086.914                    23076090.734
      2947.309        2296.686          44.500          31.600
 108996213.132 8  84932144.73446  20741294.352                    20741298.383
      1245.777         970.958          51.100          41.700
 107152846.645 8  83495761.58447  20390508.031                    20390514.082
       496.293         386.967          53.300          45.800
 121086371.920 7  94353072.95144  23041988.672                    23041990.145
     -2512.687       -1957.812          44.000          28.200
 119347331.562 7  92997950.32245  22711041.500                    22711046.820
     -2838.902       -2212.051          45.200          32.600
 126054558.934 6  98224389.81043  23987392.602                    23987396.332
      3185.988        2482.663          37.800          19.300
 18  2 21  9 43 30.0000000  0  7G07G13G05G30G02G09G28
 110236683.987 8  85898743.46147  20977344.172                    20977347.922
     -1209.520        -942.347          53.000          42.000
 121177468.771 7  94423906.82745  23059275.375                    23059279.277
      2942.324        2292.705          45.700          31.100
 108959085.017 8  84903213.72346  20734229.016                    20734233.316
      1229.488         958.139          50.700          41.600
 107138225.961 8  83484368.85147  20387725.492                    20387731.914
       478.449         372.971          53.400          45.700
 121161907.248 7  94411931.59444  23056362.516                    23056364.148
     -2522.961       -1965.898          43.000          29.800
 119432572.994 7  93064372.18945  22727262.563                    22727268.199
     -2843.820       -2215.987          44.400          32.000
 125959032.163 5  98149953.41743  23969213.836                    23969218.070
      3182.617        2479.827          35.100          19.300
 18  2 21  9 44  0.0000000  0  7G07G13G05G30G02G09G28
 110273194.242 8  85927192.99646  20984291.719                    20984295.555
     -1224.480        -953.881          53.000          41.800
 121089279.160 7  94355187.68545  23042493.594                    23042497.305
      2937.000        2288.726          45.500          31.400
 108922451.711 8  84874668.29146  20727258.141                    20727262.355
      1212.816         945.331          51.100          41.700
 107124143.652 8  83473395.61347  20385045.781                    20385051.875
       460.461         359.067          53.600          45.600
 121237753.082 7  94471032.19844  23070795.258                    23070796.918
     -2533.316       -1973.883          43.500          28.700
 119517966.339 7  93130912.42345  22743512.367                    22743517.555
     -2848.980       -2219.872          45.100          32.100
 125863615.296 6  98075602.66943  23951057.266                    23951061.117
      3178.820        2476.954          38.400          19.000
 18  2 21  9 44 30.0000000  0  7G07G13G05G30G02G09G28
 110310149.462 8  85955989.24446  20991323.875                    20991327.652
     -1239.246        -965.443          52.900          40.900
 121001244.139 7  94286588.96645  23025741.422                    23025744.637
      2931.941        2284.696          45.500          32.000
 108886314.251 8  84846509.23246  20720381.547                    20720385.559
      1196.309         932.413          52.100          41.600
 107110599.141 8  83462841.43947  20382468.461                    20382474.676
       442.445         345.053          53.500          45.300
 121313906.403 7  94530372.40044  23085287.547                    23085288.723
     -2543.645       -1981.834          42.800          28.800
 119603510.238 7  93197569.98545  22759790.914                    22759796.113
     -2853.910       -2223.802          44.900          31.800
 125768310.209 6  98001338.96243  23932921.063                    23932924.711
      3174.879        2473.994          40.300          20.900
 18  2 21  9 45  0.0000000  0  7G07G13G05G30G02G09G28
 110347548.977 8  85985131.70446  20998440.953                    20998444.473
     -1254.090        -976.983          52.700          41.100
 120913366.055 7  94218112.56845  23009018.406                    23009021.828
      2926.461        2280.551          45.400          31.500
 108850674.806 8  84818738.22746  20713599.180                    20713603.461
      1179.516         919.419          51.400          41.700
 107097593.071 8  83452706.85147  20379993.648                    20379999.859
       424.422         331.047          53.500          45.300
 121390365.001 7  94589950.47844  23099836.898                    23099838.375
     -2553.836       -1989.784          43.200          29.700
 119689204.691 7  93264344.86245  22776097.180                    22776103.605
     -2859.113       -2227.725          45.200          30.400
 125673121.038 6  97927165.64943  23914807.383                    23914811.832
      3170.875        2470.936          40.700          19.900
 18  2 21  9 45 30.0000000  0  7G07G13G05G30G02G09G28
 110385391.201 8  86014619.14246  21005642.250                    21005645.660
     -1268.820        -988.493          52.500          41.400
 120825645.372 7  94149758.79745  22992325.586                    22992329.578
      2921.320        2276.466          45.400          30.600
 108815535.142 8  84791356.66647  20706912.914                    20706917.059
      1162.859         906.405          51.900          42.000
 107085125.043 8  83442991.49447  20377620.891                    20377626.746
       406.516         317.057          53.600          46.400
 121467126.279 7  94649764.40945  23114444.547                    23114445.797
     -2563.840       -1997.608          42.600          30.000
 119775048.576 7  93331236.16945  22792433.297                    22792439.344
     -2864.168       -2231.637          45.100          30.600
 125578050.324 6  97853084.59343  23896715.359                    23896720.523
      3166.961        2467.843          39.800          21.300
 18  2 21  9 46  0.0000000  0  7G07G13G05G30G02G09G28
 110423674.432 8  86044450.21546  21012927.148                    21012930.777
     -1283.469        -999.886          52.100          41.200
 120738082.672 7  94081528.12545  22975663.219                    22975666.703
      2916.160        2272.379          46.000          30.900
 108780896.538 8  84764365.55147  20700321.641                    20700325.227
      1146.227         893.410          53.000          43.000
 107073195.004 8  83433695.37347  20375350.867                    20375356.891
       388.707         303.123          53.900          45.600
 121544187.195 7  94709811.83045  23129108.633                    23129109.668
     -2573.719       -2005.329          43.300          30.300
 119861041.136 7  93398243.31845  22808796.719                    22808803.375
     -2868.953       -2235.431          46.000          31.300
 125483100.924 6  97779098.10443  23878647.367                    23878652.383
      3162.855        2464.674          41.300          21.700
 18  2 21  9 46 30.0000000  0  7G07G13G05G30G02G09G28
 110462397.473 8  86074624.00046  21020295.492                    21020299.359
     -1298.086       -1011.300          52.600          40.900
 120650678.791 7  94013421.22145  22959030.563                    22959034.527
      2910.824        2268.227          46.200          30.600
 108746760.632 8  84737766.13947  20693825.781                    20693829.270
      1129.465         880.312          52.800          43.100
 107061802.832 8  83424818.35647  20373182.789                    20373189.332
       370.750         289.146          53.700          45.100
 121621545.120 7  94770090.68745  23143829.359                    23143830.445
     -2583.355       -2013.001          43.800          31.400
 119947181.605 7  93465365.71245  22825189.406                    22825195.750
     -2873.719       -2239.249          46.300          31.500
 125388276.066 6  97705208.64143  23860603.273                    23860607.438
      3158.711        2461.407          38.700          21.100
 18  2 21  9 47  0.0000000  0  7G07G13G05G30G02G09G28
 110501558.611 8  86105139.16746  21027747.789                    21027751.324
     -1312.770       -1022.666          52.800          40.900
 120563434.493 7  93945438.66144  22942429.133                    22942432.621
      2905.426        2264.088          46.100          29.800
 108713128.630 8  84711559.38347  20687425.945                    20687429.273
      1112.508         867.212          52.700          43.400
 107050948.053 8  83416360.08147  20371117.484                    20371123.082
       352.789         275.187          53.400          45.500
 121699197.244 7  94830598.78845  23158605.938                    23158607.414
     -2593.395       -2020.599          42.800          31.200
 120033468.989 7  93532602.57045  22841609.477                    22841615.102
     -2878.762       -2243.078          45.800          32.200
 125293578.561 6  97631418.42543  23842582.273                    23842587.641
      3154.426        2458.029          39.400          21.800
 18  2 21  9 47 30.0000000  0  7G07G13G05G30G02G09G28
 110541156.081 8  86135994.32646  21035283.055                    21035286.281
     -1327.203       -1033.957          53.300          41.300
 120476350.618 7  93877581.09944  22925857.055                    22925860.785
      2900.043        2259.929          45.500          29.300
 108680001.870 8  84685746.32447  20681122.070                    20681125.957
      1095.809         854.109          52.300          43.000
 107040630.562 8  83408320.48247  20369153.758                    20369159.230
       334.902         261.259          53.200          45.300
 121777140.677 7  94891333.87945  23173438.555                    23173439.672
     -2602.965       -2028.119          44.900          32.500
 120119902.409 7  93599953.27045  22858056.672                    22858063.160
     -2883.562       -2246.845          45.500          31.800
 125199011.122 6  97557729.56443  23824587.156                    23824592.004
      3150.004        2454.650          39.200          22.300
 18  2 21  9 48  0.0000000  0  7G07G13G05G30G02G09G28
 110581188.644 8  86167188.51846  21042900.953                    21042904.133
     -1341.633       -1045.224          53.500          41.200
 120389427.773 7  93809849.02144  22909316.133                    22909319.738
      2894.688        2255.728          45.500          29.100
 108647382.267 8  84660328.45147  20674914.859                    20674918.535
      1078.887         840.912          52.400          43.600
 107030850.170 8  83400699.38647  20367292.852                    20367298.770
       317.109         247.324          52.500          45.700
 121855372.834 7  94952293.95845  23188325.531                    23188326.711
     -2612.488       -2035.582          43.000          32.800
 120206481.208 7  93667417.20345  22874532.664                    22874538.113
     -2888.355       -2250.594          44.600          33.000
 125104576.778 6  97484144.38543  23806616.766                    23806621.582
      3145.574        2451.181          39.300          21.500
 18  2 21  9 48 30.0000000  0  7G07G13G05G30G02G09G28
 110621654.603 8  86198720.42346  21050601.773                    21050605.051
     -1356.109       -1056.500          53.700          41.600
 120302667.296 7  93742243.47045  22892805.703                    22892810.102
      2889.320        2251.461          45.400          30.700
 108615271.422 8  84635307.01247  20668803.859                    20668808.293
      1061.836         827.656          52.000          43.600
 107021606.610 8  83393496.61747  20365533.516                    20365539.922
       299.156         233.345          52.800          45.000
 121933891.069 7  95013476.95345  23203267.211                    23203268.773
     -2622.012       -2043.003          43.800          32.100
 120293204.458 7  93734993.70845  22891036.164                    22891041.258
     -2893.238       -2254.359          45.000          32.600
 125010278.467 6  97410665.20743  23788671.500                    23788677.504
      3140.918        2447.568          38.100          22.000
 18  2 21  9 49  0.0000000  0  7G07G13G05G30G02G09G28
 110662552.632 9  86230589.00446  21058384.617                    21058387.059
     -1370.422       -1067.674          54.300          41.600
 120216069.831 7  93674764.94345  22876327.414                    22876331.090
      2883.801        2247.259          45.900          30.200
 108583670.603 8  84610682.99347  20662790.500                    20662794.633
      1044.777         814.425          51.200          43.500
 107012899.570 8  83386711.90847  20363876.813                    20363882.953
       281.281         219.451          53.000          45.600
 122012692.357 7  95074880.51445  23218262.188                    23218263.746
     -2631.363       -2050.288          43.600          32.100
 120380071.404 7  93802682.19245  22907565.172                    22907571.664
     -2897.980       -2258.060          44.500          31.700
 124916119.135 6  97337294.35243  23770753.688                    23770759.438
      3136.211        2443.953          39.600          22.200
 18  2 21  9 49 30.0000000  0  7G07G13G05G30G02G09G28
 110703880.780 9  86262792.74047  21066249.133                    21066252.469
     -1384.801       -1078.855          54.500          42.100
 120129636.201 7  93607414.08645  22859879.906                    22859883.465
      2878.336        2242.963          46.400          31.100
 108552581.362 8  84586457.61147  20656874.602                    20656878.188
      1027.695         801.083          52.400          43.600
 107004728.926 8  83380345.17647  20362322.125                    20362328.285
       263.398         205.491          53.600          45.400
 122091773.987 7  95136502.52845  23233310.992                    23233312.605
     -2640.785       -2057.549          44.600          31.300
 120467081.346 7  93870482.10145  22924123.406                    22924129.535
     -2902.785       -2261.786          44.100          32.200
 124822101.709 6  97264034.06043  23752862.734                    23752868.438
      3131.457        2440.218          39.200          21.800
 18  2 21  9 50  0.0000000  0  7G07G13G05G30G02G09G28
 110745637.506 9  86295330.43547  21074195.289                    21074198.328
     -1398.867       -1089.945          54.600          42.100
 120043366.901 7  93540191.26945  22843463.000                    22843466.242
      2873.031        2238.703          46.300          31.000
 108522004.860 8  84562631.76547  20651055.828                    20651059.875
      1010.738         787.757          52.000          43.000
 106997094.013 8  83374395.89247  20360869.242                    20360875.582
       245.730         191.606          53.200          46.100
 122171132.910 7  95198340.61545  23248412.141                    23248414.234
     -2649.730       -2064.717          44.400          31.600
 120554233.113 7  93938392.51845  22940708.172                    22940714.266
     -2907.297       -2265.450          43.300          32.900
 124728228.774 6  97190886.37643  23734999.922                    23735004.699
      3126.875        2436.425          38.800          22.800
 18  2 21  9 50 30.0000000  0  7G07G13G05G30G02G09G28
 110787821.717 8  86328201.24347  21082222.406                    21082225.652
     -1413.246       -1101.041          53.800          42.600
 119957263.058 7  93473097.38245  22827078.266                    22827081.434
      2867.352        2234.358          46.000          31.500
 108491942.913 8  84539206.86547  20645335.445                    20645339.371
       993.434         774.351          52.200          44.100
 106989994.948 8  83368864.16247  20359518.352                    20359524.934
       227.645         177.664          53.800          45.900
 122250767.030 7  95260393.14145  23263566.297                    23263568.270
     -2659.023       -2071.857          43.600          31.500
 120641526.293 7  94006413.14145  22957319.438                    22957325.680
     -2912.172       -2269.129          43.400          32.600
 124634504.226 6  97117854.28843  23717165.086                    23717168.988
      3121.633        2432.529          38.600          22.600
 18  2 21  9 51  0.0000000  0  7G07G13G05G30G02G09G28
 110830431.477 9  86361403.63947  21090331.078                    21090334.258
     -1427.453       -1112.112          54.300          42.300
 119871325.291 7  93406132.90145  22810724.344                    22810727.965
      2861.852        2230.033          46.400          31.400
 108462396.681 8  84516183.81947  20639712.898                    20639716.445
       976.254         760.925          52.100          43.800
 106983431.069 9  83363749.44747  20358269.422                    20358275.543
       209.953         163.769          54.000          46.000
 122330673.068 7  95322657.56545  23278772.164                    23278774.148
     -2667.965       -2078.912          43.800          30.700
 120728959.807 7  94074543.09145  22973957.836                    22973963.285
     -2916.848       -2272.787          44.300          32.400
 124540929.981 6  97044939.34443  23699357.773                    23699362.480
      3116.637        2428.603          38.500          22.800
 18  2 21  9 51 30.0000000  0  7G07G13G05G30G02G09G28
 110873465.049 8  86394936.29346  21098519.922                    21098523.340
     -1441.621       -1123.067          53.500          41.400
 119785554.479 7  93339298.52645  22794402.992                    22794406.344
      2856.164        2225.693          46.000          32.200
 108433367.254 8  84493563.47447  20634189.203                    20634192.793
       959.039         747.504          50.500          43.500
 106977402.111 8  83359051.55247  20357121.945                    20357128.258
       191.957         149.871          53.900          46.000
 122410848.005 7  95385131.49644  23294028.500                    23294031.051
     -2677.039       -2085.822          43.700          29.700
 120816532.852 7  94142781.80345  22990621.766                    22990628.262
     -2921.449       -2276.377          43.000          33.000
 124447509.269 6  96972144.03544  23681581.156                    23681584.148
      3111.445        2424.548          38.800          24.500
 18  2 21  9 52  0.0000000  0  8G07G13G05G30G02G09G28G20
 110916921.170 8  86428798.20746  21106789.281                    21106792.527
     -1455.582       -1134.014          53.000          41.800
 119699951.800 7  93272595.15845  22778113.398                    22778116.871
      2850.496        2221.326          46.300          32.400
 108404856.361 8  84471347.18647  20628763.672                    20628767.293
       941.707         734.031          51.500          43.900
 106971907.767 8  83354770.24547  20356076.484                    20356082.566
       174.227         136.003          53.000          46.300
 122491289.315 7  95447813.00344  23309336.000                    23309338.422
     -2685.812       -2092.679          44.100          28.900
 120904244.846 7  94211128.74945  23007313.234                    23007319.277
     -2925.988       -2279.955          43.300          33.100
 124354245.063 6  96899470.69443  23663832.969                    23663836.555
      3106.230        2420.474          40.000          23.300
 128436229.017 6 100080225.57843  24440612.633                    24440616.629
      3554.770        2769.951          38.100          19.000
 18  2 21  9 52 30.0000000  0  8G07G13G05G30G02G09G28G20
 110960797.771 8  86462987.77046  21115138.336                    21115142.082
     -1469.687       -1144.930          53.100          41.700
 119614517.647 7  93206023.10245  22761855.914                    22761859.758
      2844.926        2216.949          45.500          32.400
 108376865.192 8  84449535.89147  20623437.313                    20623440.527
       924.273         720.492          50.200          43.300
 106966947.504 8  83350905.10047  20355132.844                    20355139.023
       156.305         122.128          53.500          46.700
 122571993.875 7  95510699.62544  23324693.781                    23324696.090
     -2694.547       -2099.521          44.300          29.300
 120992094.718 7  94279583.16645  23024030.305                    23024036.590
     -2930.770       -2283.545          44.200          32.600
 124261140.513 6  96826921.73743  23646115.289                    23646119.289
      3100.820        2416.275          41.300          23.800
 128329654.726 6  99997180.66243  24420332.859                    24420336.695
      3549.965        2766.464          39.200          19.900
 18  2 21  9 53  0.0000000  0  8G07G13G05G30G02G09G28G20
 111005093.806 8  86497504.15446  21123567.352                    21123571.383
     -1483.613       -1155.801          52.400          40.900
 119529253.147 7  93139583.24945  22745630.203                    22745634.219
      2839.258        2212.505          46.800          32.200
 108349395.566 8  84428130.97547  20618209.453                    20618213.363
       906.875         706.941          52.600          44.000
 106962521.130 8  83347455.97447  20354290.297                    20354296.582
       138.527         108.256          53.300          45.800
 122652959.269 7  95573789.49444  23340101.102                    23340103.305
     -2703.273       -2106.268          45.200          29.300
 121080081.955 7  94348144.61245  23040773.086                    23040780.195
     -2935.316       -2287.120          42.500          33.000
 124168198.348 6  96754499.35444  23628429.711                    23628433.598
      3095.324        2412.003          41.600          24.200
 128223217.413 6  99914242.50543  24400077.773                    24400082.941
      3545.430        2762.854          37.100          20.100
 18  2 21  9 53 30.0000000  0  8G07G13G05G30G02G09G28G20
 111049807.285 8  86532345.84646  21132076.320                    21132079.898
     -1497.531       -1166.669          52.000          40.600
 119444158.889 7  93073276.05145  22729437.484                    22729441.078
      2833.445        2208.044          46.900          31.300
 108322448.306 8  84407133.10947  20613081.953                    20613085.453
       889.309         693.308          52.500          43.800
 106958627.968 8  83344422.34047  20353549.523                    20353555.492
       120.734          94.379          53.600          45.600
 122734182.456 7  95637080.23444  23355557.320                    23355559.203
     -2711.793       -2112.934          44.100          29.500
 121168205.466 7  94416812.23845  23057543.016                    23057549.926
     -2939.922       -2290.678          43.200          32.800
 124075421.360 7  96682205.64444  23610774.453                    23610778.207
      3089.590        2407.675          42.000          25.800
 128116919.049 6  99831412.57643  24379850.375                    24379854.051
      3540.672        2759.183          36.900          19.300
 18  2 21  9 54  0.0000000  0  8G07G13G05G30G02G09G28G20
 111094936.516 8  86567511.47846  21140663.719                    21140667.742
     -1511.230       -1177.356          51.800          40.500
 119359235.691 7  93007102.14545  22713276.961                    22713280.867
      2827.906        2203.675          45.800          31.800
 108296025.098 8  84386543.59047  20608053.883                    20608057.203
       871.961         679.760          52.200          44.300
 106955267.567 8  83341803.84047  20352909.953                    20352915.957
       103.094          80.622          52.600          46.300
 122815660.586 7  95700569.65244  23371062.125                    23371064.289
     -2720.203       -2119.485          43.900          27.900
 121256464.516 7  94485585.47845  23074338.398                    23074344.559
     -2944.332       -2294.114          44.200          33.600
 123982812.771 7  96610043.16944  23593150.867                    23593155.754
      3084.086        2403.324          43.000          24.600
 128010761.964 5  99748692.82443  24359649.031                    24359653.574
      3535.961        2755.529          35.800          19.000
 18  2 21  9 54 30.0000000  0  8G07G13G05G30G02G09G28G20
 111140479.918 8  86602999.83446  21149330.227                    21149334.223
     -1525.039       -1188.143          51.600          40.400
 119274484.653 7  92941062.39845  22697149.352                    22697153.211
      2822.090        2199.130          45.800          32.100
 108270127.241 8  84366363.44147  20603125.477                    20603129.281
       854.473         666.059          52.300          43.500
 106952439.708 8  83339600.32047  20352372.094                    20352377.996
        85.359          66.749          53.100          45.800
 122897391.051 7  95764255.68444  23386615.227                    23386617.094
     -2728.559       -2126.049          43.900          28.600
 121344858.479 7  94554463.84645  23091159.023                    23091165.668
     -2948.789       -2297.662          45.700          33.300
 123890375.101 7  96538013.87244  23575560.430                    23575564.668
      3078.199        2398.751          42.200          24.400
 127904748.764 6  99666085.18943  24339477.195                    24339480.090
      3531.262        2751.731          39.500          20.400
 18  2 21  9 55  0.0000000  0  8G07G13G05G30G02G09G28G20
 111186435.663 8  86638809.50046  21158075.242                    21158079.113
     -1538.750       -1198.825          51.600          39.900
 119189906.202 7  92875157.11645  22681054.844                    22681058.324
      2816.375        2194.677          47.600          32.300
 108244755.451 8  84346593.21547  20598297.641                    20598301.223
       836.898         652.399          53.100          42.800
 106950143.548 8  83337811.10547  20351935.219                    20351941.301
        67.652          52.968          53.200          46.000
 122979370.575 7  95828135.78144  23402214.844                    23402217.320
     -2736.879       -2132.439          44.400          28.700
 121433386.236 7  94623446.47845  23108005.602                    23108012.191
     -2953.223       -2301.088          46.100          32.500
 123798111.239 7  96466120.02644  23558003.180                    23558008.266
      3072.574        2394.251          43.000          26.000
 127798881.379 6  99583591.07443  24319330.164                    24319333.496
      3526.313        2747.956          38.100          21.100
 18  2 21  9 55 30.0000000  0  8G07G13G05G30G02G09G28G20
 111232802.399 8  86674939.41546  21166898.164                    21166902.457
     -1552.352       -1209.462          51.000          39.700
 119105501.601 7  92809387.30645  22664992.820                    22664996.555
      2810.602        2190.168          47.400          31.900
 108219911.263 8  84327234.10947  20593569.469                    20593573.098
       819.320         638.691          53.200          43.000
 106948378.814 9  83336435.98747  20351599.281                    20351605.031
        49.980          39.181          54.600          46.400
 123061596.448 7  95892207.82944  23417862.023                    23417863.859
     -2744.871       -2138.759          44.300          27.600
 121522047.218 7  94692532.91345  23124877.180                    23124884.016
     -2957.578       -2304.537          46.700          33.000
 123706024.568 7  96394364.25344  23540479.352                    23540485.289
      3066.379        2389.577          42.200          25.300
 127693162.465 6  99501212.72643  24299212.680                    24299215.660
      3521.418        2744.081          39.200          21.500
 18  2 21  9 56  0.0000000  0  8G07G13G05G30G02G09G28G20
 111279578.463 8  86711388.28146  21175799.953                    21175803.430
     -1566.043       -1220.092          51.200          40.200
 119021271.648 7  92743753.57745  22648964.859                    22648968.258
      2804.758        2185.590          47.600          31.900
 108195596.321 8  84308287.39947  20588942.773                    20588946.098
       801.625         624.894          52.600          42.400
 106947145.074 9  83335474.63047  20351364.352                    20351370.828
        32.301          25.376          54.400          46.700
 123144065.680 7  95956469.54244  23433555.297                    23433557.340
     -2753.121       -2145.112          44.300          27.700
 121610840.693 7  94761722.59445  23141773.617                    23141780.496
     -2962.035       -2307.993          46.400          32.600
 123614117.606 6  96322748.48344  23522990.297                    23522995.539
      3060.492        2384.915          41.100          24.100
 127587594.420 6  99418951.89843  24279122.906                    24279126.777
      3516.324        2740.120          37.000          20.100
 18  2 21  9 56 30.0000000  0  8G07G13G05G30G02G09G28G20
 111326761.896 8  86748154.57746  21184778.813                    21184782.414
     -1579.613       -1230.646          51.400          39.900
 118937217.027 7  92678256.47945  22632969.477                    22632973.391
      2798.895        2181.056          47.600          32.200
 108171811.513 8  84289753.78547  20584416.430                    20584419.641
       784.000         611.136          53.000          42.600
 106946441.647 8  83334926.50447  20351230.414                    20351236.813
        14.625          11.625          53.500          46.500
 123226775.965 7  96020919.06844  23449294.656                    23449296.320
     -2761.109       -2151.308          43.700          27.300
 121699765.733 7  94831014.79545  23158695.758                    23158702.359
     -2966.301       -2311.353          46.800          32.800
 123522393.259 6  96251275.02544  23505535.094                    23505540.449
      3054.227        2380.111          38.900          24.700
 127482179.291 6  99336810.25043  24259063.797                    24259067.438
      3511.250        2736.128          36.700          19.300
 18  2 21  9 57  0.0000000  0  8G07G13G05G30G02G09G28G20
 111374351.291 8  86785237.18646  21193834.656                    21193838.574
     -1593.129       -1241.184          52.400          40.800
 118853338.520 7  92612896.63045  22617007.602                    22617011.730
      2792.965        2176.412          46.900          32.600
 108148558.579 8  84271634.60747  20579991.672                    20579994.918
       766.203         597.276          52.800          42.900
 106946268.112 8  83334791.27947  20351197.555                    20351203.988
        -3.055          -2.153          53.200          46.600
 123309724.100 7  96085553.92844  23465079.742                    23465080.820
     -2768.852       -2157.471          44.300          27.700
 121788821.697 7  94900409.00945  23175642.859                    23175649.398
     -2970.621       -2314.790          46.300          32.600
 123430854.888 6  96179946.48044  23488116.875                    23488121.383
      3048.051        2375.234          39.300          24.000
 127376919.320 6  99254789.52043  24239034.234                    24239036.680
      3505.949        2732.015          38.700          20.600
 18  2 21  9 57 30.0000000  0  8G07G13G05G30G02G09G28G20
 111422344.739 8  86822634.66646  21202967.969                    21202971.395
     -1606.551       -1251.651          52.300          41.300
 118769636.940 7  92547674.63045  22601079.672                    22601083.688
      2787.047        2171.836          45.700          32.400
 108125837.851 8  84253930.14047  20575668.102                    20575670.938
       748.414         583.456          52.200          42.600
 106946623.683 8  83335068.34847  20351265.297                    20351271.418
       -20.719         -15.875          53.400          46.800
 123392906.990 7  96150371.71744  23480908.570                    23480909.902
     -2776.609       -2163.509          44.000          26.500
 121878007.584 7  94969904.46345  23192613.867                    23192621.105
     -2974.977       -2318.147          45.500          32.500
 123339505.331 6  96108765.07443  23470732.695                    23470738.043
      3041.688        2370.342          39.400          22.600
 127271817.384 6  99172891.90943  24219033.305                    24219036.258
      3500.695        2727.927          38.900          21.700
 18  2 21  9 58  0.0000000  0  8G07G13G05G30G02G09G28G20
 111470740.438 8  86860345.59746  21212177.336                    21212181.031
     -1619.852       -1262.062          52.200          41.400
 118686113.033 7  92482591.09445  22585185.766                    22585189.273
      2781.195        2167.224          46.800          33.100
 108103650.928 8  84236641.63047  20571446.063                    20571449.281
       730.641         569.566          52.600          42.900
 106947507.837 8  83335757.30147  20351433.734                    20351439.629
       -38.270         -29.595          52.700          46.500
 123476321.883 7  96215370.28544  23496782.055                    23496783.727
     -2784.262       -2169.505          43.800          26.200
 121967322.631 7  95039500.56145  23209610.234                    23209616.961
     -2979.289       -2321.477          44.700          32.400
 123248347.286 6  96037732.87043  23453386.078                    23453391.207
      3035.270        2365.323          39.500          23.000
 127166875.600 6  99091119.11243  24199064.125                    24199066.723
      3495.348        2723.731          39.400          22.000
 18  2 21  9 58 30.0000000  0  8G07G13G05G30G02G09G28G20
 111519537.039 8  86898368.93746  21221463.383                    21221466.809
     -1633.316       -1272.452          53.500          41.300
 118602768.024 7  92417646.95145  22569325.805                    22569329.777
      2775.078        2162.568          46.600          32.500
 108081999.154 8  84219770.10547  20567325.586                    20567329.129
       712.695         555.681          52.100          42.800
 106948920.075 8  83336857.75347  20351702.211                    20351708.246
       -55.969         -43.301          52.300          46.100
 123559965.932 7  96280547.41244  23512699.125                    23512700.707
     -2792.004       -2175.404          43.600          26.400
 122056766.214 7  95109196.80345  23226631.055                    23226637.770
     -2983.711       -2324.800          44.900          32.800
 123157383.366 6  95966851.93244  23436076.141                    23436081.473
      3028.805        2360.279          39.600          25.400
 127062096.189 6  99009472.84243  24179124.398                    24179127.375
      3489.758        2719.508          39.000          19.300
 18  2 21  9 59  0.0000000  0  8G07G13G05G30G02G09G28G20
 111568733.025 8  86936703.46646  21230825.047                    21230828.754
     -1646.551       -1282.811          52.500          41.800
 118519602.662 7  92352842.78645  22553500.016                    22553503.715
      2769.035        2157.889          45.100          32.800
 108060883.445 8  84203316.31347  20563307.406                    20563311.086
       694.805         541.731          51.700          43.100
 106950859.624 8  83338369.09347  20352071.031                    20352077.305
       -73.484         -56.991          51.900          46.000
 123643836.433 7  96345900.97244  23528659.969                    23528660.785
     -2799.496       -2181.250          43.300          26.500
 122146337.342 7  95178992.44145  23243675.805                    23243682.898
     -2987.949       -2328.110          44.400          33.000
 123066616.666 6  95896124.71044  23418803.914                    23418809.234
      3022.109        2355.078          39.400          24.300
 126957481.197 6  98927954.66543  24159217.156                    24159219.734
      3484.367        2715.199          38.000          19.000
 18  2 21  9 59 30.0000000  0  8G07G13G05G30G02G09G28G20
 111618326.150 8  86975347.46146  21240262.008                    21240265.918
     -1659.621       -1293.085          53.000          41.700
 118436617.646 7  92288179.15245  22537708.313                    22537712.184
      2763.168        2153.196          45.200          32.900
 108040305.208 8  84187281.31647  20559391.461                    20559395.551
       677.055         527.762          52.300          43.400
 106953326.042 8  83340290.97847  20352540.688                    20352546.578
       -90.910         -70.646          52.200          45.600
 123727930.412 7  96411428.68044  23544662.328                    23544663.293
     -2806.723       -2187.024          43.000          26.900
 122236035.441 7  95248887.02945  23260744.555                    23260751.715
     -2991.969       -2331.398          45.400          31.800
 122976050.292 6  95825553.54644  23401570.125                    23401574.074
      3015.613        2349.851          40.400          25.600
 126853034.050 6  98846567.27543  24139341.547                    24139343.781
      3478.988        2710.827          40.500          19.900
                            4  1
RINEX FILE SPLICE; other post-header comments skipped       COMMENT
 18  2 21 10  0  0.0000000  0  8G07G13G05G30G02G09G28G20
 111668314.922 8  87014299.74746  21249774.719                    21249778.621
     -1673.008                          51.400          41.200
 118353813.805 7  92223656.69545  22521951.469                    22521955.395
      2757.074                          45.200          32.500
 108020265.297 8  84171665.79647  20555577.773                    20555581.930
       659.031                          52.000          43.500
 106956318.626 8  83342622.86347  20353110.008                    20353115.957
      -108.625                          52.100          46.000
 123812245.002 6  96477128.30244  23560706.547                    23560708.082
     -2814.191                          41.700          26.200
 122325859.732 7  95318879.90445  23277838.641                    23277844.949
     -2996.371                          45.400          31.400
 122885687.069 6  95755140.68844  23384373.555                    23384378.094
      3008.555                          40.100          25.100
 126748756.491 6  98765312.05343  24119498.039                    24119500.520
      3473.066                          41.700          21.500
 18  2 21 10  0 30.0000000  0  8G07G13G05G30G02G09G28G20
 111718697.666 8  87053559.03346  21259361.742                    21259365.969
     -1685.875       -1313.554          52.100          41.500
 118271192.262 7  92159276.28245  22506229.094                    22506233.160
      2751.125        2143.763          44.700          32.800
 108000765.189 8  84156470.90647  20551867.188                    20551871.492
       641.176         499.730          52.200          43.600
 106959836.628 8  83345364.16547  20353779.070                    20353785.477
      -125.859         -97.956          53.600          46.000
 123896777.264 6  96542997.52744  23576792.250                    23576794.289
     -2821.277       -2198.344          41.800          26.800
 122415809.269 7  95388970.42045  23294954.133                    23294961.848
     -3000.348       -2337.906          45.400          31.900
 122795529.768 6  95684888.29044  23367217.438                    23367221.477
      3001.832        2339.153          41.100          25.300
 126644651.015 6  98684190.88143  24099687.570                    24099691.145
      3467.406        2701.894          39.600          22.500
 18  2 21 10  1  0.0000000  0  8G07G13G05G30G02G09G28G20
 111769472.539 8  87093123.86446  21269024.094                    21269028.215
     -1699.102       -1323.728          51.400          40.700
 118188753.484 7  92095038.28545  22490541.570                    22490545.520
      2744.895        2138.955          44.400          32.600
 107981805.858 8  84141697.40347  20548259.508                    20548263.559
       622.961         485.667          52.700          44.300
 106963879.490 8  83348514.44347  20354548.766                    20354554.613
      -143.484        -111.587          52.300          45.800
 123981524.261 7  96609034.07744  23592919.359                    23592920.941
     -2828.559       -2203.903          42.100          25.700
 122505883.501 7  95459158.09045  23312095.227                    23312102.156
     -3004.637       -2341.143          46.000          31.200
 122705581.499 7  95614798.79244  23350101.563                    23350105.703
      2994.824        2333.672          43.300          26.800
 126540719.912 6  98603205.66443  24079909.875                    24079913.074
      3461.301        2697.299          39.700          21.500
 18  2 21 10  1 30.0000000  0  8G07G13G05G30G02G09G28G20
 111820637.876 8  87132992.95746  21278760.180                    21278764.328
     -1712.062       -1333.853          51.300          40.500
 118106498.668 7  92030943.61945  22474888.961                    22474892.801
      2738.691        2134.170          46.000          32.800
 107963388.138 8  84127345.92647  20544754.367                    20544759.039
       604.863         471.577          52.800          43.600
 106968446.411 8  83352073.07947  20355417.953                    20355423.699
      -161.027        -125.199          53.000          45.700
 124066483.066 7  96675235.67544  23609086.242                    23609088.293
     -2835.512       -2209.356          42.800          24.200
 122596081.434 7  95529442.13945  23329259.344                    23329266.371
     -3008.680       -2344.343          45.800          30.800
 122615844.896 7  95544874.19244  23333024.453                    23333028.965
      2987.746        2328.157          44.200          27.000
 126436965.606 6  98522358.22643  24060166.359                    24060170.145
      3455.422        2692.686          38.400          19.300
 18  2 21 10  2  0.0000000  0  8G07G13G05G30G02G09G28G20
 111872191.946 8  87173164.94646  21288570.625                    21288574.242
     -1724.812       -1343.893          51.800          40.600
 118024428.749 7  91966993.03745  22459271.391                    22459275.094
      2732.668        2129.413          44.900          32.600
 107945513.486 8  84113417.61947  20541353.352                    20541357.328
       586.828         457.500          53.000          43.800
 106973536.802 8  83356039.61347  20356386.289                    20356392.367
      -178.309        -138.731          53.000          45.900
 124151651.145 7  96741600.35044  23625293.414                    23625295.016
     -2842.289       -2214.717          42.300          25.300
 122686402.546 7  95599822.18045  23346447.281                    23346453.336
     -3012.512       -2347.493          46.600          30.700
 122526322.968 7  95475116.89144  23315989.180                    23315993.871
      2980.465        2322.571          44.500          28.300
 126333390.643 6  98441650.47943  24040456.992                    24040459.500
      3449.602        2688.059          38.800          19.300
 18  2 21 10  2 30.0000000  0  8G07G13G05G30G02G09G28G20
 111924133.221 8  87213638.65646  21298454.945                    21298458.426
     -1737.668       -1353.970          51.700          40.200
 117942544.287 7  91903186.97445  22443689.375                    22443693.578
      2726.418        2124.526          44.700          32.600
 107928182.515 8  84099912.96447  20538055.148                    20538059.414
       568.738         443.318          52.300          43.500
 106979149.873 8  83360413.43847  20357454.688                    20357460.355
      -195.746        -152.349          53.400          45.600
 124237025.445 6  96808125.70244  23641540.250                    23641540.957
     -2849.105       -2220.049          41.900          24.600
 122776845.895 7  95670297.48144  23363656.766                    23363664.133
     -3016.668       -2350.676          45.400          29.700
 122437018.582 7  95405529.09344  23298996.195                    23299000.016
      2973.277        2316.841          45.300          29.200
 126229997.435 6  98361084.29043  24020781.258                    24020784.445
      3443.547        2683.257          39.400          19.900
 18  2 21 10  3  0.0000000  0  8G07G13G05G30G02G09G28G20
 111976459.683 8  87254412.51346  21308412.453                    21308415.707
     -1750.680       -1363.990          52.500          40.400
 117860846.211 7  91839526.13945  22428142.773                    22428146.953
      2720.109        2119.648          44.500          33.100
 107911396.697 8  84086833.09647  20534860.813                    20534865.027
       550.281         429.117          52.100          43.900
 106985284.791 8  83365193.89147  20358621.914                    20358627.977
      -213.270        -165.931          53.600          46.000
 124322602.788 6  96874809.30344  23657824.500                    23657826.082
     -2855.937       -2225.353          41.100          24.600
 122867410.779 7  95740867.45944  23380891.961                    23380897.855
     -3020.957       -2353.883          44.100          29.100
 122347934.733 7  95336113.14444  23282044.156                    23282048.250
      2965.707        2311.040          45.400          28.800
 126126788.376 6  98280661.64043  24001141.164                    24001144.141
      3437.094        2678.411          38.300          20.100
 18  2 21 10  3 30.0000000  0  8G07G13G05G30G02G09G28G20
 112029169.580 8  87295485.14946  21318442.859                    21318446.043
     -1763.285       -1373.916          51.900          41.000
 117779335.446 7  91776011.26245  22412631.352                    22412635.980
      2714.027        2114.781          44.700          33.300
 107895156.632 8  84074178.48147  20531770.453                    20531774.695
       532.359         414.930          52.400          43.600
 106991940.739 8  83370380.34647  20359888.422                    20359894.840
      -230.336        -179.441          53.700          45.800
 124408380.136 7  96941648.72443  23674147.258                    23674148.797
     -2862.410       -2230.502          42.100          23.500
 122958096.240 7  95811531.41644  23398148.586                    23398154.973
     -3024.711       -2356.992          44.800          28.000
 122259074.213 7  95266871.20244  23265134.367                    23265138.863
      2958.352        2305.189          45.600          29.700
 126023765.805 5  98200384.35643  23981535.766                    23981540.418
      3431.145        2673.577          35.500          19.300
 18  2 21 10  4  0.0000000  0  8G07G13G05G30G02G09G28G20
 112082261.532 8  87336855.48746  21328546.313                    21328549.375
     -1776.086       -1383.788          53.500          40.600
 117698013.097 7  91712643.21245  22397156.375                    22397160.797
      2707.648        2109.887          45.500          34.100
 107879463.734 8  84061950.24147  20528784.750                    20528788.469
       513.934         400.729          51.900          43.600
 106999117.316 8  83375972.48447  20361254.219                    20361260.492
      -247.906        -192.926          53.800          46.400
 124494355.148 6  97008642.19143  23690508.133                    23690509.637
     -2869.094       -2235.588          41.300          22.900
 123048901.921 7  95882289.02944  23415427.797                    23415434.863
     -3028.902       -2360.108          43.100          29.400
 122170440.069 7  95197805.67044  23248268.031                    23248272.539
      2950.672        2299.315          46.200          29.800
 125920932.259 6  98120254.39043  23961966.680                    23961972.117
      3424.543        2668.620          37.100          21.100
 18  2 21 10  4 30.0000000  0  8G07G13G05G30G02G09G28G20
 112135733.389 8  87378521.85746  21338721.805                    21338724.734
     -1788.699       -1393.591          53.200          40.800
 117616879.597 7  91649422.32545  22381716.859                    22381721.789
      2701.344        2105.016          45.700          34.000
 107864318.775 8  84050148.95447  20525902.164                    20525906.492
       495.766         386.530          50.800          43.200
 107006813.385 8  83381969.40947  20362718.813                    20362725.090
      -265.113        -206.364          53.300          45.700
 124580524.605 6  97075787.16443  23706905.805                    23706907.250
     -2875.602       -2240.562          40.100          22.300
 123139826.700 7  95953139.48044  23432730.250                    23432737.203
     -3032.781       -2363.128          44.500          27.800
 122082034.815 7  95128918.47645  23231444.609                    23231449.395
      2943.043        2293.380          46.200          30.000
 125818290.096 6  98040273.50543  23942435.266                    23942439.793
      3418.313        2663.640          38.900          22.600
 18  2 21 10  5  0.0000000  0  8G07G13G05G30G02G09G28G20
 112189583.336 8  87420482.85146  21348968.844                    21348971.891
     -1801.316       -1403.427          53.500          41.300
 117535936.038 7  91586349.42845  22366313.789                    22366318.797
      2694.945        2100.052          46.400          34.400
 107849722.951 8  84038775.57547  20523125.141                    20523129.246
       477.363         372.222          51.800          42.500
 107015028.197 8  83388370.56647  20364282.023                    20364288.309
      -282.465        -219.875          53.600          45.900
 124666885.740 6  97143081.50343  23723340.414                    23723341.121
     -2882.059       -2245.534          40.800          23.900
 123230869.943 7  96024082.18244  23450056.203                    23450062.172
     -3036.746       -2366.227          43.400          26.500
 121993861.749 7  95060212.22444  23214665.883                    23214670.559
      2935.227        2287.276          46.300          29.700
 125715841.828 6  97960443.67743  23922940.023                    23922944.082
      3411.773        2658.564          40.200          21.700
 18  2 21 10  5 30.0000000  0  8G07G13G05G30G02G09G28G20
 112243809.710 8  87462737.15546  21359287.930                    21359290.809
     -1813.793       -1413.189          53.900          40.700
 117455183.319 7  91523425.24445  22350947.289                    22350951.945
      2688.457        2095.077          46.000          34.700
 107835676.882 8  84027830.58447  20520451.930                    20520456.035
       458.965         357.910          51.300          42.600
 107023760.885 8  83395175.25447  20365943.484                    20365950.363
      -299.730        -233.317          53.300          46.200
 124753435.427 7  97210522.74843  23739810.320                    23739811.363
     -2888.121       -2250.378          42.000          21.700
 123322030.794 7  96095116.60144  23467402.898                    23467409.531
     -3040.699       -2369.296          43.400          25.700
 121905923.320 7  94991688.80445  23197931.461                    23197936.156
      2927.371        2281.136          46.400          30.400
 125613589.866 6  97880766.81943  23903482.633                    23903485.438
      3405.223        2653.456          37.900          19.600
 18  2 21 10  6  0.0000000  0  8G07G13G05G30G02G09G28G20
 112298410.629 8  87505283.31946  21369677.938                    21369681.504
     -1826.301       -1422.888          53.700          40.800
 117374621.815 7  91460650.05145  22335617.398                    22335622.262
      2682.250        2090.135          46.400          34.500
 107822181.514 8  84017314.70247  20517884.008                    20517887.906
       440.652         343.623          51.800          43.600
 107033010.498 8  83402382.74347  20367703.891                    20367710.797
      -316.965        -246.726          52.800          46.200
 124840170.968 6  97278108.84443  23756314.570                    23756316.547
     -2894.289       -2255.187          41.600          22.200
 123413308.400 7  96166241.93944  23484772.883                    23484779.180
     -3044.621       -2372.263          43.000          24.500
 121818222.559 7  94923350.57645  23181242.680                    23181247.496
      2919.320        2274.940          45.400          30.000
 125511536.537 6  97801244.78743  23884062.461                    23884065.867
      3398.414        2648.217          38.100          20.400
 18  2 21 10  6 30.0000000  0  8G07G13G05G30G02G09G28G20
 112353384.550 8  87548120.13646  21380139.102                    21380142.570
     -1838.578       -1432.531          53.300          40.900
 117294252.648 7  91398024.73445  22320322.930                    22320327.855
      2675.844        2085.110          46.100          34.200
 107809237.933 8  84007228.79247  20515421.016                    20515425.098
       422.375         329.306          52.200          42.900
 107042776.388 8  83409992.52547  20369562.328                    20369569.125
      -334.125        -260.109          53.500          46.400
 124927089.281 6  97345837.32143  23772855.695                    23772855.691
     -2900.145       -2259.829          41.400          22.600
 123504702.235 7  96237457.86044  23502164.609                    23502170.543
     -3048.293       -2375.286          42.600          25.700
 121730762.380 7  94855199.82344  23164599.570                    23164604.215
      2911.359        2268.667          45.000          29.600
 125409684.471 6  97721879.52244  23864679.906                    23864684.688
      3391.648        2642.969          41.000          24.000
 18  2 21 10  7  0.0000000  0  8G07G13G05G30G02G09G28G20
 112408729.473 8  87591246.03346  21390670.992                    21390674.344
     -1851.027       -1442.153          52.900          40.000
 117214077.008 7  91335550.22145  22305066.680                    22305070.992
      2669.203        2080.062          45.400          34.300
 107796846.418 8  83997573.06147  20513062.883                    20513066.828
       403.832         314.930          52.100          43.700
 107053057.487 9  83418003.77247  20371518.727                    20371525.207
      -351.316        -273.487          54.400          46.600
 125014187.119 6  97413705.77743  23789430.156                    23789430.746
     -2906.199       -2264.520          41.100          22.800
 123596211.324 6  96308763.63344  23519577.813                    23519584.094
     -3052.355       -2378.298          41.600          26.000
 121643545.475 7  94787238.62944  23148003.102                    23148007.090
      2903.117        2262.311          44.300          29.000
 125308036.038 7  97642672.96944  23845337.758                    23845342.574
      3384.855        2637.667          42.400          26.500
 18  2 21 10  7 30.0000000  0  8G07G13G05G30G02G09G28G20
 112464443.603 8  87634659.63446  21401272.672                    21401276.492
     -1863.195       -1451.727          53.000          40.100
 117134095.646 7  91273227.08245  22289846.547                    22289850.602
      2662.914        2074.989          45.400          34.000
 107785008.520 8  83988348.72647  20510810.203                    20510814.133
       385.453         300.528          52.900          43.700
 107063853.073 8  83426415.91847  20373573.164                    20373579.176
      -368.332        -286.867          53.700          45.900
 125101461.993 6  97481712.12343  23806037.172                    23806038.832
     -2911.914       -2269.064          40.900          22.600
 123687835.077 7  96380158.70343  23537013.500                    23537019.305
     -3055.992       -2381.284          42.900          23.600
 121556574.738 7  94719469.26144  23131452.508                    23131457.172
      2894.977        2255.870          44.900          28.200
 125206593.550 6  97563626.90644  23826033.453                    23826037.816
      3378.090        2632.249          41.200          24.700
 18  2 21 10  8  0.0000000  0  8G07G13G05G30G02G09G28G20
 112520525.526 8  87678359.82246  21411944.867                    21411948.785
     -1875.582       -1461.321          53.000          40.600
 117054309.603 7  91211056.15245  22274663.523                    22274667.785
      2656.270        2069.872          44.700          34.600
 107773725.134 8  83979556.46847  20508663.547                    20508667.086
       366.816         286.076          53.100          43.700
 107075162.242 8  83435228.26047  20375725.344                    20375731.219
      -385.574        -300.224          53.500          46.500
 125188911.069 6  97549854.20243  23822679.109                    23822680.020
     -2917.844       -2273.602          41.700          23.000
 123779572.757 6  96451642.57244  23554470.352                    23554476.902
     -3059.988       -2384.266          41.400          25.300
 121469853.213 7  94651894.08744  23114949.984                    23114954.020
      2886.504        2249.311          44.100          27.600
 125105359.604 6  97484743.34843  23806768.586                    23806773.141
      3370.938        2626.774          40.400          21.100
 18  2 21 10  8 30.0000000  0  8G07G13G05G30G02G09G28G20
 112576973.058 8  87722344.89846  21422686.453                    21422689.871
     -1887.723       -1470.776          53.100          40.100
 116974719.226 7  91149037.69545  22259518.195                    22259522.211
      2649.676        2064.807          45.700          34.000
 107762996.803 8  83971196.72247  20506621.758                    20506625.621
       348.340         271.682          53.200          44.400
 107086984.043 8  83444440.05547  20377974.727                    20377980.914
      -402.629        -313.509          53.700          46.300
 125276531.582 6  97618129.85543  23839352.648                    23839354.441
     -2923.457       -2277.978          41.300          22.900
 123871423.534 7  96523214.55443  23571949.117                    23571955.605
     -3063.613       -2387.161          42.100          23.900
 121383383.454 7  94584515.09344  23098495.453                    23098499.711
      2878.027        2242.765          43.500          28.800
 125004336.964 6  97406024.39943  23787544.898                    23787548.703
      3363.965        2621.274          40.600          20.400
 18  2 21 10  9  0.0000000  0  8G07G13G05G30G02G09G28G20
 112633784.429 8  87766613.48346  21433497.328                    21433500.820
     -1899.789       -1480.153          52.600          40.600
 116895325.791 7  91087172.69045  22244410.313                    22244414.191
      2643.125        2059.688          46.000          33.700
 107752824.225 8  83963270.03247  20504686.102                    20504689.695
       329.855         257.262          53.200          44.100
 107099317.565 8  83454050.58347  20380321.805                    20380327.922
      -419.660        -326.745          53.200          46.300
 125364320.051 7  97686536.43043  23856057.930                    23856060.055
     -2929.090       -2282.290          42.300          23.900
 123963386.710 6  96594874.11643  23589448.875                    23589456.031
     -3067.410       -2390.074          40.900          22.300
 121297168.497 7  94517334.66444  23082088.789                    23082093.105
      2869.578        2236.152          42.900          28.100
 124903527.945 6  97327471.86144  23768362.008                    23768365.902
      3356.773        2615.736          40.600          25.500
