     2.11           OBSERVATION DATA    G (GPS)             RINEX VERSION / TYPE
teqc  2016Nov7                          20180328 12:56:15UTCPGM / RUN BY / DATE
Linux 2.4.21-27.ELsmp|Opteron|gcc|Linux x86_64|=+           COMMENT
teqc  2016Nov7                          20180328 12:56:14UTCCOMMENT
     2.11           OBSERVATION DATA    M (MIXED)           COMMENT
teqc  2016Nov7                          20180328 12:56:11UTCCOMMENT
teqc  2016Nov7      IGN-RGP             20180221 09:16:09UTCCOMMENT
teqc  2015Jun23     IGN-RGP             20180221 09:06:51UTCCOMMENT
Linux2.4.20-8|i386|gcc|Win32-MinGW32|=                      COMMENT
   0.000      (antenna height)                              COMMENT
 +48.96934423 (latitude)                                    COMMENT
  +2.74931221 (longitude)                                   COMMENT
0175.602      (elevation)                                   COMMENT
BIT 2 OF LLI FLAGS DATA COLLECTED UNDER A/S CONDITION       COMMENT
19787M001 (COGO code)                                       COMMENT
SXJ4                                                        MARKER NAME
19787M001                                                   MARKER NUMBER
Automatic           GIE COOP&TECH                           OBSERVER / AGENCY
5132K77647          TRIMBLE NETR5       4.15                REC # / TYPE / VERS
1441009107          TRM55971.00     NONE                    ANT # / TYPE
  4190293.8430   201223.8300  4788453.8890                  APPROX POSITION XYZ
        1.1000        0.0000        0.0000                  ANTENNA: DELTA H/E/N
     1     1                                                WAVELENGTH FACT L1/2
     9    L1    L2    C1    P1    P2    D1    D2    S1    S2# / TYPES OF OBSERV
    30.0000                                                 INTERVAL
    18                                                      LEAP SECONDS
 SNR is mapped to RINEX snr flag value [0-9]                COMMENT
  L1 & L2: min(max(int(snr_dBHz/6), 0), 9)                  COMMENT
teqc_2016 edited: GLONASS # 25 - 30 excluded                COMMENT
Forced Modulo Decimation to 30 seconds                      COMMENT
teqc_2016 edited: all GLONASS satellites excluded           COMMENT
teqc_2016 edited: all SBAS satellites excluded              COMMENT
teqc_2016 edited: all Galileo satellites excluded           COMMENT
  2018     2    21     8     0    0.0000000     GPS         TIME OF FIRST OBS
                                                            END OF HEADER
 18  2 21  8  0  0.0000000  0  8G05G07G02G09G23G30G16G06
 124280725.020 7  96842141.11544  23649843.453                    23649848.070
      3275.602                          45.300          27.800
 113550826.224 8  88481160.17546  21607997.047                    21607999.512
      2236.852                          52.000          36.600
 115113613.826 7  89698972.82345  21905403.313                    21905403.426
       834.367                          46.200          35.100
 106448548.992 8  82946949.78747  20256483.469                    20256487.934
     -1063.230                          52.500          44.500
 118713516.255 8  92504087.46345  22590437.891                    22590439.734
     -2545.430                          49.000          34.100
 120619011.388 7  93988875.21043  22953032.117                    22953036.254
      3444.891                          43.300          22.300
 127242872.515 4  99150320.81142  24213514.219                    24213521.617
       832.520                          28.300          17.400
 111469848.514 8  86859664.02446  21212014.836                    21212019.664
     -1930.648                          50.900          40.200
 18  2 21  8  0 30.0000000  0  8G05G07G02G09G23G30G16G06
 124182514.197 7  96765613.19844  23631154.891                    23631159.234
      3271.598        2549.544          44.900          27.800
 113483936.064 8  88429037.96546  21595268.500                    21595270.602
      2222.461        1732.070          52.300          36.300
 115088854.532 7  89679679.85845  21900692.188                    21900691.547
       816.250         636.380          45.600          34.900
 106480639.942 8  82971955.71747  20262590.414                    20262595.059
     -1076.180        -838.303          52.300          44.600
 118789972.223 8  92563663.52745  22604987.125                    22604988.605
     -2551.621       -1988.107          48.400          33.900
 120515776.812 7  93908432.74343  22933388.133                    22933391.418
      3437.266        2678.617          43.200          22.800
 127218189.686 6  99131087.51743  24208827.102                    24208828.520
       813.027         633.852          41.100          22.300
 111528032.692 8  86905002.35746  21223086.859                    21223091.941
     -1948.328       -1517.823          51.100          40.200
 18  2 21  8  1  0.0000000  0  8G05G07G02G09G23G30G16G06
 124084411.401 7  96689169.46544  23612486.383                    23612490.785
      3268.109        2546.759          42.800          26.700
 113417470.538 8  88377246.64546  21582620.539                    21582623.176
      2208.332        1721.016          51.100          36.900
 115064629.360 7  89660803.09945  21896082.156                    21896081.668
       798.410         622.504          47.000          35.100
 106513108.367 8  82997255.78147  20268768.813                    20268773.000
     -1088.633        -848.074          51.900          44.500
 118866605.226 7  92623377.54045  22619569.852                    22619571.215
     -2557.473       -1992.674          47.900          33.800
 120412765.729 7  93828164.39943  22913785.102                    22913789.441
      3429.832        2672.777          43.000          22.300
 127194084.134 6  99112303.91543  24204236.102                    24204242.035
       793.699         618.854          38.600          20.400
 111586736.027 8  86950745.21346  21234257.609                    21234263.188
     -1965.543       -1531.270          50.200          40.600
 18  2 21  8  1 30.0000000  0  8G05G07G02G09G23G30G16G06
 123986418.614 7  96612811.44744  23593838.664                    23593843.426
      3264.422        2543.805          44.300          28.300
 113351431.893 8  88325787.96446  21570053.945                    21570056.508
      2194.074        1709.860          51.900          38.100
 115040939.662 7  89642343.59045  21891574.133                    21891573.469
       780.605         608.537          47.000          35.800
 106545953.653 8  83022849.50347  20275019.188                    20275023.414
     -1101.203        -857.891          52.300          44.700
 118943414.553 8  92683228.94845  22634186.195                    22634187.832
     -2563.324       -1997.291          49.000          33.700
 120309981.144 7  93748072.54143  22894226.297                    22894229.961
      3422.215        2666.808          43.700          22.300
 127170557.574 6  99093971.68243  24199763.375                    24199760.938
       774.371         603.747          40.500          19.000
 111645957.126 8  86996891.51746  21245527.367                    21245532.691
     -1982.793       -1544.751          50.700          40.400
 18  2 21  8  2  0.0000000  0  8G05G07G02G09G23G30G16G06
 123888537.247 7  96536540.25544  23575212.211                    23575217.039
      3260.852        2540.992          43.100          28.000
 113285821.347 8  88274662.85446  21557568.555                    21557571.371
      2179.836        1698.807          53.000          38.600
 115017785.736 7  89624301.56645  21887167.930                    21887167.379
       762.859         594.696          47.800          35.700
 106579173.823 8  83048735.34047  20281340.633                    20281345.063
     -1113.617        -867.527          52.700          44.200
 119020398.475 7  92743216.40245  22648836.016                    22648837.250
     -2569.016       -2001.739          47.800          32.400
 120207424.699 7  93668158.46543  22874710.016                    22874714.082
      3414.648        2660.946          43.400          23.000
 127147610.719 7  99076090.87643  24195398.383                    24195396.043
       755.195         588.760          44.600          22.900
 111705693.226 8  87043439.12646  21256894.492                    21256899.543
     -1999.773       -1558.010          50.600          40.100
 18  2 21  8  2 30.0000000  0  8G05G07G02G09G23G30G16G06
 123790768.423 7  96460356.76544  23556608.078                    23556612.313
      3257.273        2538.043          44.400          28.000
 113220641.061 8  88223873.01646  21545165.094                    21545167.789
      2165.605        1687.587          52.000          38.900
 114995169.324 7  89606678.38645  21882864.625                    21882864.012
       745.105         580.698          47.700          35.700
 106612768.545 8  83074913.03947  20287733.711                    20287738.000
     -1125.859        -877.256          51.500          44.300
 119097556.612 8  92803339.61645  22663518.445                    22663520.113
     -2574.762       -2006.270          48.500          33.100
 120105099.807 7  93588424.82543  22855238.297                    22855242.246
      3406.977        2654.870          42.200          22.800
 127125245.558 5  99058663.51243  24191137.320                    24191142.879
       735.785         573.621          33.300          19.300
 111765943.218 8  87090387.15946  21268359.625                    21268365.094
     -2016.707       -1571.344          49.700          40.200
 18  2 21  8  3  0.0000000  0  8G05G07G02G09G23G30G16G06
 123693114.665 7  96384262.93144  23538025.289                    23538029.266
      3253.055        2534.973          44.200          28.200
 113155892.851 8  88173419.86846  21532843.891                    21532846.898
      2150.977        1676.291          51.700          38.800
 114973091.321 7  89589474.74246  21878662.438                    21878662.582
       726.914         566.638          47.600          36.200
 106646736.491 8  83101381.56647  20294197.508                    20294201.695
     -1138.578        -886.994          52.400          44.700
 119174887.357 7  92863597.32145  22678234.414                    22678235.668
     -2580.629       -2010.781          47.500          32.100
 120003008.712 7  93508873.36443  22835811.211                    22835815.438
      3399.121        2648.716          42.600          22.600
 127103463.419 7  99041690.51543  24186996.773                    24186995.293
       716.285         558.396          43.900          20.400
 111826704.976 8  87137733.97646  21279922.297                    21279927.762
     -2034.008       -1584.679          49.800          40.100
 18  2 21  8  3 30.0000000  0  8G05G07G02G09G23G30G16G06
 123595576.800 7  96308259.38744  23519463.555                    23519467.832
      3249.133        2531.932          44.900          28.300
 113091578.103 8  88123304.48446  21520605.258                    21520608.195
      2136.406        1665.009          51.000          39.200
 114951552.062 7  89572690.90346  21874564.414                    21874563.941
       708.840         552.638          47.800          36.500
 106681076.109 8  83128139.70047  20300732.227                    20300736.336
     -1151.035        -896.629          51.800          44.500
 119252389.286 7  92923988.41545  22692981.859                    22692983.426
     -2586.375       -2015.214          47.300          32.800
 119901153.577 7  93429505.75743  22816428.938                    22816433.266
      3391.102        2642.555          42.500          22.500
 127082265.634 7  99025172.60543  24182961.867                    24182958.578
       696.707         543.181          42.000          18.300
 111887976.115 8  87185477.71346  21291581.789                    21291587.152
     -2050.957       -1597.885          49.800          40.200
 18  2 21  8  4  0.0000000  0  8G05G07G02G09G23G30G16G06
 123498156.176 7  96232347.22044  23500925.094                    23500929.309
      3245.320        2528.849          43.600          27.600
 113027699.436 8  88073528.90246  21508449.211                    21508452.703
      2122.156        1653.658          52.000          39.100
 114930553.275 8  89556328.20646  21870568.945                    21870567.953
       691.039         538.585          48.400          36.500
 106715786.983 8  83155187.13047  20307337.141                    20307341.781
     -1163.078        -906.273          52.000          44.200
 119330062.196 7  92984512.73945  22707763.148                    22707764.555
     -2591.895       -2019.670          46.600          32.100
 119799537.657 6  93350324.54643  22797091.297                    22797096.695
      3383.289        2636.324          41.600          22.900
 127061653.673 5  99009111.46942  24179037.281                    24179038.055
       677.406         527.957          35.900          16.900
 111949755.445 8  87233617.45046  21303338.156                    21303343.473
     -2067.633       -1611.066          48.700          39.600
 18  2 21  8  4 30.0000000  0  8G05G07G02G09G23G30G16G06
 123400854.779 7  96156527.97044  23482409.430                    23482413.027
      3241.348        2525.757          44.400          28.400
 112964258.325 8  88024094.28346  21496376.422                    21496380.145
      2107.406        1642.298          51.100          38.900
 114910095.423 8  89540387.03146  21866675.180                    21866675.430
       672.922         524.561          49.700          36.300
 106750867.825 8  83182522.84747  20314012.922                    20314017.195
     -1175.566        -915.848          52.600          44.400
 119407904.569 7  93045169.12645  22722576.188                    22722577.289
     -2597.488       -2023.995          47.300          31.800
 119698163.274 6  93271331.58143  22777800.523                    22777806.066
      3375.074        2630.034          40.900          23.600
 127041628.894 6  98993507.71543  24175227.672                    24175228.922
       657.738         512.726          41.400          19.300
 112012040.710 8  87282151.41746  21315190.375                    21315195.867
     -2084.531       -1624.150          49.400          40.100
 18  2 21  8  5  0.0000000  0  8G05G07G02G09G23G30G16G06
 123303674.736 7  96080803.26144  23463916.594                    23463920.461
      3237.246        2522.612          45.300          28.700
 112901256.008 8  87975001.56846  21484387.492                    21484390.836
      2092.578        1630.882          51.400          38.700
 114890178.927 8  89524867.67046  21862885.398                    21862885.285
       654.742         510.502          49.300          36.700
 106786317.164 8  83210145.69747  20320758.844                    20320763.402
     -1187.840        -925.371          53.000          44.500
 119485914.993 7  93105956.44745  22737421.148                    22737422.152
     -2603.172       -2028.344          46.900          32.100
 119597032.640 6  93192528.51043  22758556.555                    22758561.520
      3366.914        2623.700          41.100          22.200
 127022192.314 6  98978362.28942  24171526.133                    24171529.336
       638.016         497.503          39.400          17.800
 112074829.712 8  87331077.91146  21327138.805                    21327144.566
     -2101.355       -1637.198          49.400          39.500
 18  2 21  8  5 30.0000000  0  8G05G07G02G09G23G30G16G06
 123206618.055 7  96005174.65844  23445446.711                    23445451.020
      3232.902        2519.401          45.300          27.900
 112838694.589 8  87926252.43146  21472482.641                    21472485.789
      2077.773        1619.403          51.900          39.500
 114870805.377 8  89509771.38546  21859198.805                    21859198.836
       636.469         496.367          48.800          36.300
 106822134.094 8  83238054.99447  20327574.531                    20327578.797
     -1200.219        -934.929          53.800          44.500
 119564092.501 8  93166873.97545  22752297.523                    22752299.199
     -2608.980       -2032.702          48.000          31.900
 119496148.509 6  93113917.54143  22739358.281                    22739363.996
      3358.461        2617.264          41.000          22.500
 127003345.378 6  98963676.37042  24167940.391                    24167940.379
       618.070         482.071          37.500          17.800
 112138120.589 8  87380395.46946  21339182.563                    21339188.313
     -2118.277       -1650.228          48.100          39.700
 18  2 21  8  6  0.0000000  0  8G05G07G02G09G23G30G16G06
 123109685.443 7  95929642.76644  23427000.531                    23427005.172
      3229.102        2516.143          44.900          28.200
 112776575.681 8  87877848.09546  21460662.305                    21460665.570
      2063.188        1607.867          52.100          39.800
 114851975.328 8  89495098.61846  21855615.492                    21855615.668
       618.609         482.232          49.900          37.300
 106858317.300 8  83266249.69447  20334460.133                    20334464.129
     -1212.148        -944.438          52.100          45.200
 119642435.852 7  93227920.72845  22767205.953                    22767207.324
     -2614.176       -2036.998          47.900          32.300
 119395513.210 6  93035500.46744  22720208.086                    22720213.711
      3350.445        2610.758          40.700          24.700
 126985089.190 6  98949450.76943  24164466.844                    24164469.688
       598.602         466.782          40.100          19.000
 112201911.115 8  87430102.36346  21351321.102                    21351327.082
     -2134.641       -1663.186          48.700          39.400
 18  2 21  8  6 30.0000000  0  8G05G07G02G09G23G30G16G06
 123012878.244 7  95854208.59644  23408578.758                    23408584.113
      3224.965        2512.901          44.000          27.800
 112714900.853 8  87829789.78246  21448925.836                    21448928.984
      2048.480        1596.334          52.800          40.000
 114833689.423 8  89480849.85646  21852135.492                    21852135.656
       600.547         468.109          49.900          37.100
 106894865.780 8  83294729.02447  20341415.039                    20341419.223
     -1224.238        -953.897          53.700          44.900
 119720944.203 8  93289096.05745  22782145.953                    22782147.242
     -2619.586       -2041.247          48.800          32.300
 119295129.440 6  92957279.42343  22701106.523                    22701111.531
      3341.973        2604.152          40.400          23.000
 126967425.132 6  98935686.61443  24161106.070                    24161110.762
       579.152         451.371          39.100          20.100
 112266199.450 8  87480197.15146  21363555.109                    21363560.246
     -2151.156       -1676.065          49.400          39.400
 18  2 21  8  7  0.0000000  0  8G05G07G02G09G23G30G16G06
 122916198.539 7  95778873.76944  23390182.461                    23390186.375
      3220.484        2509.522          44.900          28.200
 112653672.017 8  87782078.98946  21437274.492                    21437277.648
      2033.477        1584.719          53.100          40.200
 114815948.994 8  89467026.14746  21848759.617                    21848760.215
       582.172         453.924          48.700          37.000
 106931778.416 8  83323492.10447  20348439.570                    20348443.563
     -1236.516        -963.345          52.500          44.900
 119799616.312 8  93350398.98045  22797117.063                    22797117.559
     -2625.180       -2045.503          49.100          32.400
 119194999.679 6  92879256.23643  22682051.781                    22682057.523
      3333.531        2597.571          40.300          22.900
 126950354.302 6  98922384.70643  24157857.266                    24157861.129
       559.000         435.904          41.000          19.300
 112330983.477 8  87530678.20346  21375883.438                    21375888.547
     -2167.789       -1688.918          49.300          39.100
 18  2 21  8  7 30.0000000  0  8G05G07G02G09G23G30G16G06
 122819647.934 7  95703639.54244  23371808.688                    23371813.039
      3216.113        2506.157          45.600          28.300
 112592890.659 8  87734716.88846  21425708.195                    21425710.672
      2018.441        1573.084          53.200          40.200
 114798753.830 8  89453627.31346  21845487.898                    21845488.195
       563.969         439.754          49.300          37.100
 106969053.845 9  83352537.88847  20355532.961                    20355536.984
     -1248.711        -972.753          54.300          44.700
 119878450.925 8  93411828.54145  22812117.961                    22812119.781
     -2630.621       -2049.697          49.200          32.300
 119095126.247 6  92801432.83143  22663046.070                    22663051.449
      3324.582        2590.876          40.100          23.500
 126933877.728 6  98909545.80343  24154720.688                    24154722.914
       539.316         420.485          38.800          19.300
 112396260.971 8  87581543.77046  21388305.422                    21388310.563
     -2184.176       -1701.716          50.100          38.400
 18  2 21  8  8  0.0000000  0  8G05G07G02G09G23G30G16G06
 122723228.273 7  95628507.33644  23353460.914                    23353464.957
      3211.813        2502.723          44.100          29.400
 112532558.350 8  87687704.68446  21414227.578                    21414230.059
      2003.594        1561.390          53.400          40.800
 114782105.428 8  89440654.52646  21842319.758                    21842320.129
       545.867         425.536          49.100          36.200
 107006690.843 8  83381865.41447  20362695.172                    20362699.191
     -1260.594        -982.135          53.400          44.500
 119957446.760 8  93473383.71845  22827150.898                    22827152.180
     -2635.820       -2053.877          48.500          33.100
 118995511.580 6  92723811.03643  22644090.008                    22644095.477
      3316.289        2584.110          40.600          23.300
 126917996.577 6  98897170.91043  24151700.883                    24151700.594
       519.453         404.979          39.900          19.600
 112462029.704 8  87632792.11746  21400820.961                    21400825.430
     -2200.414       -1714.458          49.400          39.000
 18  2 21  8  8 30.0000000  0  8G05G07G02G09G23G30G16G06
 122626940.972 7  95553478.30044  23335137.922                    23335142.215
      3207.332        2499.279          45.700          28.600
 112472676.784 8  87641043.71746  21402832.328                    21402835.035
      1988.574        1549.702          53.500          40.600
 114766004.038 8  89428107.98246  21839255.828                    21839256.086
       527.672         411.336          48.300          36.400
 107044688.180 8  83411473.72447  20369925.734                    20369929.855
     -1272.469        -991.461          53.200          44.800
 120036602.835 8  93535063.76845  22842213.445                    22842215.055
     -2641.117       -2058.013          49.100          32.900
 118896158.062 6  92646392.75443  22625183.102                    22625189.398
      3307.496        2577.293          39.000          22.900
 126902711.661 7  98885260.58643  24148792.250                    24148793.668
       499.707         389.550          42.000          20.900
 112528287.536 8  87684421.59346  21413429.391                    21413433.574
     -2216.652       -1727.109          50.400          38.700
 18  2 21  8  9  0.0000000  0  8G05G07G02G09G23G30G16G06
 122530787.699 7  95478553.66544  23316840.492                    23316845.207
      3202.871        2495.764          45.100          28.200
 112413247.275 8  87594735.01646  21391523.234                    21391525.602
      1973.395        1537.897          53.800          40.400
 114750450.338 8  89415988.20846  21836295.727                    21836296.332
       509.199         397.065          48.900          36.100
 107083044.617 8  83441361.85247  20377224.367                    20377228.887
     -1284.457       -1000.816          51.500          44.600
 120115917.900 8  93596867.69145  22857306.586                    22857307.926
     -2646.453       -2062.145          48.100          32.500
 118797068.063 6  92569179.80043  22606327.234                    22606333.418
      3298.496        2570.399          41.100          22.600
 126888024.200 6  98873815.80543  24145996.008                    24146000.777
       479.570         373.932          40.300          19.900
 112595032.203 8  87736430.41846  21426130.336                    21426135.121
     -2232.914       -1739.764          48.600          39.200
 18  2 21  8  9 30.0000000  0  8G05G07G02G09G23G30G16G06
 122434769.998 7  95403734.68144  23298568.477                    23298572.961
      3198.230        2492.188          45.700          29.000
 112354271.839 8  87548780.13946  21380300.711                    21380303.438
      1958.195        1526.075          53.700          40.700
 114735445.399 8  89404296.04246  21833440.484                    21833440.641
       490.957         382.801          48.600          36.100
 107121759.383 8  83471529.19247  20384591.617                    20384595.621
     -1296.535       -1010.104          53.600          44.500
 120195391.306 8  93658795.01945  22872429.688                    22872431.055
     -2651.699       -2066.264          48.300          32.800
 118698244.598 6  92492174.50744  22587521.891                    22587527.492
      3289.582        2563.457          40.500          24.400
 126873935.389 6  98862837.56643  24143315.258                    24143318.137
       459.551         358.385          39.500          19.600
 112662262.012 8  87788817.27346  21438923.813                    21438928.309
     -2249.145       -1752.353          50.000          38.400
 18  2 21  8 10  0.0000000  0  8G05G07G02G09G23G30G16G06
 122338889.552 7  95329022.67744  23280323.859                    23280327.617
      3193.547        2488.644          44.600          29.400
 112295751.980 8  87503180.25746  21369164.422                    21369167.293
      1942.848        1514.241          53.000          40.400
 114720989.679 8  89393031.83445  21830689.625                    21830689.961
       472.500         368.552          48.900          35.500
 107160831.099 8  83501974.68247  20392026.781                    20392030.797
     -1308.480       -1019.329          52.700          44.300
 120275021.503 7  93720844.49245  22887582.555                    22887584.316
     -2657.133       -2070.313          47.900          32.800
 118599689.824 6  92415378.61243  22568767.922                    22568772.695
      3280.414        2556.434          39.200          22.500
 126860446.404 7  98852326.67243  24140748.766                    24140748.551
       439.438         342.775          42.300          20.400
 112729974.532 8  87841580.27346  21451809.094                    21451813.719
     -2265.281       -1764.834          49.500          38.800
 18  2 21  8 10 30.0000000  0  8G05G07G02G09G23G30G16G06
 122243147.672 7  95254418.62144  23262104.469                    23262108.715
      3189.047        2485.026          46.200          29.300
 112237688.652 8  87457936.12146  21358115.133                    21358118.520
      1927.785        1502.376          53.000          40.200
 114707083.362 7  89382195.73246  21828043.273                    21828043.742
       454.367         354.281          47.200          36.500
 107200258.204 8  83532697.09847  20399529.664                    20399533.863
     -1320.113       -1028.551          52.400          44.200
 120354807.202 7  93783015.14545  22902765.625                    22902767.449
     -2662.121       -2074.314          47.300          32.400
 118501405.830 6  92338793.69743  22550064.859                    22550070.539
      3271.488        2549.368          40.100          22.800
 126847557.808 7  98842283.55243  24138296.648                    24138294.941
       419.664         327.222          43.400          20.900
 112798167.147 8  87894717.35646  21464785.672                    21464790.328
     -2281.031       -1777.251          48.400          38.100
 18  2 21  8 11  0.0000000  0  8G05G07G02G09G23G30G16G06
 122147547.018 7  95179924.61144  23243912.281                    23243916.023
      3184.367        2481.336          46.100          29.100
 112180084.048 8  87413049.42746  21347153.297                    21347156.297
      1912.570        1490.465          53.500          39.900
 114693727.759 7  89371788.75445  21825501.461                    21825502.344
       436.121         339.979          47.900          35.500
 107240040.037 8  83563695.92947  20407100.031                    20407103.730
     -1331.859       -1037.728          53.200          44.600
 120434747.966 7  93845306.63445  22917977.945                    22917979.527
     -2667.250       -2078.313          47.100          32.000
 118403395.645 7  92262422.12343  22531414.461                    22531419.203
      3262.449        2542.261          42.300          22.800
 126835270.610 6  98832709.05943  24135957.398                    24135958.336
       399.602         311.593          40.400          20.600
 112866838.238 8  87948227.26646  21477853.625                    21477857.898
     -2296.957       -1789.647          48.500          38.000
 18  2 21  8 11 30.0000000  0  8G05G07G02G09G23G30G16G06
 122052088.841 7  95105541.63945  23225747.547                    23225751.113
      3179.617        2477.643          45.500          30.200
 112122939.480 8  87368521.19246  21336279.164                    21336281.883
      1897.176        1478.482          53.900          40.100
 114680923.053 7  89361811.05345  21823065.273                    21823065.707
       417.652         325.677          47.800          35.900
 107280175.146 8  83594970.04047  20414737.125                    20414740.965
     -1343.637       -1046.901          53.900          44.100
 120514842.244 7  93907717.73445  22933219.664                    22933220.258
     -2672.398       -2082.304          46.800          31.500
 118305661.409 6  92186265.61443  22512816.055                    22512821.199
      3253.285        2535.056          40.200          22.800
 126823585.761 6  98823604.01943  24133733.688                    24133736.680
       379.414         295.885          40.400          21.300
 112935985.227 8  88002107.97946  21491011.219                    21491016.082
     -2312.711       -1801.972          48.500          37.700
 18  2 21  8 12  0.0000000  0  8G05G07G02G09G23G30G16G06
 121956774.571 7  95031270.80444  23207610.227                    23207613.164
      3174.945        2473.924          46.400          29.900
 112066256.549 9  87324352.67746  21325493.141                    21325495.422
      1882.047        1466.553          54.200          40.200
 114668669.736 7  89352263.00446  21820733.531                    21820734.129
       399.500         311.416          47.900          36.300
 107320662.439 8  83626518.57647  20422441.813                    20422445.621
     -1355.152       -1055.947          53.700          43.700
 120595089.360 7  93970247.93645  22948490.297                    22948491.113
     -2677.152       -2086.190          47.500          32.400
 118208205.668 7  92110326.08943  22494270.938                    22494275.957
      3244.270        2527.895          42.000          23.200
 126812504.235 6  98814969.05643  24131625.016                    24131628.785
       359.691         280.335          39.800          21.500
 113005606.069 8  88056357.94046  21504259.898                    21504264.855
     -2328.352       -1814.206          49.100          37.900
 18  2 21  8 12 30.0000000  0  8G05G07G02G09G23G30G16G06
 121861606.302 7  94957113.70344  23189498.984                    23189503.012
      3169.676        2470.077          46.600          29.700
 112010036.762 9  87280545.06646  21314794.805                    21314797.051
      1866.238        1454.471          54.000          40.600
 114656968.288 7  89343144.98445  21818506.672                    21818507.098
       380.754         297.030          47.600          35.900
 107361500.585 8  83658340.50347  20430212.938                    20430217.086
     -1367.191       -1065.108          53.800          43.900
 120675487.771 7  94032896.03045  22963789.422                    22963790.430
     -2682.531       -2090.127          46.800          32.100
 118111030.756 6  92034605.39643  22475778.664                    22475784.008
      3234.465        2520.537          41.000          22.500
 126802026.781 6  98806804.79743  24129632.266                    24129634.039
       339.094         264.561          41.900          21.300
 113075698.258 8  88110975.18446  21517597.789                    21517603.234
     -2344.297       -1826.438          48.800          37.500
 18  2 21  8 13  0.0000000  0  8G05G07G02G09G23G30G16G06
 121766585.555 7  94883071.60645  23171418.219                    23171421.156
      3164.758        2466.230          46.000          30.000
 111954281.292 9  87237099.25046  21304184.961                    21304187.328
      1850.602        1442.338          54.200          40.600
 114645819.686 8  89334457.75545  21816385.531                    21816385.566
       362.273         282.626          48.300          35.800
 107402688.618 8  83690435.07447  20438050.602                    20438055.047
     -1378.820       -1074.194          53.800          43.400
 120756036.643 7  94095661.36445  22979117.133                    22979118.156
     -2687.578       -2094.066          45.600          31.700
 118014139.334 7  91959105.61744  22457341.813                    22457346.840
      3224.883        2513.056          42.300          24.100
 126792154.518 6  98799112.07043  24127752.914                    24127753.082
       318.879         248.818          41.600          20.100
 113146259.829 8  88165958.16746  21531025.445                    21531030.457
     -2360.020       -1838.645          49.700          37.900
 18  2 21  8 13 30.0000000  0  8G05G07G02G09G23G30G16G06
 121671713.038 7  94809144.97244  23153364.453                    23153367.375
      3159.918        2462.290          47.000          29.600
 111898992.374 9  87194016.98246  21293663.648                    21293666.047
      1835.145        1430.173          54.500          40.100
 114635224.254 7  89326201.57246  21814369.273                    21814369.750
       343.930         268.225          47.500          36.200
 107444225.477 8  83722801.44247  20445954.945                    20445959.496
     -1390.336       -1083.290          53.700          43.800
 120836735.053 7  94158543.22045  22994473.930                    22994475.055
     -2692.461       -2097.970          46.800          32.700
 117917533.894 7  91883828.65244  22438958.000                    22438963.000
      3215.371        2505.577          43.200          25.000
 126782888.677 6  98791891.89843  24125988.859                    24125989.914
       298.855         232.997          38.600          19.300
 113217288.560 8  88221305.17746  21544541.805                    21544547.066
     -2375.355       -1850.787          49.400          37.900
 18  2 21  8 14  0.0000000  0  8G05G07G02G09G23G30G16G06
 121576991.771 7  94735336.19545  23135338.961                    23135342.254
      3154.762        2458.404          46.000          30.900
 111844170.669 8  87151298.77246  21283231.617                    21283233.785
      1819.504        1418.097          53.800          40.900
 114625182.099 8  89318376.50945  21812458.406                    21812458.402
       325.348         253.907          48.100          35.700
 107486109.431 8  83755438.28147  20453925.063                    20453929.465
     -1401.898       -1092.205          53.500          43.700
 120917581.538 7  94221540.46345  23009858.406                    23009859.527
     -2697.480       -2101.729          46.600          31.200
 117821216.384 7  91808776.07644  22420629.891                    22420634.375
      3205.578        2498.162          42.000          27.700
 126774229.060 6  98785144.17943  24124340.828                    24124344.008
       278.418         217.348          38.600          19.900
 113288781.640 8  88277014.01946  21558146.406                    21558151.465
     -2390.949       -1862.730          49.900          37.700
 18  2 21  8 14 30.0000000  0  8G05G07G02G09G23G30G16G06
 121482423.784 7  94661646.86444  23117343.391                    23117346.563
      3149.711        2454.334          47.600          29.300
 111789817.835 9  87108945.92246  21272888.539                    21272890.566
      1803.938        1405.830          54.100          40.300
 114615694.195 7  89310983.33145  21810652.742                    21810652.395
       306.961         239.443          47.600          35.600
 107528339.612 9  83788344.90347  20461961.070                    20461965.668
     -1413.371       -1101.256          54.300          43.500
 120998575.110 7  94284652.30845  23025271.008                    23025272.227
     -2702.164       -2105.588          46.200          32.200
 117725189.536 7  91733949.98444  22402356.180                    22402360.844
      3196.004        2490.516          42.700          27.400
 126766176.870 6  98778869.79043  24122809.609                    24122813.023
       258.344         201.462          40.300          20.900
 113360737.147 8  88333083.20946  21571838.852                    21571844.582
     -2406.141       -1874.794          50.200          38.200
 18  2 21  8 15  0.0000000  0  8G05G07G02G09G23G30G16G06
 121388010.123 7  94588077.79644  23099377.203                    23099380.031
      3144.520        2450.334          46.300          29.000
 111735934.926 9  87066959.24846  21262634.859                    21262636.918
      1788.188        1393.615          54.100          39.700
 114606760.387 8  89304021.91245  21808952.438                    21808952.473
       288.512         225.055          48.300          35.700
 107570914.506 8  83821520.13447  20470062.906                    20470067.352
     -1424.785       -1110.185          53.800          43.200
 121079714.429 7  94347877.73645  23040711.516                    23040712.262
     -2707.074       -2109.367          47.200          31.500
 117629455.430 7  91659351.99744  22384137.953                    22384143.512
      3186.230        2482.867          42.500          28.500
 126758732.875 6  98773069.26943  24121393.602                    24121397.340
       237.996         185.730          41.700          21.500
 113433152.442 8  88389510.72346  21585619.219                    21585625.035
     -2421.605       -1886.706          48.800          37.600
 18  2 21  8 15 30.0000000  0  8G05G07G02G09G23G30G16G06
 121293752.700 7  94514630.45944  23081441.109                    23081443.672
      3139.234        2446.284          47.000          29.700
 111682523.974 8  87025340.34546  21252470.727                    21252473.566
      1772.328        1381.352          52.800          39.600
 114598381.705 8  89297493.06646  21807358.531                    21807358.184
       269.840         210.650          48.600          36.200
 107613833.344 9  83854963.37447  20478230.102                    20478234.766
     -1436.586       -1119.080          54.000          43.500
 121160999.084 7  94411216.40845  23056179.594                    23056180.371
     -2712.047       -2113.108          45.800          31.400
 117534016.914 7  91584984.33844  22365976.922                    22365982.133
      3176.145        2475.191          42.600          28.000
 126751897.533 7  98767743.03043  24120092.758                    24120095.883
       217.535         169.883          42.800          22.800
 113506025.503 8  88446294.92846  21599486.758                    21599492.055
     -2436.793       -1898.542          48.800          38.000
 18  2 21  8 16  0.0000000  0  8G05G07G02G09G23G30G16G06
 121199652.451 7  94441305.60545  23063533.656                    23063536.883
      3134.121        2442.190          46.700          30.000
 111629586.518 8  86984090.39346  21242397.180                    21242399.699
      1756.879        1369.082          53.500          39.300
 114590558.492 8  89291397.05045  21805869.727                    21805869.383
       251.707         196.259          48.100          35.700
 107657094.901 8  83888673.66647  20486462.656                    20486466.883
     -1447.613       -1127.944          53.800          43.100
 121242428.002 7  94474667.49845  23071675.016                    23071675.645
     -2716.543       -2116.796          46.700          31.600
 117438876.392 7  91510848.89844  22347871.813                    22347877.457
      3166.566        2467.457          42.600          29.100
 126745671.927 7  98762891.91943  24118908.430                    24118910.504
       197.496         154.065          42.200          22.300
 113579353.936 8  88503433.95046  21613440.563                    21613445.629
     -2451.637       -1910.284          49.600          38.000
 18  2 21  8 16 30.0000000  0  8G05G07G02G09G23G30G16G06
 121105711.818 7  94368105.15444  23045658.516                    23045660.699
      3128.695        2437.991          47.000          29.800
 111577123.373 8  86943210.04246  21232413.492                    21232416.656
      1740.863        1356.684          52.600          40.400
 114583290.905 8  89285733.99146  21804486.938                    21804486.453
       233.051         181.764          48.100          36.000
 107700697.875 9  83922649.99847  20494759.852                    20494764.379
     -1459.125       -1136.848          54.000          43.200
 121323999.777 7  94538229.89845  23087197.633                    23087198.086
     -2721.453       -2120.548          47.200          31.800
 117344036.189 7  91436947.46844  22329824.328                    22329830.453
      3156.332        2459.570          42.900          29.000
 126740056.597 7  98758516.28343  24117839.359                    24117839.813
       177.059         138.161          43.000          21.800
 113653135.325 8  88560925.92146  21627480.883                    21627486.594
     -2466.832       -1922.093          49.300          38.900
 18  2 21  8 17  0.0000000  0  8G05G07G02G09G23G30G16G06
 121011932.771 7  94295030.56845  23027813.078                    23027814.891
      3123.270        2433.746          47.300          30.000
 111525136.128 8  86902700.51046  21222520.852                    21222523.688
      1724.934        1344.311          53.200          40.400
 114576579.417 7  89280504.25146  21803209.633                    21803209.680
       214.555         167.319          47.500          36.200
 107744641.065 8  83956891.43147  20503122.070                    20503126.547
     -1470.441       -1145.668          53.400          43.900
 121405713.410 7  94601902.83745  23102746.930                    23102747.520
     -2726.164       -2124.223          46.800          31.600
 117249498.659 7  91363281.91045  22311834.969                    22311840.750
      3146.121        2451.653          42.800          30.000
 126735052.027 6  98754616.58643  24116885.695                    24116886.504
       156.672         122.271          41.100          19.600
 113727367.199 8  88618768.89046  21641606.836                    21641612.359
     -2481.770       -1933.753          49.200          38.600
 18  2 21  8 17 30.0000000  0  8G05G07G02G09G23G30G16G06
 120918317.365 7  94222083.51244  23009997.695                    23010000.430
      3117.785        2429.504          46.800          29.800
 111473626.148 8  86862562.87346  21212718.898                    21212721.844
      1709.074        1331.898          53.400          40.900
 114570424.024 7  89275707.83746  21802037.914                    21802038.359
       195.914         152.881          47.800          36.900
 107788923.288 8  83991397.04147  20511548.313                    20511552.746
     -1481.715       -1154.446          53.000          43.000
 121487567.675 7  94665685.36145  23118323.156                    23118324.348
     -2730.816       -2127.848          46.400          32.000
 117155266.175 7  91289854.04445  22293903.000                    22293908.547
      3135.992        2443.736          43.400          30.400
 126730659.064 6  98751193.52943  24116049.727                    24116050.984
       136.227         106.416          39.600          20.600
 113802047.249 8  88676961.10546  21655817.906                    21655823.340
     -2496.793       -1945.369          48.500          38.900
 18  2 21  8 18  0.0000000  0  8G05G07G02G09G23G30G16G06
 120824866.421 7  94149264.63545  22992215.188                    22992217.398
      3112.449        2425.270          47.300          30.000
 111422594.743 8  86822798.14846  21203007.906                    21203010.938
      1693.281        1319.541          53.900          40.800
 114564825.283 7  89271345.17646  21800972.898                    21800972.832
       177.582         138.488          47.600          36.600
 107833543.322 8  84026165.88647  20520039.469                    20520043.813
     -1492.680       -1163.143          53.500          43.000
 121569561.936 7  94729576.96245  23133926.719                    23133927.348
     -2735.195       -2131.412          47.000          31.500
 117061341.123 7  91216665.71245  22276029.289                    22276035.238
      3125.898        2435.794          43.000          31.100
 126726878.237 6  98748247.44143  24115329.695                    24115331.777
       115.840          90.504          38.100          20.100
 113877172.987 8  88735500.57946  21670114.172                    21670119.250
     -2511.469       -1956.841          49.100          38.200
 18  2 21  8 18 30.0000000  0  8G05G07G02G09G23G30G16G06
 120731582.576 7  94076575.93045  22974463.930                    22974466.324
      3106.578        2420.787          47.600          30.700
 111372043.180 8  86783407.32946  21193388.547                    21193391.141
      1676.988        1306.929          53.400          41.300
 114559783.632 8  89267416.61446  21800013.594                    21800013.434
       158.676         123.902          48.100          37.700
 107878499.907 8  84061196.97647  20528594.359                    20528598.684
     -1504.262       -1171.993          53.800          43.000
 121651695.052 7  94793576.77745  23149556.227                    23149556.859
     -2740.223       -2135.123          47.800          32.000
 116967725.820 7  91143718.76045  22258215.055                    22258220.758
      3115.176        2427.596          43.800          31.900
 126723709.824 6  98745778.55743  24114727.820                    24114730.910
        95.309          74.528          38.700          19.300
 113952741.976 8  88794385.44446  21684494.234                    21684499.168
     -2526.422       -1968.438          48.400          38.300
 18  2 21  8 19  0.0000000  0  8G05G07G02G09G23G30G16G06
 120638466.939 8  94004018.30545  22956744.703                    22956746.691
      3100.961        2416.491          48.200          30.000
 111321972.756 9  86744391.42746  21183860.500                    21183863.238
      1660.957        1294.479          54.600          41.400
 114555299.085 7  89263922.15646  21799160.188                    21799160.320
       140.195         109.491          47.500          37.200
 107923791.824 8  84096489.36247  20537213.125                    20537217.527
     -1515.332       -1180.606          53.900          43.200
 121733965.846 8  94857683.86445  23165211.531                    23165211.969
     -2744.633       -2138.621          48.000          31.500
 116874422.643 7  91071015.00345  22240459.563                    22240465.965
      3104.750        2419.524          44.600          32.100
 126721154.516 6  98743787.40243  24114241.414                    24114245.488
        74.996          58.698          38.200          19.900
 114028751.794 8  88853613.81346  21698958.219                    21698963.723
     -2541.027       -1979.784          48.100          38.300
 18  2 21  8 19 30.0000000  0  8G05G07G02G09G23G30G16G06
 120545521.565 7  93931593.34845  22939057.516                    22939059.617
      3095.207        2412.020          47.700          30.800
 111272384.779 9  86705751.45246  21174423.867                    21174426.695
      1644.797        1281.943          54.000          41.300
 114551371.928 8  89260862.02146  21798412.836                    21798413.066
       121.535          95.022          48.700          37.100
 107969417.822 8  84132042.07747  20545895.641                    20545900.008
     -1526.480       -1189.268          53.700          43.400
 121816373.410 7  94921897.53345  23180893.438                    23180894.453
     -2749.289       -2142.145          47.000          31.000
 116781433.894 7  90998556.28345  22222764.453                    22222770.668
      3094.273        2411.328          45.400          32.500
 126719212.847 6  98742274.44243  24113872.508                    24113876.457
        54.438          42.766          41.400          20.900
 114105199.900 7  88913183.70346  21713505.797                    21713511.566
     -2555.652       -1991.128          47.500          37.600
 18  2 21  8 20  0.0000000  0  8G05G07G02G09G23G30G16G06
 120452748.109 7  93859302.36645  22921402.773                    22921405.391
      3089.590        2407.559          47.500          30.800
 111223280.412 8  86667488.31946  21165079.578                    21165082.363
      1628.715        1269.390          53.400          41.700
 114548002.299 8  89258236.32346  21797771.508                    21797772.207
       103.094          80.567          49.000          37.600
 108015376.658 9  84167854.14647  20554641.336                    20554645.590
     -1537.406       -1197.880          54.100          43.500
 121898916.765 7  94986217.00345  23196600.250                    23196601.637
     -2753.633       -2145.631          46.600          30.500
 116688761.942 7  90926344.38845  22205129.563                    22205135.594
      3083.734        2403.099          45.900          32.900
 126717885.194 6  98741239.89843  24113619.680                    24113623.707
        34.027          26.799          40.100          20.400
 114182083.803 8  88973093.15846  21728136.328                    21728142.289
     -2569.949       -2002.384          48.300          37.500
 18  2 21  8 20 30.0000000  0  8G05G07G02G09G23G30G16G06
 120360148.579 8  93787146.89545  22903782.289                    22903784.262
      3083.699        2403.043          48.000          30.400
 111174661.182 8  86629603.21746  21155827.781                    21155830.629
      1612.563        1256.819          53.300          41.300
 114545190.638 8  89256045.42046  21797236.414                    21797236.859
        84.379          66.084          49.500          37.500
 108061667.337 8  84203924.79747  20563450.375                    20563454.180
     -1548.547       -1206.427          53.900          43.700
 121981594.785 7  95050641.40744  23212333.148                    23212334.691
     -2758.105       -2149.076          46.700          29.700
 116596409.265 7  90854381.28045  22187555.398                    22187561.234
      3073.133        2394.819          45.500          32.100
 126717171.894 6  98740684.06943  24113484.992                    24113487.188
        13.625          10.887          41.800          19.900
 114259401.294 7  89033340.50046  21742849.445                    21742855.789
     -2584.500       -2013.592          46.200          37.800
 18  2 21  8 21  0.0000000  0  8G05G07G02G09G23G30G16G06
 120267724.583 7  93715128.20845  22886194.094                    22886196.543
      3077.867        2398.446          47.100          31.200
 111126528.008 8  86592096.86646  21146667.977                    21146671.379
      1596.309        1244.119          52.800          41.100
 114542936.966 8  89254289.29746  21796807.727                    21796808.430
        65.828          51.551          48.300          37.900
 108108288.636 8  84240253.07547  20572322.313                    20572326.219
     -1559.539       -1215.065          53.800          44.200
 122064406.398 7  95115169.91044  23228091.945                    23228093.836
     -2762.508       -2152.594          46.600          29.900
 116504378.214 7  90782668.80945  22170043.398                    22170048.980
      3062.402        2386.382          46.000          33.900
 126717073.712 7  98740607.52043  24113466.141                    24113467.922
        -7.023          -5.138          42.400          20.400
 114337149.818 7  89093923.70046  21757644.109                    21757650.316
     -2598.711       -2024.802          46.000          37.100
 18  2 21  8 21 30.0000000  0  8G05G07G02G09G23G30G16G06
 120175477.614 7  93643247.47245  22868639.930                    22868642.266
      3072.133        2393.852          47.400          30.200
 111078882.278 8  86554970.33946  21137601.422                    21137604.520
      1580.250        1231.487          53.200          41.300
 114541241.169 7  89252967.88646  21796484.930                    21796485.785
        47.406          37.106          47.600          37.100
 108155239.172 9  84276837.89847  20581256.844                    20581260.461
     -1570.348       -1223.563          54.100          44.300
 122147350.746 7  95179801.83945  23243875.211                    23243876.727
     -2766.812       -2155.990          46.700          30.100
 116412671.013 7  90711208.67945  22152591.164                    22152597.465
      3051.613        2377.981          46.800          33.500
 126717590.757 6  98741010.41543  24113563.734                    24113566.836
       -27.336         -21.103          41.300          21.500
 114415326.642 8  89154840.63546  21772520.992                    21772526.859
     -2612.824       -2035.864          48.100          37.500
 18  2 21  8 22  0.0000000  0  8G05G07G02G09G23G30G16G06
 120083410.648 7  93571506.99445  22851120.414                    22851122.023
      3065.848        2389.048          47.700          30.200
 111031725.344 8  86518224.68947  21128627.992                    21128631.117
      1563.711        1218.678          53.000          42.100
 114540104.030 7  89252081.79246  21796268.727                    21796269.090
        28.543          22.496          47.800          37.300
 108202518.058 9  84313678.58647  20590253.539                    20590257.273
     -1581.445       -1232.164          54.400          43.900
 122230426.858 7  95244536.44544  23259684.461                    23259686.145
     -2771.387       -2159.485          46.300          29.100
 116321290.189 7  90640002.85145  22135202.352                    22135208.078
      3040.473        2369.376          47.800          33.000
 126718723.732 6  98741893.24343  24113778.648                    24113782.805
       -48.082         -37.182          40.500          20.100
 114493929.526 7  89216089.58946  21787479.070                    21787484.582
     -2627.180       -2046.994          47.800          37.200
 18  2 21  8 22 30.0000000  0  8G05G07G02G09G23G30G16G06
 119991524.255 8  93499907.20745  22833635.211                    22833636.836
      3059.855        2384.422          48.400          30.500
 110985058.104 8  86481860.58847  21119747.680                    21119750.504
      1547.371        1206.008          52.800          42.300
 114539525.243 8  89251630.77446  21796158.500                    21796158.852
         9.980           8.051          48.800          36.700
 108250123.690 8  84350773.87847  20599313.070                    20599316.609
     -1592.242       -1240.578          53.300          43.900
 122313633.703 7  95309372.92744  23275518.109                    23275520.211
     -2775.809       -2162.826          46.100          29.500
 116230237.788 7  90569052.93945  22117875.672                    22117881.043
      3029.574        2360.885          47.000          32.800
 126720472.475 6  98743255.85043  24114111.969                    24114115.363
       -68.629         -53.130          40.500          19.900
 114572955.792 7  89277668.45446  21802516.813                    21802522.996
     -2641.238       -2057.889          47.600          36.600
 18  2 21  8 23  0.0000000  0  8G05G07G02G09G23G30G16G06
 119899820.922 7  93428450.08545  22816184.367                    22816185.738
      3053.559        2379.584          47.800          31.100
 110938881.918 8  86445879.16047  21110961.031                    21110963.023
      1530.824        1193.215          53.800          42.400
 114539505.370 7  89251615.28246  21796154.547                    21796154.969
        -8.855          -6.485          47.000          37.300
 108298055.420 8  84388123.27547  20608434.039                    20608437.609
     -1603.324       -1249.051          53.100          44.400
 122396970.356 7  95374310.55345  23291376.531                    23291378.621
     -2780.156       -2166.190          46.200          30.000
 116139516.627 7  90498361.14845  22100611.930                    22100617.246
      3018.355        2352.228          47.300          33.700
 126722837.803 6  98745098.95943  24114561.680                    24114565.004
       -89.316         -69.201          38.600          20.100
 114652403.359 7  89339575.60146  21817635.391                    21817641.148
     -2655.453       -2068.829          46.700          37.700
 18  2 21  8 23 30.0000000  0  8G05G07G02G09G23G30G16G06
 119808302.457 8  93357137.00945  22798769.531                    22798770.906
      3047.375        2374.759          48.100          31.100
 110893197.835 8  86410281.18447  21102267.500                    21102270.289
      1514.586        1180.427          51.700          42.100
 114540043.795 7  89252034.82846  21796256.992                    21796257.160
       -27.254         -20.978          47.600          36.800
 108346311.575 8  84425725.46947  20617616.758                    20617620.707
     -1613.969       -1257.456          53.000          44.200
 122480435.528 7  95439348.32244  23307260.273                    23307261.297
     -2784.344       -2169.519          46.800          29.500
 116049128.559 7  90427928.89345  22083411.273                    22083417.004
      3007.320        2343.551          46.600          32.600
 126725819.521 6  98747422.36643  24115128.914                    24115132.090
      -109.660         -85.195          41.100          19.900
 114732269.158 7  89401808.65346  21832833.219                    21832839.180
     -2669.133       -2079.636          47.500          37.300
 18  2 21  8 24  0.0000000  0  8G05G07G02G09G23G30G16G06
 119716970.804 8  93285969.49745  22781389.313                    22781390.754
      3041.125        2369.911          48.700          31.500
 110848007.144 8  86375067.66247  21093668.133                    21093670.469
      1498.016        1167.575          52.700          42.300
 114541140.824 7  89252889.64146  21796465.820                    21796465.945
       -45.988         -35.506          47.200          36.700
 108394890.930 8  84463579.51247  20626860.672                    20626865.336
     -1624.832       -1265.860          52.400          43.700
 122564028.274 7  95504485.48844  23323167.180                    23323168.914
     -2788.582       -2172.827          46.300          29.400
 115959075.877 7  90357757.99745  22066275.016                    22066280.465
      2996.063        2334.794          46.600          31.900
 126729418.099 6  98750226.44743  24115814.688                    24115817.270
      -130.277        -101.222          40.500          21.800
 114812550.677 8  89464365.67446  21848110.734                    21848116.652
     -2683.055       -2090.438          48.000          37.600
 18  2 21  8 24 30.0000000  0  8G05G07G02G09G23G30G16G06
 119625827.234 7  93214948.54545  22764045.141                    22764047.215
      3034.969        2365.015          46.900          31.500
 110803310.499 8  86340239.11647  21085162.547                    21085165.031
      1481.680        1154.792          52.600          42.300
 114542796.634 7  89254179.87246  21796781.227                    21796781.738
       -64.449         -49.966          47.100          36.100
 108443792.430 8  84501684.57647  20636166.531                    20636170.828
     -1635.387       -1274.157          52.500          43.900
 122647748.027 7  95569721.64045  23339098.172                    23339100.559
     -2792.746       -2176.074          46.100          30.500
 115869361.011 7  90287850.31745  22049202.938                    22049208.473
      2984.793        2326.044          44.900          32.500
 126733634.125 7  98753511.66143  24116616.641                    24116619.320
      -150.750        -117.198          42.200          21.300
 114893245.474 8  89527244.71246  21863466.477                    21863472.473
     -2696.809       -2101.083          48.700          37.900
 18  2 21  8 25  0.0000000  0  8G05G07G02G09G23G30G16G06
 119534874.246 7  93144076.10245  22746737.734                    22746739.371
      3028.461        2360.025          47.900          31.200
 110759109.365 8  86305796.70746  21076751.117                    21076753.383
      1464.965        1141.868          53.300          41.600
 114545010.940 7  89255905.29945  21797202.461                    21797203.031
       -83.281         -64.521          47.500          35.900
 108493014.807 8  84540039.67147  20645532.984                    20645537.559
     -1646.316       -1282.508          52.600          44.200
 122731593.280 7  95635055.55745  23355053.508                    23355055.363
     -2797.086       -2179.346          44.300          31.200
 115779986.204 7  90218207.61645  22032195.102                    22032200.527
      2973.250        2317.146          45.600          33.300
 126738466.850 6  98757277.39943  24117536.469                    24117539.164
      -171.520        -133.268          39.900          20.400
 114974350.857 7  89590443.70146  21878900.320                    21878906.059
     -2710.508       -2111.755          47.200          37.600
 18  2 21  8 25 30.0000000  0  8G05G07G02G09G23G30G16G06
 119444113.328 8  93073353.31845  22729466.305                    22729467.816
      3022.293        2355.030          48.600          31.700
 110715405.157 8  86271741.48046  21068434.305                    21068436.887
      1448.703        1128.977          50.900          41.100
 114547783.887 7  89258066.01946  21797730.406                    21797730.352
      -101.664         -79.016          47.800          36.300
 108542557.096 8  84578644.05047  20654960.695                    20654965.441
     -1656.562       -1290.787          51.500          44.000
 122815563.691 7  95700487.03545  23371032.719                    23371034.813
     -2801.016       -2182.573          46.000          30.500
 115690953.965 7  90148831.86045  22015253.031                    22015258.480
      2962.121        2308.248          46.100          32.700
 126743917.400 6  98761524.58843  24118573.313                    24118577.246
      -191.875        -149.297          41.400          20.900
 115055864.560 8  89653960.86846  21894411.852                    21894417.828
     -2723.789       -2122.307          48.300          38.600
 18  2 21  8 26  0.0000000  0  8G05G07G02G09G23G30G16G06
 119353545.839 7  93002781.24745  22712231.500                    22712233.816
      3015.563        2349.932          47.000          31.900
 110672198.128 8  86238073.67746  21060212.258                    21060214.734
      1431.875        1115.992          50.200          41.000
 114551115.056 7  89260661.71946  21798363.891                    21798364.590
      -120.379         -93.551          47.800          36.600
 108592417.630 8  84617496.40747  20664449.047                    20664453.617
     -1667.406       -1299.085          51.200          43.900
 122899657.651 7  95766014.76445  23387035.688                    23387037.273
     -2805.312       -2185.817          44.200          31.600
 115602266.102 7  90079724.43445  21998376.531                    21998382.113
      2950.430        2299.217          45.000          34.100
 126749985.411 7  98766252.90243  24119728.195                    24119731.383
      -212.617        -165.383          42.100          21.100
 115137783.442 7  89717793.75446  21910000.531                    21910006.277
     -2737.426       -2132.856          47.400          38.000
 18  2 21  8 26 30.0000000  0  8G05G07G02G09G23G30G16G06
 119263175.008 8  92932362.43545  22695034.922                    22695036.844
      3009.223        2344.794          48.700          31.700
 110629489.755 8  86204794.43746  21052084.906                    21052087.758
      1415.512        1103.017          51.000          41.300
 114555004.915 7  89263692.77046  21799103.906                    21799104.688
      -138.805        -108.057          46.900          36.300
 108642595.443 8  84656595.99747  20673997.422                    20674001.648
     -1677.629       -1307.306          51.800          43.500
 122983874.454 7  95831638.21045  23403061.477                    23403063.246
     -2809.074       -2189.011          46.500          30.200
 115513925.161 7  90010887.34945  21981565.797                    21981571.922
      2939.063        2290.187          45.900          33.600
 126756670.729 6  98771462.21543  24121000.453                    24121003.523
      -232.906        -181.418          39.200          21.300
 115220105.176 8  89781940.54546  21925665.781                    21925671.398
     -2750.523       -2143.292          48.900          37.600
 18  2 21  8 27  0.0000000  0  8G05G07G02G09G23G30G16G06
 119173001.788 7  92862097.59145  22677875.180                    22677877.465
      3002.543        2339.588          46.300          32.400
 110587281.228 8  86171904.69246  21044052.734                    21044055.422
      1398.762        1089.973          49.800          40.300
 114559453.266 7  89267159.00446  21799950.406                    21799951.074
      -157.527        -122.623          47.400          36.400
 108693089.446 8  84695941.97147  20683606.016                    20683610.582
     -1688.270       -1315.567          51.700          43.700
 123068213.258 7  95897356.73145  23419109.953                    23419112.332
     -2813.199       -2192.211          45.000          30.900
 115425933.550 7  89942322.48045  21964821.813                    21964826.980
      2927.172        2281.018          45.700          35.700
 126763973.812 7  98777152.94343  24122390.836                    24122393.508
      -253.719        -197.530          42.600          21.100
 115302827.209 8  89846399.25546  21941407.258                    21941412.691
     -2763.996       -2153.703          48.100          37.400
 18  2 21  8 27 30.0000000  0  8G05G07G02G09G23G30G16G06
 119083028.048 8  92791988.19045  22660753.734                    22660756.395
      2995.918        2334.487          48.500          32.600
 110545573.480 8  86139405.13846  21036116.086                    21036119.121
      1382.043        1077.037          51.200          39.900
 114564460.067 7  89271060.40046  21800903.195                    21800904.055
      -176.098        -137.040          45.800          36.000
 108743898.371 8  84735533.33547  20693274.539                    20693279.125
     -1698.793       -1323.646          52.400          43.300
 123152672.838 7  95963169.35445  23435182.406                    23435183.863
     -2817.121       -2195.237          44.700          30.600
 115338293.354 7  89874031.44545  21948144.281                    21948149.711
      2915.598        2271.963          47.600          35.900
 126771894.626 6  98783324.98443  24123898.273                    24123899.988
      -274.230        -213.493          40.900          21.100
 115385946.884 7  89911167.81746  21957224.203                    21957229.605
     -2777.137       -2163.906          47.500          37.100
 18  2 21  8 28  0.0000000  0  8G05G07G02G09G23G30G16G06
 118993255.683 8  92722035.70745  22643670.867                    22643673.148
      2989.223        2329.287          48.900          32.200
 110504367.548 8  86107296.63446  21028275.391                    21028277.504
      1365.352        1064.047          50.200          40.300
 114570025.048 7  89275396.73746  21801962.461                    21801963.281
      -194.578        -151.481          47.600          36.400
 108795021.147 8  84775369.25247  20703002.859                    20703007.793
     -1709.156       -1331.725          51.700          44.100
 123237252.500 7  96029075.53744  23451277.625                    23451279.043
     -2821.141       -2198.293          45.600          29.800
 115251007.028 7  89806016.15446  21931533.992                    21931539.328
      2903.813        2262.783          47.600          36.100
 126780433.528 7  98789978.65043  24125523.375                    24125524.137
      -294.723        -229.442          42.200          21.100
 115469461.664 8  89976244.24246  21973116.656                    21973121.902
     -2790.145       -2174.078          48.800          37.100
 18  2 21  8 28 30.0000000  0  8G05G07G02G09G23G30G16G06
 118903686.925 7  92652241.87945  22626626.070                    22626629.086
      2982.184        2323.845          47.000          33.200
 110463664.413 8  86075579.91946  21020529.602                    21020532.023
      1348.281        1050.867          49.900          40.500
 114576148.067 7  89280167.91046  21803127.539                    21803128.242
      -213.453        -166.079          46.700          36.900
 108846456.456 8  84815448.70047  20712790.664                    20712795.145
     -1719.789       -1339.937          51.200          43.600
 123321951.450 7  96095074.70045  23467395.031                    23467396.832
     -2825.418       -2201.497          45.300          30.200
 115164076.637 7  89738278.20046  21914991.961                    21914997.527
      2891.723        2253.436          46.900          36.500
 126789590.289 6  98797113.76343  24127266.344                    24127266.605
      -315.566        -245.621          41.700          20.400
 115553368.811 7  90041626.40846  21989084.078                    21989088.848
     -2803.512       -2184.344          47.500          37.300
 18  2 21  8 29  0.0000000  0  8G05G07G02G09G23G30G16G06
 118814323.729 7  92582608.22245  22609621.383                    22609623.934
      2975.281        2318.559          46.800          33.400
 110423464.968 8  86044255.68646  21012879.508                    21012882.113
      1331.457        1037.827          50.800          40.100
 114582828.880 7  89285373.72446  21804398.719                    21804399.207
      -232.066        -180.499          47.700          36.400
 108898202.922 8  84855770.61947  20722637.695                    20722641.977
     -1730.148       -1347.948          52.500          43.100
 123406768.430 7  96161165.82144  23483535.102                    23483536.297
     -2829.219       -2204.493          44.600          29.500
 115077504.304 7  89670819.25946  21898518.039                    21898523.516
      2879.637        2244.137          47.200          36.800
 126799364.716 7  98804730.15643  24129126.188                    24129126.004
      -336.187        -261.610          43.700          20.400
 115637665.547 8  90107312.16546  22005125.305                    22005130.406
     -2816.492       -2194.378          48.100          37.600
 18  2 21  8 29 30.0000000  0  8G05G07G02G09G23G30G16G06
 118725167.260 8  92513135.64945  22592654.469                    22592657.852
      2968.367        2313.110          48.100          32.500
 110383769.734 8  86013324.34146  21005325.922                    21005328.109
      1314.699        1024.681          50.700          40.300
 114590067.205 8  89291013.97546  21805775.711                    21805776.898
      -250.621        -195.016          48.100          36.400
 108950259.116 8  84896333.87347  20732543.523                    20732548.168
     -1740.379       -1356.005          52.000          43.600
 123491702.210 7  96227347.95344  23499698.273                    23499698.668
     -2833.090       -2207.539          44.800          27.500
 114991292.006 8  89603640.88346  21882112.297                    21882117.605
      2867.691        2234.711          48.400          37.100
 126809756.852 7  98812827.92343  24131102.547                    24131103.125
      -356.812        -277.738          42.100          19.600
 115722348.952 7  90173299.21046  22021239.594                    22021244.707
     -2829.250       -2204.437          47.800          37.400
 18  2 21  8 30  0.0000000  0  8G05G07G02G09G23G30G16G06
 118636220.230 7  92443826.28245  22575728.617                    22575732.051
      2961.527        2307.606          46.400          32.900
 110344579.969 8  85982786.86946  20997868.266                    20997870.879
      1297.992        1011.502          50.500          39.700
 114597862.758 8  89297088.42246  21807260.211                    21807260.477
      -269.008        -209.550          49.000          36.700
 109002624.240 8  84937137.85247  20742508.336                    20742512.902
     -1750.527       -1364.081          52.900          43.400
 123576752.124 7  96293620.60244  23515882.484                    23515883.340
     -2836.781       -2210.616          44.600          28.400
 114905442.284 7  89536745.02646  21865775.805                    21865780.676
      2855.754        2225.238          47.200          36.800
 126820766.763 6  98821407.06343  24133197.531                    24133197.676
      -377.059        -293.790          40.800          19.900
 115807416.635 7  90239585.68446  22037427.711                    22037432.906
     -2841.797       -2214.413          47.600          38.100
 18  2 21  8 30 30.0000000  0  8G05G07G02G09G23G30G16G06
 118547483.620 8  92374680.88145  22558842.609                    22558846.270
      2954.137        2302.172          48.900          33.500
 110305896.476 8  85952643.90446  20990507.211                    20990509.309
      1280.883         998.402          50.100          39.700
 114606215.432 8  89303596.99046  21808849.563                    21808849.605
      -287.828        -223.939          48.200          36.800
 109055296.979 8  84978181.53747  20752531.891                    20752536.004
     -1761.000       -1371.979          52.300          43.500
 123661917.295 7  96359983.05444  23532089.117                    23532089.410
     -2840.879       -2213.526          43.700          25.800
 114819957.329 8  89470133.40346  21849508.422                    21849513.809
      2843.160        2215.786          48.800          36.200
 126832394.096 6  98830467.28043  24135410.078                    24135409.961
      -397.945        -309.721          40.500          20.100
 115892865.911 8  90306169.50146  22053688.258                    22053694.133
     -2854.859       -2224.235          48.300          38.400
 18  2 21  8 31  0.0000000  0  8G05G07G02G09G23G30G16G06
 118458960.468 7  92305701.80845  22541997.086                    22542000.730
      2947.086        2296.583          47.000          33.000
 110267720.677 8  85922896.54146  20983242.281                    20983244.633
      1263.910         985.161          49.900          40.300
 114615125.375 8  89310539.79046  21810544.773                    21810545.141
      -306.367        -238.447          48.900          36.700
 109108276.545 8  85019464.31047  20762613.813                    20762617.363
     -1771.187       -1379.961          52.800          43.400
 123747197.224 7  96426434.92244  23548317.117                    23548317.258
     -2844.719       -2216.528          43.200          26.700
 114734839.664 7  89403807.97946  21833310.844                    21833316.141
      2830.984        2206.202          47.800          36.600
 126844638.848 6  98840008.64843  24137740.125                    24137740.020
      -418.617        -325.851          41.600          19.900
 115978694.441 8  90373048.83646  22070021.164                    22070026.629
     -2867.230       -2234.076          48.300          38.600
 18  2 21  8 31 30.0000000  0  8G05G07G02G09G23G30G16G06
 118370651.601 7  92236889.72145  22525193.242                    22525196.270
      2940.156        2291.156          46.300          33.000
 110230052.672 8  85893544.85346  20976074.648                    20976076.582
      1247.191         972.104          50.300          39.900
 114624591.557 8  89317916.02846  21812346.398                    21812346.980
      -324.637        -252.750          48.700          37.700
 109161561.023 8  85060984.66947  20772753.227                    20772756.973
     -1781.086       -1387.727          53.400          43.300
 123832590.283 7  96492974.94444  23564566.461                    23564566.762
     -2848.297       -2219.324          42.700          25.100
 114650090.794 7  89337769.92946  21817183.523                    21817189.020
      2818.957        2196.743          47.800          36.000
 126857500.754 6  98850030.88543  24140187.672                    24140189.035
      -438.855        -341.706          41.900          20.100
 116064898.868 8  90440221.08946  22086425.406                    22086430.914
     -2879.582       -2243.657          48.500          39.300
 18  2 21  8 32  0.0000000  0  8G05G07G02G09G23G30G16G06
 118282559.868 8  92168246.81745  22508429.977                    22508432.629
      2932.695        2285.333          48.100          33.500
 110192893.992 8  85864590.05146  20969003.391                    20969005.676
      1230.129         958.740          50.800          39.400
 114634614.031 8  89325725.74346  21814253.164                    21814253.527
      -343.387        -267.331          49.600          37.900
 109215149.728 8  85102742.10047  20782951.141                    20782954.742
     -1791.449       -1395.748          53.400          43.500
 123918096.074 7  96559602.81444  23580837.656                    23580839.051
     -2851.980       -2222.334          42.100          26.900
 114565713.437 8  89272021.38945  21801126.547                    21801132.418
      2806.340        2186.925          48.900          35.200
 126870979.668 7  98860533.92943  24142753.703                    24142755.820
      -459.707        -357.863          43.900          22.000
 116151476.978 7  90507684.50346  22102900.500                    22102906.336
     -2892.117       -2253.469          47.900          38.500
 18  2 21  8 32 30.0000000  0  8G05G07G02G09G23G30G16G06
 118194686.933 7  92099774.39145  22491708.219                    22491711.492
      2925.352        2279.627          47.000          33.600
 110156245.279 8  85836032.62446  20962028.992                    20962031.703
      1213.016         945.479          51.000          38.700
 114645192.307 8  89333968.53346  21816266.211                    21816266.852
      -361.953        -281.764          49.400          37.400
 109269041.100 9  85144735.37747  20793206.625                    20793209.969
     -1801.437       -1403.587          54.900          43.100
 124003713.121 6  96626317.35944  23597129.656                    23597131.262
     -2855.691       -2225.226          41.300          26.300
 114481709.395 8  89206563.74545  21785141.484                    21785146.582
      2793.816        2177.194          48.200          35.700
 126885075.209 7  98871517.47143  24145436.656                    24145440.234
      -480.156        -373.878          44.400          23.900
 116238425.645 7  90575436.66546  22119445.797                    22119451.461
     -2904.480       -2263.073          47.800          37.700
 18  2 21  8 33  0.0000000  0  8G05G07G02G09G23G30G16G06
 118107033.902 8  92031473.33545  22475028.438                    22475031.824
      2917.996        2273.989          48.300          33.600
 110120107.156 8  85807873.05646  20955152.289                    20955154.824
      1196.035         932.310          51.300          39.700
 114656326.109 8  89342644.21346  21818384.727                    21818385.453
      -380.430        -296.094          49.100          37.200
 109323234.067 9  85186963.65747  20803518.984                    20803522.418
     -1811.441       -1411.301          55.400          43.400
 124089440.695 7  96693118.01744  23613443.984                    23613444.797
     -2859.453       -2228.000          42.400          26.000
 114398080.886 8  89141398.72745  21769227.383                    21769232.750
      2781.379        2167.506          49.400          35.400
 126899787.247 7  98882981.37843  24148236.039                    24148239.797
      -500.715        -389.791          42.000          23.600
 116325742.287 7  90643475.55046  22136061.758                    22136067.641
     -2916.641       -2272.488          47.900          38.400
 18  2 21  8 33 30.0000000  0  8G05G07G02G09G23G30G16G06
 118019603.762 8  91963345.95945  22458390.953                    22458393.758
      2910.723        2268.093          48.300          32.800
 110084480.351 8  85780111.91446  20948373.063                    20948375.551
      1179.035         918.926          52.000          39.800
 114668015.281 8  89351752.65046  21820609.133                    21820609.996
      -398.805        -310.591          48.800          37.100
 109377727.527 9  85229426.08547  20813888.828                    20813891.902
     -1821.422       -1419.188          55.300          43.000
 124175278.196 6  96760004.32944  23629778.109                    23629779.371
     -2863.102       -2230.932          41.600          25.800
 114314830.158 8  89076528.05945  21753385.227                    21753390.668
      2768.781        2157.580          49.100          35.000
 126915115.560 6  98894925.49743  24151151.539                    24151155.949
      -521.199        -405.889          41.400          22.000
 116413424.293 7  90711799.14946  22152747.203                    22152753.297
     -2928.668       -2282.022          47.300          38.000
 18  2 21  8 34  0.0000000  0  8G05G07G02G09G23G30G16G06
 117932398.138 8  91895393.52545  22441796.297                    22441799.309
      2903.156        2262.292          48.100          33.100
 110049365.688 8  85752749.84946  20941690.719                    20941693.398
      1162.105         905.682          51.500          39.900
 114680259.103 8  89361293.27546  21822939.492                    21822939.324
      -417.273        -324.938          49.700          36.800
 109432520.073 9  85272121.57547  20824315.672                    20824319.129
     -1831.328       -1426.886          55.700          43.500
 124261224.530 7  96826975.44644  23646134.141                    23646134.473
     -2866.617       -2233.677          43.700          28.000
 114231959.133 8  89011953.26545  21737615.414                    21737620.684
      2756.074        2147.746          48.800          34.700
 126931059.784 6  98907349.51743  24154185.055                    24154188.160
      -541.621        -421.793          40.100          20.400
 116501468.703 7  90780405.14846  22169501.125                    22169507.156
     -2940.777       -2291.354          47.200          37.700
 18  2 21  8 34 30.0000000  0  8G05G07G02G09G23G30G16G06
 117845418.780 8  91827617.38845  22425244.508                    22425247.633
      2895.367        2256.343          48.200          34.200
 110014764.269 8  85725787.71246  20935106.539                    20935108.551
      1144.719         892.292          50.800          39.800
 114693057.406 8  89371265.97046  21825374.750                    21825375.129
      -435.953        -339.376          49.400          36.800
 109487610.876 8  85315049.46747  20834799.086                    20834802.543
     -1841.434       -1434.660          53.800          43.200
 124347278.903 7  96894030.78244  23662508.336                    23662510.801
     -2870.223       -2236.518          42.300          28.500
 114149470.360 8  88947676.33845  21721918.414                    21721923.223
      2743.102        2137.749          49.500          35.400
 126947620.111 7  98920253.66143  24157336.523                    24157337.809
      -562.352        -437.865          42.500          19.600
 116589873.097 7  90849291.65046  22186324.203                    22186330.113
     -2952.875       -2300.708          46.900          37.800
 18  2 21  8 35  0.0000000  0  8G05G07G02G09G23G30G16G06
 117758667.789 8  91760019.22145  22408736.078                    22408738.988
      2887.836        2250.390          48.000          32.600
 109980676.364 8  85699225.71446  20928619.813                    20928622.398
      1127.660         878.970          52.300          39.900
 114706409.301 8  89381670.02946  21827915.602                    21827916.184
      -454.340        -353.737          49.500          36.500
 109542998.276 9  85358208.46447  20845338.727                    20845342.707
     -1851.215       -1442.335          54.600          43.300
 124433440.202 7  96961169.40944  23678904.125                    23678906.477
     -2873.848       -2239.272          45.000          27.600
 114067365.516 8  88883698.58145  21706294.094                    21706299.438
      2730.367        2127.770          49.600          35.200
 126964795.037 7  98933636.77743  24160605.266                    24160606.219
      -582.770        -453.791          42.700          21.700
 116678634.275 7  90918456.16846  22203215.078                    22203220.715
     -2964.664       -2309.940          47.800          37.400
 18  2 21  8 35 30.0000000  0  8G05G07G02G09G23G30G16G06
 117672147.376 8  91692600.72145  22392272.430                    22392274.914
      2880.184        2244.374          48.000          33.600
 109947103.036 8  85673064.68246  20922231.180                    20922233.613
      1110.559         865.574          51.500          40.900
 114720314.661 8  89392505.36046  21830562.031                    21830562.414
      -472.758        -368.128          49.600          36.300
 109598681.375 8  85401597.88447  20855934.734                    20855938.855
     -1861.020       -1450.007          53.400          42.800
 124519707.542 7  97028390.68044  23695321.563                    23695322.957
     -2877.277       -2242.039          45.100          28.300
 113985646.866 8  88820021.72946  21690744.039                    21690749.316
      2717.512        2117.690          49.200          36.200
 126982585.013 7  98947499.11043  24163990.352                    24163993.227
      -603.270        -469.801          42.000          21.500
 116767749.695 7  90987896.69746  22220172.703                    22220179.172
     -2976.336       -2319.089          47.200          37.700
 18  2 21  8 36  0.0000000  0  8G05G07G02G09G23G30G16G06
 117585858.739 8  91625362.81545  22375851.586                    22375854.809
      2872.391        2238.294          48.400          33.700
 109914044.731 8  85647304.96846  20915940.406                    20915942.855
      1093.359         852.144          51.600          41.100
 114734772.739 8  89403771.38146  21833313.016                    21833313.512
      -491.074        -382.519          49.500          36.400
 109654658.811 8  85445216.65647  20866586.898                    20866591.543
     -1870.789       -1457.694          52.000          43.100
 124606080.076 6  97095693.92544  23711756.898                    23711758.934
     -2880.691       -2244.762          41.900          27.500
 113904316.436 8  88756647.39946  21675267.023                    21675272.273
      2704.551        2107.546          50.200          36.500
 127000989.706 6  98961840.40343  24167492.906                    24167498.574
      -623.633        -485.768          38.500          20.100
 116857216.451 7  91057611.01246  22237198.453                    22237204.309
     -2988.008       -2328.240          47.300          36.900
 18  2 21  8 36 30.0000000  0  8G05G07G02G09G23G30G16G06
 117499804.444 8  91558307.52445  22359475.336                    22359478.996
      2864.441        2232.212          48.500          34.000
 109881502.421 8  85621947.33346  20909747.914                    20909749.992
      1076.066         838.751          50.500          40.900
 114749783.372 8  89415467.96546  21836169.531                    21836169.887
      -509.758        -396.845          49.300          36.900
 109710929.558 8  85489063.96647  20877294.164                    20877299.172
     -1880.652       -1465.253          50.700          42.600
 124692557.153 7  97163078.59244  23728213.617                    23728214.516
     -2884.559       -2247.490          44.300          28.500
 113823376.545 8  88693577.40546  21659864.594                    21659870.133
      2691.277        2097.402          50.500          37.000
 127020008.163 6  98976659.89843  24171112.086                    24171117.906
      -644.289        -501.687          40.900          21.500
 116947031.942 7  91127597.04946  22254289.273                    22254295.152
     -2999.812       -2337.252          46.700          37.600
 18  2 21  8 37  0.0000000  0  8G05G07G02G09G23G30G16G06
 117413986.286 8  91491436.24045  22343145.703                    22343148.000
      2856.570        2226.038          49.500          34.300
 109849476.636 8  85596992.17646  20903653.734                    20903655.973
      1058.758         825.304          50.800          41.500
 114765345.807 8  89427594.52046  21839130.922                    21839131.750
      -528.027        -411.164          48.500          36.700
 109767492.292 8  85533138.79847  20888058.102                    20888063.055
     -1890.297       -1472.842          50.700          42.300
 124779137.376 7  97230543.69444  23744689.578                    23744690.738
     -2887.785       -2250.180          42.600          27.300
 113742828.991 8  88630813.11546  21644537.289                    21644542.543
      2678.301        2087.180          50.500          37.100
 127039639.747 7  98991957.21843  24174849.195                    24174851.668
      -664.668        -517.637          43.700          21.100
 117037193.193 7  91197852.52846  22271446.719                    22271452.410
     -3011.211       -2346.199          47.300          37.300
 18  2 21  8 37 30.0000000  0  8G05G07G02G09G23G30G16G06
 117328406.074 8  91424750.36945  22326859.969                    22326862.707
      2848.438        2219.833          49.300          34.100
 109817968.023 8  85572440.02046  20897657.563                    20897660.273
      1041.480         811.884          50.900          41.400
 114781459.252 8  89440150.43946  21842196.484                    21842197.551
      -546.543        -425.477          49.100          36.800
 109824345.780 8  85577440.20847  20898876.547                    20898881.887
     -1900.195       -1480.401          51.100          42.500
 124865820.188 6  97298088.67644  23761183.945                    23761185.391
     -2891.352       -2252.792          41.100          26.600
 113662675.911 8  88568356.22446  21629284.234                    21629289.781
      2664.965        2076.888          50.300          37.200
 127059884.426 6  99007732.33443  24178700.570                    24178699.559
      -685.250        -533.542          41.300          19.900
 117127697.455 7  91268375.28446  22288668.648                    22288674.766
     -3022.719       -2355.073          46.800          37.200
 18  2 21  8 38  0.0000000  0  8G05G07G02G09G23G30G16G06
 117243065.885 8  91358251.51645  22310620.656                    22310623.098
      2840.641        2213.562          49.600          33.800
 109786977.177 8  85548291.31746  20891760.258                    20891762.918
      1024.473         798.433          51.200          41.600
 114798123.495 8  89453135.54946  21845368.313                    21845369.121
      -564.594        -439.769          48.900          36.200
 109881488.995 8  85621967.36947  20909750.500                    20909755.727
     -1909.586       -1487.897          51.200          43.200
 124952604.741 6  97365712.96744  23777698.781                    23777700.027
     -2894.441       -2255.434          41.600          25.500
 113582919.475 8  88506208.39646  21614107.281                    21614113.117
      2651.965        2066.578          50.400          37.700
 127080741.666 6  99023984.72943  24182668.594                    24182668.516
      -705.473        -549.457          39.900          18.300
 117218542.041 7  91339163.23846  22305956.156                    22305961.855
     -3033.832       -2363.877          47.300          36.800
 18  2 21  8 38 30.0000000  0  8G05G07G02G09G23G30G16G06
 117157968.082 8  91291941.55145  22294426.781                    22294429.238
      2832.422        2207.266          50.200          35.100
 109756505.172 8  85524546.90646  20885961.609                    20885964.426
      1006.930         784.933          50.600          41.000
 114815338.079 8  89466549.48545  21848644.031                    21848644.828
      -583.117        -454.061          49.100          35.900
 109938920.850 8  85666719.44147  20920679.883                    20920685.047
     -1919.375       -1495.386          50.300          42.900
 125039490.241 6  97433415.92544  23794231.703                    23794233.566
     -2897.922       -2258.072          40.400          24.100
 113503561.814 8  88444371.28146  21599005.742                    21599011.352
      2638.418        2056.176          50.500          37.700
 127102211.195 6  99040714.15843  24186754.625                    24186758.449
      -726.184        -565.376          40.400          20.100
 117309724.221 7  91410214.26346  22323307.789                    22323313.289
     -3045.191       -2372.623          47.300          37.300
 18  2 21  8 39  0.0000000  0  8G05G07G02G09G23G30G16G06
 117073114.180 8  91225821.64045  22278279.914                    22278282.691
      2824.293        2200.865          50.100          35.300
 109726551.857 8  85501206.68946  20880261.508                    20880264.195
       989.684         771.427          50.300          41.600
 114833101.757 8  89480391.30545  21852024.461                    21852025.086
      -601.414        -468.341          48.400          35.500
 109996639.838 8  85711695.26647  20931663.328                    20931668.074
     -1928.812       -1502.835          50.500          43.100
 125126475.672 6  97501196.70044  23810784.984                    23810786.625
     -2901.312       -2260.648          40.000          26.200
 113424604.657 8  88382846.26546  21583981.031                    21583986.961
      2625.109        2045.721          50.000          37.100
 127124291.780 7  99057919.76443  24190956.625                    24190962.883
      -746.277        -581.245          43.300          22.500
 117401240.827 8  91481525.86946  22340722.938                    22340728.227
     -3056.195       -2381.278          48.700          37.600
 18  2 21  8 39 30.0000000  0  8G05G07G02G09G23G30G16G06
 116988506.920 8  91159893.90745  22262179.727                    22262182.445
      2816.277        2194.528          50.500          35.700
 109697118.628 8  85478271.71346  20874660.602                    20874663.328
       972.555         758.011          50.900          41.200
 114851414.675 7  89494661.09045  21855508.969                    21855509.570
      -619.504        -482.495          47.100          35.500
 110054645.313 8  85756894.33047  20942701.672                    20942706.031
     -1938.102       -1510.156          51.400          42.400
 125213560.617 6  97569055.05443  23827356.813                    23827357.676
     -2904.254       -2263.141          40.800          22.900
 113346050.636 8  88321635.37446  21569032.375                    21569038.117
      2611.906        2035.348          50.200          36.700
 127146983.722 7  99075601.80143  24195275.375                    24195278.559
      -766.383        -596.989          42.600          21.500
 117493089.597 8  91553096.30746  22358201.594                    22358206.184
     -3066.941       -2389.762          48.100          36.900
 18  2 21  8 40  0.0000000  0  8G05G07G02G09G23G30G16G06
 116904147.824 8  91094159.56745  22246126.813                    22246129.148
      2808.113        2188.063          49.900          35.300
 109668206.026 8  85455742.41846  20869158.867                    20869161.367
       955.328         744.445          51.300          41.500
 114870275.965 8  89509358.17845  21859098.531                    21859098.625
      -637.602        -496.778          48.000          35.900
 110112935.946 8  85802315.60347  20953794.000                    20953798.031
     -1947.430       -1517.605          51.000          42.200
 125300743.808 6  97636989.97343  23843945.914                    23843948.184
     -2907.547       -2265.751          38.300          22.200
 113267901.512 8  88260740.00646  21554161.563                    21554166.867
      2598.488        2024.761          49.700          37.200
 127170286.066 6  99093759.47643  24199708.977                    24199709.719
      -786.883        -612.913          38.400          19.900
 117585267.538 8  91624923.23146  22375742.391                    22375747.098
     -3077.801       -2398.344          48.200          37.200
 18  2 21  8 40 30.0000000  0  8G05G07G02G09G23G30G16G06
 116820038.304 8  91028619.68845  22230122.031                    22230123.805
      2799.426        2181.461          50.700          35.100
 109639813.673 8  85433618.51746  20863755.711                    20863758.492
       937.797         730.900          50.200          40.900
 114889684.455 7  89524481.66345  21862791.875                    21862792.125
      -656.117        -511.023          47.100          34.500
 110171510.048 8  85847957.74246  20964940.383                    20964944.469
     -1957.191       -1524.988          50.700          41.700
 125388024.174 6  97705000.55843  23860555.477                    23860557.117
     -2910.937       -2268.256          39.000          22.600
 113190158.758 8  88200161.26045  21539367.250                    21539372.844
      2584.652        2014.142          49.300          35.900
 127194197.689 7  99112391.87143  24204259.773                    24204261.914
      -807.164        -628.734          42.300          22.200
 117677771.280 8  91697004.04046  22393345.508                    22393350.000
     -3088.859       -2406.785          48.900          37.200
 18  2 21  8 41  0.0000000  0  8G05G07G02G09G23G30G16G06
 116736181.499 8  90963276.72545  22214163.977                    22214166.301
      2790.941        2174.930          50.900          35.400
 109611942.785 8  85411900.95446  20858452.164                    20858454.766
       920.250         717.356          50.800          41.000
 114909639.734 7  89540031.20145  21866589.086                    21866589.539
      -674.367        -525.198          47.900          34.800
 110230366.852 8  85893820.18446  20976140.406                    20976144.840
     -1966.711       -1532.302          51.100          41.300
 125475401.346 6  97773086.63143  23877182.797                    23877184.227
     -2914.395       -2270.762          40.400          22.000
 113112824.891 8  88139901.12645  21524651.070                    21524656.277
      2570.789        2003.514          49.800          35.900
 127218717.868 7  99131498.52143  24208926.938                    24208930.613
      -827.590        -644.524          42.700          22.900
 117770598.467 8  91769336.87946  22411009.664                    22411014.344
     -3099.719       -2415.146          48.700          37.000
 18  2 21  8 41 30.0000000  0  8G05G07G02G09G23G30G16G06
 116652577.872 8  90898131.04745  22198254.820                    22198257.516
      2782.488        2168.384          49.500          35.700
 109584593.613 8  85390589.92246  20853247.891                    20853250.660
       902.805         703.868          50.600          41.300
 114930140.657 8  89556005.93345  21870490.180                    21870490.598
      -692.500        -539.281          48.000          34.600
 110289504.920 8  85939901.79146  20987393.992                    20987398.172
     -1975.988       -1539.503          50.400          41.500
 125562874.106 6  97841247.16943  23893829.383                    23893829.918
     -2917.609       -2273.157          40.600          22.600
 113035901.602 8  88079960.93546  21510013.180                    21510018.523
      2557.148        1992.886          49.900          36.500
 127243846.293 6  99151079.05543  24213707.391                    24213711.367
      -847.805        -660.262          39.700          20.900
 117863745.973 8  91841919.32146  22428735.203                    22428739.988
     -3110.379       -2423.365          48.500          37.100
 18  2 21  8 42  0.0000000  0  8G05G07G02G09G23G30G16G06
 116569230.312 8  90833184.90745  22182394.523                    22182396.797
      2773.934        2161.616          49.300          35.200
 109557766.648 8  85369685.79546  20848142.594                    20848145.438
       885.555         690.230          50.600          41.000
 114951186.716 7  89572405.43945  21874495.023                    21874495.332
      -710.625        -553.504          46.900          34.800
 110348923.103 8  85986201.66746  20998701.188                    20998705.375
     -1985.348       -1546.860          51.700          41.700
 125650441.669 7  97909481.59944  23910492.883                    23910493.473
     -2920.598       -2275.683          42.100          24.200
 112959390.816 8  88020342.16045  21495453.625                    21495458.805
      2543.383        1982.080          49.500          35.800
 127269582.354 7  99171133.06543  24218605.109                    24218606.371
      -868.078        -676.081          42.000          20.100
 117957210.919 8  91914749.13046  22446521.227                    22446525.313
     -3120.773       -2431.647          48.900          37.200
 18  2 21  8 42 30.0000000  0  8G05G07G02G09G23G30G16G06
 116486141.271 8  90768440.20845  22166583.164                    22166585.875
      2765.367        2154.934          50.200          35.800
 109531462.235 8  85349188.86546  20843137.219                    20843140.094
       868.191         676.672          50.200          41.100
 114972777.138 8  89589229.12545  21878603.586                    21878603.660
      -728.695        -567.604          48.100          34.400
 110408620.149 8  86032718.84046  21010060.789                    21010065.414
     -1994.574       -1554.056          50.400          41.500
 125738102.981 6  97977789.06844  23927174.453                    23927175.328
     -2923.609       -2278.084          41.400          24.600
 112883294.445 8  87961046.30945  21480972.867                    21480978.023
      2529.727        1971.316          49.300          35.800
 127295924.343 6  99191659.34743  24223618.758                    24223619.305
      -888.148        -691.817          41.400          20.600
 118050990.369 8  91987823.99446  22464366.672                    22464371.211
     -3131.187       -2439.739          48.500          37.200
 18  2 21  8 43  0.0000000  0  8G05G07G02G09G23G30G16G06
 116403311.972 8  90703897.90245  22150821.523                    22150823.527
      2756.711        2148.131          49.100          35.400
 109505681.292 8  85329099.83146  20838231.086                    20838233.781
       850.691         663.042          50.000          40.500
 114994911.236 8  89606476.46545  21882815.469                    21882815.742
      -746.805        -581.753          48.600          34.700
 110468595.214 8  86079452.65146  21021473.703                    21021478.113
     -2003.730       -1561.293          50.900          41.300
 125825857.607 7  98046169.27044  23943873.664                    23943874.398
     -2926.582       -2280.509          42.700          24.500
 112807614.799 8  87902075.16046  21466571.953                    21466576.762
      2515.730        1960.442          48.900          36.500
 127322872.742 6  99212658.03443  24228744.688                    24228748.762
      -908.242        -707.532          37.700          19.000
 118145081.806 8  92061141.96246  22482271.672                    22482276.980
     -3141.379       -2447.826          48.300          36.700
 18  2 21  8 43 30.0000000  0  8G05G07G02G09G23G30G16G06
 116320745.006 8  90639560.01746  22135109.086                    22135111.527
      2747.883        2141.314          49.400          36.000
 109480424.153 8  85309418.95246  20833424.844                    20833427.375
       833.125         649.460          50.800          41.300
 115017588.213 8  89624146.82545  21887131.094                    21887131.582
      -764.902        -595.799          48.500          35.900
 110528846.931 8  86126402.04246  21032938.867                    21032943.637
     -2013.094       -1568.431          50.000          41.800
 125913704.612 7  98114621.44744  23960590.359                    23960591.590
     -2929.820       -2282.875          42.500          25.800
 112732353.576 8  87843430.05545  21452249.883                    21452254.777
      2501.684        1949.601          49.100          35.600
 127350425.732 6  99234127.82343  24233988.438                    24233991.133
      -928.523        -723.232          39.600          19.300
 118239482.133 8  92134700.62446  22500235.203                    22500240.895
     -3151.805       -2455.792          48.200          37.800
 18  2 21  8 44  0.0000000  0  8G05G07G02G09G23G30G16G06
 116238441.914 8  90575427.74746  22119447.594                    22119450.086
      2738.766        2134.485          49.700          36.500
 109455690.862 8  85290146.27046  20828718.367                    20828721.043
       815.492         635.896          51.000          40.900
 115040806.820 8  89642239.23145  21891549.070                    21891549.707
      -783.187        -609.811          48.400          35.300
 110589374.079 8  86173566.04146  21044456.531                    21044461.543
     -2022.324       -1575.513          50.800          41.300
 126001642.986 7  98183144.80744  23977324.633                    23977326.078
     -2933.027       -2285.176          42.000          24.400
 112657512.699 8  87785112.50045  21438008.359                    21438012.555
      2487.414        1938.698          49.900          35.700
 127378582.880 7  99256068.50243  24239348.148                    24239347.215
      -948.816        -738.878          42.800          19.600
 118334188.465 8  92208497.70646  22518257.414                    22518262.742
     -3162.172       -2463.659          48.200          37.900
 18  2 21  8 44 30.0000000  0  8G05G07G02G09G23G30G16G06
 116156404.806 8  90511502.73545  22103836.359                    22103838.918
      2730.148        2127.460          49.200          35.900
 109431481.865 8  85271282.12646  20824111.195                    20824114.289
       798.352         622.195          50.000          41.000
 115064566.450 8  89660753.22245  21896070.914                    21896071.449
      -800.926        -623.951          48.600          35.900
 110650175.508 8  86220943.76746  21056026.789                    21056031.891
     -2031.187       -1582.693          50.100          41.200
 126089671.896 7  98251738.71744  23994076.063                    23994077.773
     -2935.715       -2287.623          44.600          25.600
 112583094.072 8  87727123.96446  21423846.633                    21423851.215
      2473.664        1927.612          50.300          36.200
 127407343.173 6  99278479.07443  24244819.367                    24244822.820
      -968.582        -754.598          38.400          20.600
 118429197.904 8  92282530.99546  22536337.586                    22536343.133
     -3171.805       -2471.571          48.100          38.500
 18  2 21  8 45  0.0000000  0  8G05G07G02G09G23G30G16G06
 116074635.886 8  90447786.69946  22088276.273                    22088278.816
      2721.254        2120.481          49.100          36.500
 109407797.872 8  85252827.07746  20819604.500                    20819607.301
       780.824         608.558          49.900          40.800
 115088866.360 8  89679688.20345  21900694.859                    21900695.637
      -818.832        -637.960          48.600          35.500
 110711250.125 8  86268534.36946  21067649.102                    21067653.855
     -2040.176       -1589.766          50.300          41.600
 126177790.640 7  98320402.62844  24010845.023                    24010846.402
     -2938.602       -2289.918          43.400          27.500
 112509099.645 8  87669465.97445  21409766.242                    21409770.730
      2459.582        1916.597          50.000          35.900
 127436706.176 6  99301359.29243  24250408.305                    24250411.613
      -988.598        -770.246          41.700          22.600
 118524507.652 8  92356798.29446  22554473.789                    22554480.027
     -3181.766       -2479.317          48.100          37.600
 18  2 21  8 45 30.0000000  0  8G05G07G02G09G23G30G16G06
 115993136.995 8  90384281.07445  22072767.328                    22072769.949
      2712.152        2113.378          49.500          35.700
 109384639.084 8  85234781.28446  20815197.344                    20815200.227
       763.285         594.888          51.000          41.800
 115113705.285 7  89699043.19445  21905421.641                    21905422.164
      -836.914        -651.987          47.900          35.900
 110772596.679 8  86316336.86746  21079322.836                    21079327.754
     -2049.312       -1596.878          50.800          41.400
 126265998.407 7  98389135.92044  24027629.969                    24027631.707
     -2941.660       -2292.276          44.100          25.300
 112435531.244 8  87612139.95146  21395766.164                    21395770.820
      2445.230        1905.448          49.500          36.000
 127466670.343 6  99324708.01643  24256109.578                    24256110.613
     -1008.613        -785.852          41.400          20.400
 118620114.733 8  92431297.26946  22572667.258                    22572673.574
     -3191.707       -2487.081          48.700          38.300
 18  2 21  8 46  0.0000000  0  8G05G07G02G09G23G30G16G06
 115911910.331 8  90320987.57345  22057310.211                    22057312.875
      2702.980        2106.378          48.900          35.900
 109362005.519 8  85217144.74846  20810890.703                    20810893.195
       745.742         581.295          50.700          41.200
 115139082.449 8  89718817.59746  21910250.594                    21910251.156
      -854.836        -665.870          48.700          36.100
 110834214.057 8  86364350.40146  21091048.117                    21091053.285
     -2058.402       -1603.818          51.700          41.600
 126354294.586 7  98457938.08244  24044432.180                    24044433.301
     -2944.641       -2294.488          43.700          26.200
 112362390.790 8  87555147.38745  21381848.586                    21381852.605
      2430.953        1894.388          50.700          35.900
 127497235.085 6  99348524.65043  24261925.664                    24261928.391
     -1028.695        -801.369          40.200          19.900
 118716016.298 7  92506025.72946  22590916.828                    22590923.367
     -3201.473       -2494.589          47.700          38.200
 18  2 21  8 46 30.0000000  0  8G05G07G02G09G23G30G16G06
 115830957.532 8  90257907.47045  22041905.445                    22041908.133
      2693.926        2099.258          48.400          35.900
 109339897.713 8  85199917.89046  20806683.398                    20806686.234
       728.219         567.645          50.700          41.200
 115164996.909 8  89739010.66346  21915182.102                    21915183.082
      -872.746        -679.822          48.900          36.500
 110896100.966 8  86412573.95146  21102825.141                    21102829.668
     -2067.301       -1610.816          52.100          41.500
 126442678.268 7  98526808.43844  24061251.156                    24061252.734
     -2947.531       -2296.739          43.800          26.200
 112289680.039 8  87498489.66746  21368012.422                    21368016.574
      2416.559        1883.202          49.900          36.500
 127528399.326 7  99372808.48143  24267857.008                    24267860.676
     -1048.828        -816.995          42.500          22.800
 118812209.349 7  92580981.30946  22609221.703                    22609228.383
     -3211.301       -2502.140          47.300          38.400
 18  2 21  8 47  0.0000000  0  8G05G07G02G09G23G30G16G06
 115750280.546 8  90195042.28646  22026553.141                    22026556.191
      2684.395        2092.004          48.300          36.200
 109318316.269 8  85183101.19546  20802576.695                    20802579.383
       710.406         553.953          50.500          40.500
 115191447.749 8  89759621.70146  21920215.469                    21920216.316
      -890.719        -693.761          48.800          36.200
 110958256.580 8  86461006.89347  21114653.078                    21114657.496
     -2076.441       -1617.788          52.100          42.200
 126531148.165 7  98595745.97944  24078086.695                    24078088.422
     -2950.582       -2299.000          42.300          25.400
 112217401.168 8  87442168.47346  21354258.063                    21354262.000
      2401.895        1871.939          50.500          36.400
 127560162.375 6  99397558.88442  24273899.578                    24273901.742
     -1069.004        -832.526          37.500          17.400
 118908691.247 8  92656161.96046  22627581.414                    22627588.043
     -3221.012       -2509.622          48.100          38.100
 18  2 21  8 47 30.0000000  0  8G05G07G02G09G23G30G16G06
 115669882.900 8  90132394.77045  22011254.164                    22011256.684
      2675.223        2084.769          49.200          35.300
 109297261.374 8  85166694.76646  20798570.164                    20798572.629
       693.008         540.298          50.500          41.600
 115218433.968 7  89780649.90846  21925350.492                    21925351.418
      -908.437        -707.606          47.900          36.500
 111020679.627 8  86509648.21847  21126532.078                    21126536.488
     -2085.215       -1624.693          52.800          42.800
 126619704.024 7  98664750.46444  24094938.305                    24094939.699
     -2953.199       -2301.174          43.200          26.500
 112145555.844 8  87386185.09846  21340586.719                    21340590.605
      2387.625        1860.690          51.000          36.600
 127592523.589 7  99422775.42543  24280059.070                    24280060.676
     -1088.781        -848.010          42.600          21.100
 119005458.978 7  92731565.33646  22645995.711                    22646002.254
     -3230.391       -2516.995          47.300          38.400
 18  2 21  8 48  0.0000000  0  8G05G07G02G09G23G30G16G06
 115589765.874 8  90069965.90646  21996007.680                    21996011.156
      2665.785        2077.423          48.700          36.000
 109276733.583 8  85150699.09646  20794663.703                    20794666.645
       675.461         526.568          50.900          41.100
 115245954.745 8  89802094.65646  21930587.859                    21930588.984
      -926.332        -721.530          48.600          36.300
 111083369.142 8  86558497.17847  21138461.570                    21138466.047
     -2094.105       -1631.635          52.500          42.000
 126708345.306 7  98733821.54544  24111805.500                    24111808.043
     -2956.293       -2303.421          43.100          25.500
 112074146.152 8  87330541.18746  21326997.133                    21327001.531
      2372.941        1849.309          50.800          37.200
 127625480.972 6  99448456.48143  24286329.461                    24286334.391
     -1108.602        -863.538          40.900          20.900
 119102509.861 7  92807189.35846  22664463.906                    22664470.664
     -3239.812       -2524.340          47.900          38.000
 18  2 21  8 48 30.0000000  0  8G05G07G02G09G23G30G16G06
 115509930.659 8  90007756.64445  21980815.117                    21980818.586
      2656.309        2070.036          48.900          35.700
 109256732.783 8  85135114.06746  20790857.711                    20790860.484
       657.766         512.860          50.800          40.900
 115274008.912 7  89823955.03046  21935926.375                    21935927.293
      -944.223        -735.408          47.900          36.400
 111146323.758 8  86607552.71247  21150441.367                    21150446.035
     -2103.082       -1638.546          52.900          42.300
 126797070.698 7  98802958.17144  24128689.914                    24128691.656
     -2959.148       -2305.657          43.300          26.400
 112003173.620 8  87275237.92746  21313491.063                    21313496.332
      2358.238        1837.902          50.000          37.600
 127659033.832 6  99474601.47642  24292715.078                    24292716.121
     -1128.570        -879.029          39.900          16.900
 119199840.745 7  92883031.57446  22682985.828                    22682991.969
     -3249.121       -2531.595          47.600          38.100
 18  2 21  8 49  0.0000000  0  8G05G07G02G09G23G30G16G06
 115430380.081 8  89945769.19546  21965677.695                    21965680.707
      2647.031        2062.625          49.100          36.000
 109237258.904 8  85119939.62446  20787151.805                    20787154.965
       640.305         499.162          51.400          41.300
 115302595.196 7  89846230.05146  21941365.992                    21941367.547
      -961.730        -749.204          47.900          36.000
 111209542.052 8  86656813.70547  21162471.305                    21162475.215
     -2111.555       -1645.354          52.700          42.900
 126885879.532 7  98872159.82044  24145589.555                    24145591.754
     -2961.668       -2307.819          43.800          25.300
 111932639.870 8  87220276.56746  21300069.477                    21300074.570
      2343.828        1826.490          49.500          37.500
 127693180.778 6  99501209.55143  24299213.477                    24299213.785
     -1148.027        -894.422          41.700          20.400
 119297448.451 7  92959089.48646  22701559.703                    22701566.332
     -3258.129       -2538.751          47.700          36.900
 18  2 21  8 49 30.0000000  0  8G05G07G02G09G23G30G16G06
 115351115.438 8  89884004.53045  21950594.320                    21950597.012
      2637.379        2055.223          48.900          35.900
 109218312.633 8  85105176.30746  20783546.875                    20783549.383
       622.676         485.504          51.200          40.900
 115331712.731 7  89868919.03546  21946906.945                    21946908.031
      -979.453        -762.936          47.900          36.400
 111273023.255 8  86706279.57046  21174551.625                    21174556.027
     -2120.484       -1652.129          52.900          41.800
 126974771.277 7  98941426.05344  24162504.273                    24162507.621
     -2964.516       -2309.907          44.500          24.800
 111862546.926 8  87165658.70946  21286731.258                    21286736.227
      2329.020        1815.069          49.900          37.600
 127727921.267 6  99528279.92743  24305824.023                    24305827.094
     -1167.992        -909.786          38.000          18.300
 119395330.348 7  93035361.04946  22720185.992                    22720192.398
     -3267.383       -2545.786          47.800          36.700
 18  2 21  8 50  0.0000000  0  8G05G07G02G09G23G30G16G06
 115272140.179 8  89822465.35945  21935566.016                    21935568.332
      2627.598        2047.659          48.700          35.800
 109199894.151 8  85090824.24246  20780041.813                    20780044.676
       604.953         471.764          51.200          40.900
 115361360.371 8  89892021.07546  21952548.547                    21952550.180
      -997.203        -776.735          48.000          36.700
 111336766.285 8  86755949.44547  21186681.438                    21186686.371
     -2129.191       -1658.946          53.200          42.300
 127063744.488 7  99010755.78144  24179436.172                    24179438.082
     -2967.285       -2312.031          44.900          25.900
 111792896.784 8  87111385.87746  21273476.664                    21273481.813
      2314.125        1803.497          49.400          37.700
 127763254.337 6  99555812.20743  24312548.547                    24312548.605
     -1187.766        -925.176          41.400          20.100
 119493483.624 7  93111844.08946  22738864.219                    22738870.172
     -3276.289       -2552.827          47.500          36.600
 18  2 21  8 50 30.0000000  0  8G05G07G02G09G23G30G16G06
 115193455.142 8  89761152.34946  21920593.016                    21920595.145
      2617.797        2040.196          49.200          36.600
 109182003.043 8  85076883.15146  20776637.188                    20776640.129
       587.406         458.168          51.000          41.100
 115391536.380 7  89915534.82546  21958290.766                    21958292.102
     -1014.785        -790.329          47.500          36.700
 111400769.411 8  86805822.00646  21198860.586                    21198865.203
     -2137.914       -1665.588          53.200          41.600
 127152798.607 7  99080148.55144  24196382.578                    24196385.199
     -2969.941       -2314.002          43.200          25.300
 111723690.495 8  87057458.92346  21260307.617                    21260312.656
      2299.371        1792.078          50.000          37.300
 127799177.786 6  99583804.45243  24319382.367                    24319385.492
     -1207.512        -940.376          36.700          18.300
 119591904.828 7  93188535.88846  22757593.063                    22757599.387
     -3285.211       -2559.647          47.100          36.000
 18  2 21  8 51  0.0000000  0  8G05G07G02G09G23G30G16G06
 115115062.937 8  89700067.52646  21905675.609                    21905677.418
      2608.277        2032.463          49.500          36.700
 109164640.388 8  85063353.81046  20773333.227                    20773335.684
       570.102         444.345          50.500          40.900
 115422240.670 7  89939460.23746  21964133.734                    21964135.176
     -1032.109        -804.140          47.800          36.800
 111465032.294 8  86855896.96646  21211089.422                    21211093.848
     -2146.285       -1672.417          52.500          41.800
 127241933.571 7  99149604.28244  24213344.906                    24213347.078
     -2972.320       -2316.196          43.700          25.300
 111654930.644 8  87003879.83146  21247222.742                    21247228.133
      2284.637        1780.348          49.900          37.700
 127835691.307 6  99612256.52843  24326332.406                    24326335.543
     -1226.711        -955.806          40.000          21.500
 119690591.722 7  93265434.72945  22776372.508                    22776378.566
     -3293.773       -2566.612          47.900          35.800
 18  2 21  8 51 30.0000000  0  8G05G07G02G09G23G30G16G06
 115036965.288 8  89639212.21446  21890813.656                    21890815.945
      2598.012        2024.742          49.500          36.400
 109147805.738 8  85050235.91646  20770129.281                    20770132.387
       552.137         430.585          50.300          41.100
 115453471.272 7  89963795.76046  21970076.961                    21970078.066
     -1050.090        -817.859          47.200          36.700
 111529553.253 8  86906173.02446  21223367.242                    21223372.016
     -2155.289       -1679.159          52.300          41.700
 127331147.891 7  99219121.89944  24230321.578                    24230323.117
     -2975.434       -2318.296          44.200          24.200
 111586618.481 8  86950649.57946  21234222.977                    21234228.844
      2269.238        1768.636          49.400          37.900
 127872793.804 6  99641167.58843  24333391.336                    24333393.688
     -1247.008        -971.188          36.000          19.300
 119789540.862 8  93342537.91045  22795201.750                    22795207.703
     -3302.949       -2573.440          48.100          35.900
 18  2 21  8 52  0.0000000  0  8G05G07G02G09G23G30G16G06
 114959164.037 8  89578587.86246  21876008.438                    21876010.699
      2588.270        2017.065          49.800          37.100
 109131499.222 8  85037529.54446  20767026.281                    20767029.566
       534.660         416.887          50.300          40.900
 115485227.268 7  89988540.69046  21976119.492                    21976121.121
     -1067.422        -831.435          47.100          37.400
 111594331.181 8  86956649.32246  21235693.938                    21235698.840
     -2163.684       -1685.779          52.200          41.700
 127420440.882 7  99288700.80643  24247313.203                    24247315.590
     -2977.801       -2320.295          43.400          22.600
 111518755.669 8  86897769.48746  21221309.398                    21221314.891
      2254.465        1756.987          50.800          37.900
 127910483.672 6  99670536.28543  24340565.828                    24340567.484
     -1266.270        -986.334          40.700          22.000
 119888749.377 7  93419843.21045  22814080.609                    22814086.695
     -3311.383       -2580.105          47.200          35.400
 18  2 21  8 52 30.0000000  0  8G05G07G02G09G23G30G16G06
 114881661.386 8  89518196.18946  21861260.250                    21861262.496
      2578.383        2009.284          48.300          37.200
 109115720.822 8  85025234.69446  20764023.742                    20764027.258
       517.055         403.169          50.200          40.900
 115517507.193 7  90013693.87046  21982262.188                    21982263.371
     -1084.754        -845.018          47.000          36.800
 111659364.923 8  87007324.95546  21248069.664                    21248074.504
     -2172.066       -1692.404          51.800          41.300
 127509811.752 7  99358340.37243  24264320.359                    24264322.488
     -2980.387       -2322.298          43.000          22.600
 111451343.965 8  86845240.89446  21208481.609                    21208486.695
      2239.543        1745.265          50.100          38.300
 127948758.894 6  99700361.12943  24347847.547                    24347850.641
     -1285.680       -1001.521          38.800          20.900
 119988214.299 7  93497348.30245  22833008.195                    22833014.520
     -3319.836       -2586.715          47.400          35.700
 18  2 21  8 53  0.0000000  0  8G05G07G02G09G23G30G16G06
 114804460.045 8  89458039.29546  21846569.164                    21846572.016
      2568.391        2001.451          49.000          36.500
 109100470.968 8  85013351.69346  20761122.055                    20761124.832
       499.500         389.472          50.500          41.200
 115550310.150 7  90039254.59446  21988505.000                    21988505.746
     -1102.012        -858.550          47.400          36.400
 111724653.594 8  87058199.23246  21260493.875                    21260498.137
     -2180.477       -1698.992          52.500          41.600
 127599259.894 7  99428040.18243  24281341.375                    24281344.109
     -2982.898       -2324.288          43.800          22.500
 111384385.281 8  86793065.30446  21195740.109                    21195744.938
      2224.367        1733.500          50.200          38.100
 127987619.102 6  99730641.79443  24355243.633                    24355243.898
     -1304.988       -1016.655          41.600          22.200
 120087932.851 7  93575051.03445  22851983.867                    22851989.875
     -3328.094       -2593.237          47.900          35.000
 18  2 21  8 53 30.0000000  0  8G05G07G02G09G23G30G16G06
 114727561.908 8  89398118.66946  21831935.813                    21831938.570
      2558.266        1993.570          49.600          36.700
 109085749.651 8  85001880.53946  20758320.891                    20758323.855
       481.988         375.768          51.400          41.000
 115583634.691 7  90065221.76546  21994846.289                    21994846.727
     -1119.398        -872.079          46.800          36.100
 111790195.985 8  87109271.21146  21272966.242                    21272970.207
     -2188.934       -1705.547          52.600          41.400
 127688784.503 7  99497799.58543  24298377.906                    24298379.352
     -2985.289       -2326.224          44.700          22.000
 111317881.216 8  86741243.95746  21183084.461                    21183089.277
      2209.320        1721.686          51.200          38.400
 128027062.673 6  99761377.00243  24362748.938                    24362752.047
     -1324.500       -1031.775          40.100          21.500
 120187902.108 8  93652949.11545  22871007.820                    22871013.598
     -3336.383       -2599.700          48.000          35.200
 18  2 21  8 54  0.0000000  0  8G05G07G02G09G23G30G16G06
 114650968.536 8  89338435.52546  21817360.617                    21817363.125
      2548.043        1985.592          49.400          37.300
 109071557.113 8  84990821.41746  20755619.867                    20755622.660
       464.352         361.995          50.700          40.900
 115617479.784 7  90091594.56146  22001286.969                    22001286.961
     -1136.781        -885.609          47.400          36.000
 111855990.972 8  87160540.02646  21285486.484                    21285490.805
     -2197.375       -1712.115          52.500          41.600
 127778385.008 7  99567618.12543  24315427.633                    24315429.203
     -2987.953       -2328.250          42.500          20.600
 111251833.480 8  86689778.19446  21170516.258                    21170520.781
      2194.020        1709.777          51.400          38.300
 128067088.864 7  99792566.20043  24370366.750                    24370367.508
     -1343.898       -1046.941          42.300          21.300
 120288119.087 8  93731040.23345  22890078.891                    22890084.539
     -3344.570       -2606.109          48.300          35.200
 18  2 21  8 54 30.0000000  0  8G05G07G02G09G23G30G16G06
 114574681.673 8  89278991.21646  21802844.133                    21802846.285
      2537.711        1977.612          50.000          37.300
 109057892.851 8  84980173.94446  20753019.711                    20753022.727
       446.621         348.281          50.700          41.500
 115651843.932 7  90118371.81346  22007826.344                    22007826.285
     -1154.172        -899.088          47.100          36.100
 111922037.115 8  87212004.54147  21298054.805                    21298058.914
     -2205.727       -1718.645          52.600          42.000
 127868060.229 7  99637494.81243  24332493.266                    24332494.098
     -2990.434       -2330.185          43.900          21.100
 111186243.363 8  86638669.00146  21158034.563                    21158039.766
      2178.613        1697.858          51.600          38.200
 128107695.723 6  99824207.90643  24378092.578                    24378095.199
     -1363.242       -1061.986          39.400          21.700
 120388580.484 8  93809321.81445  22909196.070                    22909201.758
     -3352.797       -2612.437          48.800          35.300
 18  2 21  8 55  0.0000000  0  8G05G07G02G09G23G30G16G06
 114498703.881 8  89219787.74446  21788385.961                    21788388.625
      2527.582        1969.540          49.700          37.600
 109044757.055 8  84969938.25846  20750519.945                    20750523.367
       429.262         334.546          50.400          41.700
 115686725.743 7  90145552.43345  22014463.680                    22014464.039
     -1171.187        -912.515          46.100          35.900
 111988333.586 8  87263664.11446  21310670.797                    21310675.078
     -2213.770       -1725.123          52.800          41.700
 127957809.525 7  99707429.34243  24349572.117                    24349571.836
     -2992.664       -2332.082          45.200          21.100
 111121112.814 8  86587917.92046  21145640.828                    21145645.672
      2163.477        1685.895          50.500          38.300
 128148881.843 6  99856300.88043  24385932.047                    24385933.512
     -1382.273       -1077.039          40.900          21.100
 120489283.663 8  93887791.78345  22928359.266                    22928364.805
     -3360.496       -2618.673          48.300          35.300
 18  2 21  8 55 30.0000000  0  8G05G07G02G09G23G30G16G06
 114423037.322 8  89160826.79546  21773987.273                    21773989.887
      2516.918        1961.452          50.200          38.600
 109032149.782 8  84960114.40746  20748121.094                    20748123.820
       411.332         320.847          50.400          41.700
 115722124.079 7  90173135.53345  22021200.195                    22021200.570
     -1188.621        -925.895          47.000          35.400
 112054879.155 8  87315517.79846  21323333.805                    21323338.355
     -2222.402       -1731.556          52.900          41.500
 128047632.351 6  99777421.08943  24366663.227                    24366665.188
     -2995.309       -2333.955          41.400          20.900
 111056443.331 8  86537526.10846  21133334.453                    21133339.578
      2147.871        1673.948          50.600          38.100
 128190645.830 6  99888844.30543  24393876.336                    24393879.094
     -1401.797       -1091.976          36.800          19.000
 120590225.572 8  93966447.78145  22947567.555                    22947573.285
     -3368.785       -2624.836          48.100          34.700
 18  2 21  8 56  0.0000000  0  8G05G07G02G09G23G30G16G06
 114347684.327 8  89102110.17446  21759647.914                    21759650.617
      2506.215        1953.246          50.000          37.800
 109020070.920 8  84950702.30246  20745822.430                    20745825.441
       393.453         307.068          50.800          41.100
 115758037.398 7  90201119.92445  22028034.055                    22028035.039
     -1206.020        -939.299          46.600          35.600
 112121672.784 8  87367564.76746  21336044.266                    21336048.488
     -2230.914       -1738.034          52.900          41.600
 128137527.665 7  99847469.30443  24383771.273                    24383770.965
     -2998.004       -2335.876          44.600          21.800
 110992236.605 8  86487494.89646  21121115.953                    21121121.098
      2132.152        1661.847          50.300          38.000
 128232986.166 6  99921836.69043  24401935.133                    24401939.074
     -1421.223       -1106.981          40.500          21.500
 120691403.311 7  94045287.54245  22966821.047                    22966826.738
     -3376.891       -2630.967          47.300          35.900
 18  2 21  8 56 30.0000000  0  8G05G07G02G09G23G30G16G06
 114272646.736 8  89043639.33146  21745368.859                    21745371.664
      2496.004        1945.047          51.100          37.800
 109008520.866 8  84941702.25346  20743624.492                    20743627.359
       376.219         293.365          51.900          41.200
 115794464.306 7  90229504.52045  22034965.758                    22034966.660
     -1222.680        -952.595          47.900          35.500
 112188713.326 8  87419804.13746  21348801.656                    21348806.129
     -2238.762       -1744.407          52.800          41.400
 128227494.866 7  99917573.58243  24400891.438                    24400892.633
     -2999.875       -2337.702          43.600          22.000
 110928494.226 8  86437825.51046  21108986.086                    21108991.766
      2117.000        1649.796          50.000          37.100
 128275901.723 5  99955277.40043  24410099.711                    24410104.281
     -1440.004       -1121.905          35.200          19.000
 120792813.921 7  94124308.77245  22986118.797                    22986124.672
     -3384.164       -2636.947          47.200          34.400
 18  2 21  8 57  0.0000000  0  8G05G07G02G09G23G30G16G06
 114197926.498 8  88985415.77946  21731150.320                    21731152.797
      2485.379        1936.745          51.700          37.500
 108997499.109 8  84933113.86946  20741527.047                    20741530.398
       358.590         279.621          52.200          41.500
 115831403.476 8  90258288.26845  22041995.266                    22041995.922
     -1239.895        -965.922          48.600          35.900
 112255999.691 8  87472235.05946  21361605.852                    21361610.105
     -2247.020       -1750.796          53.300          41.300
 128317533.414 6  99987733.42143  24418024.547                    24418026.754
     -3002.453       -2339.595          41.600          23.800
 110865217.774 8  86388519.18046  21096945.352                    21096950.695
      2101.395        1637.647          50.200          38.400
 128319391.045 6  99989165.15743  24418378.141                    24418381.070
     -1459.191       -1136.788          40.500          22.000
 120894454.408 7  94203509.11545  23005460.453                    23005465.918
     -3391.840       -2642.909          47.300          34.300
 18  2 21  8 57 30.0000000  0  8G05G07G02G09G23G30G16G06
 114123525.658 8  88927441.10046  21716992.219                    21716995.078
      2474.695        1928.522          51.100          38.000
 108987005.488 8  84924937.02346  20739530.008                    20739533.043
       341.051         266.006          52.300          41.000
 115868853.168 7  90287469.81745  22049121.883                    22049122.422
     -1256.730        -979.060          47.900          35.900
 112323530.690 8  87524856.58846  21374456.695                    21374461.469
     -2255.086       -1757.042          53.200          41.300
 128407642.208 7 100057947.97444  24435172.820                    24435174.160
     -3004.711       -2341.301          43.300          24.800
 110802408.737 8  86339577.07846  21084992.930                    21084998.375
      2085.797        1625.603          50.800          37.900
 128363452.337 6 100023498.55843  24426760.805                    24426765.285
     -1478.098       -1151.548          37.500          19.000
 120996321.748 7  94282886.21945  23024844.961                    23024850.574
     -3399.281       -2648.663          47.000          33.600
 18  2 21  8 58  0.0000000  0  8G05G07G02G09G23G30G16G06
 114049445.812 8  88869716.54646  21702894.719                    21702897.805
      2463.730        1920.190          51.000          37.700
 108977039.949 8  84917171.66746  20737633.930                    20737636.672
       323.109         252.288          52.500          40.700
 115906812.408 7  90317048.44345  22056345.547                    22056346.211
     -1274.035        -992.266          47.600          35.200
 112391305.175 8  87577667.85646  21387353.656                    21387358.473
     -2263.359       -1763.340          53.100          41.400
 128497820.697 7 100128216.88944  24452332.766                    24452334.629
     -3007.398       -2343.083          43.800          24.000
 110740068.639 8  86291000.38246  21073130.086                    21073135.324
      2069.961        1613.391          49.600          38.300
 128408083.949 7 100058276.46943  24435256.500                    24435257.676
     -1497.355       -1166.329          42.700          22.600
 121098412.945 7  94362437.75445  23044272.766                    23044277.949
     -3406.969       -2654.434          47.000          33.400
 18  2 21  8 58 30.0000000  0  9G05G13G07G02G09G23G30G16G06
 113975689.159 8  88812243.83746  21688859.844                    21688863.156
      2452.922        1911.647          51.800          37.700
 129667400.607 6 101039585.86443  24674896.273                    24674900.738
      3314.637        2583.017          41.800          19.900
 108967602.752 8  84909818.00246  20735837.883                    20735840.926
       305.563         238.462          52.800          40.600
 115945279.813 7  90347023.03145  22063665.250                    22063666.492
     -1290.801       -1005.539          46.900          35.000
 112459322.217 8  87630668.12346  21400297.023                    21400302.027
     -2271.492       -1769.753          52.800          40.900
 128588068.163 7 100198539.50143  24469506.375                    24469508.277
     -3009.582       -2344.983          42.200          23.900
 110678199.165 8  86242790.39546  21061356.703                    21061361.551
      2054.324        1601.054          50.000          37.800
 128453285.175 6 100093498.05343  24443856.750                    24443861.617
     -1516.352       -1181.219          41.500          21.800
 121200725.204 7  94442161.55645  23063741.938                    23063747.984
     -3414.258       -2660.247          46.600          33.600
 18  2 21  8 59  0.0000000  0  9G05G13G07G02G09G23G30G16G06
 113902258.265 8  88755024.95046  21674886.234                    21674889.285
      2442.379        1903.175          51.800          37.500
 129567996.483 6 100962128.13243  24655979.016                    24655984.867
      3311.988        2580.827          36.600          18.600
 108958693.507 8  84902875.73346  20734142.477                    20734145.254
       288.203         224.789          52.900          41.100
 115984253.590 7  90377392.19245  22071081.883                    22071082.273
     -1307.441       -1018.666          47.400          34.700
 112527580.520 8  87683856.38846  21413285.734                    21413290.285
     -2279.195       -1775.961          52.900          40.500
 128678383.865 7 100268915.30444  24486693.492                    24486694.953
     -3011.570       -2346.728          43.200          25.100
 110616801.712 8  86194948.22246  21049673.680                    21049678.566
      2038.844        1588.805          51.200          37.900
 128499053.763 6 100129161.96843  24452566.672                    24452566.602
     -1534.918       -1195.884          41.600          21.100
 121303255.415 7  94522055.16845  23083252.703                    23083258.949
     -3421.168       -2665.840          46.200          32.900
 18  2 21  8 59 30.0000000  0  9G05G13G07G02G09G23G30G16G06
 113829155.814 8  88698061.99946  21660974.898                    21660978.305
      2431.211        1894.720          51.500          37.300
 129468677.321 6 100884736.68243  24637082.891                    24637085.344
      3309.301        2578.729          40.000          19.300
 108950312.060 8  84896344.73646  20732547.539                    20732550.605
       270.594         211.150          52.300          40.800
 116023732.448 7  90408154.92845  22078594.266                    22078595.371
     -1324.430       -1031.683          46.300          34.900
 112596079.236 8  87737231.99646  21426320.797                    21426325.293
     -2287.332       -1782.113          53.400          41.400
 128768767.373 7 100339343.96444  24503892.828                    24503894.660
     -3013.930       -2348.383          42.600          24.100
 110555877.979 8  86147475.19046  21038079.961                    21038084.676
      2022.844        1576.537          50.800          38.400
 128545388.558 7 100165266.88943  24461384.086                    24461388.367
     -1553.926       -1210.515          43.100          22.500
 121406000.761 7  94602116.43645  23102804.492                    23102811.109
     -3428.387       -2671.311          46.800          33.800
                            4  1
RINEX FILE SPLICE; other post-header comments skipped       COMMENT
 18  2 21  9  0  0.0000000  0  9G05G13G07G02G09G23G30G16G06
 113756383.198 8  88641356.07846  21647126.883                    21647130.086
      2420.461                          50.900          37.300
 129369444.012 6 100807411.95843  24618197.570                    24618201.172
      3306.492                          40.900          20.900
 108942458.224 8  84890224.86246  20731053.320                    20731055.738
       253.176                          52.400          40.700
 116063714.678 7  90439309.90445  22086202.516                    22086202.848
     -1340.988                          46.200          34.500
 112664817.114 8  87790793.95746  21439401.188                    21439405.785
     -2294.969                          53.500          41.500
 128859217.509 7 100409824.51343  24521104.117                    24521107.074
     -3015.895                          42.900          22.900
 110495429.333 8  86100372.34846  21026577.055                    21026581.438
      2007.211                          51.300          38.100
 128592287.363 6 100201811.45243  24470306.164                    24470308.590
     -1572.602                          39.200          19.600
 121508958.195 7  94682342.96045  23122396.852                    23122403.219
     -3435.199                          47.400          34.000
 18  2 21  9  0 30.0000000  0  9G05G13G07G02G09G23G30G16G06
 113683941.652 8  88584908.12246  21633341.625                    21633344.688
      2409.320        1877.409          51.500          37.000
 129270297.015 6 100730154.59643  24599329.039                    24599334.617
      3303.691        2574.187          37.900          19.600
 108935131.793 8  84884515.95946  20729658.758                    20729661.613
       235.512         183.657          52.700          40.600
 116104198.888 7  90470856.02845  22093906.359                    22093906.691
     -1357.652       -1057.851          45.100          33.700
 112733792.899 8  87844541.30946  21452527.383                    21452531.047
     -2303.012       -1794.561          52.900          41.000
 128949733.680 7 100480356.51143  24538329.781                    24538331.699
     -3018.148       -2351.893          44.000          23.500
 110435457.093 8  86053640.72746  21015164.992                    21015169.348
      1991.164        1551.720          51.000          38.700
 128639748.835 7 100238794.36844  24479341.648                    24479344.953
     -1591.422       -1239.817          43.000          24.000
 121612124.551 7  94762732.27945  23142029.148                    23142035.516
     -3442.164       -2682.244          47.600          34.600
 18  2 21  9  1  0.0000000  0  9G05G13G07G02G09G23G30G16G06
 113611834.309 8  88528720.57846  21619619.891                    21619622.516
      2397.855        1868.670          51.400          37.100
 129171237.181 6 100652965.17443  24580480.281                    24580484.238
      3300.457        2571.822          39.200          20.900
 108928332.620 8  84879217.89346  20728364.836                    20728367.828
       217.754         169.949          51.600          40.500
 116145183.403 7  90502792.00045  22101705.305                    22101705.047
     -1374.613       -1070.851          44.900          33.800
 112803005.760 8  87898473.40246  21465697.852                    21465702.238
     -2311.172       -1800.736          53.100          40.700
 129040315.446 7 100550939.62843  24555566.930                    24555568.867
     -3020.520       -2353.623          44.100          22.800
 110375962.959 8  86007281.65746  21003843.500                    21003847.973
      1975.000        1539.241          51.700          39.100
 128687772.003 6 100276214.96842  24488478.031                    24488480.324
     -1610.102       -1254.330          39.600          17.800
 121715497.139 7  94843282.30645  23161699.930                    23161706.734
     -3449.262       -2687.605          47.800          34.600
 18  2 21  9  1 30.0000000  0  9G05G13G07G02G09G23G30G16G06
 113540062.746 8  88472794.68546  21605962.172                    21605965.348
      2386.773        1860.018          50.800          37.400
 129072265.459 6 100575844.38243  24561646.641                    24561649.609
      3297.602        2569.617          40.600          21.100
 108922060.571 8  84874330.58746  20727171.305                    20727174.367
       200.293         156.358          51.800          40.800
 116186666.561 7  90535116.51445  22109599.352                    22109599.445
     -1391.090       -1083.689          44.800          33.600
 112872454.451 9  87952589.24346  21478913.602                    21478917.609
     -2318.805       -1806.744          54.100          40.500
 129130961.924 7 100621573.20843  24572815.453                    24572817.887
     -3022.676       -2355.199          43.000          22.500
 110316948.222 8  85961296.14546  20992613.469                    20992617.527
      1959.230        1526.887          51.600          39.400
 128736353.859 6 100314071.00843  24497723.500                    24497726.984
     -1628.699       -1268.799          41.200          21.500
 121819072.806 7  94923990.56445  23181409.781                    23181416.895
     -3455.816       -2692.733          47.800          34.900
 18  2 21  9  2  0.0000000  0  9G05G13G07G02G09G23G30G16G06
 113468629.671 8  88417132.54146  21592368.625                    21592372.406
      2375.645        1851.195          51.500          37.200
 128973382.692 6 100498792.85843  24542828.383                    24542832.945
      3294.730        2567.288          39.100          20.400
 108916315.160 8  84869853.63546  20726078.242                    20726080.887
       182.973         142.671          51.200          40.200
 116228647.224 7  90567828.71145  22117587.992                    22117588.027
     -1407.398       -1096.581          45.900          33.700
 112942138.020 8  88006888.11246  21492173.875                    21492178.070
     -2326.414       -1812.853          53.300          40.600
 129221672.347 7 100692256.55943  24590077.227                    24590079.598
     -3024.570       -2356.843          42.300          22.000
 110258414.495 8  85915685.44246  20981474.742                    20981479.246
      1943.320        1514.369          51.700          39.600
 128785493.592 6 100352361.60543  24507075.102                    24507076.523
     -1647.004       -1283.297          41.900          19.900
 121922848.735 8  95004854.87745  23201158.297                    23201165.141
     -3462.219       -2697.909          48.700          35.000
 18  2 21  9  2 30.0000000  0  9G05G13G07G02G09G23G30G16G06
 113397536.996 8  88361735.65846  21578840.852                    21578843.488
      2364.109        1842.278          52.400          37.700
 128874589.610 6 100421811.34743  24524028.094                    24524033.641
      3291.523        2564.920          38.200          19.600
 108911096.472 8  84865787.12746  20725085.008                    20725087.711
       165.191         128.942          51.400          40.600
 116271123.640 7  90600927.19845  22125670.906                    22125670.914
     -1424.168       -1109.500          44.600          33.100
 113012055.389 8  88061369.17046  21505478.727                    21505482.336
     -2334.406       -1818.946          52.700          40.900
 129312446.121 7 100762989.30143  24607351.781                    24607352.785
     -3026.746       -2358.535          42.500          23.200
 110200363.154 8  85870450.63446  20970427.750                    20970432.414
      1926.984        1501.765          52.100          40.600
 128835189.567 6 100391085.75543  24516529.391                    24516535.316
     -1665.773       -1297.751          38.100          19.900
 122026821.965 7  95085872.92245  23220943.258                    23220950.664
     -3469.004       -2703.028          47.400          35.500
 18  2 21  9  3  0.0000000  0  9G05G13G07G02G09G23G30G16G06
 113326786.548 8  88306605.43746  21565377.367                    21565380.438
      2352.719        1833.427          52.000          37.900
 128775887.027 6 100344900.29743  24505247.773                    24505251.035
      3288.633        2562.616          41.300          20.400
 108906404.063 8  84862130.71046  20724192.375                    20724195.430
       147.781         115.331          51.600          40.100
 116314094.049 7  90634410.62245  22133848.344                    22133847.875
     -1440.480       -1122.263          45.300          32.800
 113082205.429 8  88116031.52746  21518828.070                    21518831.355
     -2342.133       -1824.936          52.400          39.800
 129403282.103 6 100833770.56843  24624637.133                    24624638.465
     -3028.918       -2360.099          40.600          22.200
 110142795.572 8  85825592.77846  20959473.445                    20959478.531
      1910.914        1489.226          51.900          39.900
 128885439.487 6 100430241.55243  24526094.883                    24526094.914
     -1684.078       -1312.070          41.500          19.300
 122130989.435 8  95167042.33445  23240765.688                    23240772.594
     -3475.387       -2708.020          48.900          35.800
 18  2 21  9  3 30.0000000  0  9G05G13G07G02G09G23G30G16G06
 113256380.224 8  88251743.37646  21551979.797                    21551982.961
      2341.180        1824.362          52.000          37.900
 128677275.661 6 100268060.27843  24486481.398                    24486485.773
      3285.402        2560.078          39.200          20.900
 108902237.519 8  84858884.05246  20723399.609                    20723402.352
       130.082         101.554          51.200          40.500
 116357556.761 7  90668277.65445  22142119.016                    22142118.574
     -1456.918       -1135.109          46.000          32.800
 113152586.977 8  88170874.27546  21532220.992                    21532224.762
     -2349.953       -1831.046          52.100          39.900
 129494179.990 6 100904599.99943  24641933.391                    24641935.965
     -3031.082       -2361.823          41.100          19.900
 110085713.034 8  85781112.89046  20948610.984                    20948615.918
      1894.602        1476.514          52.500          40.000
 128936242.207 6 100469827.99943  24535761.141                    24535763.969
     -1702.555       -1326.501          41.000          20.400
 122235348.157 8  95248360.75345  23260624.766                    23260631.895
     -3481.812       -2713.035          49.200          35.000
 18  2 21  9  4  0.0000000  0  9G05G13G07G02G09G23G30G16G06
 113186319.897 8  88197150.90446  21538647.492                    21538650.605
      2329.398        1815.378          52.300          37.500
 128578756.063 6 100191291.86443  24467733.313                    24467738.297
      3282.320        2557.791          40.100          20.400
 108898596.695 8  84856047.05446  20722706.617                    20722708.945
       112.441          87.982          51.200          40.700
 116401509.866 7  90702526.82145  22150483.211                    22150482.551
     -1473.375       -1147.785          46.100          31.800
 113223198.918 8  88225896.55646  21545657.609                    21545661.660
     -2357.656       -1836.943          51.300          39.500
 129585139.065 6 100975477.12543  24659242.570                    24659244.262
     -3033.066       -2363.295          39.300          19.900
 110029116.891 8  85737012.00246  20937840.773                    20937845.777
      1878.281        1463.918          53.000          40.800
 128987595.533 6 100509843.57242  24545531.078                    24545535.469
     -1720.996       -1340.751          36.300          17.400
 122339895.056 8  95329825.81945  23280519.406                    23280526.691
     -3488.164       -2717.833          49.300          35.300
 18  2 21  9  4 30.0000000  0  9G05G13G07G02G09G23G30G16G06
 113116607.596 8  88142829.63346  21525382.055                    21525384.723
      2317.922        1806.339          51.700          38.400
 128480329.020 6 100114595.53443  24449004.164                    24449008.297
      3279.348        2555.335          40.800          21.800
 108895480.678 8  84853618.98846  20722113.391                    20722116.184
        95.016          74.323          50.500          40.000
 116445951.768 7  90737156.85045  22158939.602                    22158939.691
     -1489.523       -1160.420          44.900          31.600
 113294040.153 8  88281097.49446  21559138.422                    21559142.484
     -2365.223       -1842.890          51.100          38.300
 129676158.731 6 101046401.43043  24676564.641                    24676564.496
     -3035.066       -2364.899          41.400          20.600
 109973008.430 8  85693291.13046  20927163.672                    20927168.965
      1862.082        1451.229          53.200          41.600
 129039497.638 6 100550286.74343  24555411.250                    24555412.824
     -1739.348       -1355.001          41.600          21.100
 122444627.152 8  95411435.20745  23300449.578                    23300456.336
     -3494.219       -2722.625          48.000          35.000
 18  2 21  9  5  0.0000000  0  8G05G13G07G02G09G30G16G06
 113047245.801 8  88088781.48246  21512182.570                    21512185.359
      2306.215        1797.203          52.400          37.900
 128381995.865 6 100037972.34043  24430290.141                    24430296.520
      3276.367        2552.976          38.400          21.100
 108892889.742 8  84851600.08246  20721620.727                    20721623.203
        77.586          60.725          51.100          40.500
 116490880.879 7  90772166.53045  22167489.664                    22167489.016
     -1505.676       -1173.065          45.900          31.200
 113365109.704 8  88336476.35846  21572662.320                    21572667.422
     -2372.742       -1848.801          51.900          38.800
 109917389.138 8  85649951.42746  20916579.734                    20916584.820
      1845.770        1438.525          53.100          41.400
 129091946.830 6 100591156.09442  24565390.164                    24565393.555
     -1757.355       -1369.156          38.100          17.400
 122549541.609 8  95493186.66745  23320413.836                    23320421.418
     -3500.207       -2727.302          48.800          34.200
 18  2 21  9  5 30.0000000  0  8G05G13G07G02G09G30G16G06
 112978236.998 8  88035008.38646  21499050.367                    21499053.707
      2294.422        1787.924          53.000          38.100
 128283757.204 6  99961422.83943  24411596.164                    24411601.863
      3272.887        2550.386          39.700          20.400
 108890823.370 8  84849989.91946  20721227.367                    20721230.086
        60.137          47.027          50.300          40.600
 116536295.447 7  90807554.48145  22176131.875                    22176131.074
     -1521.848       -1185.745          44.700          31.400
 113436406.508 8  88392032.29046  21586229.719                    21586234.262
     -2380.344       -1854.785          51.500          39.900
 109862260.294 8  85606993.89246  20906089.188                    20906094.348
      1829.402        1425.684          53.400          41.200
 129144941.397 6 100632450.67043  24575474.531                    24575478.773
     -1775.664       -1383.368          36.900          21.300
 122654635.375 8  95575077.87745  23340412.117                    23340419.965
     -3506.031       -2731.996          48.100          33.700
 18  2 21  9  6  0.0000000  0  7G05G13G07G02G09G30G06
 112909583.079 8  87981511.83046  21485986.281                    21485989.461
      2282.504        1778.721          52.700          38.400
 128185613.905 7  99884947.57443  24392921.773                    24392925.727
      3269.844        2547.969          42.800          22.000
 108889281.425 8  84848788.40746  20720934.141                    20720936.539
        42.617          33.443          50.500          40.700
 116582194.166 7  90843319.69245  22184865.891                    22184865.824
     -1537.984       -1198.254          45.800          31.700
 113507929.749 8  88447764.66546  21599840.070                    21599844.887
     -2387.918       -1860.606          51.300          40.400
 109807623.492 8  85564419.77347  20895691.992                    20895697.172
      1812.965        1412.927          53.200          42.200
 122759905.819 7  95657106.75245  23360444.805                    23360451.785
     -3511.957       -2736.501          46.700          33.500
 18  2 21  9  6 30.0000000  0  7G05G13G07G02G09G30G06
 112841286.115 8  87928293.42646  21472990.148                    21472992.891
      2270.727        1769.474          52.500          38.400
 128087566.850 6  99808547.30143  24374262.430                    24374268.563
      3266.715        2545.475          41.300          22.200
 108888263.551 8  84847995.23946  20720740.211                    20720742.711
        25.332          19.889          52.100          40.500
 116628575.156 7  90879460.68945  22193691.859                    22193691.723
     -1553.977       -1210.714          46.700          31.900
 113579678.249 8  88503672.56846  21613493.656                    21613497.918
     -2395.270       -1866.389          51.400          40.200
 109753479.877 8  85522229.94846  20885389.141                    20885393.988
      1796.590        1400.147          53.100          41.700
 122865349.787 7  95739270.82645  23380509.945                    23380516.617
     -3517.496       -2740.906          46.600          33.400
 18  2 21  9  7  0.0000000  0  7G05G13G07G02G09G30G06
 112773347.550 8  87875354.28446  21460061.547                    21460064.727
      2258.598        1760.116          52.100          39.200
 127989616.687 6  99732222.58343  24355623.383                    24355628.633
      3263.418        2542.925          38.500          20.600
 108887769.041 8  84847609.90646  20720646.031                    20720649.238
         7.766           6.278          52.000          40.700
 116675436.357 7  90915975.89745  22202609.195                    22202609.422
     -1570.117       -1223.212          46.600          31.400
 113651650.856 8  88559755.10346  21627189.484                    21627194.613
     -2402.824       -1872.230          51.300          40.200
 109699830.652 8  85480425.36247  20875179.867                    20875184.488
      1780.023        1387.266          53.400          42.100
 122970964.266 7  95821567.78645  23400607.266                    23400613.848
     -3523.332       -2745.353          46.300          33.000
 18  2 21  9  7 30.0000000  0  7G05G13G07G02G09G30G06
 112705768.891 8  87822695.59546  21447202.039                    21447204.832
      2246.527        1750.701          52.300          38.800
 127891764.082 7  99655973.86243  24337003.852                    24337007.855
      3260.180        2540.350          42.500          21.100
 108887797.147 8  84847631.81346  20720651.555                    20720653.988
        -9.656          -7.324          51.700          41.500
 116722775.763 7  90952863.71745  22211617.953                    22211617.805
     -1585.875       -1235.617          46.000          32.700
 113723846.272 8  88616011.24246  21640928.281                    21640932.902
     -2410.215       -1878.038          52.200          40.400
 109646676.797 8  85439006.78147  20865064.938                    20865069.348
      1763.520        1374.341          53.400          42.200
 123076746.055 7  95903995.10445  23420737.539                    23420743.516
     -3528.922       -2749.694          45.900          31.800
 18  2 21  9  8  0.0000000  0  7G05G13G07G02G09G30G06
 112638554.080 8  87770320.41346  21434411.273                    21434414.199
      2234.359        1741.295          52.200          38.400
 127794010.090 6  99579801.90643  24318401.133                    24318405.500
      3256.762        2537.888          41.400          21.500
 108888348.344 8  84848061.31746  20720756.367                    20720759.207
       -27.121         -20.835          51.400          40.900
 116770592.164 7  90990123.22745  22220717.055                    22220717.340
     -1601.863       -1247.922          47.000          32.400
 113796263.817 8  88672440.47946  21654708.750                    21654713.063
     -2417.613       -1883.698          52.500          40.400
 109594019.979 8  85397975.49346  20855044.625                    20855049.316
      1746.867        1361.494          53.000          41.100
 123182692.475 7  95986550.73245  23440898.266                    23440904.914
     -3534.301       -2753.839          45.900          32.300
 18  2 21  9  8 30.0000000  0  7G05G13G07G02G09G30G06
 112571704.261 8  87718229.64746  21421689.938                    21421692.547
      2222.320        1731.811          51.600          38.700
 127696355.242 6  99503707.28243  24299817.125                    24299822.559
      3253.633        2535.297          38.200          19.900
 108889421.167 8  84848897.29246  20720960.117                    20720963.496
       -44.328         -34.373          52.300          41.000
 116818883.390 7  91027752.73645  22229906.711                    22229907.270
     -1617.359       -1260.199          46.700          32.800
 113868902.148 8  88729041.75946  21668531.305                    21668536.055
     -2424.789       -1889.403          52.300          41.000
 109541861.056 8  85357332.17947  20845119.180                    20845123.551
      1730.488        1348.560          53.100          42.000
 123288800.353 7  96069232.15245  23461090.328                    23461096.477
     -3539.449       -2757.992          45.400          31.800
 18  2 21  9  9  0.0000000  0  7G05G13G07G02G09G30G06
 112505221.566 8  87666424.94646  21409038.883                    21409041.523
      2209.859        1722.195          51.700          38.300
 127598800.626 6  99427690.76643  24281253.766                    24281257.836
      3250.152        2532.605          39.000          19.900
 108891015.785 8  84850139.85146  20721264.055                    20721266.859
       -61.887         -47.976          51.700          41.100
 116867647.754 7  91065750.91745  22239185.750                    22239186.586
     -1633.418       -1272.528          45.800          32.800
 113941760.607 8  88785814.56546  21682396.000                    21682400.746
     -2432.375       -1895.196          52.200          40.900
 109490201.668 8  85317078.10546  20835288.352                    20835292.887
      1713.594        1335.515          52.800          41.600
 123395067.018 7  96152037.32945  23481310.758                    23481318.266
     -3544.824       -2762.150          43.500          31.500
 18  2 21  9  9 30.0000000  0  7G05G13G07G02G09G30G06
 112439107.343 8  87614907.37746  21396457.492                    21396460.473
      2198.020        1712.629          50.800          38.900
 127501346.491 6  99351752.55843  24262708.234                    24262712.563
      3247.188        2530.057          39.800          21.500
 108893131.136 8  84851788.17046  20721666.477                    20721668.949
       -78.871         -61.452          52.100          41.500
 116916882.827 7  91104115.89145  22248555.750                    22248556.328
     -1648.680       -1284.701          46.900          32.700
 114014837.488 8  88842757.57146  21696301.727                    21696306.520
     -2439.184       -1900.801          51.600          41.100
 109439042.374 8  85277213.71947  20825553.180                    20825557.836
      1697.246        1322.547          53.200          42.200
 123501488.934 7  96234963.44345  23501563.039                    23501569.902
     -3549.652       -2766.099          46.000          30.800
 18  2 21  9 10  0.0000000  0  7G05G13G07G02G09G30G06
 112373364.381 8  87563679.09946  21383947.398                    21383950.242
      2185.297        1702.926          51.900          39.300
 127403994.195 6  99275893.72143  24244183.523                    24244186.559
      3243.441        2527.338          39.300          20.400
 108895767.549 8  84853842.51046  20722168.180                    20722170.641
       -96.547         -75.032          51.800          41.300
 116966587.774 7  91142846.98945  22258014.164                    22258014.887
     -1664.645       -1296.930          47.900          32.800
 114088132.582 8  88899870.61646  21710249.578                    21710254.219
     -2446.770       -1906.524          52.200          40.600
 109388385.130 8  85237740.54246  20815913.406                    20815918.090
      1680.184        1309.444          53.200          41.400
 123608063.938 7  96318008.85645  23521843.203                    23521850.238
     -3555.023       -2770.109          42.800          31.000
 18  2 21  9 10 30.0000000  0  7G05G13G07G02G09G30G06
 112307994.222 8  87512741.30646  21371507.750                    21371509.770
      2172.762        1693.246          51.900          39.700
 127306744.260 6  99200114.63343  24225675.617                    24225680.516
      3239.902        2524.685          38.300          19.900
 108898923.446 8  84856301.64746  20722768.813                    20722771.313
      -113.789         -88.451          52.000          41.600
 117016759.422 7  91181941.73745  22267561.320                    22267562.215
     -1680.109       -1308.974          47.900          33.000
 114161644.095 8  88957152.29446  21724238.352                    21724242.719
     -2453.941       -1912.077          51.500          41.200
 109338230.374 8  85198658.91647  20806369.297                    20806374.219
      1663.449        1296.427          52.600          42.000
 123714788.313 7  96401170.66345  23542152.586                    23542159.313
     -3559.910       -2773.880          45.700          30.800
 18  2 21  9 11  0.0000000  0  7G05G13G07G02G09G30G06
 112242999.508 8  87462096.07746  21359139.445                    21359142.375
      2160.316        1683.501          51.300          38.900
 127209597.485 6  99124415.92443  24207189.359                    24207195.102
      3236.633        2522.046          37.900          19.600
 108902598.589 8  84859165.38946  20723468.469                    20723470.930
      -131.055        -101.912          53.300          41.800
 117067396.625 7  91221399.26545  22277197.703                    22277198.359
     -1695.531       -1321.024          47.600          33.500
 114235371.272 8  89014602.01946  21738268.234                    21738273.035
     -2461.020       -1917.627          51.000          41.000
 109288579.517 8  85159969.93147  20796921.008                    20796925.680
      1646.730        1283.368          52.800          42.300
 123821659.381 7  96484446.76745  23562489.805                    23562496.203
     -3564.711       -2777.629          44.500          30.400
 18  2 21  9 11 30.0000000  0  7G05G13G07G02G09G30G06
 112178382.033 8  87411744.79746  21346843.422                    21346845.594
      2147.508        1673.634          52.100          38.900
 127112554.884 6  99048798.40743  24188723.898                    24188727.738
      3232.996        2519.272          39.200          19.600
 108906792.622 8  84862433.48646  20724266.164                    20724269.078
      -148.527        -115.437          52.300          41.300
 117118497.385 7  91261217.99445  22286921.352                    22286922.473
     -1711.094       -1333.092          47.600          33.600
 114309313.130 8  89072219.02846  21752338.945                    21752343.340
     -2468.395       -1923.262          51.100          40.600
 109239433.738 8  85121674.51846  20787569.063                    20787573.621
      1629.715        1270.178          51.600          41.600
 123928674.174 7  96567834.87045  23582854.414                    23582860.762
     -3569.590       -2781.368          44.900          30.200
 18  2 21  9 12  0.0000000  0  7G05G13G07G02G09G30G06
 112114143.493 8  87361688.78746  21334619.063                    21334621.832
      2134.824        1663.765          52.200          39.100
 127015616.934 6  98973262.40743  24170276.617                    24170280.629
      3229.539        2516.552          40.000          20.900
 108911504.677 8  84866105.20446  20725162.852                    20725165.398
      -165.777        -128.898          52.500          41.100
 117170059.397 8  91301396.14645  22296733.758                    22296734.598
     -1726.535       -1345.047          48.100          33.700
 114383468.438 8  89130002.35546  21766450.445                    21766454.883
     -2475.496       -1928.793          51.400          41.000
 109190793.919 8  85083773.36347  20778312.711                    20778318.094
      1612.824        1257.023          51.300          42.100
 124035829.609 7  96651332.55745  23603244.680                    23603252.371
     -3574.234       -2784.997          44.600          31.100
 18  2 21  9 12 30.0000000  0  7G05G13G07G02G09G30G06
 112050286.431 8  87311930.04146  21322467.750                    21322470.289
      2122.219        1653.754          51.500          39.500
 126918784.611 6  98897808.69143  24151850.313                    24151854.191
      3226.086        2513.725          39.900          20.900
 108916734.950 8  84870180.73646  20726158.336                    20726161.078
      -182.883        -142.404          52.800          41.400
 117222080.964 7  91341932.38945  22306633.195                    22306633.344
     -1741.633       -1357.026          47.800          33.300
 114457836.358 8  89187951.37246  21780601.930                    21780606.480
     -2482.445       -1934.357          51.400          40.500
 109142661.410 8  85046267.51447  20769153.602                    20769158.711
      1595.973        1243.755          52.900          42.200
 124143122.890 7  96734937.65945  23623662.148                    23623669.797
     -3578.703       -2788.604          46.200          30.400
 18  2 21  9 13  0.0000000  0  7G05G13G07G02G09G30G06
 111986812.188 8  87262469.59446  21310388.344                    21310391.781
      2109.398        1643.800          51.000          38.700
 126822058.137 6  98822437.49643  24133443.094                    24133448.281
      3222.332        2511.010          39.200          20.900
 108922481.548 8  84874658.59246  20727252.102                    20727254.621
      -200.152        -155.793          52.100          41.200
 117274559.787 8  91382824.94745  22316619.383                    22316619.547
     -1756.973       -1368.877          48.200          33.500
 114532415.523 8  89246064.97946  21794793.859                    21794798.227
     -2489.516       -1939.818          50.000          40.100
 109095036.824 8  85009157.45446  20760090.844                    20760096.605
      1578.969        1230.560          52.400          41.900
 124250550.676 7  96818647.57245  23644105.281                    23644112.059
     -3583.121       -2792.043          44.800          30.900
 18  2 21  9 13 30.0000000  0  7G05G13G07G02G09G30G06
 111923723.173 8  87213309.33146  21298383.430                    21298386.188
      2096.500        1633.877          52.400          38.900
 126725438.910 6  98747149.86943  24115058.016                    24115062.891
      3218.730        2508.260          39.000          21.100
 108928744.698 8  84879538.96646  20728443.625                    20728446.816
      -217.270        -169.083          52.700          41.100
 117327494.573 8  91424072.79745  22326692.578                    22326692.813
     -1771.941       -1380.575          48.300          33.700
 114607205.513 8  89304342.88746  21809025.844                    21809030.531
     -2496.410       -1945.152          50.300          39.600
 109047921.964 8  84972444.57247  20751125.117                    20751130.586
      1561.992        1217.425          53.000          42.100
 124358110.705 7  96902460.53145  23664574.141                    23664580.160
     -3587.441       -2795.329          45.500          30.600
 18  2 21  9 14  0.0000000  0  7G05G13G07G02G09G30G06
 111861021.630 8  87164450.98446  21286451.500                    21286454.328
      2083.676        1623.740          52.100          39.400
 126628927.871 6  98671946.49443  24096692.961                    24096696.902
      3215.301        2505.426          41.200          22.200
 108935523.478 8  84884821.13146  20729733.367                    20729736.441
      -234.551        -182.559          52.300          41.300
 117380883.035 7  91465674.14845  22336852.000                    22336852.059
     -1787.160       -1392.405          47.300          32.700
 114682204.873 8  89362783.92646  21823297.633                    21823301.762
     -2503.414       -1950.669          49.500          39.200
 109001317.296 8  84936129.24847  20742256.750                    20742262.125
      1545.043        1204.091          52.400          42.900
 124465799.495 7  96986373.81545  23685066.375                    23685072.344
     -3591.699       -2798.704          44.600          30.600
 18  2 21  9 14 30.0000000  0  7G05G13G07G02G09G30G06
 111798708.999 8  87115895.69746  21274594.094                    21274596.840
      2070.410        1613.625          52.000          39.200
 126532525.227 6  98596827.61143  24078347.906                    24078352.086
      3211.551        2502.633          40.800          22.200
 108942816.748 8  84890504.19646  20731121.406                    20731124.375
      -251.848        -195.877          52.500          41.500
 117434722.329 7  91507626.79845  22347097.281                    22347097.391
     -1802.312       -1404.045          47.300          33.100
 114757412.276 8  89421387.08146  21837608.828                    21837613.012
     -2510.504       -1956.014          49.500          38.400
 108955223.617 8  84900212.09847  20733485.211                    20733490.547
      1527.762        1190.833          52.500          42.700
 124573613.856 7  97070384.96145  23705582.344                    23705589.078
     -3595.945       -2801.894          44.800          31.200
 18  2 21  9 15  0.0000000  0  7G05G13G07G02G09G30G06
 111736787.635 8  87067645.28446  21262810.703                    21262813.602
      2057.484        1603.415          52.400          38.700
 126436231.944 6  98521793.96943  24060024.008                    24060028.063
      3207.844        2499.723          39.900          20.900
 108950624.399 8  84896588.07646  20732606.945                    20732609.867
      -268.828        -209.239          52.300          40.900
 117489011.105 7  91549929.69345  22357428.195                    22357428.387
     -1817.086       -1415.725          47.300          33.000
 114832827.042 8  89480151.81646  21851960.234                    21851964.039
     -2517.293       -1961.414          49.100          37.500
 108909642.180 8  84864694.09547  20724811.641                    20724816.570
      1510.805        1177.501          52.600          43.000
 124681551.150 7  97154491.89845  23726121.844                    23726129.676
     -3599.937       -2805.089          43.600          30.600
 18  2 21  9 15 30.0000000  0  7G05G13G07G02G09G30G06
 111675259.878 8  87019701.57446  21251102.148                    21251105.148
      2044.301        1593.158          51.300          38.600
 126340049.135 6  98446846.36743  24041720.695                    24041725.242
      3204.184        2496.855          40.800          21.500
 108958945.506 8  84903072.05246  20734190.664                    20734193.500
      -286.039        -222.595          51.900          40.800
 117543747.449 7  91592581.31045  22367844.023                    22367844.188
     -1832.082       -1427.325          46.100          33.400
 114908448.242 8  89539077.40646  21866350.523                    21866354.953
     -2524.184       -1966.777          49.900          36.800
 108864574.151 8  84829576.15147  20716235.500                    20716240.664
      1493.648        1164.138          52.700          42.900
 124789608.507 7  97238692.37445  23746685.602                    23746692.082
     -3603.922       -2808.178          44.500          30.700
 18  2 21  9 16  0.0000000  0  7G05G13G07G02G09G30G06
 111614127.796 8  86972066.18246  21239469.047                    21239472.355
      2031.145        1582.969          51.800          38.800
 126243977.155 7  98371985.11343  24023439.547                    24023443.738
      3200.625        2494.083          42.300          23.000
 108967779.835 8  84909955.94346  20735871.570                    20735874.383
      -303.027        -235.801          52.500          40.300
 117598929.037 7  91635579.88345  22378345.055                    22378345.391
     -1846.746       -1438.780          47.000          33.700
 114984275.015 8  89598163.18246  21880779.258                    21880784.051
     -2530.977       -1972.004          50.000          36.400
 108820020.586 8  84794859.09047  20707757.242                    20707762.629
      1476.504        1150.873          52.800          42.700
 124897783.142 7  97322984.24345  23767270.133                    23767276.711
     -3607.742       -2811.073          44.600          30.100
 18  2 21  9 16 30.0000000  0  7G05G13G07G02G09G30G06
 111553392.967 8  86924740.34046  21227911.711                    21227914.566
      2018.008        1572.580          51.200          37.900
 126148017.500 6  98297211.41643  24005178.156                    24005183.219
      3196.945        2491.105          41.800          21.800
 108977126.760 8  84917239.26746  20737650.195                    20737653.074
      -320.027        -249.148          52.000          39.900
 117654553.945 7  91678923.91645  22388929.563                    22388930.555
     -1861.348       -1450.271          47.000          33.200
 115060306.330 8  89657408.33446  21895247.602                    21895252.293
     -2537.660       -1977.329          50.000          37.100
 108775982.472 8  84760543.68447  20699376.938                    20699382.180
      1459.484        1137.435          53.200          43.300
 125006072.122 7  97407365.20345  23787876.688                    23787883.359
     -3611.383       -2814.049          43.800          30.000
 18  2 21  9 17  0.0000000  0  7G05G13G07G02G09G30G06
 111493057.738 8  86877725.88446  21216430.148                    21216433.008
      2004.680        1562.138          51.700          38.300
 126052170.645 7  98222525.60943  23986939.234                    23986944.082
      3193.113        2488.126          42.400          22.300
 108986984.731 8  84924920.79946  20739526.453                    20739528.977
      -336.945        -262.435          51.700          40.800
 117710619.978 7  91722611.67045  22399598.664                    22399599.773
     -1876.051       -1461.767          46.700          34.000
 115136541.010 8  89716811.96846  21909754.992                    21909759.336
     -2544.340       -1982.650          49.300          37.200
 108732460.484 8  84726630.44947  20691095.133                    20691100.398
      1442.238        1123.969          53.200          43.000
 125114472.257 7  97491832.81645  23808504.961                    23808510.488
     -3615.023       -2816.942          43.500          30.000
 18  2 21  9 17 30.0000000  0  7G05G13G07G02G09G30G06
 111433123.881 8  86831024.17346  21205025.391                    21205027.793
      1991.156        1551.692          52.100          38.600
 125956437.326 7  98147928.29243  23968722.766                    23968727.297
      3189.242        2485.179          42.000          23.600
 108997353.438 8  84933000.31846  20741499.875                    20741502.281
      -354.074        -275.699          52.400          40.300
 117767125.220 7  91766641.69145  22410351.406                    22410352.340
     -1890.773       -1473.138          47.300          33.600
 115212978.095 8  89776373.31846  21924300.391                    21924305.270
     -2551.141       -1987.889          50.000          37.900
 108689455.665 8  84693120.21047  20682911.602                    20682916.598
      1424.973        1110.528          53.200          42.800
 125222980.722 7  97576384.79544  23829153.008                    23829159.629
     -3618.590       -2819.706          44.000          28.900
 18  2 21  9 18  0.0000000  0  7G05G13G07G02G09G30G06
 111373593.368 8  86784636.76346  21193697.180                    21193699.520
      1977.855        1541.175          51.900          38.400
 125860818.266 7  98073419.96443  23950527.313                    23950531.539
      3185.633        2482.199          43.700          22.200
 109008232.027 8  84941477.14346  20743569.578                    20743572.250
      -370.930        -288.950          52.100          40.600
 117824067.097 7  91811011.90845  22421187.016                    22421188.316
     -1905.133       -1484.468          46.800          34.200
 115289616.523 8  89836091.55046  21938884.469                    21938889.297
     -2557.664       -1993.123          50.200          38.800
 108646968.803 8  84660013.56547  20674826.820                    20674831.719
      1407.797        1097.045          53.000          42.800
 125331594.514 7  97661018.87644  23849820.766                    23849828.832
     -3621.910       -2822.419          43.800          27.900
 18  2 21  9 18 30.0000000  0  7G05G13G07G02G09G30G06
 111314468.162 8  86738565.18146  21182446.039                    21182448.230
      1964.059        1530.672          51.200          37.800
 125765314.252 7  97999001.29543  23932353.555                    23932357.449
      3181.465        2479.217          43.900          23.300
 109019619.596 8  84950350.57646  20745736.203                    20745739.031
      -388.086        -302.119          52.100          40.500
 117881443.773 7  91855720.92345  22432106.281                    22432106.766
     -1919.836       -1495.686          47.000          34.300
 115366455.313 8  89895965.90646  21953506.414                    21953511.234
     -2564.680       -1998.267          50.400          39.000
 108605000.802 8  84627311.23247  20666840.508                    20666845.566
      1390.191        1083.592          53.200          43.100
 125440310.717 7  97745732.72144  23870509.344                    23870516.898
     -3625.613       -2825.006          44.300          27.800
 18  2 21  9 19  0.0000000  0  7G05G13G07G02G09G30G06
 111255750.443 8  86692811.12046  21171272.602                    21171274.723
      1950.332        1520.048          51.400          39.100
 125669925.897 7  97924672.73843  23914200.828                    23914204.859
      3177.594        2476.208          43.800          21.700
 109031515.310 8  84959619.96446  20748000.195                    20748003.129
      -405.062        -315.307          52.500          40.300
 117939253.024 7  91900767.04145  22443106.875                    22443107.512
     -1934.266       -1506.909          46.600          34.700
 115443493.523 8  89955995.66646  21968166.258                    21968170.789
     -2571.363       -2003.444          50.300          38.500
 108563552.533 8  84595013.87547  20658952.914                    20658958.102
      1372.922        1070.107          52.900          43.500
 125549126.340 7  97830524.07944  23891217.289                    23891223.777
     -3628.902       -2827.539          44.100          26.500
 18  2 21  9 19 30.0000000  0  7G05G13G07G02G09G30G06
 111197442.447 8  86647376.31746  21160176.703                    21160179.289
      1936.559        1509.262          51.400          38.700
 125574654.651 7  97850435.45543  23896071.852                    23896075.797
      3173.570        2473.017          43.600          22.500
 109043918.861 8  84969285.07146  20750360.391                    20750363.281
      -422.102        -328.618          52.400          40.900
 117997492.772 7  91946148.60145  22454189.641                    22454190.441
     -1948.633       -1518.169          46.500          33.800
 115520730.353 8  90016180.19146  21982864.102                    21982868.668
     -2578.098       -2008.711          50.000          39.400
 108522625.126 8  84563122.39047  20651164.961                    20651169.922
      1355.273        1056.437          52.300          44.200
 125658038.871 7  97915390.89744  23911941.766                    23911948.164
     -3632.141       -2830.129          43.700          26.100
 18  2 21  9 20  0.0000000  0  7G05G13G07G02G09G30G06
 111139545.314 8  86602261.67546  21149159.258                    21149161.793
      1922.855        1498.559          52.000          38.300
 125479500.983 7  97776289.77444  23877964.789                    23877967.848
      3169.609        2469.972          44.500          24.700
 109056829.091 8  84979344.98946  20752817.063                    20752820.090
      -438.918        -341.759          52.100          40.800
 118056160.384 7  91991863.53845  22465354.203                    22465354.305
     -1962.891       -1529.283          46.400          34.800
 115598164.513 8  90076518.48246  21997599.461                    21997604.145
     -2584.586       -2013.827          50.400          38.700
 108482218.955 8  84531637.06847  20643475.664                    20643480.953
      1338.012        1042.886          52.600          43.000
 125767044.815 7  98000330.57544  23932684.547                    23932691.207
     -3635.191       -2832.545          42.500          26.600
 18  2 21  9 20 30.0000000  0  7G05G13G07G02G09G30G06
 111082061.154 8  86557468.81546  21138220.008                    21138222.840
      1909.172        1487.870          52.200          38.800
 125384465.349 7  97702236.06743  23859879.828                    23859883.746
      3165.766        2466.952          45.000          22.500
 109070244.464 8  84989798.53146  20755369.797                    20755372.828
      -455.621        -354.800          52.000          41.300
 118115253.917 7  92037910.38545  22476599.242                    22476599.598
     -1976.934       -1540.222          46.900          33.900
 115675794.876 8  90137009.65446  22012372.023                    22012376.746
     -2591.035       -2018.843          49.300          39.400
 108442334.788 8  84500558.49847  20635886.070                    20635891.109
      1320.641        1029.376          51.700          43.900
 125876141.337 7  98085340.75644  23953445.125                    23953452.598
     -3638.062       -2834.801          42.900          26.300
 18  2 21  9 21  0.0000000  0  7G05G13G07G02G09G30G06
 111024992.596 8  86512999.81446  21127360.695                    21127362.652
      1895.434        1477.088          51.200          37.900
 125289548.475 7  97628274.86043  23841817.883                    23841820.938
      3161.914        2463.896          43.800          22.300
 109084164.451 8  85000645.27246  20758018.906                    20758021.691
      -472.332        -367.865          51.600          41.600
 118174770.930 7  92084287.24945  22487925.047                    22487925.434
     -1990.797       -1551.173          47.300          33.700
 115753620.534 8  90197652.99846  22027181.578                    22027186.191
     -2597.387       -2023.854          49.700          38.400
 108402973.483 8  84469887.35147  20628395.891                    20628401.336
      1303.398        1015.820          51.100          43.200
 125985325.460 7  98170419.27944  23974221.891                    23974229.414
     -3640.719       -2837.007          42.100          26.700
 18  2 21  9 21 30.0000000  0  7G05G13G07G02G09G30G06
 110968340.993 8  86468855.71446  21116579.875                    21116582.473
      1881.254        1466.203          51.400          38.400
 125194751.458 7  97554407.11343  23823778.258                    23823781.305
      3157.629        2460.698          43.500          22.200
 109098588.415 8  85011884.71746  20760763.766                    20760766.738
      -489.332        -380.998          51.900          41.400
 118234709.565 7  92130992.65345  22499330.883                    22499331.762
     -2005.145       -1562.143          46.700          33.400
 115831640.554 8  90258447.79846  22042028.422                    22042032.797
     -2604.098       -2028.947          48.900          39.100
 108364135.841 8  84439624.25147  20621005.273                    20621011.039
      1285.742        1002.165          52.100          43.200
 126094594.406 7  98255563.82244  23995016.438                    23995022.770
     -3643.824       -2839.233          42.600          25.000
 18  2 21  9 22  0.0000000  0  7G05G13G07G02G09G30G06
 110912108.363 8  86425038.07746  21105879.375                    21105882.023
      1867.281        1455.296          51.100          38.400
 125100074.822 7  97480633.12643  23805761.539                    23805764.973
      3153.656        2457.592          42.200          21.700
 109113515.216 8  85023515.98346  20763604.234                    20763607.215
      -506.059        -394.030          52.100          41.600
 118295067.218 7  92178024.56545  22510816.750                    22510816.887
     -2019.039       -1572.993          46.500          33.800
 115909853.941 8  90319393.27146  22056911.961                    22056916.598
     -2610.484       -2033.954          49.400          38.600
 108325822.545 8  84409769.74247  20613714.469                    20613719.629
      1268.223         988.552          51.500          43.700
 126203945.121 7  98340772.14344  24015824.516                    24015831.629
     -3646.500       -2841.312          42.400          25.300
 18  2 21  9 22 30.0000000  0  7G05G13G07G02G09G30G06
 110856296.677 8  86381548.45246  21095258.867                    21095261.313
      1853.348        1444.365          52.000          38.900
 125005519.538 7  97406953.69043  23787768.094                    23787771.594
      3149.816        2454.467          42.600          23.000
 109128943.910 8  85035538.33547  20766540.281                    20766543.066
      -522.680        -407.031          52.100          42.500
 118355841.671 7  92225381.28945  22522381.313                    22522382.340
     -2032.766       -1583.768          46.000          34.000
 115988259.629 8  90380488.57646  22071831.820                    22071836.863
     -2616.691       -2038.917          49.300          38.600
 108288034.298 8  84380324.35847  20606523.844                    20606529.137
      1250.848         974.925          52.400          43.800
 126313374.732 7  98426041.89744  24036648.289                    24036654.609
     -3648.879       -2843.282          42.200          24.700
 18  2 21  9 23  0.0000000  0  7G05G13G07G02G09G30G06
 110800908.474 8  86338388.81546  21084718.797                    21084721.457
      1839.176        1433.364          52.500          39.400
 124911086.584 7  97333369.59343  23769797.914                    23769801.617
      3145.617        2451.265          42.700          23.900
 109144874.049 8  85047951.42947  20769571.688                    20769574.773
      -539.398        -420.057          52.300          42.200
 118417031.092 7  92273061.36645  22534025.508                    22534026.023
     -2046.566       -1594.503          46.900          33.600
 116066857.089 8  90441733.31246  22086788.398                    22086793.406
     -2623.230       -2043.895          48.700          38.700
 108250772.249 8  84351289.01247  20599432.805                    20599438.113
      1233.234         961.244          52.500          43.900
 126422880.679 7  98511371.19044  24057487.195                    24057493.168
     -3651.453       -2845.260          43.600          25.300
 18  2 21  9 23 30.0000000  0  7G05G13G07G02G09G30G06
 110745944.773 8  86295559.95446  21074259.586                    21074262.625
      1824.977        1422.318          52.300          39.800
 124816776.775 6  97259881.44643  23751850.727                    23751855.270
      3141.547        2448.095          41.500          22.900
 109161304.217 8  85060754.15046  20772698.297                    20772701.203
      -556.082        -432.983          51.700          41.800
 118478632.753 7  92321062.66645  22545747.586                    22545748.531
     -2060.352       -1605.158          47.100          33.300
 116145644.980 8  90503126.44146  22101781.492                    22101786.332
     -2629.430       -2048.753          48.300          38.100
 108214036.753 8  84322663.94847  20592442.234                    20592447.750
      1215.645         947.604          52.700          43.900
 126532459.800 7  98596757.42744  24078339.453                    24078344.996
     -3653.863       -2847.042          42.100          25.600
 18  2 21  9 24  0.0000000  0  7G05G13G07G02G09G30G06
 110691408.098 8  86253063.84746  21063881.242                    21063884.164
      1810.688        1411.190          52.300          39.200
 124722590.302 6  97186489.42843  23733927.656                    23733931.348
      3137.605        2444.866          41.300          23.300
 109178233.517 8  85073945.80246  20775919.586                    20775922.613
      -572.691        -445.966          51.900          41.700
 118540644.470 7  92369383.48845  22557548.047                    22557548.879
     -2073.875       -1615.801          45.200          33.500
 116224622.474 8  90564667.31546  22116810.211                    22116815.617
     -2635.766       -2053.701          48.800          37.700
 108177828.568 8  84294449.79447  20585552.242                    20585557.820
      1198.082         933.876          52.800          43.700
 126642109.182 6  98682198.49044  24099204.875                    24099210.855
     -3656.125       -2848.868          41.700          25.800
 18  2 21  9 24 30.0000000  0  7G05G13G07G02G09G30G06
 110637300.433 8  86210902.03346  21053585.195                    21053587.789
      1796.277        1399.989          52.200          39.900
 124628528.924 7  97113194.87643  23716029.008                    23716032.402
      3133.105        2441.573          42.800          22.800
 109195661.211 8  85087525.79347  20779236.555                    20779239.105
      -589.363        -458.932          53.300          42.100
 118603064.159 7  92418022.20045  22569426.148                    22569426.598
     -2087.699       -1626.408          46.400          33.200
 116303788.685 8  90626355.22746  22131874.742                    22131880.602
     -2642.129       -2058.639          48.900          38.100
 108142148.453 8  84266647.11347  20578762.297                    20578768.020
      1180.266         920.112          53.000          43.400
 126751826.160 6  98767692.14144  24120082.648                    24120090.805
     -3658.539       -2850.640          40.400          25.800
 18  2 21  9 25  0.0000000  0  7G05G13G07G02G09G30G06
 110583623.625 8  86169075.94846  21043371.102                    21043373.422
      1782.246        1388.762          52.600          40.600
 124534593.110 7  97039998.14843  23698153.109                    23698157.672
      3129.367        2438.295          42.400          23.900
 109213586.343 8  85101493.42146  20782647.195                    20782650.215
      -605.551        -471.836          52.500          41.800
 118665889.118 7  92466976.70245  22581381.047                    22581382.082
     -2100.637       -1636.891          45.700          33.000
 116383142.642 8  90688189.44346  22146975.500                    22146981.082
     -2647.895       -2063.484          48.600          38.500
 108106997.047 8  84239256.41247  20572073.023                    20572078.926
      1163.184         906.380          52.500          43.600
 126861607.764 6  98853236.16544  24140973.367                    24140981.785
     -3660.223       -2852.290          41.800          25.300
 18  2 21  9 25 30.0000000  0  7G05G13G07G02G09G30G06
 110530380.226 8  86127587.58746  21033239.117                    21033241.770
      1767.586        1377.537          53.100          40.400
 124440783.811 7  96966900.00743  23680302.148                    23680305.797
      3124.996        2435.076          43.700          23.200
 109232008.183 8  85115848.09546  20786152.945                    20786155.328
      -622.270        -484.663          52.700          41.000
 118729117.481 7  92516245.51745  22593413.453                    22593414.555
     -2114.145       -1647.269          45.700          33.300
 116462683.656 8  90750169.41946  22162111.477                    22162117.398
     -2654.410       -2068.284          49.800          37.600
 108072375.238 8  84212278.37947  20565485.008                    20565490.543
      1145.363         892.683          53.000          42.900
 126971451.407 6  98938828.58743  24161874.883                    24161883.855
     -3662.551       -2853.829          39.400          22.600
 18  2 21  9 26  0.0000000  0  7G05G13G07G02G09G30G06
 110477571.456 8  86086437.89246  21023189.773                    21023192.719
      1753.090        1366.187          52.600          40.800
 124347101.789 7  96893901.05043  23662474.297                    23662478.586
      3120.500        2431.665          44.100          23.500
 109250925.381 8  85130588.77546  20789752.523                    20789755.418
      -638.848        -497.584          51.500          41.400
 118792746.740 7  92565826.75045  22605521.906                    22605522.766
     -2127.637       -1657.724          44.900          32.400
 116542410.599 8  90812294.27046  22177283.539                    22177288.813
     -2660.664       -2073.172          50.000          36.700
 108038283.460 8  84185713.36147  20558997.273                    20559003.344
      1127.563         878.844          52.900          43.200
 127081353.927 7  99024466.81443  24182789.898                    24182796.770
     -3664.559       -2855.344          43.400          23.500
 18  2 21  9 26 30.0000000  0  7G05G13G07G02G09G30G06
 110425199.023 8  86045628.20046  21013223.484                    21013226.445
      1738.395        1354.822          52.500          40.400
 124253547.486 7  96821001.60644  23644672.188                    23644675.879
      3116.281        2428.373          45.000          24.000
 109270336.530 8  85145714.33446  20793446.430                    20793448.887
      -655.371        -510.410          52.700          40.400
 118856774.415 7  92615718.41345  22617705.586                    22617706.438
     -2140.969       -1668.049          45.300          32.900
 116622322.189 8  90874563.01546  22192489.945                    22192495.324
     -2666.887       -2077.939          50.000          36.700
 108004722.002 8  84159561.58747  20552610.531                    20552616.621
      1109.820         865.050          52.300          43.400
 127191312.287 6  99110148.60743  24203713.102                    24203721.250
     -3666.465       -2856.758          39.700          22.800
 18  2 21  9 27  0.0000000  0  7G05G13G07G02G09G30G06
 110373264.770 8  86005159.96146  21003340.813                    21003343.746
      1723.637        1343.360          52.900          40.300
 124160121.799 7  96748202.39344  23626893.500                    23626898.258
      3111.832        2424.952          43.800          24.700
 109290241.009 8  85161224.32046  20797233.641                    20797236.195
      -671.941        -523.244          51.700          40.500
 118921197.890 7  92665918.50145  22629964.617                    22629966.293
     -2154.242       -1678.344          45.200          32.600
 116702417.705 8  90936975.08845  22207732.063                    22207736.980
     -2673.113       -2082.764          51.100          35.900
 107971691.610 8  84133823.62647  20546325.031                    20546331.254
      1091.867         851.194          52.600          42.300
 127301323.723 7  99195871.73244  24224649.805                    24224656.672
     -3668.176       -2858.121          44.600          26.500
 18  2 21  9 27 30.0000000  0  7G05G13G07G02G09G30G06
 110321770.721 8  85965034.72546  20993541.922                    20993544.676
      1709.023        1331.895          51.100          40.000
 124066825.368 7  96675503.90444  23609139.680                    23609143.945
      3107.770        2421.613          43.800          24.300
 109310637.501 8  85177117.69046  20801115.172                    20801117.773
      -688.113        -535.996          51.000          40.300
 118986014.790 7  92716425.13845  22642299.242                    22642300.531
     -2167.023       -1688.515          44.900          32.800
 116782696.084 8  90999529.65645  22223008.469                    22223013.066
     -2679.051       -2087.490          51.500          35.700
 107939192.683 8  84108499.79047  20540140.711                    20540146.492
      1074.387         837.399          51.200          42.400
 127411385.244 6  99281633.89243  24245591.594                    24245602.254
     -3669.477       -2859.373          38.500          23.500
 18  2 21  9 28  0.0000000  0  7G05G13G07G02G09G30G06
 110270718.313 8  85925253.62046  20983826.727                    20983829.379
      1694.109        1320.455          49.400          39.600
 123973659.238 6  96602906.94743  23591410.633                    23591415.023
      3103.039        2418.201          41.700          23.500
 109331524.958 8  85193393.62846  20805090.008                    20805092.828
      -704.633        -548.725          48.800          39.500
 119051222.529 7  92767236.31645  22654708.578                    22654709.547
     -2180.340       -1698.639          45.900          32.700
 116863156.209 8  91062225.84245  22238319.227                    22238323.910
     -2685.215       -2092.183          51.500          35.900
 107907225.693 8  84083590.45647  20534058.039                    20534063.188
      1056.426         823.583          49.500          42.800
 127521493.888 7  99367432.76944  24266546.922                    24266555.207
     -3671.211       -2860.567          43.400          27.300
 18  2 21  9 28 30.0000000  0  7G05G13G07G02G09G30G06
 110220110.044 8  85885818.60746  20974196.406                    20974199.211
      1679.441        1308.917          51.100          39.500
 123880623.669 6  96530411.71644  23573706.688                    23573710.930
      3099.004        2414.871          41.800          24.400
 109352901.971 8  85210051.04046  20809157.773                    20809160.703
      -720.754        -561.380          49.100          40.400
 119116819.036 7  92818350.42645  22667190.688                    22667192.250
     -2193.070       -1708.639          45.100          32.100
 116943797.210 8  91125062.97846  22253665.031                    22253669.113
     -2691.176       -2096.834          50.300          36.300
 107875791.084 8  84059095.95947  20528075.984                    20528081.590
      1038.914         809.803          50.100          43.300
 127631646.771 6  99453266.10243  24287506.711                    24287515.879
     -3672.461       -2861.616          39.200          23.500
 18  2 21  9 29  0.0000000  0  7G05G13G07G02G09G30G06
 110169948.003 8  85846731.29446  20964650.875                    20964653.191
      1664.820        1297.318          51.400          39.300
 123787719.911 7  96458019.19344  23556027.625                    23556032.539
      3094.898        2411.448          43.600          26.000
 109374767.657 8  85227089.26346  20813318.773                    20813321.859
      -736.742        -574.053          50.200          40.000
 119182801.795 7  92869765.51645  22679747.156                    22679747.918
     -2205.676       -1718.645          44.600          31.400
 117024618.281 8  91188040.42945  22269044.969                    22269048.676
     -2696.750       -2101.488          51.100          35.900
 107844889.638 8  84035016.91347  20522195.594                    20522200.859
      1021.391         795.952          51.200          42.800
 127741841.276 7  99539131.91444  24308479.648                    24308484.652
     -3673.590       -2862.680          44.000          25.800
 18  2 21  9 29 30.0000000  0  7G05G13G07G02G09G30G06
 110120233.707 8  85807992.87946  20955189.930                    20955193.070
      1649.840        1285.658          50.900          38.900
 123694948.850 7  96385730.05843  23538373.539                    23538378.555
      3090.438        2407.970          42.100          22.900
 109397121.270 8  85244507.66046  20817572.477                    20817575.422
      -753.039        -586.718          50.700          40.800
 119249168.204 7  92921479.54145  22692376.141                    22692377.102
     -2218.418       -1728.588          45.000          31.600
 117105618.504 8  91251157.48346  22284458.906                    22284462.992
     -2702.852       -2106.139          51.500          36.700
 107814521.752 8  84011353.62347  20516417.047                    20516422.379
      1003.531         782.081          52.600          43.600
 127852074.499 6  99625027.89944  24329452.750                    24329459.922
     -3674.957       -2863.686          36.700          25.700
 18  2 21  9 30  0.0000000  0  7G05G13G07G02G09G30G06
 110070968.872 8  85769604.68446  20945815.453                    20945818.496
      1634.578        1273.906          51.600          39.200
 123602311.356 6  96313545.01643  23520745.273                    23520750.164
      3085.645        2404.461          40.500          23.900
 109419961.557 8  85262305.28346  20821919.383                    20821921.961
      -769.516        -599.395          49.300          40.600
 119315915.973 7  92973490.72645  22705077.430                    22705079.355
     -2231.262       -1738.512          43.800          31.600
 117186796.994 8  91314413.43146  22299906.734                    22299911.070
     -2708.965       -2110.808          49.300          36.800
 107784687.966 8  83988106.51747  20510740.461                    20510745.426
       985.473         768.152          51.800          43.400
 127962343.614 7  99710951.80944  24350439.664                    24350444.379
     -3676.332       -2864.596          44.800          27.700
 18  2 21  9 30 30.0000000  0  7G05G13G07G02G09G30G06
 110022155.578 8  85731568.35046  20936526.531                    20936529.488
      1619.648        1262.201          51.300          39.000
 123509807.720 6  96241464.29944  23503142.422                    23503146.797
      3081.273        2400.996          40.600          25.600
 109443287.130 8  85280481.04546  20826358.273                    20826360.926
      -785.559        -611.935          50.700          41.000
 119383042.755 7  93025797.25145  22717851.078                    22717852.660
     -2243.762       -1748.290          44.300          30.000
 117268152.752 8  91377807.50946  22315388.023                    22315392.355
     -2714.727       -2115.356          50.000          37.200
 107755388.654 8  83965275.88247  20505164.563                    20505169.574
       967.855         754.316          52.700          43.500
 128072645.787 6  99796901.47244  24371426.477                    24371435.996
     -3677.234       -2865.376          38.300          25.600
 18  2 21  9 31  0.0000000  0  7G05G13G07G02G09G30G06
 109973794.935 8  85693884.73446  20927323.961                    20927326.992
      1604.598        1250.489          52.200          38.900
 123417439.092 6  96169488.76143  23485565.500                    23485569.723
      3076.910        2397.533          41.700          23.900
 109467096.676 8  85299033.92346  20830888.766                    20830891.559
      -801.594        -624.421          50.400          41.500
 119450545.887 7  93078397.03744  22730696.102                    22730697.809
     -2256.250       -1757.977          42.400          29.700
 117349684.606 8  91441338.80546  22330902.727                    22330907.672
     -2720.570       -2119.857          50.000          37.600
 107726623.927 8  83942861.80747  20499690.867                    20499695.473
       949.996         740.482          53.000          43.200
 128182977.838 7  99882874.41744  24392424.563                    24392432.320
     -3678.086       -2866.046          43.900          27.500
 18  2 21  9 31 30.0000000  0  7G05G13G07G02G09G30G06
 109925889.713 8  85656555.99546  20918208.383                    20918210.984
      1589.223        1238.580          52.100          39.000
 123325206.749 6  96097619.39444  23468013.969                    23468019.066
      3072.117        2393.969          41.500          24.800
 109491389.534 8  85317963.42046  20835511.633                    20835514.449
      -817.797        -637.022          51.500          41.600
 119518422.950 7  93131288.20144  22743612.453                    22743614.492
     -2268.777       -1767.713          42.300          29.400
 117431392.070 8  91505006.92846  22346451.430                    22346456.063
     -2726.523       -2124.456          50.400          37.900
 107698394.690 8  83920864.99647  20494319.398                    20494324.188
       932.059         726.523          53.300          43.200
 128293337.441 6  99968868.82944  24413422.891                    24413432.449
     -3679.066       -2866.771          39.400          25.300
 18  2 21  9 32  0.0000000  0  7G05G13G07G02G09G30G06
 109878441.507 8  85619583.36746  20909178.820                    20909181.363
      1573.824        1226.622          51.900          39.300
 123233110.929 7  96025856.44544  23450489.070                    23450493.461
      3067.355        2390.321          42.500          25.100
 109516164.237 8  85337268.36946  20840226.367                    20840228.813
      -834.016        -649.584          52.700          41.700
 119586671.627 7  93184468.94244  22756600.305                    22756601.570
     -2281.211       -1777.364          43.600          29.100
 117513274.045 8  91568811.04146  22362033.156                    22362037.824
     -2732.434       -2129.030          49.600          38.200
 107670701.149 8  83899285.61247  20489049.094                    20489053.695
       914.031         712.546          53.700          43.300
 128403721.599 7 100054882.43344  24434430.273                    24434435.988
     -3680.039       -2867.439          43.600          26.400
 18  2 21  9 32 30.0000000  0  7G05G13G07G02G09G30G06
 109831451.529 8  85582967.80246  20900237.016                    20900240.184
      1558.742        1214.751          52.900          39.200
 123141152.562 6  95954200.57244  23432990.000                    23432994.117
      3062.977        2386.797          41.700          24.300
 109541419.888 8  85356948.08346  20845032.188                    20845034.949
      -849.832        -662.016          51.300          41.600
 119655288.976 7  93237936.95744  22769657.656                    22769659.230
     -2293.316       -1786.887          43.800          29.400
 117595329.624 8  91632750.42446  22377647.750                    22377652.777
     -2738.031       -2133.484          48.900          37.900
 107643543.636 8  83878123.91747  20483881.039                    20483886.262
       896.344         698.661          53.200          43.200
 128514127.488 6 100140912.92343  24455437.953                    24455445.188
     -3680.707       -2867.910          38.900          23.400
 18  2 21  9 33  0.0000000  0  7G05G13G07G02G09G30G06
 109784922.510 8  85546711.43346  20891383.180                    20891385.598
      1543.516        1202.704          53.300          39.500
 123049332.689 7  95882652.64943  23415517.352                    23415522.074
      3058.609        2383.136          42.000          23.600
 109567155.006 8  85377001.40247  20849929.398                    20849931.871
      -865.590        -674.509          52.900          42.100
 119724273.133 7  93291690.77544  22782784.922                    22782786.379
     -2305.316       -1796.422          43.100          28.900
 117677558.023 8  91696824.46146  22393295.289                    22393300.055
     -2743.648       -2138.010          49.100          37.500
 107616922.666 8  83857380.30047  20478815.125                    20478820.035
       878.703         684.679          53.600          43.000
 128624552.343 7 100226958.20744  24476452.375                    24476458.363
     -3680.926       -2868.427          42.800          25.300
 18  2 21  9 33 30.0000000  0  7G05G13G07G02G09G30G06
 109738855.537 8  85510815.09646  20882616.961                    20882619.531
      1527.828        1190.765          53.300          40.600
 122957651.715 7  95811212.93744  23398071.125                    23398074.676
      3053.719        2379.613          43.600          24.300
 109593368.441 8  85397427.43946  20854917.398                    20854919.855
      -881.742        -686.827          53.100          41.400
 119793621.133 7  93345728.12045  22795981.570                    22795983.480
     -2317.687       -1805.748          43.600          30.400
 117759958.055 8  91761032.24546  22408974.984                    22408980.434
     -2749.574       -2142.376          49.000          37.700
 107590838.248 8  83837054.78447  20473851.438                    20473856.762
       860.504         670.803          53.300          43.200
 128734993.143 6 100313015.90943  24497467.273                    24497475.758
     -3681.684       -2868.770          39.500          22.800
 18  2 21  9 34  0.0000000  0  7G05G13G07G02G09G30G06
 109693252.519 8  85475280.28146  20873938.766                    20873941.441
      1512.387        1178.662          52.700          40.400
 122866110.434 7  95739882.06244  23380651.570                    23380654.984
      3049.047        2375.952          42.700          25.100
 109620058.648 8  85418224.99146  20859996.680                    20859999.246
      -897.566        -699.228          52.700          41.300
 119863330.402 7  93400046.98144  22809246.172                    22809248.570
     -2329.605       -1815.145          44.100          29.500
 117842528.852 8  91825373.08246  22424688.031                    22424693.492
     -2755.203       -2146.831          49.400          36.800
 107565290.811 8  83817147.69147  20468989.742                    20468995.203
       842.609         656.822          52.900          43.100
 128845447.136 7 100399083.85544  24518488.180                    24518495.441
     -3681.887       -2869.054          43.500          25.400
 18  2 21  9 34 30.0000000  0  7G05G13G07G02G09G30G06
 109648115.842 8  85440108.84646  20865349.781                    20865352.152
      1496.824        1166.456          53.200          40.300
 122774710.000 7  95668660.99644  23363258.977                    23363262.391
      3044.367        2372.203          43.500          25.600
 109647225.191 8  85439393.72246  20865165.813                    20865168.426
      -913.453        -711.649          52.700          40.700
 119933398.487 7  93454645.42945  22822580.688                    22822581.969
     -2341.570       -1824.506          43.800          30.200
 117925269.797 8  91889846.49446  22440432.914                    22440438.246
     -2760.770       -2151.306          48.800          36.600
 107540280.857 8  83797659.42347  20464230.328                    20464235.797
       824.777         642.800          53.300          43.600
 128955911.743 6 100485160.14144  24539507.305                    24539515.840
     -3682.199       -2869.391          40.100          24.300
 18  2 21  9 35  0.0000000  0  7G05G13G07G02G09G30G06
 109603446.274 8  85405301.39846  20856849.313                    20856851.883
      1481.113        1154.317          52.700          40.400
 122683451.181 7  95597550.21544  23345892.633                    23345895.715
      3039.406        2368.541          44.100          24.400
 109674865.758 8  85460931.82046  20870425.734                    20870428.234
      -929.305        -723.931          51.700          40.100
 120003822.652 7  93509521.36745  22835982.203                    22835983.527
     -2353.449       -1833.681          44.300          30.200
 118008179.556 8  91954451.47146  22456209.594                    22456215.316
     -2766.516       -2155.656          49.500          36.700
 107515808.294 8  83778589.89947  20459573.586                    20459578.633
       806.738         628.856          53.900          43.500
 129066383.854 7 100571242.22944  24560530.867                    24560536.648
     -3682.547       -2869.533          43.400          25.100
 18  2 21  9 35 30.0000000  0  6G05G13G07G02G09G30
 109559246.263 8  85370859.82346  20848438.602                    20848440.832
      1465.504        1142.139          53.000          40.300
 122592334.534 7  95526550.24644  23328553.273                    23328556.965
      3034.824        2364.862          44.700          25.200
 109702979.799 8  85482838.85946  20875775.859                    20875778.430
      -945.020        -736.182          51.500          40.300
 120074600.427 7  93564672.83144  22849450.266                    22849452.055
     -2365.078       -1842.799          43.600          29.500
 118091257.484 8  92019187.47446  22472019.273                    22472024.535
     -2772.094       -2159.987          50.100          36.500
 107491873.603 9  83759939.48847  20455019.422                    20455024.031
       788.883         614.913          54.200          43.500
 18  2 21  9 36  0.0000000  0  7G05G13G07G02G09G30G28
 109515517.572 8  85336785.51446  20840116.977                    20840119.340
      1449.668        1129.877          52.400          40.600
 122501360.962 7  95455661.75344  23311241.797                    23311245.852
      3029.863        2361.135          44.700          26.200
 109731565.891 8  85505113.72946  20881215.484                    20881217.836
      -960.820        -748.422          51.400          39.400
 120145729.534 7  93620098.05744  22862986.242                    22862987.270
     -2376.914       -1851.885          43.500          29.100
 118174502.837 8  92084053.94446  22487860.688                    22487866.086
     -2777.699       -2164.315          50.500          37.600
 107468477.205 9  83741708.53447  20450567.141                    20450572.383
       770.777         600.923          54.000          43.500
 127574390.833 6                  24276603.484
      3234.512                          41.500
 18  2 21  9 36 30.0000000  0  7G05G13G07G02G09G30G28
 109472262.498 8  85303080.24846  20831885.680                    20831888.848
      1433.852        1117.519          52.500          40.700
 122410532.221 7  95384886.14844  23293957.984                    23293961.301
      3025.258        2357.339          43.700          26.400
 109760623.445 8  85527755.98246  20886744.469                    20886747.188
      -976.492        -760.684          50.300          39.200
 120217207.970 7  93675795.48544  22876587.359                    22876589.324
     -2388.457       -1860.981          43.200          29.600
 118257915.270 8  92149050.61446  22503733.727                    22503738.367
     -2783.309       -2168.670          51.000          37.000
 107445619.833 9  83723897.59547  20446217.664                    20446222.070
       752.773         586.903          54.400          43.400
 127477385.397 6                  24258144.313
      3232.324                          40.200
 18  2 21  9 37  0.0000000  0  7G05G13G07G02G09G30G28
 109429482.387 8  85269745.09546  20823745.320                    20823747.824
      1418.113        1105.158          52.300          40.800
 122319848.742 7  95314223.70544  23276701.156                    23276705.676
      3020.293        2353.537          44.100          24.700
 109790150.834 8  85550764.33146  20892363.836                    20892366.285
      -992.129        -772.865          51.200          38.400
 120289032.509 7  93731762.61244  22890255.398                    22890257.199
     -2399.969       -1869.924          44.700          29.300
 118341493.560 8  92214176.52746  22519638.406                    22519642.816
     -2788.711       -2172.972          51.800          36.800
 107423301.364 9  83706506.58347  20441970.734                    20441974.848
       734.969         572.895          54.900          44.500
 127380446.364 6                  24239697.945
      3230.121                          40.800
 18  2 21  9 37 30.0000000  0  7G05G13G07G02G09G30G28
 109387177.935 8  85236780.58146  20815694.688                    20815697.715
      1402.039        1092.821          51.900          41.000
 122229310.541 7  95243674.47644  23259473.055                    23259475.816
      3015.305        2349.796          43.900          25.600
 109820146.211 8  85574137.35046  20898071.508                    20898074.105
     -1007.754        -784.956          50.200          38.900
 120361200.195 7  93787997.13244  22903988.375                    22903990.039
     -2411.500       -1878.775          42.500          29.000
 118425236.301 8  92279430.59146  22535574.023                    22535578.332
     -2794.324       -2177.210          51.600          36.800
 107401521.461 9  83689535.21947  20437826.109                    20437830.508
       716.867         558.941          54.000          44.100
 127283576.482 6                  24221262.703
      3227.629                          37.600
 18  2 21  9 38  0.0000000  0  7G05G13G07G02G09G30G28
 109345351.632 8  85204188.64546  20807735.672                    20807738.441
      1386.355        1080.348          52.500          40.500
 122138918.678 7  95173239.27444  23242271.391                    23242274.852
      3010.648        2345.960          43.900          25.500
 109850608.305 8  85597874.05146  20903868.086                    20903870.898
     -1023.090        -797.094          50.400          38.600
 120433708.502 7  93844497.07544  22917786.180                    22917787.863
     -2422.437       -1887.623          43.300          28.200
 118509142.606 8  92344812.10645  22551540.797                    22551545.008
     -2799.492       -2181.462          51.300          35.900
 107380280.286 9  83672983.65347  20433783.992                    20433788.609
       699.219         544.919          54.500          44.300
 127186778.711 6                  24202844.289
      3225.391                          37.500
 18  2 21  9 38 30.0000000  0  7G05G13G07G02G09G30G28
 109304005.003 8  85171970.47946  20799867.586                    20799870.328
      1370.180        1067.840          51.400          40.800
 122048673.615 7  95102918.44944  23225097.703                    23225102.047
      3005.723        2342.106          42.800          25.000
 109881535.691 8  85621973.33046  20909753.523                    20909756.500
     -1038.645        -809.192          51.200          38.200
 120506554.704 7  93901260.32244  22931648.344                    22931649.570
     -2433.797       -1896.398          43.100          29.200
 118593211.396 8  92410320.24045  22567538.672                    22567542.898
     -2804.937       -2185.696          51.400          35.500
 107359577.814 9  83656851.85047  20429844.875                    20429848.688
       681.133         530.913          54.900          44.000
 127090055.652 6                  24184437.938
      3222.758                          38.200
 18  2 21  9 39  0.0000000  0  7G05G13G07G02G09G30G28
 109263139.268 8  85140127.04246  20792090.992                    20792093.832
      1354.004        1055.357          52.100          40.900
 121958576.318 7  95032712.78644  23207952.953                    23207957.301
      3000.590        2338.267          42.500          26.300
 109912926.672 8  85646433.83046  20915727.250                    20915730.008
     -1054.230        -821.228          50.900          38.800
 120579735.924 7  93958284.60744  22945574.438                    22945576.215
     -2445.176       -1905.058          43.700          29.200
 118677441.920 8  92475954.39445  22583567.086                    22583571.496
     -2810.547       -2189.881          50.500          35.300
 107339414.165 9  83641139.91147  20426007.320                    20426012.105
       662.938         516.911          54.900          43.800
 126993410.006 6                  24166046.891
      3219.816                          36.900
 18  2 21  9 39 30.0000000  0  7G05G13G07G02G09G30G28
 109222756.170 8  85108659.67746  20784406.242                    20784408.938
      1337.859        1042.802          51.400          40.500
 121868627.819 7  94962623.08244  23190836.633                    23190840.066
      2995.582        2334.404          42.300          26.600
 109944780.405 8  85671254.91346  20921788.852                    20921791.973
     -1069.687        -833.226          51.400          39.200
 120653249.668 7  94015567.98944  22959564.000                    22959565.125
     -2456.215       -1913.637          42.900          29.400
 118761833.158 8  92541713.77845  22599626.539                    22599630.848
     -2816.008       -2194.022          50.500          34.200
 107319789.555 9  83625848.00447  20422273.242                    20422277.516
       644.953         502.917          55.000          43.900
 126896845.267 5                  24147670.563
      3217.121                          35.400
 18  2 21  9 40  0.0000000  0  7G05G13G07G02G09G30G28
 109182858.069 8  85077570.24246  20776814.164                    20776816.434
      1321.707        1030.179          52.300          40.900
 121778829.020 6  94892650.01644  23173748.047                    23173751.516
      2990.684        2330.510          41.800          26.300
 109977095.932 8  85696435.83446  20927938.406                    20927940.977
     -1084.961        -845.185          51.200          39.300
 120727093.370 7  94073108.51544  22973615.703                    22973617.168
     -2467.020       -1922.172          42.700          29.600
 118846384.575 8  92607597.98645  22615715.906                    22615720.598
     -2821.133       -2198.180          49.900          33.400
 107300704.279 8  83610976.35447  20418640.992                    20418645.793
       627.039         488.907          53.700          43.900
 126800364.326 6                  24129311.516
      3214.434                          36.400
 18  2 21  9 40 30.0000000  0  7G05G13G07G02G09G30G28
 109143446.066 8  85046859.58446  20769314.391                    20769316.629
      1305.648        1017.678          52.900          41.000
 121689180.195 7  94822793.79644  23156688.445                    23156692.309
      2985.801        2326.715          42.500          26.400
 110009870.973 8  85721974.81246  20934175.273                    20934177.855
     -1100.211        -856.978          51.400          40.000
 120801264.484 7  94130904.15344  22987729.742                    22987731.402
     -2477.871       -1930.540          43.700          29.500
 118931094.993 8  92673606.07345  22631835.609                    22631840.688
     -2826.270       -2202.173          48.800          33.900
 107282158.118 9  83596524.80047  20415111.844                    20415116.473
       609.125         475.029          54.600          43.700
 126703969.861 6                  24110967.414
      3211.695                          36.400
 18  2 21  9 41  0.0000000  0  7G05G13G07G02G09G30G28
 109104521.454 8  85016528.71546  20761907.234                    20761909.250
      1289.469        1004.903          53.000          41.600
 121599682.644 6  94753055.46344  23139657.023                    23139661.270
      2980.738        2322.688          41.800          25.800
 110043104.159 8  85747870.79546  20940499.352                    20940502.496
     -1115.344        -868.949          52.300          40.200
 120875760.078 7  94188952.62544  23001906.234                    23001907.738
     -2488.551       -1939.003          43.300          29.600
 119015963.609 7  92739737.43745  22647985.477                    22647990.063
     -2831.523       -2206.361          47.800          33.200
 107264151.167 9  83582493.41047  20411685.094                    20411689.785
       591.289         460.927          54.200          43.700
 126607664.370 5                  24092641.125
      3208.586                          35.900
 18  2 21  9 41 30.0000000  0  7G05G13G07G02G09G30G28
 109066086.344 8  84986579.28346  20754593.750                    20754595.637
      1272.871         992.175          53.100          40.500
 121510337.138 7  94683435.62344  23122655.570                    23122659.285
      2975.578        2318.785          42.500          26.500
 110076794.260 8  85774122.81446  20946910.445                    20946913.301
     -1130.746        -880.784          52.900          40.200
 120950577.512 7  94247251.89745  23016144.156                    23016145.473
     -2499.324       -1947.301          42.900          30.000
 119100989.499 7  92805991.34545  22664165.031                    22664170.129
     -2836.832       -2210.397          45.700          33.200
 107246683.458 8  83568882.20747  20408360.789                    20408365.512
       573.211         446.969          53.000          43.400
 126511450.901 6                  24074334.102
      3205.473                          39.700
 18  2 21  9 42  0.0000000  0  7G05G13G07G02G09G30G28
 109028142.569 8  84957012.69946  20747373.008                    20747375.199
      1256.570         979.386          53.100          40.600
 121421144.318 7  94613934.73844  23105682.922                    23105686.039
      2970.359        2314.763          42.300          26.100
 110110940.415 8  85800730.19646  20953408.406                    20953411.383
     -1145.820        -892.618          53.300          40.800
 121025714.509 7  94305800.16944  23030442.109                    23030442.754
     -2509.898       -1955.602          43.600          28.900
 119186172.084 7  92872367.34045  22680374.688                    22680380.031
     -2842.020       -2214.480          47.000          34.000
 107229755.228 8  83555691.37447  20405139.508                    20405144.539
       555.320         432.929          53.500          43.000
 126415332.871 5                  24056040.070
      3202.156                          35.000
 18  2 21  9 42 30.0000000  0  7G05G13G07G02G09G30G28
 108990691.283 8  84927829.89046  20740246.148                    20740248.539
      1239.941         966.522          53.800          40.900
 121332105.405 7  94544553.79844  23088739.578                    23088742.766
      2965.242        2310.722          43.000          26.300
 110145540.553 8  85827691.32746  20959992.273                    20959994.914
     -1161.148        -904.439          52.900          40.300
 121101168.078 7  94364595.10545  23044801.008                    23044801.391
     -2520.566       -1963.817          44.300          30.000
 119271510.316 7  92938864.63745  22696615.008                    22696619.734
     -2847.348       -2218.573          46.600          33.800
 107213366.308 8  83542920.78647  20402021.031                    20402025.711
       537.035         418.867          53.100          43.200
 126319312.896 6                  24037771.516
      3198.711                          39.500
 18  2 21  9 43  0.0000000  0  7G05G13G07G02G09G30G28
 108953734.446 8  84899032.36146  20733213.617                    20733215.996
      1223.625         953.660          52.500          40.300
 121243220.956 7  94475293.19444  23071825.352                    23071828.621
      2960.363        2306.729          42.400          25.000
 110180593.626 8  85855005.39446  20966662.563                    20966665.473
     -1175.926        -916.167          52.600          40.500
 121176935.459 7  94423634.60544  23059219.164                    23059219.977
     -2530.816       -1971.935          43.700          29.800
 119357003.319 7  93005482.51245  22712883.070                    22712888.543
     -2852.312       -2222.559          45.000          34.300
 107197516.704 8  83530570.44347  20399004.719                    20399010.207
       519.359         404.886          52.500          43.200
 126223394.060 6                  24019517.563
      3195.910                          39.200
 18  2 21  9 43 30.0000000  0  7G05G13G07G02G09G30G28
 108917273.461 8  84870621.20646  20726275.180                    20726277.461
      1206.941         940.761          51.800          40.300
 121154491.800 7  94406153.62544  23054941.023                    23054943.410
      2954.918        2302.678          43.900          26.000
 110216098.205 8  85882671.27946  20973419.164                    20973421.961
     -1191.145        -927.882          53.700          40.400
 121253014.042 7  94482916.59244  23073695.898                    23073697.363
     -2541.316       -1979.972          44.500          29.700
 119442650.353 7  93072220.40445  22729181.461                    22729186.719
     -2857.641       -2226.539          46.200          34.600
 107182206.485 8  83518640.40547  20396091.453                    20396096.484
       501.215         390.870          53.000          43.300
 126127579.069 6                  24001284.594
      3191.949                          39.700
 18  2 21  9 44  0.0000000  0  7G05G13G07G02G09G30G28
 108881309.952 8  84842597.68846  20719431.469                    20719434.598
      1190.598         927.917          51.700          40.300
 121065918.940 7  94337135.83644  23038085.992                    23038088.875
      2949.824        2298.669          43.200          25.600
 110252052.829 8  85910687.86046  20980261.039                    20980263.809
     -1205.875        -939.467          53.200          40.600
 121329401.022 7  94542438.87444  23088231.586                    23088232.836
     -2551.383       -1987.891          44.800          29.100
 119528450.451 7  93139077.59445  22745508.453                    22745513.793
     -2862.574       -2230.443          46.400          34.900
 107167435.474 8  83507130.53247  20393280.594                    20393285.938
       483.477         376.946          52.500          43.400
 126031871.092 6                  23983071.555
      3188.578                          40.900
 18  2 21  9 44 30.0000000  0  7G05G13G07G02G09G30G28
 108845845.659 8  84814963.16946  20712682.570                    20712685.383
      1173.973         914.945          51.700          39.700
 120977502.747 7  94268240.12144  23021260.266                    23021263.582
      2944.758        2294.606          43.600          25.400
 110288456.032 8  85939053.96746  20987188.469                    20987191.066
     -1220.734        -951.091          52.100          40.300
 121406094.009 7  94602199.58545  23102826.734                    23102827.227
     -2561.234       -1995.776          44.600          30.200
 119614402.938 8  93206053.50546  22761864.914                    22761870.359
     -2867.453       -2234.383          48.200          36.000
 107153203.770 8  83496040.89247  20390572.523                    20390577.582
       465.531         362.944          53.700          44.100
 125936272.924 6                  23964880.266
      3184.848                          39.900
 18  2 21  9 45  0.0000000  0  7G05G13G07G02G09G30G28
 108810881.791 8  84787718.58946  20706029.188                    20706031.852
      1157.016         901.837          51.500          40.100
 120889244.730 7  94199467.65343  23004466.336                    23004469.000
      2939.277        2290.427          43.500          23.200
 110325306.226 8  85967768.40046  20994200.438                    20994203.160
     -1235.852        -962.760          52.300          40.400
 121483089.920 7  94662196.37444  23117477.703                    23117479.426
     -2571.691       -2003.686          45.300          29.400
 119700506.848 8  93273147.42845  22778250.016                    22778255.559
     -2872.727       -2238.360          48.300          35.900
 107139511.210 9  83485371.36447  20387966.977                    20387971.742
       447.344         348.876          54.400          44.000
 125840787.604 6                  23946709.258
      3180.945                          36.900
 18  2 21  9 45 30.0000000  0  7G05G13G07G02G09G30G28
 108776420.225 8  84760865.41446  20699471.523                    20699474.090
      1140.246         888.816          51.100          39.800
 120801145.552 7  94130818.97744  22987701.219                    22987703.973
      2933.855        2286.320          43.700          25.400
 110362601.954 8  85996829.98946  21001297.875                    21001300.527
     -1250.621        -974.269          52.300          40.400
 121560386.195 7  94722427.19144  23132187.250                    23132188.262
     -2581.516       -2011.425          45.800          29.400
 119786761.225 8  93340358.58746  22794663.695                    22794668.922
     -2877.816       -2242.247          49.500          36.500
 107126357.483 8  83475121.70447  20385463.773                    20385468.898
       429.422         334.931          53.100          44.000
 125745417.805 6  97983473.80543  23928561.086                    23928566.176
      3176.980        2475.701          37.600          20.600
 18  2 21  9 46  0.0000000  0  7G05G13G07G02G09G30G28
 108742462.299 8  84734404.68746  20693009.445                    20693012.316
      1123.590         875.679          51.600          39.900
 120713205.822 7  94062294.50244  22970966.359                    22970969.426
      2928.672        2282.136          44.300          26.600
 110400341.621 8  86026237.52046  21008479.367                    21008481.840
     -1265.359        -985.835          52.800          39.900
 121637979.973 7  94782889.83444  23146953.328                    23146954.434
     -2591.352       -2019.144          46.000          29.100
 119873165.345 8  93407686.43846  22811105.766                    22811111.258
     -2882.578       -2246.161          49.600          36.400
 107113742.690 9  83465291.99847  20383063.352                    20383068.398
       411.559         320.871          54.800          44.300
 125650166.434 5  97909252.00443  23910433.828                    23910439.813
      3173.316        2472.559          34.100          19.000
 18  2 21  9 46 30.0000000  0  7G05G13G07G02G09G30G28
 108709009.508 8  84708337.57246  20686643.672                    20686646.293
      1106.539         862.572          51.700          39.900
 120625426.327 7  93993894.91244  22954263.086                    22954266.234
      2923.203        2277.978          44.500          26.200
 110438523.933 8  86055989.96446  21015745.273                    21015747.496
     -1280.184        -997.266          51.600          39.800
 121715868.514 7  94843582.15744  23161775.258                    23161775.703
     -2601.234       -2026.723          46.600          29.400
 119959718.332 8  93475130.28046  22827576.781                    22827581.730
     -2887.617       -2249.980          49.000          36.900
 107101666.572 9  83455882.03247  20380765.883                    20380770.559
       393.430         306.922          54.500          44.600
 125555036.820 5  97835125.04942  23892331.992                    23892336.902
      3168.785        2469.380          34.600          17.800
 18  2 21  9 47  0.0000000  0  7G05G13G07G02G09G30G28
 108676063.194 8  84682665.11646  20680374.156                    20680376.711
      1089.758         849.376          51.100          40.100
 120537808.005 7  93925620.90844  22937589.438                    22937592.813
      2917.898        2273.771          44.100          26.100
 110477147.388 8  86086086.16446  21023095.242                    21023098.004
     -1294.781       -1008.732          52.100          40.400
 121794049.128 7  94904502.07744  23176652.508                    23176653.559
     -2610.988       -2034.305          46.800          29.300
 120046419.273 8  93542689.40846  22844075.461                    22844080.621
     -2892.492       -2253.834          49.300          36.200
 107090128.911 8  83446891.64247  20378570.438                    20378574.770
       375.590         292.906          53.800          44.700
 125460031.708 5  97761095.12543  23874252.883                    23874258.180
      3164.715        2466.048          35.800          18.300
 18  2 21  9 47 30.0000000  0  7G05G13G07G02G09G30G28
 108643624.654 8  84657388.32546  20674201.422                    20674203.883
      1072.867         836.210          51.700          40.400
 120450351.603 7  93857473.07844  22920946.813                    22920950.410
      2912.574        2269.590          44.700          26.300
 110516210.138 8  86116524.66846  21030528.523                    21030531.188
     -1309.363       -1020.081          52.400          40.400
 121872518.786 7  94965647.23044  23191584.852                    23191585.633
     -2620.359       -2041.732          46.300          29.800
 120133267.269 8  93610363.13645  22860601.672                    22860607.148
     -2897.281       -2257.579          49.000          35.400
 107079129.489 9  83438320.66147  20376477.016                    20376481.457
       357.789         278.995          54.300          44.600
 125365153.761 5  97687164.29942  23856198.820                    23856202.945
      3160.617        2462.777          34.500          16.900
 18  2 21  9 48  0.0000000  0  7G05G13G07G02G09G30G28
 108611695.963 8  84632508.82446  20668125.383                    20668128.066
      1055.801         822.878          50.100          39.800
 120363058.052 7  93789452.13844  22904335.648                    22904338.934
      2907.043        2265.265          45.300          25.300
 110555711.202 8  86147304.70946  21038045.406                    21038047.922
     -1323.937       -1031.512          52.500          39.500
 121951275.229 7  95027015.83444  23206571.586                    23206572.340
     -2630.039       -2049.229          45.700          29.900
 120220261.863 8  93678151.08945  22877156.922                    22877161.926
     -2902.176       -2261.446          49.300          35.400
 107068668.457 9  83430169.21047  20374486.367                    20374491.137
       339.762         264.918          54.600          45.000
 125270406.315 5  97613335.16442  23838168.664                    23838173.105
      3156.133        2459.283          34.500          17.800
 18  2 21  9 48 30.0000000  0  7G05G13G07G02G09G30G28
 108580278.242 8  84608027.47646  20662146.938                    20662149.465
      1038.887         809.674          50.500          40.400
 120275928.184 7  93721558.74044  22887755.180                    22887758.340
      2901.809        2261.101          45.200          25.200
 110595648.434 8  86178424.62446  21045645.063                    21045647.633
     -1338.309       -1042.748          53.200          39.800
 122030315.296 7  95088605.43644  23221612.555                    23221613.199
     -2639.168       -2056.459          44.900          29.600
 120307401.658 7  93746052.18445  22893739.117                    22893743.883
     -2906.844       -2265.127          47.800          34.200
 107058745.054 9  83422436.69047  20372598.133                    20372602.797
       322.035         251.044          54.600          45.000
 125175791.686 5  97539609.52842  23820163.039                    23820168.996
      3151.926        2455.918          34.500          17.400
 18  2 21  9 49  0.0000000  0  7G05G13G07G02G09G30G28
 108549373.295 8  84583945.69746  20656265.805                    20656268.293
      1021.734         796.274          50.700          40.600
 120188963.274 7  93653793.88444  22871205.680                    22871209.707
      2896.156        2256.752          44.100          27.300
 110636021.085 8  86209883.82446  21053327.586                    21053330.168
     -1352.887       -1054.108          53.200          39.700
 122109636.555 7  95150414.15744  23236706.992                    23236707.734
     -2648.590       -2063.797          44.600          29.400
 120394686.397 8  93814066.24845  22910348.883                    22910353.965
     -2911.754       -2268.956          49.100          34.400
 107049359.593 9  83415123.33547  20370811.641                    20370816.953
       304.047         237.025          54.300          44.500
 125081313.572 5  97465990.26743  23802184.508                    23802190.012
      3147.230        2452.229          35.700          19.000
 18  2 21  9 49 30.0000000  0  7G05G13G07G02G09G30G28
 108518982.191 8  84560264.30846  20650482.719                    20650485.363
      1004.574         782.932          50.300          40.900
 120102163.644 7  93586157.82644  22854689.430                    22854692.336
      2890.727        2252.486          43.600          27.300
 110676826.741 8  86241680.42546  21061092.977                    21061095.957
     -1367.355       -1065.304          52.900          40.200
 122189235.789 7  95212439.49044  23251854.047                    23251854.582
     -2657.781       -2070.966          45.200          29.300
 120482114.923 7  93882192.34245  22926985.758                    22926990.949
     -2916.562       -2272.646          47.200          34.300
 107040511.482 9  83408228.70547  20369128.313                    20369133.035
       286.156         223.094          54.100          44.100
 124986974.313 6  97392479.21943  23784233.422                    23784237.773
      3142.566        2448.622          37.300          19.300
 18  2 21  9 50  0.0000000  0  7G05G13G07G02G09G30G28
 108489106.182 8  84536984.29546  20644797.555                    20644800.211
       987.148         769.553          50.900          41.100
 120015529.956 7  93518651.07644  22838203.250                    22838206.500
      2885.027        2248.187          43.700          26.500
 110718063.984 9  86273813.33146  21068940.070                    21068942.836
     -1381.852       -1076.477          54.200          40.300
 122269110.062 7  95274679.14444  23267054.008                    23267053.512
     -2667.152       -2078.064          45.000          28.700
 120569686.147 7  93950429.61845  22943650.047                    22943655.082
     -2921.543       -2276.325          47.800          33.700
 107032200.221 8  83401752.40147  20367546.273                    20367551.203
       268.031         209.166          53.500          44.100
 124892776.648 6  97319078.49743  23766308.461                    23766312.930
      3137.449        2444.936          38.300          19.000
 18  2 21  9 50 30.0000000  0  7G05G13G07G02G09G30G28
 108459746.919 8  84514106.93846  20639210.695                    20639213.414
       969.914         756.092          51.500          41.700
 119929063.204 7  93451274.41144  22821749.234                    22821752.051
      2879.379        2243.807          44.100          27.200
 110759731.635 8  86306281.61346  21076869.023                    21076872.004
     -1396.156       -1087.651          53.200          39.700
 122349257.167 7  95337131.39644  23282305.281                    23282305.406
     -2676.168       -2085.111          44.000          27.600
 120657399.525 7  94018777.65845  22960341.523                    22960345.969
     -2926.199       -2280.032          47.800          33.600
 107024425.784 9  83395694.39947  20366066.961                    20366071.965
       250.230         195.220          54.400          44.100
 124798724.242 6  97245790.97243  23748409.867                    23748414.988
      3132.602        2441.094          38.300          20.100
 18  2 21  9 51  0.0000000  0  7G05G13G07G02G09G30G28
 108430905.716 8  84491633.27646  20633722.313                    20633724.910
       952.621         742.541          51.400          41.400
 119842764.241 7  93384028.47444  22805327.281                    22805329.785
      2873.773        2239.356          45.200          28.600
 110801827.905 8  86339083.87546  21084879.828                    21084882.707
     -1410.402       -1098.818          53.600          39.500
 122429673.997 7  95399793.81144  23297608.586                    23297607.863
     -2685.094       -2092.164          44.600          29.000
 120745254.099 7  94087235.73945  22977059.492                    22977064.512
     -2930.906       -2283.759          47.900          33.200
 107017187.782 8  83390054.39847  20364689.547                    20364694.867
       232.219         181.228          53.000          44.600
 124704819.291 6  97172618.35143  23730541.383                    23730545.285
      3127.703        2437.150          40.300          21.800
 18  2 21  9 51 30.0000000  0  8G05G13G07G02G09G30G20G28
 108402583.274 8  84469563.83646  20628333.094                    20628335.832
       935.406         729.099          52.000          41.600
 119756633.570 7  93316913.67344  22788936.789                    22788939.605
      2868.191        2235.023          45.000          28.500
 110844350.797 8  86372218.58746  21092971.352                    21092974.305
     -1424.574       -1109.861          53.700          40.200
 122510357.188 7  95462663.81044  23312962.023                    23312961.695
     -2693.945       -2099.029          44.600          27.800
 120833248.753 7  94155802.96145  22993804.500                    22993809.516
     -2935.492       -2287.337          47.800          33.100
 107010485.540 8  83384831.87347  20363414.148                    20363419.012
       214.430         167.347          53.500          44.100
 128394886.065 6 100047952.08443  24432728.852                    24432730.871
      3555.680        2770.829          40.200          19.600
 124611064.629 6  97099562.78743  23712700.484                    23712703.547
      3122.660        2433.286          40.300          20.900
 18  2 21  9 52  0.0000000  0  8G05G13G07G02G09G30G20G28
 108374780.836 8  84447899.60146  20623042.313                    20623044.973
       918.121         715.612          52.200          41.600
 119670671.892 7  93249930.57844  22772579.344                    22772582.027
      2862.652        2230.656          44.800          28.500
 110887298.483 8  86405684.30146  21101144.016                    21101147.000
     -1438.547       -1120.830          53.000          40.200
 122591303.687 7  95525738.99144  23328365.133                    23328365.000
     -2702.504       -2105.788          44.100          27.900
 120921382.334 7  94224478.43745  23010575.641                    23010580.598
     -2940.023       -2290.911          47.500          34.100
 107004318.370 8  83380026.28747  20362240.586                    20362245.875
       196.816         153.472          53.700          44.200
 128288279.369 6  99964881.88743  24412440.078                    24412446.336
      3551.250        2767.296          39.500          20.400
 124517462.817 6  97026626.38543  23694888.070                    23694891.762
      3117.555        2429.272          41.200          21.800
 18  2 21  9 52 30.0000000  0  8G05G13G07G02G09G30G20G28
 108347500.716 8  84426642.35046  20617851.148                    20617853.660
       900.547         701.951          52.100          41.400
 119584880.843 7  93183080.43244  22756253.883                    22756255.918
      2856.727        2226.159          44.800          28.500
 110930670.138 8  86439480.37846  21109397.227                    21109400.500
     -1452.949       -1131.897          52.700          40.400
 122672511.537 7  95589017.80144  23343818.461                    23343818.309
     -2711.375       -2112.597          45.600          28.500
 121009654.932 7  94293262.23345  23027373.453                    23027378.418
     -2944.934       -2294.577          47.600          33.200
 106998686.868 8  83375638.10147  20361168.891                    20361173.941
       178.629         139.492          53.400          44.000
 128181810.253 6  99881918.98042  24392177.563                    24392185.117
      3546.289        2763.600          36.100          17.400
 124424018.038 7  96953812.34043  23677106.531                    23677109.727
      3112.012        2425.092          42.400          22.500
 18  2 21  9 53  0.0000000  0  8G05G13G07G02G09G30G20G28
 108320744.259 8  84405793.17146  20612759.484                    20612762.277
       883.074         688.412          51.700          41.600
 119499261.088 7  93116363.74944  22739960.617                    22739963.113
      2851.031        2221.744          46.400          28.700
 110974464.226 8  86473605.62446  21117731.414                    21117734.387
     -1466.867       -1142.776          53.700          40.100
 122753977.931 7  95652498.05344  23359321.266                    23359321.094
     -2719.910       -2119.214          43.800          26.000
 121098065.547 7  94362153.58045  23044197.195                    23044202.098
     -2949.355       -2298.083          47.600          33.800
 106993590.465 8  83371666.87547  20360199.148                    20360204.059
       160.859         125.684          53.100          43.800
 128075481.128 6  99799065.10843  24371946.406                    24371951.078
      3541.848        2760.057          39.200          19.300
 124330732.658 6  96881122.48043  23659354.773                    23659358.840
      3106.707        2420.974          41.400          22.600
 18  2 21  9 53 30.0000000  0  8G05G13G07G02G09G30G20G28
 108294512.814 8  84385353.07646  20607767.656                    20607770.570
       865.629         674.706          52.700          40.700
 119413813.715 7  93049781.40844  22723700.641                    22723702.680
      2845.430        2217.213          46.200          28.500
 111018679.335 8  86508058.96746  21126145.219                    21126148.277
     -1480.793       -1153.756          53.100          40.300
 122835700.281 7  95716177.75844  23374872.258                    23374872.379
     -2728.277       -2125.886          44.100          27.500
 121186613.652 8  94431152.06045  23061047.523                    23061052.281
     -2953.844       -2301.689          48.000          33.600
 106989028.990 8  83368112.48047  20359330.992                    20359336.664
       143.195         111.741          52.200          44.100
 127969294.604 5  99716322.35142  24351737.758                    24351743.426
      3537.297        2756.236          35.300          16.300
 124237609.911 7  96808559.35743  23641634.055                    23641637.902
      3101.484        2416.709          42.600          23.600
 18  2 21  9 54  0.0000000  0  8G05G13G07G02G09G30G20G28
 108268807.812 8  84365323.20246  20602876.195                    20602878.578
       848.266         661.010          50.000          41.300
 119328539.456 7  92983333.94544  22707473.820                    22707475.395
      2839.805        2212.693          46.800          29.500
 111063313.563 8  86542838.86946  21134639.281                    21134642.012
     -1494.566       -1164.599          50.000          40.400
 122917675.575 7  95780054.57944  23390471.828                    23390472.246
     -2736.492       -2132.432          44.500          25.800
 121275298.227 7  94500256.88945  23077923.555                    23077928.422
     -2958.242       -2305.244          47.300          33.800
 106985001.894 8  83364974.48647  20358565.047                    20358569.938
       125.434          97.849          51.300          43.900
 127863252.792 6  99633692.38643  24331561.445                    24331564.047
      3532.547        2752.480          39.400          18.600
 124144652.909 6  96736125.39543  23623945.195                    23623948.988
      3096.082        2412.333          41.700          22.900
 18  2 21  9 54 30.0000000  0  8G05G13G07G02G09G30G20G28
 108243630.306 8  84345704.35946  20598084.703                    20598087.559
       830.383         647.361          50.400          40.900
 119243439.085 7  92917021.99744  22691279.594                    22691281.738
      2833.723        2208.225          46.100          29.200
 111108365.105 8  86577943.96146  21143212.055                    21143215.023
     -1508.691       -1175.365          51.800          40.000
 122999900.947 7  95844126.26344  23406118.203                    23406118.551
     -2745.047       -2138.827          44.700          26.600
 121364118.433 7  94569467.39845  23094825.688                    23094830.184
     -2962.906       -2308.691          47.700          34.200
 106981508.685 8  83362252.49847  20357900.008                    20357904.887
       107.531          84.058          51.700          44.000
 127757358.085 6  99551176.93942  24311408.242                    24311412.559
      3527.273        2748.679          36.600          17.800
 124051863.865 7  96663822.29944  23606288.180                    23606291.582
      3090.047        2407.970          43.900          24.200
 18  2 21  9 55  0.0000000  0  8G05G13G07G02G09G30G20G28
 108218981.109 8  84326497.19146  20593394.297                    20593396.625
       812.848         633.611          51.000          40.700
 119158513.268 7  92850846.04944  22675119.063                    22675121.113
      2827.953        2203.678          45.300          29.700
 111153832.275 8  86613372.93146  21151864.461                    21151867.449
     -1522.410       -1186.163          51.300          39.900
 123082373.287 7  95908390.37344  23421811.742                    23421813.273
     -2753.207       -2145.206          43.300          27.800
 121453073.240 7  94638782.81145  23111753.328                    23111757.859
     -2967.375       -2312.175          47.300          33.700
 106978548.689 8  83359946.01447  20357336.523                    20357342.215
        89.813          70.213          51.600          43.700
 127651612.258 6  99468777.72642  24291286.953                    24291289.875
      3522.273        2744.747          36.000          17.800
 123959245.792 7  96591652.43744  23588662.469                    23588667.348
      3084.285        2403.506          42.900          25.100
 18  2 21  9 55 30.0000000  0  8G05G13G07G02G09G30G20G28
 108194861.633 8  84307702.78146  20588804.469                    20588807.434
       795.105         619.838          52.100          40.500
 119073763.125 7  92784806.99244  22658991.281                    22658993.438
      2822.074        2199.121          46.900          29.900
 111199713.643 8  86649124.64746  21160595.219                    21160598.250
     -1536.254       -1196.883          52.000          40.500
 123165089.755 7  95972844.69644  23437552.641                    23437554.324
     -2761.148       -2151.485          42.600          26.500
 121542161.948 8  94708202.54545  23128707.078                    23128710.977
     -2971.859       -2315.651          49.100          34.000
 106976121.557 8  83358054.73947  20356874.781                    20356880.297
        72.117          56.394          51.500          43.900
 127546018.252 6  99386496.61943  24271193.781                    24271196.938
      3517.273        2740.796          38.700          20.600
 123866801.980 7  96519618.36643  23571072.133                    23571075.086
      3078.406        2398.948          43.000          23.300
 18  2 21  9 56  0.0000000  0  8G05G13G07G02G09G30G20G28
 108171273.463 8  84289322.38746  20584315.789                    20584318.477
       777.578         606.025          48.900          40.500
 118989189.481 7  92718905.46845  22642897.516                    22642899.949
      2816.352        2194.496          46.300          30.200
 111246007.545 8  86685197.81246  21169404.461                    21169407.395
     -1549.781       -1207.580          49.100          39.600
 123248047.346 7  96037486.92744  23453338.930                    23453341.000
     -2769.094       -2157.732          43.000          26.500
 121631383.859 7  94777726.08245  23145684.844                    23145689.199
     -2976.117       -2319.115          47.200          34.100
 106974226.892 8  83356578.37347  20356514.211                    20356519.703
        54.508          42.560          50.700          43.800
 127440578.216 5  99304335.63743  24251128.016                    24251132.680
      3512.313        2736.755          34.900          19.000
 123774534.973 6  96447722.06544  23553514.109                    23553516.938
      3072.848        2394.283          41.600          24.600
 18  2 21  9 56 30.0000000  0  8G05G13G07G02G09G30G20G28
 108148217.641 8  84271356.80246  20579928.453                    20579931.164
       759.539         592.130          50.400          41.100
 118904793.181 7  92653142.12645  22626837.398                    22626839.523
      2810.145        2189.860          46.100          30.200
 111292712.164 8  86721591.02346  21178292.000                    21178295.184
     -1563.742       -1218.287          51.800          39.800
 123331243.858 7  96102315.34644  23469170.414                    23469172.438
     -2777.297       -2163.945          44.300          26.000
 121720738.109 8  94847352.73245  23162688.633                    23162693.313
     -2980.758       -2322.569          48.000          34.600
 106972864.180 8  83355516.52647  20356254.719                    20356260.098
        36.500          28.679          51.700          44.000
 127335294.525 6  99222296.38643  24231093.336                    24231098.234
      3506.785        2732.660          37.900          20.600
 123682447.758 6  96375965.85343  23535989.859                    23535993.699
      3066.344        2389.552          41.800          23.600
 18  2 21  9 57  0.0000000  0  8G05G13G07G02G09G30G20G28
 108125695.677 8  84253807.21246  20575642.719                    20575645.625
       741.828         578.245          51.900          40.900
 118820574.892 7  92587517.49144  22610810.938                    22610813.746
      2804.340        2185.227          46.000          29.600
 111339825.964 8  86758303.05746  21187257.859                    21187260.820
     -1577.305       -1228.901          52.100          39.800
 123414675.992 7  96167327.35744  23485046.578                    23485049.047
     -2784.812       -2170.030          43.300          26.200
 121810223.868 8  94917081.85045  23179717.117                    23179722.141
     -2985.008       -2325.966          49.700          34.000
 106972032.816 8  83354868.70847  20356096.898                    20356102.191
        18.949          14.913          53.900          43.800
 127230169.148 6  99140380.53243  24211090.563                    24211093.102
      3501.477        2728.474          38.300          20.600
 123590543.563 6  96304352.25044  23518500.984                    23518504.855
      3060.371        2384.758          41.900          24.900
 18  2 21  9 57 30.0000000  0  8G05G13G07G02G09G30G20G28
 108103708.051 8  84236673.99046  20571458.578                    20571461.488
       723.918         564.404          51.400          41.300
 118736535.577 7  92522032.32244  22594819.023                    22594821.617
      2798.227        2180.608          44.700          29.400
 111387347.165 8  86795332.56846  21196300.758                    21196303.422
     -1590.922       -1239.411          52.300          39.700
 123498340.792 7  96232520.65644  23500967.570                    23500970.664
     -2792.766       -2175.991          43.400          25.800
 121899840.281 8  94986912.77745  23196770.297                    23196775.453
     -2989.457       -2329.316          48.000          33.700
 106971732.272 8  83354634.51547  20356039.844                    20356044.867
         1.059           1.164          53.400          44.100
 127125205.168 6  99058590.41143  24191115.570                    24191118.730
      3496.012        2724.300          39.200          21.300
 123498825.412 6  96232883.61243  23501047.531                    23501051.777
      3054.086        2379.922          40.800          22.900
 18  2 21  9 58  0.0000000  0  8G05G13G07G02G09G30G20G28
 108082256.297 8  84219958.33546  20567376.469                    20567379.285
       706.145         550.424          52.200          41.100
 118652675.973 7  92456687.19145  22578861.266                    22578863.633
      2792.285        2175.903          45.800          30.700
 111435273.987 8  86832678.13746  21205421.172                    21205423.984
     -1604.316       -1249.950          52.200          39.900
 123582235.438 7  96297893.04344  23516932.977                    23516935.242
     -2800.305       -2181.951          43.600          24.600
 121989586.556 7  95056844.88245  23213848.094                    23213853.902
     -2993.715       -2332.710          47.000          33.400
 106971961.945 8  83354813.48547  20356083.484                    20356088.430
       -16.410         -12.631          53.600          43.900
 127020404.541 6  98976927.61043  24171172.656                    24171175.137
      3490.637        2720.015          38.500          20.400
 123407295.867 6  96161561.96244  23483630.422                    23483633.711
      3047.824        2374.997          41.900          24.000
 18  2 21  9 58 30.0000000  0  8G05G13G07G02G09G30G20G28
 108061341.677 8  84203661.22546  20563396.656                    20563399.250
       688.188         536.486          51.700          41.300
 118568997.299 7  92391483.03545  22562937.570                    22562939.922
      2786.313        2171.171          44.500          30.100
 111483605.001 8  86870338.69046  21214618.133                    21214620.918
     -1617.703       -1260.423          51.900          40.200
 123666357.044 7  96363442.27843  23532940.664                    23532943.211
     -2807.687       -2187.784          43.400          23.300
 122079461.966 7  95126877.62245  23230951.289                    23230956.996
     -2997.859       -2336.032          45.600          32.200
 106972721.353 8  83355405.22847  20356227.844                    20356232.898
       -34.035         -26.369          52.300          44.200
 126915769.667 6  98895393.96443  24151262.328                    24151264.469
      3485.031        2715.688          40.900          19.900
 123315957.596 6  96090389.31343  23466248.914                    23466253.309
      3041.555        2370.015          40.200          22.500
 18  2 21  9 59  0.0000000  0  8G05G13G07G02G09G30G20G28
 108040965.323 8  84187783.54446  20559519.414                    20559521.801
       669.969         522.509          52.700          41.800
 118485500.534 7  92326420.61444  22547048.234                    22547051.234
      2779.813        2166.470          45.400          29.500
 111532338.972 8  86908313.20846  21223891.930                    21223894.438
     -1631.437       -1270.847          52.800          40.100
 123750703.114 7  96429166.44144  23548991.094                    23548992.887
     -2815.598       -2193.598          42.700          24.000
 122169465.770 7  95197010.38645  23248077.953                    23248083.273
     -3002.586       -2339.350          44.700          32.600
 106974009.975 8  83356409.35647  20356472.773                    20356478.020
       -52.047         -40.101          51.600          43.600
 126811302.664 6  98813991.12443  24131381.969                    24131384.758
      3479.090        2711.281          40.400          20.400
 123224813.883 6  96019368.31743  23448904.383                    23448907.961
      3034.453        2364.896          40.500          22.000
 18  2 21  9 59 30.0000000  0  8G05G13G07G02G09G30G20G28
 108021128.171 8  84172326.01946  20555744.328                    20555746.785
       652.223         508.438          52.100          40.900
 118402185.896 7  92261500.12244  22531193.578                    22531196.895
      2774.160        2161.700          45.000          29.400
 111581473.205 8  86946599.61546  21233241.883                    21233244.203
     -1644.461       -1281.265          53.100          39.700
 123835270.309 7  96495062.91244  23565083.992                    23565085.156
     -2822.539       -2199.343          43.600          25.800
 122259596.922 7  95267242.37745  23265230.039                    23265234.996
     -3006.465       -2342.704          45.300          31.900
 106975826.959 8  83357825.18447  20356818.883                    20356824.145
       -69.406         -53.859          52.100          43.900
 126707006.535 6  98732721.42143  24111535.102                    24111537.488
      3473.609        2706.808          39.900          19.300
 123133867.341 6  95948500.90743  23431598.258                    23431601.242
      3028.293        2359.707          41.400          22.800
                            4  1
RINEX FILE SPLICE; other post-header comments skipped       COMMENT
 18  2 21 10  0  0.0000000  0  8G05G13G07G02G09G30G20G28
 108001831.260 8  84157289.45946  20552072.180                    20552074.605
       634.246                          52.500          41.600
 118319054.510 7  92196722.43644  22515374.477                    22515377.328
      2768.016                          45.800          29.700
 111631006.437 8  86985196.93046  21242667.867                    21242670.125
     -1657.742                          53.300          40.600
 123920055.912 7  96561129.55444  23581219.273                    23581218.965
     -2829.785                          44.100          25.200
 122349854.777 7  95337573.10945  23282405.203                    23282410.727
     -3010.715                          46.100          31.800
 106978171.813 8  83359652.34547  20357264.711                    20357270.227
       -86.945                          51.600          44.400
 126602883.316 7  98651586.49743  24091721.789                    24091722.402
      3467.699                          42.300          20.400
 123043121.054 7  95877789.58043  23414330.109                    23414333.305
      3021.508                          42.000          22.800
 18  2 21 10  0 30.0000000  0  8G05G13G07G02G09G30G20G28
 107983076.011 8  84142674.96946  20548503.109                    20548505.996
       616.082         480.341          52.800          41.400
 118236107.471 7  92132088.38545  22499590.492                    22499593.324
      2761.746        2152.156          45.900          30.200
 111680936.975 8  87024103.83746  21252169.391                    21252171.566
     -1671.004       -1301.873          53.200          40.400
 124005056.960 7  96627364.08944  23597393.391                    23597393.633
     -2836.980       -2210.496          44.200          24.200
 122440238.429 7  95408001.87845  23299604.508                    23299610.098
     -3014.980       -2349.204          45.000          31.800
 106981043.833 8  83361890.27947  20357811.422                    20357816.648
      -104.598         -81.223          52.100          44.100
 126498935.402 6  98570588.08343  24071939.508                    24071942.355
      3461.930        2697.715          39.500          19.900
 122952577.765 6  95807236.40843  23397099.875                    23397103.340
      3014.590        2349.172          41.700          22.600
 18  2 21 10  1  0.0000000  0  8G05G13G07G02G09G30G20G28
 107964863.440 8  84128483.35246  20545037.742                    20545040.063
       598.012         466.246          52.800          41.900
 118153345.311 7  92067598.39144  22483841.289                    22483844.219
      2755.590        2147.345          45.500          29.900
 111731263.028 8  87063318.93946  21261746.047                    21261748.039
     -1684.172       -1312.118          53.800          40.300
 124090270.596 7  96693764.26543  23613609.555                    23613609.184
     -2844.016       -2215.963          43.900          23.300
 122530747.298 7  95478528.20545  23316828.211                    23316833.219
     -3019.117       -2352.439          45.700          31.400
 106984442.503 8  83364538.60647  20358458.305                    20358463.668
      -122.098         -94.886          52.300          44.000
 126395165.115 6  98489728.17643  24052193.930                    24052195.691
      3456.000        2693.077          40.900          20.400
 122862240.625 7  95736843.88543  23379909.352                    23379912.445
      3007.590        2343.778          42.300          23.000
 18  2 21 10  1 30.0000000  0  8G05G13G07G02G09G30G20G28
 107947194.198 8  84114715.12246  20541675.484                    20541677.883
       580.020         452.111          52.500          41.800
 118070769.103 7  92003253.30545  22468127.070                    22468130.484
      2749.609        2142.510          45.700          31.200
 111781982.838 8  87102840.86346  21271397.680                    21271399.855
     -1697.117       -1322.326          53.000          40.600
 124175693.824 7  96760327.76043  23629865.734                    23629864.035
     -2850.711       -2221.404          43.800          22.900
 122621380.280 7  95549151.26944  23334075.578                    23334080.406
     -3022.941       -2355.644          46.700          29.600
 106988366.933 8  83367596.60347  20359205.180                    20359210.438
      -139.344        -108.530          52.500          43.800
 126291574.991 7  98409008.56143  24032481.750                    24032483.258
      3450.164        2688.374          42.400          21.100
 122772112.156 6  95666613.93643  23362758.469                    23362761.453
      3000.941        2338.349          41.500          22.800
 18  2 21 10  2  0.0000000  0  8G05G13G07G02G09G30G20G28
 107930069.784 8  84101371.40746  20538416.555                    20538419.035
       561.719         437.935          51.900          41.300
 117988379.929 7  91939053.96545  22452449.398                    22452452.426
      2743.156        2137.615          45.400          30.200
 111833094.711 8  87142668.27946  21281123.742                    21281126.102
     -1710.219       -1332.509          53.200          40.600
 124261324.006 7  96827052.53144  23646160.695                    23646159.664
     -2857.762       -2226.729          43.000          24.800
 122712136.854 7  95619870.65045  23351346.156                    23351350.109
     -3027.227       -2358.864          46.500          30.100
 106992816.627 8  83371063.89547  20360052.031                    20360056.941
      -157.148        -122.170          51.900          44.300
 126188167.379 6  98328431.24743  24012803.180                    24012805.781
      3443.789        2683.574          40.700          20.900
 122682195.346 7  95596548.94043  23345648.195                    23345651.023
      2993.613        2332.798          43.100          22.300
 18  2 21 10  2 30.0000000  0  8G05G13G07G02G09G30G20G28
 107913490.715 8  84088452.64746  20535261.563                    20535264.070
       543.906         423.799          52.100          41.000
 117906178.195 7  91875000.68745  22436806.977                    22436810.156
      2737.207        2132.755          45.800          31.500
 111884597.042 9  87182799.95646  21290924.320                    21290926.852
     -1722.953       -1342.583          54.100          40.200
 124347158.144 7  96893936.21044  23662494.133                    23662492.941
     -2864.152       -2231.965          42.400          24.700
 122803016.070 7  95690685.56244  23368639.539                    23368644.258
     -3031.094       -2362.026          47.000          29.200
 106997790.719 8  83374939.80847  20360998.531                    20361003.594
      -174.238        -135.740          53.600          43.900
 126084944.625 6  98247997.94843  23993161.539                    23993162.988
      3437.918        2678.766          41.400          21.500
 122592493.103 7  95526651.11143  23328577.336                    23328580.676
      2986.730        2327.230          43.200          22.200
 18  2 21 10  3  0.0000000  0  8G05G13G07G02G09G30G20G28
 107897458.608 8  84075960.10046  20532210.625                    20532213.738
       525.570         409.549          51.300          41.200
 117824165.095 7  91811094.39045  22421200.789                    22421204.117
      2730.871        2127.842          45.600          30.900
 111936488.063 8  87223234.50446  21300798.648                    21300801.367
     -1735.945       -1352.685          52.900          39.600
 124433193.175 7  96960976.45544  23678865.992                    23678864.738
     -2870.906       -2237.179          42.600          24.400
 122894017.210 7  95761595.51644  23385956.750                    23385960.695
     -3035.082       -2365.168          47.800          28.400
 107003288.617 8  83379223.89147  20362044.789                    20362049.746
      -191.723        -149.380          53.100          44.500
 125981909.454 6  98167710.80643  23973553.430                    23973556.305
      3431.637        2673.867          41.800          22.800
 122503008.510 7  95456922.91343  23311549.469                    23311552.703
      2979.465        2321.529          42.600          23.300
 18  2 21 10  3 30.0000000  0  8G05G13G07G02G09G30G20G28
 107881974.032 8  84063894.18846  20529264.398                    20529266.984
       507.035         395.341          52.400          41.600
 117742341.552 7  91747335.78845  22405630.156                    22405633.246
      2724.270        2122.934          45.600          31.200
 111988765.967 8  87263970.51646  21310746.391                    21310749.570
     -1749.023       -1362.684          52.200          39.000
 124519426.076 6  97028170.86544  23695275.211                    23695275.188
     -2877.637       -2242.248          41.600          24.400
 122985139.473 7  95832599.84944  23403296.352                    23403300.789
     -3039.422       -2368.297          47.300          28.900
 107009309.491 8  83383915.47347  20363190.531                    20363195.586
      -209.375        -162.903          53.400          44.300
 125879064.150 6  98087571.60543  23953982.047                    23953986.168
      3425.000        2668.952          39.300          22.000
 122413744.434 7  95387366.48343  23294563.820                    23294566.438
      2971.750        2315.776          44.800          22.900
 18  2 21 10  4  0.0000000  0  8G05G13G07G02G09G30G20G28
 107867038.233 8  84052255.90046  20526422.078                    20526424.547
       488.734         381.044          51.200          41.000
 117660708.539 7  91683725.66745  22390095.953                    22390099.277
      2717.957        2117.958          47.000          32.700
 112041429.292 8  87305006.84946  21320767.836                    21320770.984
     -1761.793       -1372.690          50.700          39.400
 124605854.358 7  97095517.50343  23711722.523                    23711722.070
     -2884.043       -2247.297          42.000          23.800
 123076382.257 7  95903698.07144  23420659.383                    23420664.402
     -3043.332       -2371.417          46.600          28.400
 107015852.839 8  83389014.19147  20364435.570                    20364440.813
      -226.734        -176.499          53.600          45.200
 125776411.063 6  98007582.22243  23934447.945                    23934451.426
      3418.543        2663.900          41.100          22.500
 122324703.710 7  95317984.14144  23277618.875                    23277622.699
      2964.359        2309.933          43.100          24.600
 18  2 21 10  4 30.0000000  0  8G05G13G07G02G09G30G20G28
 107852652.002 8  84041045.84346  20523684.289                    20523686.801
       470.430         366.790          50.900          41.300
 117579266.586 7  91620264.41745  22374598.234                    22374601.422
      2711.574        2112.997          47.300          31.600
 112094475.896 8  87346341.85746  21330862.578                    21330865.820
     -1774.527       -1382.593          50.100          38.800
 124692474.898 6  97163013.97043  23728205.922                    23728205.867
     -2890.430       -2252.243          41.300          22.900
 123167744.532 7  95974889.42544  23438044.625                    23438049.883
     -3047.312       -2374.504          46.000          27.800
 107022917.600 8  83394519.19847  20365780.188                    20365785.418
      -244.156        -190.008          53.200          44.100
 125673952.624 6  97927744.49343  23914950.906                    23914954.438
      3412.055        2658.846          39.900          21.800
 122235888.950 7  95248777.88544  23260718.617                    23260721.926
      2956.742        2304.041          44.100          24.600
 18  2 21 10  5  0.0000000  0  8G05G13G07G02G09G30G20G28
 107838816.606 8  84030265.01846  20521051.688                    20521054.301
       451.977         352.466          51.000          41.000
 117498016.888 7  91556952.97445  22359136.648                    22359140.074
      2705.102        2107.971          45.600          32.500
 112147904.145 8  87387974.24046  21341029.039                    21341032.609
     -1787.281       -1392.481          50.300          38.300
 124779285.022 6  97230658.18843  23744725.148                    23744726.297
     -2896.871       -2257.141          40.600          22.800
 123259225.691 7  96046173.38344  23455452.820                    23455458.652
     -3051.391       -2377.614          45.300          28.600
 107030503.155 8  83400430.01747  20367223.758                    20367229.027
      -261.602        -203.541          51.800          44.400
 125571691.423 6  97848060.45143  23895491.180                    23895494.930
      3405.227        2653.663          40.400          21.800
 122147303.561 7  95179750.34344  23243861.188                    23243864.965
      2948.910        2298.035          44.300          26.000
 18  2 21 10  5 30.0000000  0  8G05G13G07G02G09G30G20G28
 107825532.728 8  84019913.93346  20518523.336                    20518526.309
       433.715         338.120          51.500          41.200
 117416960.424 7  91493792.11145  22343712.516                    22343715.645
      2698.695        2102.940          47.400          33.100
 112201712.378 8  87429902.72646  21351268.617                    21351272.172
     -1799.746       -1402.359          49.200          38.400
 124866281.713 6  97298447.71843  23761279.992                    23761281.398
     -2902.949       -2261.959          39.100          22.800
 123350824.951 7  96117549.37344  23472884.117                    23472889.699
     -3055.164       -2380.661          45.300          29.300
 107038608.734 8  83406746.05247  20368765.977                    20368770.734
      -278.715        -217.045          53.000          44.500
 125469630.082 6  97768532.15843  23876070.492                    23876073.551
      3398.832        2648.423          41.500          21.800
 122058949.993 7  95110903.45444  23227048.281                    23227051.688
      2941.262        2291.957          44.600          25.600
 18  2 21 10  6  0.0000000  0  8G05G13G07G02G09G30G20G28
 107812801.304 8  84009993.34046  20516101.297                    20516103.746
       415.309         323.777          52.700          41.200
 117336097.622 7  91430782.14345  22328324.375                    22328327.750
      2692.266        2097.937          47.500          32.300
 112255898.807 8  87472125.90346  21361579.781                    21361583.574
     -1812.449       -1412.139          50.200          38.200
 124953462.160 6  97366380.49943  23777869.977                    23777871.652
     -2908.883       -2266.698          39.400          23.300
 123442541.434 7  96189016.71144  23490336.875                    23490343.090
     -3059.051       -2383.671          46.300          29.100
 107047233.403 9  83413466.57547  20370407.297                    20370412.184
      -296.047        -230.488          54.600          45.000
 125367770.882 7  97689161.35843  23856686.430                    23856690.715
      3391.875        2643.186          42.000          22.200
 121970831.334 7  95042239.59344  23210280.016                    23210283.125
      2933.398        2285.858          45.200          25.700
 18  2 21 10  6 30.0000000  0  8G05G13G07G02G09G30G20G28
 107800623.340 8  84000504.01346  20513783.867                    20513786.547
       396.836         309.338          52.500          40.900
 117255429.559 8  91367923.93345  22312973.695                    22312976.480
      2685.840        2092.778          48.600          31.800
 112310461.794 8  87514642.50946  21371962.961                    21371966.305
     -1824.895       -1421.976          50.700          37.300
 125040823.397 6  97434454.12044  23794492.852                    23794496.449
     -2914.918       -2271.418          38.400          25.100
 123534374.564 7  96260574.95144  23507812.422                    23507817.637
     -3062.758       -2386.753          45.200          28.900
 107056376.529 9  83420591.08747  20372147.422                    20372152.375
      -313.254        -244.010          54.900          44.800
 125266116.200 6  97609949.92843  23837342.133                    23837345.414
      3385.348        2637.773          41.700          21.300
 121882950.467 7  94973761.03144  23193556.570                    23193559.324
      2925.516        2279.574          45.300          26.200
 18  2 21 10  7  0.0000000  0  8G05G13G07G02G09G30G20G28
 107788998.919 8  83991446.01846  20511571.578                    20511574.254
       378.254         294.991          52.300          41.100
 117174957.341 7  91305218.32645  22297661.180                    22297663.660
      2679.047        2087.747          47.900          32.200
 112365399.210 8  87557450.87346  21382417.297                    21382419.922
     -1837.465       -1431.600          50.000          37.500
 125128361.835 6  97502665.79043  23811151.102                    23811154.836
     -2920.840       -2275.888          38.800          22.200
 123626323.240 7  96332223.18444  23525309.844                    23525315.613
     -3066.855       -2389.710          44.300          28.300
 107066036.935 9  83428118.67847  20373985.766                    20373990.250
      -330.605        -257.387          55.000          44.700
 125164668.571 7  97530899.83543  23818037.578                    23818040.848
      3378.047        2632.396          42.900          21.300
 121795309.942 7  94905469.75044  23176879.367                    23176881.742
      2917.281        2273.363          45.200          27.400
 18  2 21 10  7 30.0000000  0  8G05G13G07G02G09G30G20G28
 107777929.748 8  83982820.68546  20509465.227                    20509468.262
       359.547         280.514          52.200          40.800
 117094681.868 8  91242666.03045  22282385.102                    22282387.512
      2672.477        2082.561          48.400          32.400
 112420709.482 8  87600549.78646  21392942.258                    21392945.594
     -1849.883       -1441.309          50.500          37.300
 125216075.385 6  97571013.95543  23827843.742                    23827846.277
     -2926.719       -2280.442          40.400          23.200
 123718386.923 7  96403961.06744  23542828.594                    23542834.578
     -3070.789       -2392.730          44.900          28.300
 107076214.033 9  83436048.87647  20375922.492                    20375926.926
      -347.895        -270.844          54.600          44.600
 125063430.376 7  97452012.92443  23798771.391                    23798774.586
      3370.883        2626.916          42.100          20.900
 121707912.791 7  94837368.12844  23160247.695                    23160251.066
      2909.023        2266.951          44.700          27.900
 18  2 21 10  8  0.0000000  0  8G05G13G07G02G09G30G20G28
 107767416.436 8  83974628.49546  20507464.352                    20507467.434
       341.066         266.063          51.200          41.600
 117014603.969 7  91180267.66945  22267146.555                    22267148.992
      2665.773        2077.429          47.800          32.400
 112476390.887 8  87643937.88646  21403537.977                    21403541.621
     -1862.328       -1450.923          50.000          37.700
 125303960.824 6  97639496.06043  23844567.883                    23844570.551
     -2932.391       -2284.893          41.400          23.500
 123810564.719 7  96475787.84744  23560370.125                    23560375.125
     -3074.719       -2395.685          44.400          28.100
 107086906.768 9  83444380.87847  20377957.141                    20377961.637
      -365.227        -284.230          54.000          44.300
 124962403.889 7  97373291.02743  23779547.547                    23779550.141
      3363.871        2621.361          42.200          22.300
 121620761.853 7  94769458.35644  23143664.063                    23143666.355
      2900.719        2260.502          46.400          28.700
 18  2 21 10  8 30.0000000  0  8G05G13G07G02G09G30G20G28
 107757459.627 8  83966869.93646  20505569.531                    20505572.668
       322.727         251.646          52.100          41.400
 116934724.102 7  91118023.62945  22251945.805                    22251948.492
      2659.449        2072.302          46.800          31.800
 112532441.456 8  87687613.64246  21414204.672                    21414207.617
     -1874.363       -1460.484          51.300          38.000
 125392015.573 6  97708110.11544  23861323.359                    23861325.961
     -2937.867       -2289.245          40.400          25.400
 123902855.851 7  96547702.95744  23577932.008                    23577937.949
     -3078.098       -2398.556          42.900          26.200
 107098114.270 9  83453113.99747  20380089.820                    20380094.887
      -381.980        -297.544          54.300          44.100
 124861592.083 7  97294736.36743  23760363.539                    23760364.949
      3356.926        2615.773          42.300          22.000
 121533859.748 7  94701742.46944  23127126.555                    23127129.594
      2892.738        2254.065          45.000          28.000
 18  2 21 10  9  0.0000000  0  8G05G13G07G02G09G30G20G28
 107748059.932 8  83959545.50046  20503781.070                    20503784.090
       304.082         237.168          51.900          41.400
 116855043.541 7  91055934.88845  22236783.039                    22236785.641
      2652.773        2067.129          46.000          31.900
 112588859.309 8  87731575.59346  21424940.977                    21424943.262
     -1886.602       -1469.968          51.900          38.000
 125480236.059 6  97776853.27743  23878111.477                    23878113.941
     -2943.273       -2293.485          39.900          22.200
 123995259.514 7  96619705.73544  23595515.805                    23595521.078
     -3081.852       -2401.456          43.900          26.200
 107109835.631 8  83462247.51847  20382320.430                    20382325.188
      -399.105        -310.875          53.900          44.300
 124760997.215 6  97216350.74643  23741221.000                    23741223.055
      3349.453        2610.143          39.500          20.900
 121447209.452 7  94634222.78944  23110637.539                    23110640.645
      2884.297        2247.511          45.400          26.800
