     2.11           OBSERVATION DATA    G (GPS)             RINEX VERSION / TYPE
teqc  2016Nov7                          20180328 12:56:15UTCPGM / RUN BY / DATE
Linux 2.4.21-27.ELsmp|Opteron|gcc|Linux x86_64|=+           COMMENT
teqc  2016Nov7                          20180328 12:56:14UTCCOMMENT
     2.11           OBSERVATION DATA    M (MIXED)           COMMENT
teqc  2016Nov7                          20180328 12:56:12UTCCOMMENT
teqc  2016Nov7      IGN-RGP             20180221 09:16:09UTCCOMMENT
teqc  2015Jun23     IGN-RGP             20180221 09:08:01UTCCOMMENT
Linux2.4.20-8|i386|gcc|Win32-MinGW32|=                      COMMENT
   0.000      (antenna height)                              COMMENT
 +49.65372884 (latitude)                                    COMMENT
  +1.21568009 (longitude)                                   COMMENT
0219.400      (elevation)                                   COMMENT
BIT 2 OF LLI FLAGS DATA COLLECTED UNDER A/S CONDITION       COMMENT
19691M001 (COGO code)                                       COMMENT
SXJ6                                                        MARKER NAME
19691M001                                                   MARKER NUMBER
Automatic           GIE COOP&TECH                           OBSERVER / AGENCY
5133K77888          TRIMBLE NETR5       4.42                REC # / TYPE / VERS
1441127519          TRM57971.00     NONE                    ANT # / TYPE
  4136503.5040    87779.9330  4838110.7610                  APPROX POSITION XYZ
        0.5000        0.0000        0.0000                  ANTENNA: DELTA H/E/N
     1     1                                                WAVELENGTH FACT L1/2
     9    L1    L2    C1    S1    S2    P1    P2    D1    D2# / TYPES OF OBSERV
    30.0000                                                 INTERVAL
    18                                                      LEAP SECONDS
 SNR is mapped to RINEX snr flag value [0-9]                COMMENT
  L1 & L2: min(max(int(snr_dBHz/6), 0), 9)                  COMMENT
teqc_2016 edited: GLONASS # 25 - 30 excluded                COMMENT
Forced Modulo Decimation to 30 seconds                      COMMENT
teqc_2016 edited: all GLONASS satellites excluded           COMMENT
teqc_2016 edited: all SBAS satellites excluded              COMMENT
teqc_2016 edited: all Galileo satellites excluded           COMMENT
  2018     2    21     8     0    0.0000000     GPS         TIME OF FIRST OBS
                                                            END OF HEADER
 18  2 21  8  0  0.0000000  0  8G09G07G05G16G30G02G23G06
 106546089.524 8  83022945.43047  20275041.031          51.500          45.400
                  20275046.453       -1112.645
 113939705.048 8  88784237.72146  21682011.805          51.400          38.900
                  21682014.406        2271.680
 123619248.480 7  96326733.62344  23523970.383          46.000          29.900
                  23523973.293        3251.699
 127484586.329 6  99338696.67043  24259521.133          37.600          20.100
                  24259524.418         913.660
 120974795.884 7  94266156.08045  23020748.719          44.900          30.400
                  23020756.336        3461.859
 114656698.131 7  89342909.77246  21818452.633          46.700          38.300
                  21818453.512         788.438
 119031305.507 7  92751693.57845  22650908.367          47.200          33.100
                  22650909.504       -2592.820
 111443707.729 8  86839302.26947  21207042.398          50.100          42.500
                  21207048.938       -1988.758
 18  2 21  8  0 30.0000000  0  8G09G07G05G16G30G02G23G06
 106579666.093 8  83049108.98347  20281430.430          52.300          44.900
                  20281436.004       -1125.738        -877.023
 113871766.472 8  88731298.58146  21669083.695          51.400          38.900
                  21669087.141        2257.438        1759.299
 123521755.789 7  96250765.29344  23505417.641          46.500          28.900
                  23505421.242        3247.590        2530.715
 127457460.369 6  99317559.59643  24254359.570          39.300          20.400
                  24254362.133         894.664         697.338
 120871048.628 7  94185314.11645  23001006.664          45.800          30.200
                  23001012.910        3454.594        2691.971
 114633313.224 8  89324687.76346  21814002.438          48.000          38.200
                  21814003.027         770.504         600.617
 119109178.377 8  92812373.71345  22665727.320          48.200          34.200
                  22665728.492       -2598.812       -2024.975
 111503628.595 8  86885993.85246  21218444.883          49.100          41.900
                  21218451.352       -2005.965       -1562.899
 18  2 21  8  1  0.0000000  0  8G09G07G05G16G30G02G23G06
 106613628.477 8  83075573.18047  20287893.125          51.200          45.800
                  20287898.406       -1138.516        -887.002
 113804249.549 8  88678687.99746  21656235.500          52.100          39.700
                  21656239.320        2243.422        1748.351
 123424382.120 7  96174889.71244  23486888.492          45.500          29.900
                  23486891.941        3243.695        2527.635
 127430907.810 6  99296869.29643  24249307.281          39.500          19.600
                  24249309.867         875.293         682.394
 120767519.181 7  94104641.80545  22981305.508          45.300          31.400
                  22981312.625        3447.246        2686.284
 114610464.548 7  89306883.59846  21809654.453          47.700          37.900
                  21809655.203         752.543         586.703
 119187230.623 7  92873193.62245  22680580.469          47.600          34.000
                  22680581.750       -2604.820       -2029.604
 111564063.748 7  86933086.16346  21229945.594          47.800          41.700
                  21229952.016       -2023.102       -1576.207
 18  2 21  8  1 30.0000000  0  8G09G07G05G16G30G02G23G06
 106647975.472 8  83102337.07147  20294428.852          52.000          45.300
                  20294434.348       -1151.172        -896.925
 113737155.994 8  88626407.29446  21643468.148          52.100          39.900
                  21643471.332        2229.477        1737.363
 123327128.906 7  96099107.99244  23468381.617          46.500          28.900
                  23468384.840        3239.840        2524.527
 127404930.282 6  99276627.04443  24244364.234          38.300          19.600
                  24244366.656         856.230         667.532
 120664209.948 7  94024141.17745  22961646.781          45.500          31.700
                  22961653.953        3440.031        2680.573
 114588152.864 7  89289497.85946  21805409.063          47.200          38.400
                  21805409.484         734.844         572.787
 119265460.884 7  92934152.25745  22695467.078          47.400          33.700
                  22695468.566       -2610.582       -2034.171
 111625011.192 8  86980577.65646  21241543.422          48.800          41.700
                  21241549.691       -2039.965       -1589.454
 18  2 21  8  2  0.0000000  0  8G09G07G05G16G30G02G23G06
 106682705.686 8  83129399.56447  20301038.422          52.700          45.200
                  20301043.316       -1163.914        -906.851
 113670487.757 8  88574457.99546  21630781.781          52.300          39.800
                  21630785.285        2215.273        1726.325
 123229998.217 7  96023421.73544  23449898.305          46.000          28.600
                  23449901.371        3235.801        2521.373
 127379528.594 6  99256833.53243  24239530.148          39.200          20.100
                  24239532.672         837.316         652.567
 120561123.301 7  93943813.93045  22942029.938          44.900          31.500
                  22942036.078        3432.582        2674.795
 114566379.087 8  89272531.27346  21801265.180          48.000          37.900
                  21801265.633         717.012         558.831
 119343868.021 8  92995248.69245  22710387.539          48.000          32.800
                  22710389.094       -2616.340       -2038.727
 111686468.822 8  87028466.69646  21253238.297          49.200          41.700
                  21253244.426       -2056.973       -1602.653
 18  2 21  8  2 30.0000000  0  8G09G07G05G16G30G02G23G06
 106717818.347 8  83156760.06647  20307720.016          52.500          45.200
                  20307725.059       -1176.691        -916.798
 113604246.759 8  88522841.63146  21618175.992          52.100          40.400
                  21618180.266        2200.910        1715.165
 123132990.795 7  95947831.53144  23431438.281          44.700          29.200
                  23431441.719        3231.535        2518.100
 127354704.982 6  99237490.47543  24234806.258          39.200          20.100
                  24234808.629         817.730         637.517
 120458262.326 7  93863662.58845  22922455.938          44.600          32.300
                  22922463.641        3424.855        2668.844
 114545144.612 8  89255984.92446  21797224.820          48.200          38.100
                  21797225.430         698.902         544.776
 119422451.255 7  93056482.36645  22725341.594          47.600          33.400
                  22725342.379       -2622.316       -2043.325
 111748435.175 8  87076752.15746  21265030.063          48.200          41.000
                  21265036.398       -2074.082       -1615.891
 18  2 21  8  3  0.0000000  0  8G09G07G05G16G30G02G23G06
 106753311.833 8  83184417.32247  20314474.070          52.100          45.100
                  20314479.422       -1189.477        -926.637
 113538434.606 8  88471559.44846  21605652.719          51.000          39.200
                  21605655.375        2186.648        1704.049
 123036108.891 7  95872339.14844  23413002.164          44.900          28.600
                  23413005.734        3227.320        2514.866
 127330460.457 6  99218598.66743  24230192.555          39.900          20.600
                  24230195.578         798.645         622.437
 120355629.015 7  93783688.61245  22902925.867          45.500          31.900
                  22902931.125        3417.453        2662.970
 114524450.000 8  89239859.24646  21793286.727          48.000          37.600
                  21793287.027         680.855         530.793
 119501208.651 8  93117851.74645  22740328.609          48.000          33.800
                  22740329.660       -2628.156       -2047.805
 111810907.793 7  87125432.09546  21276918.398          46.300          40.900
                  21276924.805       -2090.848       -1628.958
 18  2 21  8  3 30.0000000  0  8G09G07G05G16G30G02G23G06
 106789185.125 8  83212370.53447  20321300.727          52.200          45.700
                  20321305.906       -1202.070        -936.541
 113473053.334 8  88420613.01346  21593210.734          51.300          39.400
                  21593214.344        2172.254        1692.778
 122939353.950 7  95796945.68744  23394590.602          44.900          29.400
                  23394593.219        3223.102        2511.509
 127306796.758 6  99200159.43243  24225689.086          39.000          20.900
                  24225692.602         779.063         607.340
 120253226.227 7  93703894.26745  22883438.961          45.600          33.500
                  22883446.543        3409.551        2656.866
 114504296.243 7  89224155.01346  21789451.164          46.900          37.600
                  21789451.941         662.813         516.676
 119580139.323 7  93179356.14645  22755348.570          47.900          33.400
                  22755349.656       -2633.781       -2052.302
 111873884.945 7  87174505.18846  21288902.188          46.200          40.300
                  21288908.984       -2107.484       -1642.086
 18  2 21  8  4  0.0000000  0  8G09G07G05G16G30G02G23G06
 106825437.086 8  83240618.80447  20328199.102          51.600          45.800
                  20328204.246       -1214.539        -946.306
 113408104.978 8  88370003.90546  21580851.609          51.400          40.200
                  21580856.000        2157.824        1681.560
 122842726.638 7  95721651.67344  23376202.875          44.900          29.100
                  23376205.754        3219.008        2508.222
 127283715.350 6  99182173.91043  24221297.813          39.700          20.600
                  24221300.199         759.754         592.231
 120151056.474 7  93624281.50245  22863996.875          46.400          32.400
                  22864002.363        3401.988        2650.866
 114484684.307 7  89208872.98646  21785719.305          47.500          37.800
                  21785720.195         644.871         502.647
 119659242.294 7  93240994.80645  22770401.086          47.400          33.100
                  22770402.449       -2639.461       -2056.727
 111937364.730 7  87223969.95046  21300982.164          46.600          40.200
                  21300988.215       -2124.230       -1655.078
 18  2 21  8  4 30.0000000  0  8G09G07G05G16G30G02G23G06
 106862066.794 8  83269161.42647  20335169.547          52.800          45.700
                  20335174.594       -1227.426        -956.182
 113343591.464 8  88319733.65846  21568575.188          50.500          39.200
                  21568578.648        2143.055        1670.176
 122746229.413 7  95646459.03945  23357839.750          43.600          30.500
                  23357843.402        3214.246        2504.737
 127261217.480 6  99164643.05143  24217016.023          37.600          18.600
                  24217019.082         740.156         577.039
 120049122.651 7  93544852.57145  22844599.750          46.400          34.200
                  22844606.148        3393.707        2644.618
 114465615.143 7  89194013.88946  21782090.547          47.500          37.700
                  21782091.242         626.492         488.451
 119738516.550 7  93302766.94245  22785486.492          47.500          32.600
                  22785488.113       -2645.414       -2061.235
 112001345.366 7  87273824.99146  21313157.242          47.900          40.100
                  21313163.781       -2141.121       -1668.143
 18  2 21  8  5  0.0000000  0  8G09G07G05G16G30G02G23G06
 106899072.438 8  83297996.99747  20342211.438          52.400          45.100
                  20342216.145       -1239.742        -965.891
 113279513.770 8  88269802.99546  21556381.227          51.500          38.400
                  21556384.285        2128.695        1658.880
 122649864.001 7  95571369.12545  23339502.625          45.800          30.800
                  23339505.875        3209.918        2501.324
 127239304.346 6  99147567.93943  24212845.430          38.200          19.900
                  24212848.797         720.551         561.829
 119947426.644 7  93465608.99345  22825247.781          46.200          33.600
                  22825253.832        3385.910        2638.448
 114447088.714 8  89179577.72146  21778564.867          48.200          37.800
                  21778565.766         608.609         474.387
 119817960.156 7  93364671.01945  22800604.492          47.700          32.800
                  22800605.492       -2650.902       -2065.574
 112065824.242 8  87324068.26646  21325427.133          48.700          39.900
                  21325433.980       -2157.523       -1681.003
 18  2 21  8  5 30.0000000  0  8G09G07G05G16G30G02G23G06
 106936452.973 8  83327124.66947  20349324.961          51.000          44.800
                  20349329.930       -1252.180        -975.590
 113215874.123 8  88220213.65246  21544271.391          50.700          38.700
                  21544274.578        2114.051        1647.483
 122553632.386 7  95496383.45745  23321190.422          45.900          30.600
                  23321193.414        3205.512        2497.851
 127217977.360 6  99130949.48743  24208787.211          37.500          19.300
                  24208790.496         701.289         546.592
 119845971.242 7  93386552.85645  22805941.219          47.200          34.700
                  22805947.527        3377.816        2632.169
 114429106.669 7  89165565.73546  21775143.219          47.200          37.600
                  21775143.816         590.340         460.235
 119897572.120 7  93426706.30745  22815753.828          47.200          31.900
                  22815754.906       -2656.434       -2069.928
 112130799.504 7  87374698.35446  21337791.469          47.500          40.300
                  21337797.961       -2174.059       -1693.870
 18  2 21  8  6  0.0000000  0  8G09G07G05G16G30G02G23G06
 106974207.313 8  83356543.63947  20356508.961          50.800          45.100
                  20356514.488       -1264.676        -985.331
 113152674.309 8  88170967.07646  21532244.969          50.900          39.000
                  21532248.422        2099.277        1635.998
 122457535.569 7  95421502.82945  23302903.477          45.800          31.600
                  23302906.848        3200.852        2494.285
 127197237.909 6  99114788.87443  24204841.438          38.300          20.600
                  24204844.219         681.465         531.318
 119744758.995 8  93307686.20545  22786681.172          48.100          34.800
                  22786688.070        3369.590        2625.799
 114411669.721 7  89151978.50346  21771825.227          47.800          37.700
                  21771825.598         572.148         446.052
 119977351.417 7  93488871.97145  22830935.344          46.900          32.000
                  22830937.156       -2662.078       -2074.301
 112196269.201 7  87425713.72146  21350249.875          46.600          40.200
                  21350256.676       -2190.488       -1706.709
 18  2 21  8  6 30.0000000  0  8G09G07G05G16G30G02G23G06
 107012334.267 8  83386252.94647  20363764.305          51.600          44.900
                  20363769.805       -1277.000        -994.998
 113089915.974 8  88122064.47246  21520302.266          52.100          39.200
                  21520305.398        2084.633        1624.499
 122361574.767 7  95346728.18645  23284642.797          45.000          31.800
                  23284646.586        3196.574        2490.770
 127177087.373 6  99099087.18343  24201006.211          36.600          19.300
                  24201009.375         662.016         515.954
 119643792.562 7  93229011.08745  22767468.063          47.200          34.700
                  22767474.492        3361.539        2619.374
 114394778.435 7  89138816.46646  21768610.773          46.800          38.000
                  21768611.813         553.977         431.849
 120057296.995 7  93551167.20145  22846148.367          47.200          32.500
                  22846149.785       -2667.465       -2078.602
 112262231.313 8  87477112.77246  21362802.156          48.400          40.600
                  21362808.895       -2206.801       -1719.483
 18  2 21  8  7  0.0000000  0  8G09G07G05G16G30G02G23G06
 107050832.677 8  83416251.69747  20371090.492          52.400          45.300
                  20371096.098       -1289.516       -1004.644
 113027601.036 8  88073507.38946  21508444.297          50.800          39.200
                  21508447.020        2069.652        1612.933
 122265752.040 7  95272061.11445  23266407.922          45.600          31.800
                  23266411.527        3191.664        2487.104
 127157526.884 6  99083845.21443  24197284.016          37.200          19.600
                  24197286.930         641.949         500.607
 119543074.485 7  93150529.50945  22748301.852          47.900          35.100
                  22748308.367        3352.941        2612.868
 114378434.088 8  89126080.61146  21765500.602          48.700          38.300
                  21765501.551         535.602         417.630
 120137407.579 7  93613591.00245  22861393.148          47.200          32.400
                  22861394.922       -2673.180       -2082.885
 112328683.754 8  87528893.88046  21375447.922          48.600          41.000
                  21375454.641       -2223.410       -1732.213
 18  2 21  8  7 30.0000000  0  8G09G07G05G16G30G02G23G06
 107089701.051 8  83446538.74047  20378486.766          52.000          45.600
                  20378492.398       -1301.801       -1014.167
 112965730.950 8  88025296.95246  21496671.188          51.700          39.200
                  21496673.695        2054.867        1601.463
 122170068.938 7  95197502.85845  23248200.031          44.700          31.500
                  23248203.836        3187.094        2483.545
 127138557.577 6  99069063.94243  24193674.242          36.900          20.100
                  24193677.277         622.395         485.321
 119442607.053 7  93072243.24545  22729183.125          47.200          35.200
                  22729189.969        3344.613        2606.415
 114362636.371 8  89113770.69846  21762494.422          48.400          37.700
                  21762495.621         517.469         403.494
 120217681.782 7  93676142.30745  22876669.094          47.500          32.400
                  22876670.316       -2678.566       -2087.048
 112395624.172 8  87581055.23446  21388186.164          49.200          41.600
                  21388192.746       -2239.508       -1744.792
 18  2 21  8  8  0.0000000  0  8G09G07G05G16G30G02G23G06
 107128938.235 8  83477113.15247  20385953.492          52.000          44.800
                  20385958.672       -1313.973       -1023.747
 112904307.591 8  87977434.61246  21484982.227          52.500          40.100
                  21484985.836        2039.996        1589.797
 122074527.417 7  95123054.92345  23230019.172          44.600          31.400
                  23230022.711        3182.398        2479.818
 127120180.878 6  99054744.47443  24190176.930          37.800          19.000
                  24190180.660         602.555         469.868
 119342392.852 7  92994154.27345  22710113.023          47.300          35.200
                  22710119.648        3336.203        2599.776
 114347386.945 8  89101888.02446  21759592.461          48.600          37.800
                  21759593.438         499.141         389.213
 120298118.402 7  93738820.16345  22891975.602          47.200          32.700
                  22891977.320       -2683.855       -2091.278
 112463050.505 8  87633595.21246  21401017.297          48.500          41.700
                  21401023.953       -2255.520       -1757.392
 18  2 21  8  8 30.0000000  0  8G09G07G05G16G30G02G23G06
 107168543.129 8  83507974.09247  20393490.023          52.400          44.900
                  20393495.109       -1326.219       -1033.326
 112843332.776 8  87929921.79646  21473379.320          53.000          40.200
                  21473382.340        2025.055        1578.102
 121979129.094 7  95048718.58745  23211865.273          44.600          32.100
                  23211869.113        3177.547        2476.042
 127102397.738 6  99040887.45243  24186794.250          37.200          19.300
                  24186796.723         582.793         454.407
 119242434.454 7  92916264.65745  22691091.656          47.400          35.100
                  22691098.645        3327.680        2593.077
 114332686.143 8  89090432.86046  21756795.305          49.000          38.400
                  21756795.715         480.945         374.925
 120378716.545 7  93801623.89745  22907312.727          47.000          31.300
                  22907314.492       -2689.230       -2095.511
 112530960.789 7  87686512.29346  21413940.141          47.800          41.500
                  21413946.934       -2271.641       -1769.986
 18  2 21  8  9  0.0000000  0  8G09G07G05G16G30G02G23G06
 107208514.435 8  83539120.56447  20401096.469          52.000          45.400
                  20401101.500       -1338.324       -1042.796
 112782807.957 8  87882759.62846  21461861.586          52.300          40.000
                  21461864.406        2010.055        1566.413
 121883875.667 7  94974495.16545  23193739.789          45.000          31.600
                  23193743.156        3172.785        2472.293
 127085209.502 6  99027494.03743  24183522.883          39.200          20.100
                  24183525.391         562.984         438.935
 119142734.403 7  92838576.31845  22672119.328          47.100          34.900
                  22672125.508        3319.094        2586.339
 114318534.725 8  89079405.78346  21754102.320          48.800          37.900
                  21754102.965         462.617         360.666
 120459474.996 7  93864552.53645  22922680.547          46.500          31.000
                  22922682.105       -2694.512       -2099.628
 112599352.828 8  87739804.78246  21426954.109          48.100          41.600
                  21426961.180       -2287.754       -1782.436
 18  2 21  8  9 30.0000000  0  8G09G07G05G16G30G02G23G06
 107248850.989 8  83570551.63447  20408772.305          52.800          44.900
                  20408777.824       -1350.664       -1052.306
 112722734.896 8  87835949.46046  21450430.273          52.300          40.300
                  21450433.277        1994.887        1554.624
 121788768.267 7  94900385.50045  23175641.094          45.500          31.900
                  23175644.566        3167.691        2468.428
 127068617.244 6  99014565.02943  24180365.703          38.100          19.000
                  24180367.977         543.160         423.457
 119043295.293 8  92761091.32045  22653196.438          48.500          35.000
                  22653203.441        3310.301        2579.526
 114304933.347 8  89068807.29346  21751513.773          48.500          37.700
                  21751514.434         444.219         346.349
 120540392.599 7  93927605.20445  22938079.031          46.700          31.900
                  22938080.469       -2699.910       -2103.770
 112668224.468 8  87793470.97946  21440060.508          49.000          41.400
                  21440066.922       -2303.711       -1794.903
 18  2 21  8 10  0.0000000  0  8G09G07G05G16G30G02G23G06
 107289551.496 8  83602266.30047  20416517.469          50.900          44.900
                  20416522.363       -1362.723       -1061.691
 112663115.292 8  87789492.64746  21439084.984          52.200          40.000
                  21439088.332        1979.754        1542.882
 121693808.772 7  94826391.09045  23157570.508          46.000          32.100
                  23157574.172        3162.805        2464.640
 127052622.279 6  99002101.41543  24177322.070          37.800          19.600
                  24177324.590         523.055         407.924
 118944119.525 7  92683811.52645  22634323.805          47.500          34.700
                  22634330.305        3301.375        2572.690
 114291882.571 8  89058637.85246  21749030.445          48.300          38.400
                  21749030.898         425.781         332.069
 120621467.927 7  93990780.76145  22953506.438          46.400          30.800
                  22953508.465       -2705.070       -2107.804
 112737573.488 8  87847509.15746  21453257.094          48.000          41.800
                  21453263.914       -2319.598       -1807.224
 18  2 21  8 10 30.0000000  0  8G09G07G05G16G30G02G23G06
 107330614.542 8  83634263.46447  20424331.500          52.200          45.000
                  20424336.750       -1374.723       -1071.109
 112603950.383 8  87743390.14846  21427825.836          51.200          40.700
                  21427829.270        1964.590        1531.043
 121598998.649 7  94752513.06845  23139528.836          46.300          32.300
                  23139532.559        3157.887        2460.718
 127037225.340 6  98990103.80743  24174391.086          37.600          18.600
                  24174394.035         503.270         392.417
 118845209.412 7  92606738.71745  22615501.516          47.000          33.900
                  22615508.313        3292.660        2565.766
 114279382.798 8  89048897.76246  21746651.508          48.300          38.700
                  21746652.441         407.461         317.754
 120702699.901 7  94054078.36845  22968965.125          45.800          30.600
                  22968966.516       -2710.270       -2111.851
 112807397.518 8  87901917.47546  21466544.242          49.500          40.900
                  21466550.898       -2335.328       -1819.535
 18  2 21  8 11  0.0000000  0  8G09G07G05G16G30G02G23G06
 107372039.021 8  83666542.26947  20432214.461          52.200          45.000
                  20432219.273       -1386.766       -1080.484
 112545242.075 8  87697643.41046  21416653.930          52.000          39.600
                  21416657.520        1949.309        1519.144
 121504340.176 7  94678753.22645  23121516.828          47.000          32.600
                  23121519.758        3152.777        2456.729
 127022427.337 6  98978572.85643  24171576.188          40.200          20.900
                  24171577.652         483.367         376.831
 118746567.660 7  92529875.03245  22596730.820          45.400          34.200
                  22596737.645        3283.551        2558.708
 114267434.923 8  89039587.72346  21744378.242          48.300          38.400
                  21744378.930         389.039         303.401
 120784087.593 7  94117497.34245  22984452.078          45.600          31.100
                  22984453.859       -2715.488       -2115.898
 112877694.502 8  87956694.32946  21479921.203          48.300          40.800
                  21479927.668       -2351.078       -1831.821
 18  2 21  8 11 30.0000000  0  8G09G07G05G16G30G02G23G06
 107413823.465 8  83699101.57247  20440165.781          52.300          44.400
                  20440170.922       -1398.848       -1089.808
 112486991.722 8  87652253.53946  21405569.547          50.800          40.200
                  21405572.773        1934.031        1507.248
 121409834.712 7  94605112.61045  23103532.531          46.700          33.100
                  23103535.684        3147.633        2452.764
 127008229.325 6  98967509.47243  24168874.570          41.300          21.100
                  24168876.773         463.320         361.254
 118648196.467 7  92453222.16645  22578011.281          46.000          33.400
                  22578018.176        3274.414        2551.683
 114256039.164 8  89030707.89846  21742209.664          48.600          38.200
                  21742210.527         370.637         289.066
 120865629.425 7  94181036.42245  22999969.125          45.200          30.700
                  22999971.332       -2720.617       -2119.886
 112948461.929 8  88011837.77246  21493388.055          48.600          41.000
                  21493394.180       -2366.687       -1843.998
 18  2 21  8 12  0.0000000  0  8G09G07G05G16G30G02G23G06
 107455966.787 8  83731940.52347  20448185.063          51.700          44.700
                  20448190.359       -1410.684       -1099.109
 112429201.114 8  87607221.90346  21394571.945          51.600          39.900
                  21394575.871        1918.711        1495.273
 121315483.627 7  94531592.28545  23085578.594          46.300          33.900
                  23085581.547        3142.508        2448.735
 126994632.475 6  98956914.52143  24166286.375          40.600          20.400
                  24166289.355         443.203         345.600
 118550098.512 7  92376782.23245  22559343.789          45.900          34.200
                  22559350.531        3265.379        2544.564
 114245196.058 7  89022258.71746  21740146.242          47.400          38.700
                  21740146.938         352.293         274.711
 120947324.763 7  94244695.10145  23015515.570          44.900          31.800
                  23015517.094       -2725.648       -2123.854
 113019697.778 8  88067346.21046  21506943.422          48.000          40.500
                  21506950.246       -2382.273       -1856.138
 18  2 21  8 12 30.0000000  0  8G09G07G05G16G30G02G23G06
 107498467.620 8  83765058.05047  20456272.695          52.000          44.600
                  20456277.887       -1422.699       -1108.408
 112371871.819 8  87562549.70646  21383662.680          50.500          39.700
                  21383666.266        1903.160        1483.269
 121221289.109 7  94458193.97345  23067653.555          45.400          34.900
                  23067656.836        3137.086        2444.624
 126981637.520 6  98946788.55543  24163814.031          40.200          21.100
                  24163816.027         423.105         329.946
 118452276.191 7  92300557.05945  22540729.445          44.200          33.600
                  22540735.594        3255.961        2537.338
 114234906.094 8  89014240.55546  21738188.500          49.300          38.300
                  21738189.008         333.668         260.305
 121029172.014 7  94308472.16145  23031090.297          46.300          30.400
                  23031091.746       -2730.746       -2127.798
 113091399.611 8  88123217.75746  21520587.992          48.700          39.700
                  21520594.449       -2397.910       -1868.239
 18  2 21  8 13  0.0000000  0  8G09G07G05G16G30G02G23G06
 107541325.071 8  83798453.46147  20464428.031          51.900          44.800
                  20464433.715       -1434.527       -1117.650
 112315005.181 8  87518238.06046  21372841.750          49.700          39.900
                  21372845.211        1887.793        1471.224
 121127252.841 7  94384918.97345  23049758.938          47.200          33.900
                  23049762.863        3131.918        2440.528
 126969245.812 6  98937132.70843  24161455.117          37.500          20.100
                  24161457.352         403.031         314.271
 118354732.282 7  92224548.84245  22522167.148          45.900          34.300
                  22522173.406        3246.781        2530.088
 114225170.340 8  89006654.24246  21736335.977          48.300          38.300
                  21736336.152         315.281         245.911
 121111170.420 7  94372367.00244  23046694.266          45.500          29.600
                  23046696.020       -2735.777       -2131.706
 113163565.583 8  88179450.97046  21534320.508          48.300          39.500
                  21534326.977       -2413.336       -1880.259
 18  2 21  8 13 30.0000000  0  8G09G07G05G16G30G02G23G06
 107584537.881 8  83832125.76447  20472651.602          52.800          44.500
                  20472656.602       -1446.359       -1126.874
 112258603.454 8  87474288.67946  21362108.711          51.400          39.800
                  21362112.477        1872.254        1459.114
 121033375.323 7  94311767.69045  23031894.930          46.600          34.700
                  23031898.234        3126.516        2436.332
 126957458.644 6  98927947.89843  24159212.969          40.900          19.000
                  24159215.047         382.785         298.558
 118257469.314 7  92148759.55545  22503658.828          44.900          33.600
                  22503664.801        3237.309        2522.760
 114215989.022 8  88999499.96146  21734588.484          49.000          38.100
                  21734588.871         296.746         231.495
 121193318.907 7  94436378.79944  23062326.609          45.700          29.700
                  23062327.906       -2740.785       -2135.607
 113236193.292 8  88236043.97746  21548141.070          48.700          39.700
                  21548148.156       -2428.586       -1892.238
 18  2 21  8 14  0.0000000  0  8G09G07G05G16G30G02G23G06
 107628104.273 8  83866073.61147  20480941.500          52.500          45.000
                  20480946.805       -1458.012       -1136.058
 112202667.350 8  87430702.10646  21351464.383          51.200          40.200
                  21351467.605        1856.828        1447.000
 120939659.571 7  94238742.43845  23014060.625          46.500          34.200
                  23014064.547        3121.180        2432.104
 126946275.945 6  98919234.07943  24157084.930          37.400          19.300
                  24157086.461         362.867         282.823
 118160489.226 7  92073190.67145  22485204.055          46.100          34.800
                  22485210.395        3227.867        2515.346
 114207362.190 8  88992777.73946  21732947.000          48.000          38.500
                  21732947.379         278.367         217.075
 121275615.868 7  94500506.27045  23077986.969          45.000          30.700
                  23077989.020       -2745.633       -2139.456
 113309279.994 7  88292994.62846  21562049.461          47.900          39.500
                  21562055.699       -2443.770       -1904.129
 18  2 21  8 14 30.0000000  0  8G09G07G05G16G30G02G23G06
 107672023.282 8  83900296.20847  20489299.391          51.700          45.100
                  20489304.613       -1469.812       -1145.178
 112147198.540 8  87387479.66246  21340909.258          51.300          39.800
                  21340912.199        1841.137        1434.853
 120846107.644 7  94165844.84745  22996258.609          46.800          34.700
                  22996262.195        3115.535        2427.835
 126935698.951 6  98910992.29143  24155071.617          41.300          20.400
                  24155073.996         342.449         267.088
 118063794.751 7  91997844.37945  22466803.586          46.500          35.100
                  22466810.035        3218.309        2507.919
 114199290.774 8  88986488.31646  21731411.102          48.200          38.000
                  21731411.684         259.723         202.648
 121358060.339 7  94564748.69444  23093675.461          44.900          29.400
                  23093677.488       -2750.621       -2143.276
 113382823.636 8  88350301.33646  21576043.938          48.000          39.500
                  21576050.590       -2459.059       -1915.962
 18  2 21  8 15  0.0000000  0  8G09G07G05G16G30G02G23G06
 107716293.560 8  83934792.51047  20497723.875          53.000          44.300
                  20497728.813       -1481.578       -1154.292
 112092198.388 8  87344622.42946  21330442.836          51.300          40.600
                  21330446.309        1825.426        1422.661
 120752720.731 7  94093075.82145  22978488.258          46.800          34.700
                  22978491.707        3110.078        2423.534
 126925728.587 6  98903223.16943  24153175.109          41.600          20.400
                  24153177.621         322.172         251.363
 117967388.196 7  91922722.41445  22448458.039          47.000          35.200
                  22448464.031        3208.707        2500.417
 114191774.812 8  88980631.71346  21729980.516          48.000          37.900
                  21729981.188         241.152         188.201
 121440651.066 7  94629105.07645  23109392.688          45.000          30.100
                  23109393.207       -2755.555       -2147.063
 113456821.720 8  88407962.11046  21590125.406          49.100          39.000
                  21590131.668       -2474.234       -1927.715
 18  2 21  8 15 30.0000000  0  8G09G07G05G16G30G02G23G06
 107760914.003 8  83969561.68047  20506214.602          52.700          44.800
                  20506219.977       -1493.082       -1163.346
 112037668.774 8  87302131.83846  21320066.117          51.500          39.900
                  21320069.801        1809.969        1410.427
 120659500.565 7  94020436.72445  22960748.852          47.300          35.100
                  22960752.551        3104.715        2419.210
 126916365.318 6  98895927.08243  24151393.469          41.100          21.300
                  24151395.883         302.063         235.566
 117871272.305 7  91847826.92745  22430167.578          46.500          34.900
                  22430174.086        3199.078        2492.847
 114184815.065 7  88975208.53146  21728656.070          47.300          37.700
                  21728656.984         222.797         173.783
 121523387.347 7  94693574.90644  23125136.359          44.900          29.600
                  23125138.281       -2760.187       -2150.804
 113531272.194 8  88465975.40646  21604293.203          48.400          39.500
                  21604299.348       -2489.125       -1939.447
 18  2 21  8 16  0.0000000  0  8G09G07G05G16G30G02G23G06
 107805883.590 8  84004602.91347  20514772.156          53.500          45.800
                  20514777.637       -1504.723       -1172.393
 111983611.494 8  87260009.30446  21309779.492          51.600          40.000
                  21309782.277        1794.098        1398.154
 120566448.212 8  93947928.41045  22943041.375          48.200          35.200
                  22943044.871        3098.973        2414.811
 126907610.469 6  98889105.16743  24149726.547          40.300          19.900
                  24149730.102         281.570         219.714
 117775449.683 7  91773159.95945  22411933.742          47.300          34.900
                  22411939.469        3189.164        2485.209
 114178412.137 7  88970219.22546  21727437.703          47.500          37.100
                  21727438.016         204.156         159.324
 121606268.343 7  94758157.46044  23140908.383          44.700          28.900
                  23140910.172       -2765.031       -2154.562
 113606172.937 8  88524339.57746  21618546.172          49.800          39.500
                  21618552.520       -2504.199       -1951.089
 18  2 21  8 16 30.0000000  0  8G09G07G05G16G30G02G23G06
 107851200.780 8  84039915.00147  20523395.906          52.900          44.400
                  20523401.344       -1516.297       -1181.407
 111930027.313 8  87218255.40946  21299582.594          52.600          39.600
                  21299585.664        1778.289        1385.840
 120473566.026 7  93875552.67245  22925366.852          47.100          34.700
                  22925369.742        3093.355        2410.408
 126899464.533 6  98882757.66343  24148176.547          39.900          20.600
                  24148179.254         261.500         203.956
 117679922.487 7  91698723.20445  22393755.086          47.800          35.300
                  22393760.996        3179.398        2477.512
 114172565.940 7  88965663.74046  21726324.945          47.000          37.400
                  21726326.133         185.637         144.850
 121689292.302 7  94822851.43045  23156707.328          44.500          30.300
                  23156708.652       -2769.625       -2158.207
 113681521.255 8  88583052.50846  21632884.672          50.300          39.500
                  21632890.164       -2518.984       -1962.688
 18  2 21  8 17  0.0000000  0  8G09G07G05G16G30G02G23G06
 107896864.346 8  84075496.99247  20532085.375          53.000          44.500
                  20532090.523       -1527.832       -1190.440
 111876917.935 8  87176871.49246  21289476.313          51.400          39.500
                  21289479.402        1762.434        1373.461
 120380855.947 7  93803311.05745  22907724.508          46.300          35.400
                  22907727.867        3087.508        2405.836
 126891928.216 6  98876885.21843  24146742.852          40.400          19.900
                  24146745.098         241.145         188.047
 117584693.293 7  91624518.66145  22375633.578          47.500          35.800
                  22375639.883        3169.316        2469.667
 114167277.006 7  88961542.48746  21725318.953          47.300          36.800
                  21725319.676         166.973         130.341
 121772458.370 7  94887656.13744  23172533.531          44.700          29.600
                  23172534.816       -2774.488       -2161.944
 113757314.847 8  88642112.41646  21647307.797          49.600          39.700
                  21647314.301       -2533.789       -1974.270
 18  2 21  8 17 30.0000000  0  8G09G07G05G16G30G02G23G06
 107942872.832 8  84111347.74647  20540840.430          52.500          45.000
                  20540845.387       -1539.430       -1199.309
 111824284.572 8  87135858.50846  21279460.570          51.400          39.600
                  21279463.555        1746.449        1361.128
 120288319.892 8  93731205.05645  22890115.305          48.000          35.200
                  22890119.043        3081.516        2401.361
 126885002.244 6  98871488.36943  24145424.531          39.600          21.700
                  24145427.227         220.598         172.235
 117489764.222 7  91550547.94846  22357569.445          47.900          36.200
                  22357574.816        3159.203        2461.922
 114162545.085 7  88957855.26846  21724417.984          47.400          37.500
                  21724419.191         148.430         115.950
 121855764.977 7  94952570.36044  23188385.914          44.500          29.100
                  23188387.313       -2779.234       -2165.539
 113833551.015 8  88701517.13546  21661815.234          48.500          40.200
                  21661821.387       -2548.602       -1985.678
 18  2 21  8 18  0.0000000  0  8G09G07G05G16G30G02G23G06
 107989225.151 8  84147466.43047  20549660.984          53.000          44.500
                  20549666.113       -1550.922       -1208.274
 111772128.763 8  87095217.62946  21269535.445          51.500          39.500
                  21269538.840        1730.469        1348.692
 120195958.778 7  93659235.36645  22872539.727          46.100          35.300
                  22872543.367        3075.699        2396.796
 126878687.277 6  98866567.60943  24144222.969          40.300          19.900
                  24144225.457         200.320         156.343
 117395137.950 7  91476813.23046  22339562.523          46.200          36.500
                  22339568.605        3149.027        2454.012
 114158370.914 7  88954602.66146  21723623.859          46.600          37.700
                  21723624.852         129.789         101.422
 121939211.579 7  95017593.65044  23204265.430          45.200          29.600
                  23204267.105       -2784.020       -2169.188
 113910227.560 8  88761265.03046  21676406.156          50.100          40.400
                  21676412.887       -2563.301       -1997.110
 18  2 21  8 18 30.0000000  0  8G09G07G05G16G30G02G23G06
 108035919.750 8  84183851.83747  20558546.742          52.500          45.100
                  20558552.148       -1562.328       -1217.161
 111720451.672 8  87054949.77946  21259701.570          51.000          40.000
                  21259704.723        1714.484        1336.220
 120103775.065 8  93587403.93145  22854997.313          48.800          35.400
                  22855000.871        3069.777        2392.129
 126872983.723 6  98862123.29043  24143137.977          40.700          21.300
                  24143139.844         179.859         140.433
 117300816.636 7  91403316.12946  22321613.836          47.200          36.500
                  22321620.059        3138.777        2446.021
 114154754.734 7  88951784.84246  21722935.484          46.200          36.900
                  21722936.754         111.160          86.910
 122022796.827 7  95082724.99244  23220171.211          45.500          28.800
                  23220171.953       -2788.527       -2172.785
 113987341.982 8  88821354.15846  21691080.633          48.900          39.600
                  21691086.953       -2577.875       -2008.457
 18  2 21  8 19  0.0000000  0  8G09G07G05G16G30G02G23G06
 108082955.733 8  84220503.23947  20567497.516          52.000          44.500
                  20567502.848       -1573.555       -1225.991
 111669255.017 8  87015056.28646  21249959.008          51.100          39.800
                  21249962.160        1698.555        1323.753
 120011770.209 8  93515711.85146  22837489.531          48.200          36.000
                  22837493.340        3063.906        2387.494
 126867892.493 6  98858156.08643  24142168.766          39.700          21.700
                  24142171.129         159.531         124.539
 117206803.013 7  91330058.78046  22303723.688          47.000          37.100
                  22303729.867        3128.672        2438.040
 114151696.864 7  88949402.08046  21722353.992          47.300          37.700
                  21722354.875          92.668          72.414
 122106519.831 7  95147963.68744  23236102.859          45.400          29.200
                  23236104.371       -2793.023       -2176.345
 114064891.943 8  88881782.65746  21705837.969          48.700          40.000
                  21705844.555       -2592.187       -2019.717
 18  2 21  8 19 30.0000000  0  8G09G07G05G16G30G02G23G06
 108130331.636 8  84257419.50847  20576512.695          52.100          44.200
                  20576517.680       -1584.863       -1234.754
 111618540.057 8  86975538.14446  21240308.469          51.600          40.500
                  21240312.434        1682.492        1311.265
 119919946.084 8  93444160.61046  22820016.063          48.500          36.100
                  22820019.734        3057.887        2382.807
 126863414.167 6  98854666.46043  24141316.922          40.000          20.600
                  24141319.668         139.105         108.677
 117113099.330 7  91257042.97246  22285891.953          45.900          36.700
                  22285898.664        3118.313        2429.999
 114149197.436 7  88947454.46646  21721878.211          47.200          37.900
                  21721878.949          73.984          57.947
 122190379.506 7  95213308.85344  23252061.336          45.700          29.500
                  23252062.773       -2797.676       -2179.842
 114142875.005 8  88942548.63946  21720677.570          48.100          39.500
                  21720684.145       -2606.621       -2030.906
 18  2 21  8 20  0.0000000  0  8G09G07G05G16G30G02G23G06
 108178046.097 8  84294599.60847  20585592.523          52.500          43.900
                  20585597.633       -1596.059       -1243.589
 111568307.990 8  86936396.29346  21230749.711          51.600          40.500
                  21230753.078        1666.301        1298.625
 119828304.351 8  93372751.47746  22802577.430          49.200          36.500
                  22802580.492        3051.746        2377.988
 126859549.175 6  98851654.78443  24140581.031          40.600          20.600
                  24140583.617         118.660          92.687
 117019707.987 7  91184270.49946  22268120.609          47.500          36.700
                  22268126.496        3107.844        2421.797
 114147256.540 7  88945942.07246  21721508.805          47.500          37.800
                  21721509.395          55.387          43.412
 122274374.731 7  95278759.64244  23268044.391          45.800          29.700
                  23268046.086       -2802.125       -2183.382
 114221288.562 8  89003650.08646  21735599.156          48.700          39.800
                  21735605.648       -2620.949       -2042.101
 18  2 21  8 20 30.0000000  0  8G09G07G05G16G30G02G23G06
 108226098.201 8  84332042.80747  20594736.359          52.400          44.100
                  20594741.125       -1607.328       -1252.337
 111518560.478 8  86897631.99146  21221282.875          51.700          40.500
                  21221286.023        1650.191        1286.060
 119736847.060 8  93301486.06745  22785173.281          48.600          35.500
                  22785176.754        3045.480        2373.197
 126856298.062 6  98849121.40543  24139962.516          39.500          20.900
                  24139965.016          98.086          76.758
 116926631.564 7  91111743.43946  22250408.328          47.100          36.600
                  22250414.793        3097.285        2413.612
 114145874.688 7  88944865.29346  21721246.203          46.700          38.100
                  21721246.781          36.660          28.881
 122358504.473 7  95344315.27144  23284054.102          45.400          29.700
                  23284055.602       -2806.590       -2186.851
 114300130.395 8  89065085.23446  21750602.313          48.100          39.500
                  21750609.090       -2635.258       -2053.185
 18  2 21  8 21  0.0000000  0  8G09G07G05G16G30G02G23G06
 108274486.537 8  84369748.00447  20603944.273          52.400          43.900
                  20603949.539       -1618.672       -1261.070
 111469298.484 8  86859246.02146  21211908.867          51.800          40.900
                  21211911.527        1633.832        1273.392
 119645575.775 8  93230365.60445  22767805.281          49.000          35.400
                  22767808.313        3039.172        2368.309
 126853661.634 6  98847067.06643  24139460.438          38.500          19.600
                  24139462.984          77.496          60.719
 116833872.430 7  91039463.62246  22232756.523          46.800          36.800
                  22232763.285        3086.535        2405.314
 114145051.819 7  88944224.09546  21721089.484          46.800          38.700
                  21721090.480          17.922          14.343
 122442767.502 7  95409974.72444  23300089.086          46.200          29.400
                  23300090.488       -2811.055       -2190.326
 114379397.951 7  89126852.12346  21765686.438          47.700          39.200
                  21765693.727       -2649.492       -2064.234
 18  2 21  8 21 30.0000000  0  8G09G07G05G16G30G02G23G06
 108323209.730 8  84407714.10547  20613216.219          52.100          44.100
                  20613221.508       -1629.617       -1269.723
 111420523.474 8  86821239.53646  21202627.164          52.300          40.900
                  21202630.828        1617.828        1260.754
 119554491.923 8  93159391.18545  22750472.492          48.800          34.700
                  22750475.641        3033.070        2363.446
 126851640.075 6  98845491.79543  24139076.008          40.100          21.300
                  24139078.734          57.281          44.811
 116741432.786 7  90967432.73646  22215166.273          46.500          36.500
                  22215172.457        3076.039        2396.996
 114144787.816 7  88944018.37146  21721039.156          47.300          37.900
                  21721039.777          -0.418          -0.153
 122527162.929 7  95475737.38045  23316149.023          45.900          30.100
                  23316150.148       -2815.320       -2193.741
 114459088.696 7  89188948.78146  21780851.047          46.300          38.800
                  21780858.043       -2663.266       -2075.176
 18  2 21  8 22  0.0000000  0  8G09G07G05G16G30G02G23G06
 108372266.557 8  84445940.19747  20622551.211          52.900          44.300
                  20622556.703       -1640.719       -1278.380
 111372236.677 8  86783613.47046  21193438.555          53.000          41.500
                  21193442.352        1601.414        1248.067
 119463598.333 8  93088565.00745  22733175.953          48.400          35.400
                  22733178.961        3026.652        2358.478
 126850234.031 6  98844396.19543  24138808.664          40.100          21.700
                  24138811.629          36.559          28.791
 116649315.122 7  90895652.73046  22197636.977          46.000          36.400
                  22197643.688        3065.148        2388.610
 114145083.229 7  88944248.55146  21721095.789          46.900          39.500
                  21721096.316         -19.172         -14.692
 122611689.529 7  95541602.21045  23332233.930          46.300          30.100
                  23332235.078       -2819.676       -2197.103
 114539199.950 7  89251373.09046  21796095.539          47.000          38.800
                  21796102.922       -2677.332       -2086.060
 18  2 21  8 22 30.0000000  0  8G09G07G05G16G30G02G23G06
 108421655.736 8  84484425.27347  20631949.406          52.200          43.900
                  20631955.008       -1651.879       -1286.991
 111324439.379 8  86746368.81446  21184343.250          52.600          41.300
                  21184346.410        1584.984        1235.344
 119372895.875 8  93017887.76545  22715915.781          49.100          33.600
                  22715919.020        3020.121        2353.521
 126849443.678 6  98843780.30143  24138657.836          40.800          20.100
                  24138661.070          16.090          12.807
 116557521.788 7  90824125.48246  22180168.836          46.400          36.400
                  22180175.184        3054.285        2380.146
 114145938.095 7  88944914.67546  21721258.438          47.200          38.900
                  21721259.039         -37.844         -29.199
 122696346.515 7  95607568.68544  23348343.789          45.100          29.300
                  23348344.668       -2824.195       -2200.499
 114619729.503 7  89314123.36146  21811419.820          46.500          38.500
                  21811426.758       -2691.414       -2096.913
 18  2 21  8 23  0.0000000  0  8G09G07G05G16G30G02G23G06
 108471376.144 8  84523168.44347  20641411.234          51.700          43.900
                  20641416.293       -1662.930       -1295.605
 111277132.636 8  86709506.44646  21175340.773          52.000          40.800
                  21175343.938        1568.582        1222.549
 119282386.647 7  92947361.09445  22698692.836          47.500          33.800
                  22698695.359        3013.656        2348.426
 126849269.654 6  98843644.70343  24138624.859          38.000          21.300
                  24138628.195          -4.512          -3.205
 116466055.340 7  90752852.92345  22162763.281          46.400          35.900
                  22162769.539        3043.352        2371.637
 114147352.573 8  88946016.85746  21721527.477          48.100          38.800
                  21721528.285         -56.578         -43.764
 122781132.618 7  95673635.75144  23364477.758          45.900          29.100
                  23364478.996       -2828.535       -2203.874
 114700674.839 7  89377197.60946  21826823.594          46.600          38.200
                  21826830.219       -2705.070       -2107.687
 18  2 21  8 23 30.0000000  0  8G09G07G05G16G30G02G23G06
 108521426.387 8  84562168.62047  20650935.375          52.400          44.400
                  20650940.703       -1673.949       -1304.157
 111230317.887 8  86673027.43446  21166432.336          52.700          40.500
                  21166434.898        1552.164        1209.759
 119192072.753 7  92876986.63945  22681506.219          47.600          34.100
                  22681509.703        3007.082        2343.311
 126849712.161 6  98843989.50743  24138709.172          39.100          20.100
                  24138712.340         -25.141         -19.274
 116374917.945 7  90681836.78146  22145420.500          47.000          36.500
                  22145427.297        3032.301        2363.027
 114149326.326 7  88947554.83946  21721903.008          47.500          39.100
                  21721903.828         -75.234         -58.314
 122866046.706 7  95739802.54644  23380636.289          44.000          29.700
                  23380637.934       -2832.723       -2207.190
 114782033.213 7  89440593.70146  21842305.602          46.700          38.600
                  21842311.957       -2718.855       -2118.390
 18  2 21  8 24  0.0000000  0  8G09G07G05G16G30G02G23G06
 108571805.057 8  84601424.71847  20660522.227          53.100          44.300
                  20660527.707       -1684.770       -1312.664
 111183996.413 8  86636932.77746  21157617.539          52.200          40.700
                  21157620.801        1535.918        1196.950
 119101956.051 7  92806765.84645  22664357.547          47.800          34.600
                  22664360.699        3000.609        2338.217
 126850771.647 6  98844815.08343  24138910.172          36.600          20.900
                  24138913.871         -45.414         -35.233
 116284111.892 7  90611078.82046  22128141.000          46.700          36.500
                  22128147.172        3021.266        2354.405
 114151859.536 8  88949528.75646  21722384.938          48.100          39.000
                  21722385.922         -93.734         -72.813
 122951087.741 7  95806068.26244  23396819.391          46.200          29.700
                  23396820.859       -2836.812       -2210.432
 114863802.087 7  89504309.65346  21857865.891          47.300          38.400
                  21857871.992       -2732.473       -2129.010
 18  2 21  8 24 30.0000000  0  8G09G07G05G16G30G02G23G06
 108622510.997 8  84640935.83247  20670171.148          51.900          44.300
                  20670176.496       -1695.625       -1321.138
 111138168.931 8  86601223.07446  21148896.961          52.000          40.600
                  21148900.531        1519.383        1184.112
 119012037.734 7  92736699.63345  22647246.453          47.700          33.700
                  22647249.957        2993.984        2333.035
 126852448.763 6  98846121.90543  24139229.281          36.900          20.900
                  24139233.051         -66.191         -51.295
 116193639.600 7  90540580.96546  22110924.461          47.600          37.100
                  22110930.867        3010.262        2345.730
 114154952.407 7  88951938.77346  21722973.773          46.900          38.600
                  21722974.246        -112.391         -87.363
 123036255.068 7  95872432.38044  23413026.094          45.500          28.800
                  23413027.297       -2840.953       -2213.705
 114945978.946 7  89568343.52846  21873503.656          45.800          38.600
                  21873510.117       -2746.023       -2139.567
 18  2 21  8 25  0.0000000  0  8G09G07G05G16G30G02G23G06
 108673542.896 8  84680700.93747  20679882.633          52.100          44.200
                  20679887.645       -1706.656       -1329.592
 111092836.916 8  86565899.47646  21140270.383          51.500          40.000
                  21140273.785        1502.730        1171.224
 118922320.333 7  92666789.99145  22630173.961          47.900          33.400
                  22630177.148        2987.090        2327.771
 126854742.844 6  98847909.48743  24139666.305          38.200          21.700
                  24139669.930         -86.812         -67.353
 116103503.457 8  90470345.03346  22093772.258          48.800          37.100
                  22093778.410        2998.789        2336.958
 114158604.536 8  88954784.57046  21723668.789          48.200          38.600
                  21723669.461        -131.137        -101.877
 123121547.107 7  95938893.68145  23429256.289          45.400          30.100
                  23429258.250       -2845.250       -2216.948
 115028561.182 7  89632693.28346  21889218.477          47.000          38.100
                  21889224.887       -2759.551       -2150.066
 18  2 21  8 25 30.0000000  0  8G09G07G05G16G30G02G23G06
 108724899.588 8  84720719.12447  20689655.109          52.600          44.700
                  20689660.176       -1717.270       -1337.956
 111048001.796 8  86530963.02746  21131738.695          51.900          39.900
                  21131741.512        1486.227        1158.353
 118832805.149 8  92597037.90345  22613139.688          48.500          34.000
                  22613143.195        2980.406        2322.544
 126857655.001 6  98850178.66343  24140219.945          38.500          20.100
                  24140224.016        -107.344         -83.353
 116013705.795 8  90400372.86446  22076684.531          49.000          37.200
                  22076690.598        2987.676        2328.188
 114162815.973 8  88958066.19846  21724470.305          49.100          38.700
                  21724470.988        -149.711        -116.366
 123206963.346 7  96005451.76344  23445510.742          44.900          28.800
                  23445511.934       -2849.277       -2220.101
 115111546.345 7  89697357.01046  21905010.148          47.600          37.700
                  21905016.531       -2772.812       -2160.446
 18  2 21  8 26  0.0000000  0  8G09G07G05G16G30G02G23G06
 108776579.706 8  84760989.34447  20699489.719          52.100          44.600
                  20699495.023       -1728.113       -1346.436
 111003664.252 8  86496414.30046  21123301.242          52.300          40.500
                  21123304.316        1469.563        1145.321
 118743493.912 7  92527444.73745  22596144.477          47.900          33.400
                  22596147.680        2973.574        2317.142
 126861185.391 6  98852929.58843  24140891.906          36.700          19.900
                  24140895.809        -128.133         -99.501
 115924248.933 8  90330666.24746  22059661.406          48.800          37.100
                  22059667.113        2976.137        2319.212
 114167586.678 8  88961783.61946  21725377.883          49.000          38.600
                  21725378.703        -168.406        -130.977
 123292502.466 7  96072105.59645  23461788.563          44.600          30.400
                  23461789.957       -2853.406       -2223.369
 115194931.793 8  89762332.65846  21920877.859          48.000          38.200
                  21920884.316       -2786.180       -2170.909
 18  2 21  8 26 30.0000000  0  8G09G07G05G16G30G02G23G06
 108828581.786 8  84801510.43847  20709385.406          51.900          44.800
                  20709390.754       -1738.820       -1354.760
 110959825.415 8  86462254.17346  21114959.016          51.500          39.600
                  21114962.211        1452.953        1132.370
 118654389.434 8  92458012.67345  22579188.922          48.500          32.800
                  22579191.852        2966.559        2311.773
 126865333.379 6  98856161.76943  24141680.570          36.200          18.600
                  24141685.223        -148.539        -115.512
 115835134.935 8  90261226.80946  22042703.438          48.200          37.400
                  22042709.883        2964.645        2310.315
 114172916.629 7  88965936.82246  21726392.047          47.700          38.400
                  21726393.086        -186.973        -145.477
 123378163.304 7  96138854.27544  23478089.414          42.700          29.600
                  23478090.406       -2857.453       -2226.500
 115278714.722 7  89827618.04246  21936820.852          46.300          37.300
                  21936827.484       -2799.523       -2181.171
 18  2 21  8 27  0.0000000  0  8G09G07G05G16G30G02G23G06
 108880904.767 8  84842281.57547  20719342.109          52.400          44.400
                  20719347.223       -1749.395       -1363.083
 110916486.620 8  86428483.69846  21106711.914          50.600          40.400
                  21106715.215        1436.242        1119.352
 118565492.706 7  92388742.49845  22562271.781          47.900          32.800
                  22562275.039        2959.695        2306.325
 126870099.783 6  98859875.83843  24142587.969          38.500          19.000
                  24142591.641        -169.008        -131.584
 115746366.357 8  90192056.52446  22025811.797          48.600          37.100
                  22025817.594        2953.098        2301.276
 114178805.738 8  88970525.71646  21727512.891          48.100          37.200
                  21727513.836        -205.637        -160.009
 123463945.077 7  96205697.16344  23494412.844          44.500          28.900
                  23494414.473       -2861.395       -2229.637
 115362892.709 7  89893211.27746  21952839.930          47.800          37.900
                  21952846.070       -2812.566       -2191.423
 18  2 21  8 27 30.0000000  0  8G09G07G05G16G30G02G23G06
 108933547.552 8  84883301.91147  20729359.727          51.900          44.000
                  20729364.555       -1760.195       -1371.376
 110873649.080 8  86395103.79646  21098559.938          50.800          40.100
                  21098563.641        1419.520        1106.351
 118476805.825 7  92319635.83745  22545395.453          47.500          32.200
                  22545398.438        2952.699        2300.896
 126875484.812 6  98864072.00043  24143612.266          38.000          19.600
                  24143616.418        -190.039        -147.669
 115657945.642 8  90123157.30546  22008985.484          48.100          37.300
                  22008991.273        2941.520        2292.240
 114185254.157 7  88975550.45146  21728740.000          47.700          37.900
                  21728740.648        -224.359        -174.528
 123549846.724 7  96272633.50144  23510759.258          42.900          29.100
                  23510761.520       -2865.414       -2232.726
 115447463.247 7  89959110.37946  21968933.102          46.000          37.700
                  21968939.238       -2825.578       -2201.548
 18  2 21  8 28  0.0000000  0  8G09G07G05G16G30G02G23G06
 108986508.612 8  84924570.26347  20739437.828          52.800          44.300
                  20739443.094       -1770.703       -1379.638
 110831313.639 8  86362115.14146  21090503.969          51.500          40.200
                  21090507.348        1402.691        1093.261
 118388330.314 8  92250693.88445  22528559.305          48.000          32.600
                  22528562.453        2945.602        2295.367
 126881488.593 6  98868750.23143  24144755.422          37.000          19.600
                  24144759.305        -210.559        -163.722
 115569874.915 8  90054530.80646  21992225.859          49.100          37.900
                  21992232.055        2929.805        2283.112
 114192261.251 7  88981010.51146  21730073.039          47.900          37.600
                  21730073.582        -242.992        -189.041
 123635867.105 7  96339662.33744  23527128.625          44.200          28.100
                  23527129.754       -2869.371       -2235.806
 115532423.495 7  90025313.14446  21985100.547          47.300          38.000
                  21985106.770       -2838.527       -2211.664
 18  2 21  8 28 30.0000000  0  8G09G07G05G16G30G02G23G06
 109039787.470 8  84966086.25547  20749576.820          52.300          44.500
                  20749581.664       -1781.168       -1387.810
 110789482.110 8  86329519.15446  21082543.867          52.000          40.100
                  21082547.266        1386.070        1080.239
 118300069.271 7  92181919.05345  22511763.836          46.600          33.300
                  22511766.836        2938.465        2289.807
 126888111.895 6  98873911.20243  24146016.313          38.500          19.300
                  24146020.316        -231.090        -179.777
 115482157.202 8  89986179.37146  21975533.922          49.600          37.200
                  21975539.637        2918.035        2273.976
 114199827.713 8  88986906.44546  21731513.266          48.400          37.200
                  21731513.844        -261.457        -203.504
 123722006.264 7  96406783.73744  23543520.320          44.500          28.100
                  23543521.395       -2873.266       -2238.846
 115617771.631 7  90091818.15946  22001341.641          46.900          38.000
                  22001347.988       -2851.395       -2221.662
 18  2 21  8 29  0.0000000  0  8G09G07G05G16G30G02G23G06
 109093382.215 8  85007848.37647  20759775.555          52.000          44.600
                  20759780.504       -1791.629       -1396.029
 110748155.074 8  86297316.28746  21074679.398          51.600          40.600
                  21074683.094        1369.168        1067.080
 118212024.116 7  92113312.44445  22495009.750          46.500          33.100
                  22495011.996        2931.375        2284.197
 126895354.060 6  98879554.45543  24147394.055          38.400          19.900
                  24147397.906        -251.828        -195.924
 115394794.124 8  89918104.27546  21958909.406          48.300          37.800
                  21958915.164        2906.160        2264.685
 114207952.840 8  88993237.70446  21733059.438          48.600          37.400
                  21733059.867        -280.086        -218.054
 123808262.423 7  96473996.26944  23559934.859          44.200          29.000
                  23559936.285       -2877.078       -2241.883
 115703504.333 7  90158622.83446  22017655.852          46.300          38.000
                  22017662.625       -2864.117       -2231.635
 18  2 21  8 29 30.0000000  0  8G09G07G05G16G30G02G23G06
 109147291.018 8  85049855.22747  20770033.672          52.700          44.300
                  20770039.117       -1802.137       -1404.153
 110707332.742 8  86265506.69446  21066911.414          52.400          41.600
                  21066914.957        1352.309        1053.972
 118124195.764 7  92044874.76945  22478296.172          45.800          33.600
                  22478299.074        2923.887        2278.503
 126903214.927 6  98885679.74943  24148890.492          38.500          19.600
                  24148893.574        -272.285        -211.942
 115307787.451 8  89850306.91746  21942352.383          48.100          37.300
                  21942358.770        2894.180        2255.417
 114216635.971 7  89000003.77346  21734711.695          47.900          37.500
                  21734712.328        -298.773        -232.538
 123894633.946 7  96541298.74544  23576370.703          44.200          27.100
                  23576371.559       -2880.867       -2244.846
 115789618.421 7  90225724.69646  22034042.742          46.700          37.000
                  22034049.988       -2876.738       -2241.483
 18  2 21  8 30  0.0000000  0  8G09G07G05G16G30G02G23G06
 109201513.020 8  85092106.13447  20780351.883          51.900          43.700
                  20780356.797       -1812.684       -1412.293
 110667016.543 8  86234091.47946  21059239.289          52.700          41.600
                  21059242.922        1335.367        1040.839
 118036586.852 7  91976608.08545  22461624.773          47.500          33.900
                  22461627.637        2916.539        2272.800
 126911694.729 6  98892287.37643  24150503.680          38.800          20.900
                  24150507.043        -292.977        -228.017
 115221139.830 8  89782789.31946  21925863.469          49.100          38.400
                  21925869.660        2882.164        2246.074
 114225876.884 8  89007204.47246  21736470.031          48.000          37.200
                  21736470.695        -317.383        -247.015
 123981120.179 7  96608690.57844  23592828.453          43.700          28.000
                  23592829.801       -2884.879       -2247.819
 115876111.592 7  90293121.92946  22050501.703          46.700          36.800
                  22050508.961       -2889.434       -2251.295
 18  2 21  8 30 30.0000000  0  8G09G07G05G16G30G02G23G06
 109256047.085 8  85134600.20247  20790729.391          50.900          44.100
                  20790734.586       -1822.953       -1420.371
 110627207.544 8  86203071.50146  21051663.750          52.400          41.200
                  21051667.441        1318.512        1027.621
 117949198.610 7  91908513.37145  22444995.172          47.600          34.600
                  22444998.074        2909.172        2267.019
 126920793.420 6  98899377.20443  24152235.648          38.200          19.900
                  24152238.750        -313.684        -244.070
 115134853.659 8  89715553.37246  21909444.008          48.500          37.800
                  21909450.297        2870.117        2236.642
 114235675.673 8  89014839.88346  21738334.828          48.300          37.300
                  21738335.422        -335.883        -261.521
 124067720.396 7  96676171.23744  23609307.469          42.900          26.400
                  23609308.922       -2888.555       -2250.787
 115962981.400 7  90360812.66446  22067032.445          44.500          36.700
                  22067039.789       -2901.906       -2261.071
 18  2 21  8 31  0.0000000  0  8G09G07G05G16G30G02G23G06
 109310891.935 8  85177336.43747  20801165.938          51.300          43.900
                  20801171.516       -1833.266       -1428.403
 110587906.785 8  86172447.54446  21044185.281          52.500          40.800
                  21044188.629        1301.520        1014.425
 117862033.582 8  91840592.58845  22428408.180          48.700          34.300
                  22428411.355        2901.816        2261.221
 126930510.594 6  98906949.00243  24154084.641          36.900          19.300
                  24154087.637        -334.082        -260.171
 115048931.181 8  89648600.82446  21893093.352          48.600          38.600
                  21893099.758        2858.000        2227.179
 114246032.020 8  89022909.74846  21740305.516          48.500          37.900
                  21740306.289        -354.539        -275.976
 124154433.612 7  96743739.94444  23625809.031          42.200          27.700
                  23625810.277       -2892.398       -2253.689
 116050225.057 7  90428794.71746  22083634.469          45.600          36.900
                  22083641.723       -2914.281       -2270.727
 18  2 21  8 31 30.0000000  0  8G09G07G05G16G30G02G23G06
 109366046.137 8  85220313.72847  20811661.406          51.400          43.900
                  20811666.613       -1843.590       -1436.453
 110549115.035 8  86142220.22046  21036803.320          51.600          41.400
                  21036807.016        1284.551        1001.182
 117775093.219 8  91772846.85545  22411863.391          48.500          34.100
                  22411867.023        2894.289        2255.370
 126940846.762 6  98915003.13543  24156051.125          38.700          19.600
                  24156054.785        -354.875        -276.260
 114963374.423 8  89581933.23946  21876812.859          48.400          38.500
                  21876818.867        2845.727        2217.660
 114256945.430 8  89031413.69246  21742382.750          49.400          37.300
                  21742383.324        -373.047        -290.448
 124241258.723 7  96811395.84344  23642330.805          45.100          26.400
                  23642331.789       -2895.969       -2256.587
 116137839.789 7  90497065.92946  22100306.625          45.600          37.000
                  22100314.477       -2926.680       -2280.347
 18  2 21  8 32  0.0000000  0  8G09G07G05G16G30G02G23G06
 109421508.427 8  85263531.09147  20822215.680          51.300          43.600
                  20822220.539       -1853.879       -1444.443
 110510833.417 8  86112390.39846  21029519.000          51.600          41.000
                  21029522.180        1267.516         987.910
 117688379.783 8  91705277.95445  22395362.469          48.700          34.800
                  22395365.992        2886.637        2249.435
 126951801.300 6  98923539.10043  24158135.445          38.200          19.300
                  24158139.457        -375.496        -292.314
 114878185.721 8  89515552.49246  21860601.383          48.800          38.600
                  21860608.234        2833.434        2208.063
 114268415.463 7  89040351.36746  21744565.234          47.800          38.100
                  21744566.012        -391.551        -304.919
 124328194.789 7  96879138.22644  23658874.273          44.500          27.500
                  23658875.703       -2899.758       -2259.484
 116225822.884 7  90565624.15946  22117049.891          46.300          36.700
                  22117057.133       -2938.840       -2289.873
 18  2 21  8 32 30.0000000  0  8G09G07G05G16G30G02G23G06
 109477277.413 8  85306987.43247  20832827.977          51.100          43.400
                  20832833.359       -1863.965       -1452.362
 110473062.814 8  86082958.76646  21022331.039          51.300          41.400
                  21022334.656        1250.563         974.635
 117601895.163 8  91637887.34845  22378905.227          48.400          34.200
                  22378908.855        2879.020        2243.484
 126963374.193 6  98932556.90243  24160338.891          38.800          19.000
                  24160340.797        -396.129        -308.351
 114793367.144 8  89449460.12546  21844461.117          49.400          38.600
                  21844467.160        2821.223        2198.414
 114280441.796 8  89049722.52146  21746853.484          48.200          37.700
                  21746854.480        -410.102        -319.342
 124415240.410 7  96946965.90844  23675438.766          43.100          26.200
                  23675439.793       -2903.262       -2262.267
 116314171.436 7  90634467.12946  22133862.094          45.700          36.400
                  22133869.055       -2950.879       -2299.312
 18  2 21  8 33  0.0000000  0  8G09G07G05G16G30G02G23G06
 109533352.086 8  85350681.98047  20843498.813          51.700          43.400
                  20843503.625       -1874.258       -1460.317
 110435804.091 8  86053926.00646  21015240.766          49.600          40.900
                  21015244.117        1233.457         961.322
 117515640.583 8  91570675.98445  22362491.117          49.100          35.400
                  22362494.891        2871.316        2237.471
 126975565.522 6  98942056.64043  24162658.992          39.700          19.000
                  24162660.461        -416.637        -324.428
 114708921.106 7  89383658.03346  21828392.008          47.800          38.900
                  21828398.203        2808.645        2188.710
 114293024.325 8  89059527.07346  21749247.828          48.000          38.600
                  21749248.879        -428.648        -333.796
 124502395.066 7  97014878.60344  23692024.148          43.700          26.400
                  23692025.016       -2906.980       -2265.111
 116402883.026 7  90703592.99646  22150743.258          45.900          37.100
                  22150750.063       -2963.039       -2308.716
 18  2 21  8 33 30.0000000  0  8G09G07G05G16G30G02G23G06
 109589730.826 8  85394613.45747  20854227.148          51.000          43.800
                  20854232.836       -1884.328       -1468.169
 110399057.629 8  86025292.41246  21008248.133          50.200          39.900
                  21008251.750        1216.352         948.024
 117429618.607 8  91503645.87945  22346122.180          48.600          35.700
                  22346125.488        2863.586        2231.422
 126988374.694 6  98952037.78643  24165095.805          39.400          19.900
                  24165098.723        -437.277        -340.469
 114624849.480 8  89318147.72546  21812393.375          48.400          39.300
                  21812399.660        2796.148        2178.978
 114306162.446 8  89069764.55546  21751748.125          49.600          38.700
                  21751748.578        -447.184        -348.204
 124589657.579 7  97082875.35144  23708629.125          43.200          27.400
                  23708630.602       -2910.570       -2267.895
 116491954.647 7  90772999.40246  22167693.492          45.900          36.800
                  22167700.418       -2974.949       -2318.019
 18  2 21  8 34  0.0000000  0  8G09G07G05G16G30G02G23G06
 109646412.577 8  85438781.04847  20865013.430          50.200          43.400
                  20865018.715       -1894.574       -1476.050
 110362824.687 8  85997058.95946  21001353.219          50.200          40.400
                  21001356.453        1199.133         934.673
 117343831.147 8  91436798.50546  22329798.070          49.100          36.400
                  22329800.965        2855.547        2225.306
 127001801.818 6  98962500.44243  24167650.914          39.100          19.000
                  24167653.793        -458.109        -356.496
 114541154.697 8  89252931.07346  21796467.102          49.600          38.600
                  21796472.633        2783.465        2169.153
 114319855.750 8  89080434.64546  21754353.422          48.900          38.600
                  21754354.820        -465.754        -362.632
 124677027.219 7  97150955.54944  23725255.070          43.300          27.000
                  23725256.809       -2914.246       -2270.673
 116581383.692 7  90842684.33546  22184711.078          45.300          37.000
                  22184717.992       -2987.055       -2327.298
 18  2 21  8 34 30.0000000  0  8G09G07G05G16G30G02G23G06
 109703396.117 8  85483183.79647  20875857.164          50.600          43.200
                  20875862.422       -1904.453       -1483.892
 110327106.174 8  85969226.35446  20994556.031          49.400          40.400
                  20994559.836        1182.012         921.271
 117258279.693 7  91370135.03946  22313517.703          47.700          36.700
                  22313521.023        2847.691        2219.107
 127015846.847 6  98973444.63543  24170324.320          40.100          19.900
                  24170326.332        -478.375        -372.503
 114457838.970 7  89188009.77746  21780612.320          47.800          39.400
                  21780618.309        2770.848        2159.245
 114334103.810 8  89091537.01246  21757065.406          49.500          38.600
                  21757066.129        -484.238        -377.055
 124764502.886 7  97219118.41444  23741901.094          42.300          27.300
                  23741902.336       -2917.652       -2273.439
 116671167.528 7  90912645.72846  22201796.320          45.900          37.600
                  22201803.184       -2998.664       -2336.491
 18  2 21  8 35  0.0000000  0  8G09G07G05G16G30G02G23G06
 109760680.049 8  85527820.61147  20886757.906          50.700          43.700
                  20886762.750       -1914.473       -1491.664
 110291902.734 8  85941795.11146  20987857.219          49.900          40.400
                  20987860.633        1164.848         907.886
 117172966.634 8  91303657.33946  22297283.156          49.900          37.100
                  22297286.363        2839.762        2212.897
 127030508.976 6  98984869.66143  24173114.563          39.000          19.600
                  24173116.199        -498.785        -388.569
 114374904.345 8  89123385.43946  21764830.445          49.500          39.400
                  21764835.926        2758.188        2149.331
 114348906.012 8  89103071.17846  21759882.336          49.500          39.200
                  21759882.844        -502.645        -391.435
 124852083.614 7  97287363.08144  23758567.391          43.400          26.000
                  23758569.199       -2921.133       -2276.138
 116761303.266 7  90982881.31646  22218948.742          46.400          36.300
                  22218955.594       -3010.375       -2345.604
 18  2 21  8 35 30.0000000  0  8G09G07G05G16G30G02G23G06
 109818263.138 8  85572690.54247  20897715.461          51.300          43.700
                  20897721.203       -1924.387       -1499.405
 110257215.220 8  85914765.88446  20981256.852          50.200          40.800
                  20981260.391        1147.645         894.490
 117087893.897 7  91237366.91346  22281094.484          47.800          37.800
                  22281097.867        2831.664        2206.644
 127045788.214 6  98996775.56043  24176022.266          41.000          19.900
                  24176024.434        -519.602        -404.586
 114292353.011 8  89059059.77546  21749121.367          49.300          39.200
                  21749126.945        2745.277        2139.369
 114364261.961 8  89115036.84546  21762804.203          49.400          39.200
                  21762804.930        -521.113        -405.806
 124939768.337 7  97355688.78744  23775252.930          43.700          25.800
                  23775254.855       -2924.445       -2278.810
 116851788.175 7  91053389.01746  22236167.359          46.400          36.200
                  22236174.230       -3022.012       -2354.621
 18  2 21  8 36  0.0000000  0  8G09G07G05G16G30G02G23G06
 109876144.293 8  85617792.72947  20908729.930          51.100          43.500
                  20908735.023       -1934.285       -1507.141
 110223044.522 8  85888139.39046  20974754.453          50.000          40.900
                  20974757.531        1130.500         881.059
 117003062.961 8  91171264.89446  22264951.461          49.700          37.500
                  22264955.020        2823.762        2200.360
 127061684.748 6  99009162.45643  24179046.641          39.600          19.300
                  24179049.797        -540.172        -420.650
 114210187.259 8  88995034.57246  21733485.711          50.800          39.600
                  21733491.980        2732.527        2129.329
 114380171.244 8  89127433.67346  21765831.945          49.500          38.800
                  21765832.340        -539.465        -420.170
 125027556.443 7  97424095.08744  23791958.688          43.100          26.200
                  23791960.180       -2927.945       -2281.510
 116942619.607 7  91124166.71946  22253451.945          44.800          36.500
                  22253458.691       -3033.418       -2363.588
 18  2 21  8 36 30.0000000  0  8G09G07G05G16G30G02G23G06
 109934322.149 8  85663126.12047  20919800.805          50.300          43.600
                  20919806.020       -1944.145       -1514.847
 110189391.463 8  85861916.22546  20968350.281          50.100          41.100
                  20968353.504        1113.086         867.578
 116918476.175 8  91105353.13646  22248855.156          49.100          37.400
                  22248858.316        2815.512        2193.961
 127078197.367 6  99022029.41543  24182188.813          39.900          19.900
                  24182191.785        -560.715        -436.702
 114128409.239 8  88931311.50246  21717924.047          50.600          38.700
                  21717929.523        2719.457        2119.208
 114396633.398 8  89140261.31946  21768964.242          49.500          38.500
                  21768965.090        -557.922        -434.520
 125115446.901 7  97492581.08244  23808684.055          43.400          27.000
                  23808685.793       -2931.461       -2284.151
 117033794.825 7  91195212.28346  22270802.336          45.900          36.100
                  22270809.133       -3044.773       -2372.497
 18  2 21  8 37  0.0000000  0  8G09G07G05G16G30G02G23G06
 109992795.392 8  85708689.67847  20930927.656          49.800          43.900
                  20930933.094       -1954.047       -1522.470
 110156256.619 8  85836096.87646  20962044.945          49.300          40.900
                  20962047.902        1095.816         854.145
 116834135.332 8  91039633.01146  22232805.594          50.000          37.700
                  22232808.883        2807.262        2187.584
 127095325.700 6  99035376.15343  24185447.914          39.400          20.400
                  24185451.031        -581.074        -452.605
 114047020.892 8  88867892.03246  21702435.844          51.000          39.700
                  21702441.676        2706.473        2109.085
 114413647.757 8  89153519.24646  21772201.820          49.000          38.300
                  21772202.387        -576.348        -448.841
 125203438.471 7  97561145.92244  23825427.758          43.200          25.300
                  23825430.113       -2934.711       -2286.747
 117125310.862 7  91266523.44345  22288217.273          45.500          35.900
                  22288223.789       -3056.289       -2381.281
 18  2 21  8 37 30.0000000  0  8G09G07G05G16G30G02G23G06
 110051562.908 8  85754482.53847  20942111.086          50.800          44.000
                  20942116.461       -1963.723       -1530.112
 110123640.965 8  85810682.08946  20955838.125          50.000          41.100
                  20955841.582        1078.633         840.662
 116750042.434 8  90974106.08146  22216803.172          49.900          37.700
                  22216806.383        2799.020        2181.111
 127113070.069 6  99049202.91743  24188824.156          40.600          20.600
                  24188827.523        -601.629        -468.626
 113966024.574 8  88804778.05446  21687022.836          49.500          38.800
                  21687028.727        2693.398        2098.850
 114431213.683 8  89167206.96846  21775544.352          48.800          38.800
                  21775545.109        -594.609        -463.166
 125291530.612 7  97629789.11444  23842191.844          44.300          25.600
                  23842193.125       -2937.996       -2289.326
 117217165.137 7  91338098.16045  22305696.758          45.600          35.700
                  22305703.313       -3067.344       -2390.032
 18  2 21  8 38  0.0000000  0  8G09G07G05G16G30G02G23G06
 110110623.391 8  85800503.68047  20953349.969          51.400          43.900
                  20953355.395       -1973.582       -1537.719
 110091544.969 8  85785672.23246  20949730.688          50.900          41.600
                  20949733.934        1061.176         827.109
 116666199.277 8  90908773.75546  22200848.281          48.200          38.400
                  22200851.453        2790.527        2174.580
 127131429.623 6  99063509.06043  24192318.336          39.600          20.100
                  24192322.059        -622.137        -484.587
 113885422.320 8  88741971.12946  21671684.461          48.200          39.700
                  21671690.563        2680.121        2088.582
 114449330.719 8  89181324.13046  21778992.250          48.300          38.400
                  21778993.168        -613.129        -477.488
 125379722.205 7  97698509.79444  23858973.680          43.500          25.700
                  23858975.656       -2941.277       -2291.942
 117309354.817 7  91409934.22545  22323239.641          45.500          35.600
                  22323246.488       -3078.543       -2398.737
 18  2 21  8 38 30.0000000  0  8G09G07G05G16G30G02G23G06
 110169975.613 8  85846752.15747  20964644.125          51.400          43.400
                  20964649.848       -1983.270       -1545.282
 110059969.670 8  85761068.11446  20943722.273          50.200          40.900
                  20943725.645        1043.777         813.592
 116582608.193 8  90843637.85546  22184941.516          49.800          38.100
                  22184944.867        2782.141        2168.027
 127150404.217 6  99078294.42643  24195929.313          40.000          19.900
                  24195932.824        -642.805        -500.569
 113805216.326 8  88679472.97746  21656421.867          49.600          39.200
                  21656428.430        2666.953        2078.257
 114467998.354 8  89195870.32846  21782544.336          48.700          38.300
                  21782545.262        -631.457        -491.798
 125468012.447 7  97767307.33544  23875774.906          43.500          25.400
                  23875776.992       -2944.617       -2294.497
 117401877.149 7  91482029.51645  22340846.281          44.900          34.600
                  22340852.648       -3089.656       -2407.345
 18  2 21  8 39  0.0000000  0  8G09G07G05G16G30G02G23G06
 110229618.107 8  85893226.81747  20975993.789          52.400          43.300
                  20975999.145       -1992.867       -1552.788
 110028915.103 8  85736869.78446  20937812.328          51.300          41.700
                  20937816.250        1026.480         800.052
 116499270.747 8  90778699.58646  22169082.703          48.200          37.600
                  22169086.543        2773.738        2161.392
 127169992.928 6  99093558.33443  24199656.914          39.400          19.900
                  24199660.605        -663.125        -516.539
 113725408.412 8  88617285.01146  21641235.117          49.900          39.400
                  21641240.488        2653.656        2067.910
 114487215.395 8  89210844.63346  21786201.555          48.500          37.900
                  21786202.281        -649.707        -506.055
 125556400.244 7  97836180.88944  23892594.680          44.200          25.300
                  23892596.281       -2947.660       -2296.993
 117494729.103 7  91554381.62445  22358515.289          44.000          34.400
                  22358522.367       -3100.543       -2415.865
 18  2 21  8 39 30.0000000  0  8G09G07G05G16G30G02G23G06
 110289549.853 8  85939926.87147  20987398.094          52.400          43.600
                  20987403.984       -2002.484       -1560.231
 109998382.457 8  85713078.11746  20932002.445          51.500          41.100
                  20932005.902        1009.047         786.545
 116416189.313 8  90713960.80746  22153272.820          50.100          38.100
                  22153276.266        2765.215        2154.783
 127190195.722 6  99109300.73743  24203500.672          40.600          19.300
                  24203504.750        -683.535        -532.386
 113646000.940 8  88555409.05046  21626124.242          49.600          38.700
                  21626129.824        2640.219        2057.551
 114506981.705 8  89226246.94146  21789962.484          48.800          38.400
                  21789963.566        -668.027        -520.242
 125644884.897 7  97905129.94044  23909432.344          43.000          26.500
                  23909434.629       -2951.098       -2299.457
 117587908.065 7  91626988.58945  22376246.406          45.100          34.300
                  22376252.816       -3111.328       -2424.254
 18  2 21  8 40  0.0000000  0  8G09G07G05G16G30G02G23G06
 110349769.561 8  85986851.29747  20998857.742          51.900          43.800
                  20998863.203       -2011.992       -1567.699
 109968372.454 8  85689693.69546  20926291.516          51.800          41.500
                  20926294.863         991.648         772.959
 116333365.587 8  90649422.85146  22137511.969          49.400          38.400
                  22137515.496        2756.578        2148.090
 127211011.783 6  99125521.06143  24207462.320          41.000          20.100
                  24207465.563        -704.066        -548.318
 113566995.919 8  88493846.72846  21611090.000          50.200          39.200
                  21611096.246        2626.773        2047.060
 114527296.510 8  89242076.65046  21793828.352          48.200          37.400
                  21793829.496        -686.273        -534.484
 125733465.205 7  97974153.49944  23926289.266          42.600          25.800
                  23926290.348       -2954.281       -2301.961
 117681411.261 7  91699848.18345  22394039.539          44.200          33.700
                  22394046.828       -3122.027       -2432.662
 18  2 21  8 40 30.0000000  0  8G09G07G05G16G30G02G23G06
 110410275.819 8  86033999.03047  21010371.695          51.800          43.700
                  21010377.379       -2021.551       -1575.162
 109938885.153 8  85666716.58446  20920680.305          51.200          41.000
                  20920683.824         974.215         759.365
 116250801.259 8  90585087.00346  22121800.930          48.100          38.100
                  22121804.387        2747.832        2141.267
 127232440.550 6  99142218.78343  24211540.484          39.400          20.900
                  24211543.086        -724.441        -564.267
 113488395.248 8  88432599.45846  21596133.102          48.100          39.400
                  21596139.023        2613.375        2036.514
 114548159.000 7  89258333.11846  21797798.961          46.900          37.500
                  21797799.711        -704.422        -548.731
 125822140.330 6  98043250.98144  23943163.305          40.900          26.000
                  23943164.891       -2957.289       -2304.409
 117775235.658 7  91772958.06745  22411893.594          43.200          33.200
                  22411901.344       -3132.645       -2440.971
 18  2 21  8 41  0.0000000  0  8G09G07G05G16G30G02G23G06
 110471067.955 8  86081369.51047  21021940.164          52.400          43.800
                  21021945.441       -2031.090       -1582.587
 109909921.954 8  85644147.85946  20915168.672          50.700          41.200
                  20915171.859         956.734         745.704
 116168499.543 8  90520955.80646  22106139.313          49.100          38.400
                  22106142.645        2739.066        2134.424
 127254481.552 6  99159393.55943  24215735.250          40.000          20.400
                  24215738.164        -744.859        -580.164
 113410201.603 8  88371669.35946  21581252.992          50.500          40.300
                  21581259.156        2599.660        2025.876
 114569568.846 7  89275016.09346  21801872.477          46.300          36.900
                  21801873.809        -722.762        -562.958
 125910910.080 7  98112422.16544  23960055.867          42.400          26.200
                  23960057.672       -2960.492       -2306.874
 117869379.049 7  91846316.54945  22429808.734          43.700          33.200
                  22429815.410       -3143.344       -2449.261
 18  2 21  8 41 30.0000000  0  8G09G07G05G16G30G02G23G06
 110532144.190 8  86128961.37447  21033562.438          52.100          43.200
                  21033567.902       -2040.617       -1589.958
 109881482.936 8  85621987.59746  20909756.906          50.200          40.400
                  20909760.473         939.203         732.090
 116086460.699 8  90457029.43946  22090527.938          50.000          38.100
                  22090531.195        2730.223        2127.568
 127277134.258 6  99177044.99943  24220045.164          40.200          20.400
                  24220049.637        -765.383        -596.094
 113332416.489 8  88311057.58346  21566450.977          50.800          40.400
                  21566457.152        2585.953        2015.244
 114591524.679 7  89292124.52446  21806050.594          47.200          37.900
                  21806051.754        -740.953        -577.134
 125999772.920 6  98181665.86444  23976965.914          41.700          26.400
                  23976968.527       -2963.586       -2309.285
 117963838.055 7  91919920.93645  22447783.703          43.500          33.300
                  22447791.551       -3153.898       -2457.416
 18  2 21  8 42  0.0000000  0  8G09G07G05G16G30G02G23G06
 110593503.115 8  86176773.50247  21045238.719          50.900          43.100
                  21045244.094       -2049.953       -1597.301
 109853568.515 8  85600236.09846  20904445.016          49.800          40.400
                  20904448.469         921.742         718.437
 116004687.401 8  90393309.99846  22074966.547          49.500          38.200
                  22074970.586        2721.277        2120.600
 127300397.886 6  99195172.46943  24224471.984          39.200          20.600
                  24224476.113        -785.621        -611.911
 113255041.747 8  88250765.58346  21551727.258          50.900          41.000
                  21551733.285        2572.293        2004.548
 114614025.791 8  89309657.84046  21810332.547          48.000          37.300
                  21810333.285        -759.141        -591.314
 126088727.826 7  98250981.35244  23993893.516          43.700          24.700
                  23993894.055       -2966.789       -2311.682
 118058609.680 7  91993768.94645  22465817.320          42.700          32.400
                  22465824.797       -3164.234       -2465.532
 18  2 21  8 42 30.0000000  0  8G09G07G05G16G30G02G23G06
 110655143.640 8  86224805.06547  21056968.445          51.700          42.800
                  21056973.883       -2059.461       -1604.597
 109826179.290 8  85578893.84546  20899233.141          48.900          40.800
                  20899236.941         904.133         704.792
 115923182.227 8  90329799.48346  22059456.898          49.600          37.500
                  22059460.074        2712.281        2113.629
 127324271.259 6  99213775.11743  24229015.523          40.600          20.900
                  24229018.438        -806.070        -627.793
 113178079.566 8  88190795.03946  21537082.102          50.500          40.600
                  21537088.707        2558.551        1993.809
 114637071.553 8  89327615.55746  21814718.289          48.100          37.800
                  21814719.211        -777.344        -605.437
 126177773.843 7  98320367.82844  24010837.969          43.000          25.500
                  24010840.406       -2969.809       -2314.048
 118153691.179 7  92067858.39645  22483911.375          42.800          33.600
                  22483918.430       -3174.500       -2473.521
 18  2 21  8 43  0.0000000  0  8G09G07G05G16G30G02G23G06
 110717064.756 8  86273055.27647  21068751.555          50.800          42.700
                  21068757.004       -2068.652       -1611.878
 109799316.161 8  85557961.55046  20894121.063          50.000          41.700
                  20894124.574         886.723         691.118
 115841946.305 8  90266498.76946  22043998.531          49.200          36.900
                  22044001.590        2703.430        2106.615
 127348754.669 6  99232853.09043  24233673.828          40.500          20.400
                  24233677.559        -826.219        -643.600
 113101532.174 8  88131147.74946  21522515.234          50.900          40.600
                  21522521.695        2544.727        1982.997
 114660661.222 8  89345997.09546  21819207.391          48.400          37.700
                  21819208.109        -795.312        -619.561
 126266910.517 6  98389824.90344  24027800.328          41.900          26.300
                  24027802.781       -2972.613       -2316.371
 118249080.029 7  92142187.32145  22502063.477          42.000          33.200
                  22502071.184       -3184.707       -2481.472
 18  2 21  8 43 30.0000000  0  8G09G07G05G16G30G02G23G06
 110779265.057 8  86321523.02747  21080588.094          50.700          43.500
                  21080593.852       -2077.961       -1619.070
 109772979.584 8  85537439.54846  20889109.625          49.800          41.300
                  20889112.809         869.184         677.475
 115760982.260 8  90203409.91446  22028591.063          48.700          37.700
                  22028594.285        2694.270        2099.556
 127373846.384 6  99252405.10043  24238449.008          39.200          19.600
                  24238452.535        -846.285        -659.318
 113025401.468 8  88071825.10146  21508028.180          51.000          40.900
                  21508033.922        2530.773        1972.200
 114684794.031 8  89364801.86446  21823799.633          48.300          37.400
                  21823800.078        -813.391        -633.604
 126356136.806 7  98459351.82544  24044780.000          43.400          25.800
                  24044782.293       -2975.582       -2318.645
 118344773.112 7  92216753.34145  22520273.172          43.700          34.400
                  22520279.902       -3194.762       -2489.302
 18  2 21  8 44  0.0000000  0  8G09G07G05G16G30G02G23G06
 110841743.329 8  86370207.38247  21092477.219          50.800          42.500
                  21092482.699       -2087.191       -1626.336
 109747169.791 8  85517328.01646  20884198.289          49.000          41.300
                  20884200.895         851.594         663.717
 115680291.661 8  90140534.12246  22013236.438          48.400          36.700
                  22013239.617        2685.090        2092.365
 127399546.417 6  99272431.06642  24243338.703          39.200          17.800
                  24243342.738        -866.727        -675.238
 112949689.403 8  88012828.68846  21493620.961          50.500          41.400
                  21493627.305        2516.797        1961.243
 114709468.798 8  89384028.93146  21828495.133          48.000          37.900
                  21828495.520        -831.465        -647.747
 126445451.742 7  98528947.85844  24061775.234          42.600          24.300
                  24061776.863       -2978.469       -2320.996
 118440767.760 7  92291554.32745  22538540.719          43.700          34.500
                  22538548.195       -3204.770       -2497.174
 18  2 21  8 44 30.0000000  0  8G09G07G05G16G30G02G23G06
 110904498.203 8  86419107.26347  21104419.227          50.200          42.800
                  21104424.938       -2096.391       -1633.449
 109721887.110 8  85497627.22946  20879386.672          49.100          41.300
                  20879390.313         833.988         650.064
 115599876.430 8  90077872.91146  21997934.109          49.200          37.300
                  21997937.180        2675.938        2085.253
 127425853.480 6  99292930.07243  24248345.867          40.200          18.600
                  24248348.664        -886.957        -690.932
 112874397.825 8  87954159.95246  21479292.969          51.700          41.700
                  21479299.395        2502.770        1950.332
 114734684.724 8  89403677.68846  21833293.016          49.600          37.600
                  21833294.000        -849.434        -661.749
 126534854.291 7  98598612.11644  24078788.672          43.300          25.800
                  24078790.879       -2981.559       -2323.234
 118537060.827 7  92366587.85645  22556864.906          43.800          34.900
                  22556871.434       -3214.566       -2504.836
 18  2 21  8 45  0.0000000  0  8G09G07G05G16G30G02G23G06
 110967528.636 8  86468221.86947  21116413.594          49.600          42.500
                  21116418.758       -2105.687       -1640.637
 109697132.416 8  85478337.86546  20874676.711          49.300          41.600
                  20874679.531         816.195         636.287
 115519738.911 8  90015428.09346  21982683.984          49.200          36.900
                  21982687.637        2666.527        2077.961
 127452767.294 6  99313901.85042  24253466.344          39.100          17.400
                  24253469.875        -907.363        -706.725
 112799528.942 8  87895820.55746  21465046.242          51.100          41.300
                  21465051.934        2488.453        1939.289
 114760441.188 8  89423747.63746  21838194.773          48.700          38.100
                  21838195.523        -867.621        -675.796
 126624343.813 7  98668344.19444  24095817.828          42.900          25.800
                  24095819.961       -2984.488       -2325.530
 118633649.682 7  92441851.87745  22575244.625          43.400          34.100
                  22575252.125       -3224.648       -2512.512
 18  2 21  8 45 30.0000000  0  8G09G07G05G16G30G02G23G06
 111030833.174 8  86517550.06947  21128460.273          50.000          42.400
                  21128465.547       -2114.812       -1647.740
 109672905.913 8  85459460.07746  20870065.969          48.800          41.400
                  20870069.219         798.672         622.607
 115439880.743 8  89953200.95446  21967487.250          49.100          37.500
                  21967490.613        2657.105        2070.681
 127480286.549 6  99335345.41743  24258703.719          39.800          19.000
                  24258706.926        -927.621        -722.366
 112725084.412 8  87837811.84746  21450879.523          51.800          41.300
                  21450886.082        2474.316        1928.262
 114786736.820 8  89444237.72146  21843198.781          49.000          38.400
                  21843199.457        -885.687        -689.804
 126713919.375 7  98738143.26144  24112863.195          42.800          25.600
                  24112866.426       -2987.426       -2327.733
 118730531.298 7  92517343.98745  22593681.266          44.900          35.200
                  22593688.020       -3234.383       -2520.082
 18  2 21  8 46  0.0000000  0  8G09G07G05G16G30G02G23G06
 111094410.654 8  86567090.95146  21140558.422          49.400          41.900
                  21140564.105       -2123.727       -1654.753
 109649207.639 8  85440993.90246  20865556.516          48.900          41.700
                  20865559.953         781.215         608.918
 115360304.122 8  89891193.19346  21952344.961          48.800          37.000
                  21952348.113        2647.977        2063.407
 127508410.390 6  99357260.06743  24264056.047          40.400          20.400
                  24264058.879        -947.359        -738.052
 112651066.330 8  87780135.42546  21436794.367          50.800          40.800
                  21436800.414        2460.313        1917.218
 114813570.751 8  89465147.26346  21848304.773          48.200          38.600
                  21848305.789        -903.324        -703.707
 126803580.240 7  98808008.80344  24129926.023          43.900          27.000
                  24129928.125       -2989.957       -2329.877
 118827702.826 7  92593062.01745  22612172.297          43.200          34.900
                  22612179.129       -3243.676       -2527.519
 18  2 21  8 46 30.0000000  0  8G09G07G05G16G30G02G23G06
 111158259.759 8  86616843.48047  21152708.625          50.200          42.300
                  21152713.969       -2132.836       -1661.819
 109626038.276 8  85422939.85047  20861147.758          49.700          42.100
                  20861150.879         763.543         595.176
 115281010.661 8  89829406.09146  21937255.320          49.300          37.900
                  21937258.793        2638.453        2056.048
 127537138.149 7  99379645.28243  24269523.281          42.000          22.000
                  24269526.031        -967.570        -753.706
 112577476.448 8  87722792.67246  21422790.547          51.300          40.100
                  21422796.090        2445.926        1906.060
 114840942.132 8  89486475.59746  21853513.789          48.200          38.000
                  21853514.258        -921.250        -717.659
 126893325.505 7  98877940.13444  24147003.859          43.400          26.200
                  24147005.246       -2992.820       -2332.059
 118925161.270 7  92669003.64445  22630717.859          44.500          34.600
                  22630725.227       -3253.359       -2534.931
 18  2 21  8 47  0.0000000  0  8G09G07G05G16G30G02G23G06
 111222379.420 8  86666806.83247  21164910.320          50.900          42.000
                  21164915.441       -2141.785       -1668.856
 109603398.346 8  85405298.35146  20856839.477          50.300          41.800
                  20856843.035         745.871         581.382
 115202002.175 8  89767841.03946  21922220.930          49.600          37.500
                  21922224.047        2628.828        2048.529
 127566468.958 6  99402500.43643  24275104.211          41.700          21.700
                  24275108.402        -987.793        -769.424
 112504316.959 8  87665785.27346  21408869.070          50.900          40.000
                  21408875.094        2431.500        1894.808
 114868849.898 7  89508221.89346  21858824.664          47.800          37.900
                  21858825.289        -939.191        -731.624
 126983153.729 7  98947936.09544  24164096.891          43.300          25.300
                  24164099.449       -2995.629       -2334.235
 119022903.976 7  92745166.72845  22649317.836          44.700          34.700
                  22649325.137       -3262.766       -2542.336
 18  2 21  8 47 30.0000000  0  8G09G07G05G16G30G02G23G06
 111286768.391 8  86716980.03646  21177163.195          50.200          41.900
                  21177167.926       -2150.816       -1675.806
 109581288.191 8  85388069.64346  20852631.945          50.100          41.800
                  20852634.871         728.129         567.652
 115123282.189 8  89706500.79146  21907241.070          49.900          37.500
                  21907244.285        2619.164        2041.057
 127596402.356 6  99425825.12043  24280799.867          38.600          19.900
                  24280803.293       -1007.680        -785.048
 112431589.598 8  87609114.62946  21395029.266          50.500          40.100
                  21395035.535        2417.012        1883.595
 114897293.069 7  89530385.39646  21864236.703          46.200          38.100
                  21864237.828        -957.086        -745.479
 127073064.657 7  99017996.52944  24181207.133          43.800          25.500
                  24181208.598       -2998.488       -2336.368
 119120927.957 7  92821549.00945  22667971.250          45.400          33.900
                  22667977.957       -3272.199       -2549.573
 18  2 21  8 48  0.0000000  0  8G09G07G05G16G30G02G23G06
 111351425.649 8  86767362.30147  21189467.008          51.000          42.000
                  21189471.633       -2159.770       -1682.814
 109559708.443 8  85371254.26947  20848525.422          50.200          42.200
                  20848528.547         710.398         553.820
 115044852.000 8  89645386.36046  21892316.344          49.900          37.500
                  21892319.469        2609.371        2033.455
 127626936.585 6  99449618.04942  24286609.922          38.900          16.900
                  24286613.266       -1027.914        -800.694
 112359296.584 8  87552782.41646  21381272.211          50.500          39.500
                  21381278.059        2402.406        1872.237
 114926270.827 8  89552965.46146  21869750.953          48.200          37.900
                  21869751.953        -974.980        -759.416
 127163057.699 7  99088120.90643  24198331.063          42.900          23.300
                  24198334.336       -3001.203       -2338.543
 119219230.539 7  92898148.39045  22686677.234          44.600          34.800
                  22686685.117       -3281.406       -2556.821
 18  2 21  8 48 30.0000000  0  8G09G07G05G16G30G02G23G06
 111416349.716 8  86817952.45847  21201821.742          51.000          42.000
                  21201826.875       -2168.578       -1689.713
 109538659.053 8  85354852.14746  20844519.789          49.700          41.500
                  20844522.961         692.727         540.030
 114966712.725 8  89584498.61446  21877446.906          49.100          37.600
                  21877450.137        2599.680        2025.876
 127658070.799 6  99473878.43442  24292534.781          36.300          16.300
                  24292536.941       -1047.957        -816.247
 112287439.485 8  87496789.86146  21367598.281          50.600          39.900
                  21367604.637        2387.902        1860.898
 114955782.014 7  89575961.17846  21875366.516          47.500          37.700
                  21875367.602        -992.625        -773.247
 127253131.492 7  99158308.25144  24215471.875          43.000          25.600
                  24215474.598       -3003.883       -2340.616
 119317808.705 7  92974962.48045  22705436.344          45.000          34.000
                  22705443.180       -3290.555       -2563.946
 18  2 21  8 49  0.0000000  0  8G09G07G05G16G30G02G23G06
 111481539.280 8  86868749.51147  21214226.883          51.400          42.100
                  21214231.672       -2177.352       -1696.552
 109518140.119 8  85338863.36546  20840615.195          49.100          41.400
                  20840617.672         675.211         526.312
 114888867.312 8  89523839.84946  21862633.398          48.800          37.300
                  21862636.609        2589.988        2018.269
 127689804.048 6  99498605.62942  24298575.188          38.400          17.400
                  24298576.633       -1067.703        -831.727
 112216020.053 8  87441138.37246  21354007.836          50.500          40.900
                  21354014.617        2373.270        1849.557
 114985825.413 8  89599371.61446  21881083.813          48.100          37.500
                  21881085.145       -1010.270        -787.021
 127343285.480 7  99228558.02344  24232628.148          43.700          25.400
                  24232630.281       -3006.344       -2342.651
 119416659.297 7  93051988.91045  22724247.234          43.500          33.200
                  22724254.055       -3299.559       -2570.949
 18  2 21  8 49 30.0000000  0  8G09G07G05G16G30G02G23G06
 111546993.214 8  86919752.56446  21226682.492          51.400          41.900
                  21226687.762       -2186.207       -1703.387
 109498152.217 8  85323288.38546  20836811.844          50.700          41.000
                  20836814.801         657.395         512.510
 114811316.800 8  89463410.87946  21847876.102          49.400          37.300
                  21847878.922        2580.012        2010.571
 127722135.316 6  99523798.82143  24304727.570          38.600          19.900
                  24304729.316       -1087.770        -847.241
 112145040.242 8  87385829.43746  21340500.773          51.100          40.400
                  21340506.547        2358.586        1838.125
 115016399.979 7  89623195.93946  21886902.055          46.700          37.400
                  21886902.895       -1028.105        -800.793
 127433518.826 7  99298869.68144  24249799.188          44.100          25.600
                  24249801.406       -3009.148       -2344.691
 119515779.578 7  93129225.42345  22743109.664          42.800          32.600
                  22743116.453       -3308.590       -2577.875
 18  2 21  8 50  0.0000000  0  8G09G07G05G16G30G02G23G06
 111612710.532 8  86970960.85146  21239188.070          51.200          41.600
                  21239193.309       -2194.949       -1710.250
 109478695.699 8  85308127.46546  20833109.336          50.000          40.900
                  20833112.422         639.629         498.682
 114734064.717 8  89403214.44446  21833175.484          49.300          37.500
                  21833178.320        2570.027        2002.771
 127755064.205 6  99549457.69543  24310993.336          38.300          21.100
                  24310996.438       -1107.445        -862.809
 112074502.200 8  87330864.72146  21327078.430          51.800          41.500
                  21327084.137        2343.863        1826.586
 115047504.623 7  89647433.31546  21892821.039          47.000          38.100
                  21892822.109       -1045.617        -814.568
 127523830.159 7  99369242.09144  24266984.977          44.100          24.700
                  24266987.246       -3011.711       -2346.749
 119615166.828 7  93206670.02045  22762021.352          42.000          31.600
                  22762028.512       -3317.352       -2584.819
 18  2 21  8 50 30.0000000  0  8G09G07G05G16G30G02G23G06
 111678689.519 8  87022373.04847  21251743.469          50.400          42.000
                  21251748.898       -2203.574       -1716.979
 109459770.309 8  85293380.42647  20829507.969          50.200          42.100
                  20829511.156         622.063         484.928
 114657111.956 8  89343251.25346  21818531.672          49.500          37.800
                  21818535.035        2560.082        1995.025
 127788588.465 5  99575580.46043  24317371.953          35.900          20.100
                  24317375.949       -1127.332        -878.181
 112004407.144 8  87276245.20746  21313739.609          52.200          41.800
                  21313745.527        2329.172        1815.110
 115079137.811 7  89672082.54846  21898840.469          47.000          37.700
                  21898841.715       -1063.203        -828.250
 127614219.007 7  99439674.86344  24284185.836          42.400          25.100
                  24284187.672       -3014.211       -2348.692
 119714817.730 7  93284320.03445  22780985.273          43.000          32.400
                  22780992.074       -3326.035       -2591.593
 18  2 21  8 51  0.0000000  0  8G09G07G05G16G30G02G23G06
 111744929.632 8  87073988.70347  21264348.000          51.200          42.500
                  21264353.695       -2212.434       -1723.768
 109441377.094 8  85279048.05646  20826007.836          50.300          41.600
                  20826011.230         604.188         471.077
 114580460.992 8  89283523.23446  21803945.500          49.800          38.700
                  21803948.688        2549.855        1987.131
 127822707.967 5  99602167.02242  24323863.438          33.900          16.900
                  24323868.285       -1147.215        -893.684
 111934757.593 8  87221972.84447  21300485.719          52.700          42.000
                  21300491.660        2314.145        1803.473
 115111299.163 7  89697143.33346  21904961.172          45.600          37.700
                  21904961.961       -1080.891        -841.965
 127704685.023 6  99510167.83343  24301399.781          41.500          22.300
                  24301402.195       -3016.926       -2350.721
 119814729.955 6  93362173.65845  22799997.375          41.800          31.100
                  22800004.777       -3334.812       -2598.365
 18  2 21  8 51 30.0000000  0  8G09G07G05G16G30G02G23G06
 111811429.167 8  87125806.51047  21277002.992          50.700          42.000
                  21277007.938       -2221.004       -1730.487
 109423515.680 8  85265130.08346  20822608.391          49.700          41.800
                  20822612.332         586.555         457.279
 114504113.532 8  89224031.69846  21789417.219          49.000          37.700
                  21789420.488        2539.824        1979.244
 127857421.589 6  99629216.58942  24330470.563          37.300          16.900
                  24330473.527       -1167.031        -909.068
 111865554.893 8  87168048.66747  21287316.688          53.200          42.400
                  21287322.441        2299.316        1791.878
 115143986.813 7  89722614.21146  21911180.859          46.200          37.700
                  21911182.367       -1098.344        -855.623
 127795226.854 7  99580719.86944  24318629.578          42.500          24.700
                  24318632.309       -3019.312       -2352.657
 119914900.115 7  93440228.30945  22819059.148          42.400          30.400
                  22819065.270       -3343.187       -2605.033
 18  2 21  8 52  0.0000000  0  8G09G07G05G16G30G02G23G06
 111878187.028 8  87177825.61447  21289706.266          51.500          42.400
                  21289711.996       -2229.535       -1737.181
 109406186.374 8  85251626.73346  20819311.406          50.900          41.300
                  20819314.504         568.766         443.446
 114428071.470 8  89164778.14246  21774947.141          49.800          38.200
                  21774950.055        2529.648        1971.276
 127892727.882 6  99656728.03142  24337189.938          39.400          17.400
                  24337191.816       -1186.680        -924.446
 111796800.927 8  87114474.15647  21274233.422          52.600          42.200
                  21274239.281        2284.379        1780.184
 115177199.924 7  89748494.54646  21917501.469          46.500          37.300
                  21917502.680       -1115.816        -869.255
 127885843.783 7  99651330.37843  24335873.133          43.200          22.600
                  24335876.109       -3021.859       -2354.604
 120015325.418 6  93518481.76245  22838168.430          41.400          31.000
                  22838177.578       -3351.680       -2611.600
 18  2 21  8 52 30.0000000  0  8G09G07G05G16G30G02G23G06
 111945201.875 8  87230044.95847  21302458.750          50.500          42.600
                  21302464.059       -2238.086       -1743.840
 109389389.091 8  85238537.94347  20816114.867          51.000          42.000
                  20816118.098         551.121         429.621
 114352336.848 8  89105764.14946  21760535.031          49.600          38.900
                  21760537.867        2519.410        1963.285
 127928624.823 6  99684699.70743  24344020.711          40.500          19.000
                  24344022.930       -1206.359        -939.759
 111728497.356 8  87061250.58846  21261235.711          51.900          41.700
                  21261241.648        2269.332        1768.467
 115210936.918 7  89774783.09346  21923921.430          46.800          37.400
                  21923922.555       -1133.195        -882.834
 127976534.862 7  99721998.69343  24353131.945          42.500          23.900
                  24353134.371       -3024.066       -2356.511
 120116002.909 6  93596931.69545  22857327.766          41.800          30.300
                  22857333.598       -3360.016       -2618.119
 18  2 21  8 53  0.0000000  0  8G09G07G05G16G30G02G23G06
 112012472.774 8  87282463.82847  21315260.141          50.500          42.300
                  21315264.781       -2246.652       -1750.527
 109373124.376 8  85225864.14847  20813019.781          51.700          42.000
                  20813022.793         533.258         415.741
 114276912.379 8  89046991.83446  21746182.203          50.400          38.600
                  21746185.492        2508.926        1955.150
 127965112.095 6  99713131.36243  24350963.992          40.900          21.300
                  24350967.480       -1226.062        -955.159
 111660646.081 8  87008379.50246  21248324.141          50.900          41.800
                  21248330.008        2254.043        1756.653
 115245196.893 7  89801479.14846  21930440.703          46.400          37.500
                  21930441.852       -1150.754        -896.438
 128067299.413 7  99792724.28143  24370403.969          42.700          22.600
                  24370405.414       -3026.848       -2358.492
 120216929.716 6  93675575.94344  22876532.445          40.200          29.700
                  22876541.188       -3368.461       -2624.631
 18  2 21  8 53 30.0000000  0  8G09G07G05G16G30G02G23G06
 112079998.320 8  87335081.11547  21328109.891          50.200          42.300
                  21328115.254       -2255.141       -1757.072
 109357392.160 8  85213605.28146  20810025.945          50.800          41.800
                  20810029.078         515.492         401.963
 114201799.793 8  88988462.54946  21731888.609          50.400          38.400
                  21731892.051        2498.508        1947.065
 128002188.182 6  99742021.78043  24358017.531          38.300          19.900
                  24358022.957       -1245.770        -970.366
 111593248.822 8  86955862.14746  21235497.891          52.600          41.400
                  21235504.387        2238.980        1744.886
 115279978.213 7  89828581.44946  21937059.602          46.000          36.900
                  21937060.578       -1168.109        -909.930
 128158136.513 7  99863506.34644  24387689.359          42.000          26.200
                  24387692.559       -3029.145       -2360.287
 120318102.883 7  93754412.06645  22895786.672          42.500          30.200
                  22895793.906       -3376.570       -2630.911
 18  2 21  8 54  0.0000000  0  8G09G07G05G16G30G02G23G06
 112147777.768 8  87387896.25347  21341007.633          50.400          42.200
                  21341013.379       -2263.508       -1763.672
 109342193.163 8  85201761.91146  20807133.539          52.500          41.300
                  20807136.887         497.770         388.090
 114127001.035 8  88930177.80146  21717654.859          50.500          39.200
                  21717658.242        2488.039        1938.884
 128039852.81815                  24365184.672          35.200
                                     -1265.547
 111526307.735 8  86903700.23146  21222759.875          51.500          40.600
                  21222766.082        2223.727        1732.988
 115315280.340 7  89856089.58546  21943777.133          46.100          37.000
                  21943778.008       -1185.359        -923.461
 128249045.985 7  99934344.85344  24404989.766          43.300          24.500
                  24404991.449       -3031.555       -2362.172
 120419519.909 6  93833438.33544  22915084.203          39.500          29.400
                  22915091.730       -3384.703       -2637.248
 18  2 21  8 54 30.0000000  0  8G09G07G05G16G30G02G23G06
 112215809.303 8  87440907.82346  21353953.875          50.900          41.900
                  21353959.316       -2271.930       -1770.193
 109327526.699 8  85190333.50746  20804342.766          51.800          41.800
                  20804346.301         479.984         374.276
 114052517.573 8  88872138.74046  21703481.289          50.700          39.000
                  21703484.266        2477.461        1930.658
 128078103.811 6  99801176.58543  24372466.398          39.000          19.000
                  24372469.121       -1284.891       -1000.841
 111459823.834 8  86851894.60646  21210108.750          48.700          40.400
                  21210114.328        2208.449        1721.088
 115351101.490 7  89884002.15346  21950594.320          47.500          37.100
                  21950594.836       -1202.695        -936.907
 128340026.194 7 100005238.48143  24422302.523          42.900          21.700
                  24422303.789       -3033.871       -2363.998
 120521177.252 7  93912651.74545  22934430.352          43.300          31.200
                  22934438.660       -3392.594       -2643.427
 18  2 21  8 55  0.0000000  0  8G09G07G05G16G30G02G23G06
 112284091.761 8  87494114.91347  21366947.617          52.100          42.900
                  21366952.941       -2280.223       -1776.721
 109313392.693 8  85179319.99946  20801653.078          51.200          41.400
                  20801656.414         462.301         360.424
 113978351.562 8  88814347.04246  21689367.898          51.300          39.500
                  21689371.445        2466.926        1922.385
 128116939.436 6  99831438.15243  24379856.938          41.500          18.300
                  24379858.645       -1304.336       -1016.073
 111393798.848 8  86800446.57646  21197544.406          49.400          40.300
                  21197549.840        2193.105        1709.142
 115387439.925 7  89912317.78946  21957508.789          47.100          37.000
                  21957509.707       -1219.883        -950.340
 128431076.392 7 100076186.60244  24439628.242          42.300          24.500
                  24439631.742       -3036.031       -2365.800
 120623071.934 6  93992050.16944  22953819.438          41.800          28.000
                  22953825.582       -3400.430       -2649.580
 18  2 21  8 55 30.0000000  0  8G09G07G05G16G30G02G23G06
 112352624.085 8  87547516.71547  21379988.789          50.800          43.100
                  21379994.582       -2288.566       -1783.162
 109299791.573 8  85168721.73146  20799064.734          52.200          41.600
                  20799068.199         444.523         346.624
 113904505.467 8  88756804.62946  21675315.383          51.400          39.700
                  21675318.488        2456.215        1914.086
 128156358.828 6  99862154.65643  24387357.797          40.000          19.300
                  24387358.410       -1323.691       -1031.167
 111328234.706 8  86749357.62446  21185067.633          50.500          41.000
                  21185073.578        2177.715        1697.198
 115424294.789 7  89941035.85146  21964522.086          47.000          37.500
                  21964522.766       -1237.062        -963.714
 128522196.049 7 100147188.88843  24456968.273          42.200          21.500
                  24456970.492       -3038.437       -2367.592
 120725201.218 7  94071631.40045  22973254.664          43.500          32.100
                  22973262.707       -3408.199       -2655.599
 18  2 21  8 56  0.0000000  0  9G09G07G05G16G30G02G23G13G06
 112421405.224 8  87601112.39347  21393077.188          50.900          42.600
                  21393082.988       -2296.828       -1789.633
 109286723.330 8  85158538.68446  20796577.914          51.300          41.700
                  20796581.238         426.781         332.752
 113830981.595 8  88699513.30346  21661324.227          50.900          39.600
                  21661327.875        2445.461        1905.667
 128196360.440 5  99893324.76243  24394966.836          35.900          18.300
                  24394971.527       -1343.070       -1046.287
 111263133.132 8  86698629.12446  21172679.000          52.100          41.200
                  21172685.527        2162.398        1685.144
 115461664.554 7  89970155.12846  21971633.422          47.800          36.200
                  21971634.582       -1254.223        -977.109
 128613384.134 6 100218244.47143  24474319.805          41.800          21.300
                  24474323.000       -3040.523       -2369.349
 129706522.421 6 101070111.86342  24682351.813          38.100          17.800
                  24682354.988        3358.992        2617.459
 120827562.335 7  94151393.24344  22992733.063          42.500          29.400
                  22992740.063       -3415.852       -2661.625
 18  2 21  8 56 30.0000000  0  9G09G07G05G16G30G02G23G13G06
 112490434.320 8  87654901.29247  21406213.125          51.600          42.500
                  21406218.738       -2305.004       -1796.031
 109274188.786 8  85148771.50946  20794192.711          51.900          41.600
                  20794195.781         408.953         318.904
 113757782.132 8  88642474.77046  21647395.016          50.700          39.900
                  21647398.145        2434.535        1897.219
 128236943.947 5  99924948.07342  24402690.758          33.700          16.900
                  24402695.477       -1362.625       -1061.389
 111198496.220 8  86648262.68846  21160379.594          51.900          40.900
                  21160385.145        2146.805        1673.062
 115499548.199 7  89999674.81545  21978842.227          46.100          35.900
                  21978843.734       -1271.434        -990.422
 128704640.582 7 100289353.32243  24491686.922          42.800          22.200
                  24491688.172       -3042.937       -2371.105
 129605795.312 6 100991623.23542  24663183.594          37.800          17.400
                  24663187.086        3356.063        2615.219
 120930152.621 7  94231333.71645  23012255.039          43.700          30.000
                  23012262.688       -3423.445       -2667.516
 18  2 21  8 57  0.0000000  0  9G09G07G05G16G30G02G23G13G06
 112559709.713 8  87708882.11247  21419395.891          51.300          42.300
                  21419401.836       -2313.266       -1802.444
 109262186.993 8  85139419.46047  20791908.617          51.100          42.200
                  20791912.230         391.281         305.056
 113684908.430 8  88585690.06546  21633527.391          51.400          40.000
                  21633530.781        2423.770        1888.729
 128278107.007 6  99957023.14743  24410525.742          37.300          20.100
                  24410529.402       -1381.660       -1076.420
 111134324.997 8  86598259.13646  21148168.719          51.400          41.300
                  21148173.750        2131.238        1660.926
 115537943.846 7  90029593.48546  21986148.781          46.800          36.200
                  21986149.609       -1288.328       -1003.704
 128795964.011 7 100360514.35943  24509064.133          42.000          22.000
                  24509067.348       -3045.211       -2372.869
 129505154.975 6 100913202.26042  24644032.281          37.700          17.800
                  24644035.820        3353.230        2612.887
 121032968.664 7  94311450.01744  23031820.383          43.500          28.000
                  23031828.355       -3430.848       -2673.329
 18  2 21  8 57 30.0000000  0  9G09G07G05G16G30G02G23G13G06
 112629230.149 8  87763053.85047  21432625.477          50.800          42.000
                  21432630.715       -2321.516       -1808.801
 109250717.882 8  85130482.48846  20789726.359          50.700          41.400
                  20789729.480         373.254         291.203
 113612362.540 8  88529160.80746  21619722.320          50.400          40.600
                  21619725.332        2412.566        1880.161
 128319848.053 6  99989548.60643  24418469.320          39.800          20.100
                  24418472.086       -1401.039       -1091.439
 111070621.107 8  86548619.75746  21136045.898          51.600          41.600
                  21136051.328        2115.512        1648.750
 115576849.841 7  90059909.83246  21993552.367          46.800          37.100
                  21993553.559       -1305.496       -1016.966
 128887353.465 7 100431726.86943  24526456.063          42.800          22.800
                  24526458.367       -3047.605       -2374.621
 129404602.861 6 100834850.01143  24624898.320          37.300          18.300
                  24624901.801        3350.219        2610.617
 121136007.495 7  94391739.99945  23051428.523          43.200          30.000
                  23051434.484       -3438.359       -2679.114
 18  2 21  8 58  0.0000000  0  9G09G07G05G16G30G02G23G13G06
 112698994.429 8  87817415.63046  21445900.430          51.300          41.800
                  21445906.035       -2329.480       -1815.101
 109239781.449 8  85121960.59646  20787645.094          50.200          41.600
                  20787648.355         355.746         277.371
 113540146.064 8  88472888.22646  21605980.273          49.800          40.400
                  21605983.336        2401.781        1871.618
 128362165.601 6 100022523.36842  24426521.508          39.000          17.800
                  24426523.434       -1420.074       -1106.411
 111007386.141 8  86499345.77146  21124012.891          51.600          41.100
                  21124018.145        2100.160        1636.581
 115616265.140 7  90090623.03546  22001053.055          46.500          36.900
                  22001054.117       -1322.250       -1030.144
 128978808.325 7 100502990.28743  24543858.352          42.200          19.900
                  24543860.738       -3049.562       -2376.239
 129304139.607 6 100756567.04942  24605780.688          36.300          17.800
                  24605784.352        3347.426        2608.310
 121239266.119 7  94472201.20245  23071078.109          43.200          30.500
                  23071086.051       -3445.453       -2684.759
 18  2 21  8 58 30.0000000  0  9G09G07G05G16G30G02G23G13G06
 112769001.603 8  87871966.66246  21459222.711          50.900          41.200
                  21459228.559       -2337.562       -1821.401
 109229378.112 8  85113854.08847  20785665.797          49.900          42.000
                  20785669.004         337.891         263.544
 113468261.147 8  88416874.01446  21592300.922          51.200          41.100
                  21592303.965        2390.633        1862.967
 128405058.940 6 100055946.78942  24434681.148          36.100          16.900
                  24434684.887       -1439.180       -1121.305
 110944621.963 8  86450438.63747  21112068.961          51.900          42.200
                  21112074.410        2084.313        1624.318
 115656188.436 7  90121732.07246  22008650.055          47.000          36.900
                  22008651.125       -1339.242       -1043.309
 129070327.853 7 100574304.19543  24561275.047          42.500          22.900
                  24561277.047       -3051.754       -2377.890
 129203766.196 6 100678354.05743  24586679.609          38.300          19.300
                  24586683.906        3344.059        2605.943
 121342741.866 7  94552831.61844  23090768.336          42.600          28.500
                  23090775.441       -3452.789       -2690.365
 18  2 21  8 59  0.0000000  0  9G09G07G05G16G30G02G23G13G06
 112839250.630 8  87926706.12946  21472591.031          50.900          41.700
                  21472595.957       -2345.707       -1827.742
 109219507.781 8  85106162.92146  20783787.313          51.100          41.700
                  20783790.516         320.063         249.613
 113396710.637 8  88361120.36446  21578685.563          51.100          40.900
                  21578688.711        2379.332        1854.172
 128448526.620 5 100089817.62342  24442954.008          34.600          16.300
                  24442956.961       -1458.598       -1136.282
 110882330.247 8  86401899.62247  21100215.203          53.000          42.100
                  21100220.840        2068.422        1611.959
 115696618.188 7  90153235.76946  22016343.758          46.800          37.300
                  22016344.973       -1356.102       -1056.526
 129161911.570 6 100645668.05943  24578701.984          41.100          21.500
                  24578704.457       -3053.746       -2379.673
 129103483.772 6 100600211.97243  24567597.133          37.100          19.900
                  24567601.156        3341.234        2603.507
 121446431.869 7  94633628.95545  23110500.469          42.800          30.000
                  23110507.969       -3459.926       -2695.969
 18  2 21  8 59 30.0000000  0  9G09G07G05G16G30G02G23G13G06
 112909740.065 8  87981632.96446  21486004.141          50.700          41.300
                  21486009.730       -2353.547       -1833.906
 109210169.944 8  85098886.68146  20782010.766          50.000          41.700
                  20782013.828         302.516         235.857
 113325496.719 8  88305629.00346  21565133.828          51.200          41.100
                  21565136.699        2368.270        1845.481
 128492566.515 6 100124134.33343  24451335.758          39.000          20.100
                  24451338.871       -1477.523       -1151.065
 110820512.316 8  86353729.79647  21088451.641          52.500          42.000
                  21088457.527        2052.801        1599.708
 115737552.677 7  90185132.76146  22024133.281          46.700          36.800
                  22024134.707       -1372.816       -1069.554
 129253558.591 6 100717081.25343  24596142.156          41.500          22.900
                  24596144.594       -3056.000       -2381.228
 129003292.878 6 100522141.25543  24548530.664          36.700          18.300
                  24548534.871        3338.137        2601.258
 121550332.978 7  94714590.80544  23130272.109          43.100          28.600
                  23130279.941       -3466.746       -2701.364
                            4  1
RINEX FILE SPLICE; other post-header comments skipped       COMMENT
 18  2 21  9  0  0.0000000  0  9G09G07G05G16G30G02G23G13G06
 112980468.856 8  88036746.28646  21499463.422          50.300          40.500
                  21499468.762       -2361.508
 109201364.674 8  85092025.43646  20780334.742          50.900          41.800
                  20780338.148         284.594
 113254620.958 8  88250401.13646  21551646.570          52.500          41.600
                  21551649.914        2356.926
 128537176.997 6 100158895.69843  24459825.703          41.000          22.600
                  24459828.254       -1496.520
 110759169.865 8  86305930.47047  21076778.461          51.900          42.400
                  21076784.406        2036.824
 115778990.339 7  90217421.83646  22032018.414          47.500          36.500
                  22032019.473       -1389.617
 129345267.799 6 100788542.94643  24613593.281          40.000          20.900
                  24613595.258       -3057.984
 128903194.577 6 100444142.57743  24529483.711          37.600          19.600
                  24529486.938        3335.094
 121654442.285 7  94795714.90945  23150083.711          43.600          31.200
                  23150091.066       -3473.777
 18  2 21  9  0 30.0000000  0  9G09G07G05G16G30G02G23G13G06
 113051435.764 8  88092045.15846  21512968.039          50.700          40.800
                  21512973.652       -2369.687       -1846.323
 109193091.908 8  85085579.13146  20778760.492          49.600          41.500
                  20778763.563         266.754         208.150
 113184084.605 8  88195437.75146  21538223.922          51.100          41.600
                  21538227.430        2345.313        1827.781
 128582356.828 6 100194100.73743  24468421.773          40.200          20.400
                  24468425.945       -1515.617       -1180.695
 110698304.314 8  86258502.75147  21065196.258          52.400          42.300
                  21065202.355        2020.754        1574.892
 115820929.929 7  90250102.01646  22039999.672          47.100          36.900
                  22040000.684       -1406.527       -1095.667
 129437038.734 6 100860052.67343  24631057.547          41.100          22.600
                  24631060.344       -3060.262       -2384.477
 128803189.706 6 100366216.80643  24510452.055          38.600          19.600
                  24510456.793        3331.934        2596.335
 121758756.818 7  94876998.87844  23169934.250          43.000          29.400
                  23169941.789       -3480.715       -2712.066
 18  2 21  9  1  0.0000000  0  9G09G07G05G16G30G02G23G13G06
 113122639.634 8  88147528.67746  21526517.883          49.900          40.500
                  21526523.188       -2377.336       -1852.417
 109185351.402 8  85079547.56046  20777287.672          50.200          41.800
                  20777290.676         249.176         194.345
 113113890.539 8  88140741.07447  21524866.344          51.200          42.000
                  21524869.848        2334.129        1818.892
 128628104.946 5 100229748.61442  24477124.734          34.800          16.300
                  24477130.414       -1534.238       -1195.420
 110637917.249 8  86211447.88047  21053705.289          51.100          42.500
                  21053710.750        2005.012        1562.472
 115863369.527 7  90283171.80946  22048075.602          46.300          36.700
                  22048076.480       -1423.059       -1108.624
 129528870.601 6 100931609.89543  24648532.297          39.700          21.700
                  24648534.887       -3062.078       -2386.036
 128703278.839 6 100288364.22043  24491439.711          39.000          19.600
                  24491444.305        3328.863        2593.875
 121863273.595 7  94958440.51045  23189822.969          42.500          30.400
                  23189830.160       -3487.211       -2717.236
 18  2 21  9  1 30.0000000  0  9G09G07G05G16G30G02G23G13G06
 113194079.624 8  88203196.18346  21540112.438          49.900          40.800
                  21540117.840       -2385.305       -1858.489
 109178143.473 8  85073930.98947  20775915.969          50.700          42.400
                  20775919.488         231.348         180.577
 113044040.802 8  88086312.71047  21511574.688          51.500          42.000
                  21511577.906        2322.508        1809.974
 128674419.131 6 100265837.57042  24485940.297          37.300          16.900
                  24485942.719       -1553.348       -1210.030
 110578010.491 8  86164767.30646  21042305.023          51.000          41.900
                  21042310.559        1988.750        1550.003
 115906307.836 7  90316630.21946  22056246.570          46.700          36.800
                  22056247.457       -1439.660       -1121.505
 129620762.992 7 101003214.26643  24666019.359          42.100          22.200
                  24666021.719       -3064.203       -2387.524
 128603463.390 6 100210586.00443  24472445.719          38.100          20.600
                  24472450.199        3325.566        2591.483
 121967990.078 7  95040037.67444  23209750.234          42.400          29.900
                  23209758.375       -3494.035       -2722.368
 18  2 21  9  2  0.0000000  0  9G09G07G05G16G30G02G23G13G06
 113265754.143 8  88259046.44246  21553751.453          50.200          40.700
                  21553757.316       -2392.961       -1864.602
 109171467.142 8  85068728.66246  20774645.664          49.700          41.800
                  20774649.195         213.727         166.731
 112974537.437 8  88032154.24246  21498348.219          51.000          41.300
                  21498351.355        2310.988        1800.911
 128721297.486 6 100302366.14043  24494861.352          40.400          21.500
                  24494863.789       -1571.961       -1224.680
 110518585.095 8  86118461.78746  21030996.492          51.800          41.800
                  21031002.668        1972.887        1537.466
 115949743.266 7  90350475.99246  22064511.969          46.700          36.900
                  22064513.051       -1456.117       -1134.414
 129712714.522 6 101074864.78643  24683517.813          41.400          18.600
                  24683518.156       -3065.898       -2389.088
 128503743.784 6 100132882.43243  24453469.836          39.600          21.100
                  24453473.750        3322.391        2588.929
 122072902.720 7  95121787.79144  23229713.625          42.200          28.400
                  23229721.109       -3500.273       -2727.431
 18  2 21  9  2 30.0000000  0  8G09G07G05G16G30G02G13G06
 113337662.090 8  88315078.59146  21567435.359          48.800          41.100
                  21567441.367       -2400.656       -1870.637
 109165322.627 8  85063940.72447  20773476.320          49.600          42.400
                  20773479.887         196.051         152.933
 112905382.372 8  87978267.18046  21485188.633          50.900          41.400
                  21485191.918        2299.445        1791.858
 128768738.976 6 100339333.48743  24503889.055          40.700          22.300
                  24503892.746       -1590.629       -1239.282
 110459642.632 8  86072532.57947  21019780.039          51.900          42.400
                  21019786.164        1956.805        1524.912
 115993674.054 7  90384707.75946  22072871.508          46.200          36.200
                  22072872.574       -1472.488       -1147.251
 128404120.920 6 100055254.25043  24434512.039          39.000          19.000
                  24434515.891        3319.121        2586.384
 122178008.878 7  95203688.62945  23249715.563          42.100          30.100
                  23249723.551       -3506.578       -2732.399
 18  2 21  9  3  0.0000000  0  8G09G07G05G16G30G02G13G06
 113409802.652 8  88371291.98846  21581163.328          48.900          40.200
                  21581168.785       -2408.488       -1876.691
 109159709.900 8  85059567.16746  20772408.328          51.100          41.700
                  20772411.734         178.277         139.115
 112836577.739 8  87924653.17546  21472095.648          51.400          41.800
                  21472098.719        2287.656        1782.736
 128816741.599 6 100376738.09243  24513022.953          36.900          19.300
                  24513027.668       -1609.348       -1253.861
 110401184.869 8  86026981.05647  21008656.156          51.300          42.300
                  21008662.418        1940.504        1512.294
 116038098.778 7  90419324.41046  22081325.617          46.100          36.200
                  22081326.520       -1489.020       -1160.077
 128304595.890 6  99977702.32743  24415572.578          40.000          19.300
                  24415577.055        3315.961        2583.794
 122283305.690 6  95285738.06344  23269751.672          40.300          26.700
                  23269760.004       -3513.000       -2737.355
 18  2 21  9  3 30.0000000  0  8G09G07G05G16G30G02G13G06
 113482174.353 8  88427685.51946  21594935.094          49.700          40.800
                  21594940.719       -2416.363       -1882.667
 109154628.378 8  85055607.54446  20771441.336          51.000          41.700
                  20771444.578         160.375         125.315
 112768125.215 8  87871313.54846  21459069.313          50.800          41.600
                  21459072.828        2275.770        1773.571
 128865304.037 6 100414578.83142  24522264.258          36.300          17.800
                  24522268.098       -1628.238       -1268.370
 110343212.982 8  85981808.14447  20997624.609          51.600          42.200
                  20997630.523        1924.211        1499.672
 116083015.526 7  90454324.45246  22089872.594          46.300          36.800
                  22089873.598       -1505.492       -1172.817
 128205169.279 6  99900227.04143  24396653.414          38.100          19.900
                  24396656.945        3312.566        2581.266
 122388790.092 6  95367933.64544  23289825.352          41.300          29.100
                  23289833.512       -3519.359       -2742.156
 18  2 21  9  4  0.0000000  0  8G09G07G05G16G30G02G13G06
 113554776.262 8  88484258.41746  21608750.711          49.500          40.400
                  21608756.809       -2423.887       -1888.635
 109150078.221 8  85052061.96447  20770575.539          49.900          42.000
                  20770578.504         142.910         111.548
 112700026.786 8  87818249.83346  21446110.984          50.600          41.300
                  21446114.105        2264.051        1764.339
 128914424.519 6 100452854.52243  24531613.391          37.100          19.300
                  24531615.328       -1646.602       -1282.826
 110285728.578 8  85937015.08847  20986685.984          52.300          42.600
                  20986691.336        1908.016        1486.991
 116128422.610 7  90489706.57145  22098513.563          47.400          35.200
                  22098514.113       -1521.711       -1185.536
 128105842.007 6  99822829.26343  24377751.117          38.200          19.900
                  24377755.266        3309.145        2578.650
 122494459.217 6  95450273.15344  23309933.016          39.900          27.300
                  23309941.555       -3525.285       -2746.945
 18  2 21  9  4 30.0000000  0  8G09G07G05G16G30G02G13G06
 113627606.803 8  88541009.46746  21622610.258          49.300          39.600
                  21622615.848       -2431.430       -1894.529
 109146058.171 8  85048929.46246  20769810.375          51.100          41.800
                  20769813.723         125.199          97.798
 112632284.144 8  87765463.36346  21433219.773          51.300          41.600
                  21433222.820        2252.195        1755.105
 128964100.590 6 100491563.18743  24541066.359          41.400          20.100
                  24541067.828       -1665.059       -1297.206
 110228732.669 8  85892602.69747  20975840.164          52.000          42.300
                  20975845.484        1891.727        1474.300
 116174318.127 7  90525469.29545  22107247.063          46.300          35.400
                  22107248.266       -1537.914       -1198.168
 128006614.474 6  99745509.10443  24358869.070          38.600          21.300
                  24358872.883        3306.285        2576.077
 122600309.719 7  95532754.05644  23330077.078          43.200          28.200
                  23330084.250       -3531.352       -2751.600
 18  2 21  9  5  0.0000000  0  8G09G07G05G16G30G02G13G06
 113700665.145 8  88597938.02846  21636512.172          49.900          39.700
                  21636517.859       -2439.094       -1900.466
 109142568.824 8  85046210.48246  20769146.539          51.500          41.800
                  20769149.945         107.402          83.979
 112564899.871 8  87712956.12646  21420397.227          50.700          41.100
                  21420400.781        2240.219        1745.733
 129014331.100 6 100530703.85643  24550623.695          38.600          20.100
                  24550626.930       -1683.586       -1311.617
 110172226.948 8  85848572.27047  20965087.094          51.900          42.000
                  20965092.695        1875.320        1461.523
 116220700.562 7  90561611.44245  22116073.195          46.300          34.400
                  22116073.977       -1554.141       -1210.826
 127907488.330 6  99668268.01743  24340006.461          38.400          20.600
                  24340010.168        3302.488        2573.426
 122706338.975 6  95615374.19344  23350253.508          41.100          27.800
                  23350261.270       -3537.281       -2756.234
 18  2 21  9  5 30.0000000  0  8G09G07G05G16G30G02G13G06
 113773950.094 8  88655043.17746  21650458.102          50.000          39.400
                  21650463.539       -2446.473       -1906.329
 109139609.583 8  85043904.58647  20768583.469          51.100          42.000
                  20768586.684          89.938          70.241
 112497876.349 8  87660730.01046  21407642.852          50.700          41.100
                  21407646.141        2228.234        1736.346
 129065114.501 5 100570275.26543  24560286.359          35.800          20.100
                  24560291.379       -1701.707       -1325.943
 110116212.769 8  85804924.87046  20954428.172          51.100          41.400
                  20954433.195        1859.063        1448.746
 116267568.214 7  90598131.67645  22124992.016          46.000          35.000
                  22124992.430       -1570.199       -1223.416
 127808464.090 6  99591106.34843  24321162.172          38.900          20.400
                  24321166.043        3299.273        2570.786
 122812543.978 6  95698131.29844  23370463.617          41.600          27.500
                  23370470.477       -3543.059       -2760.737
 18  2 21  9  6  0.0000000  0  8G09G07G05G16G30G02G13G06
 113847460.810 8  88712324.23046  21664447.109          50.500          39.400
                  21664452.625       -2454.184       -1912.174
 109137180.416 8  85042011.73246  20768120.758          51.000          41.900
                  20768124.152          72.145          56.446
 112431215.458 8  87608786.46647  21394957.492          50.300          42.000
                  21394960.957        2215.965        1726.896
 129116448.966 6 100610276.01843  24570056.531          39.000          20.100
                  24570060.473       -1720.422       -1340.239
 110060691.790 8  85761661.78346  20943862.578          51.500          41.600
                  20943867.793        1842.383        1435.906
 116314919.651 7  90635028.88345  22134002.578          47.000          34.900
                  22134003.355       -1586.434       -1235.942
 127709542.871 6  99514024.88843  24302338.117          38.300          21.500
                  24302342.672        3295.684        2568.088
 122918922.080 6  95781023.27544  23390706.750          41.700          28.300
                  23390714.680       -3548.887       -2765.227
 18  2 21  9  6 30.0000000  0  8G09G07G05G16G30G02G13G06
 113921195.738 8  88769780.00746  21678478.109          49.500          39.600
                  21678483.379       -2461.477       -1917.954
 109135280.799 8  85040531.49146  20767759.375          51.700          41.800
                  20767762.793          54.664          42.754
 112364918.957 8  87557126.86546  21382341.844          50.800          41.100
                  21382345.453        2203.895        1717.437
 129168331.957 6 100650704.27343  24579930.539          40.600          20.900
                  24579932.777       -1738.398       -1354.426
 110005664.973 8  85718783.75147  20933391.195          51.300          42.200
                  20933397.008        1826.102        1423.100
 116362752.836 7  90672301.47545  22143104.586          46.600          34.900
                  22143105.598       -1602.324       -1248.402
 127610725.050 6  99437024.05743  24283533.180          38.300          21.300
                  24283538.031        3292.371        2565.426
 123025469.891 7  95864047.48744  23410982.023          42.000          27.200
                  23410989.059       -3554.234       -2769.537
 18  2 21  9  7  0.0000000  0  7G09G07G05G30G02G13G06
 113995154.362 8  88827410.08846  21692552.094          49.100          39.200
                  21692557.320       -2468.953       -1923.786
 109133910.711 8  85039463.88447  20767498.891          51.500          42.200
                  20767502.133          36.898          28.964
 112298988.855 8  87505752.76346  21369795.617          50.400          40.900
                  21369799.371        2191.594        1707.878
 109951134.239 8  85676292.28347  20923014.469          51.900          42.200
                  20923020.156        1809.469        1410.175
 116411066.316 7  90709948.33545  22152298.578          46.500          34.600
                  22152299.625       -1618.402       -1260.884
 127512012.436 6  99360105.17943  24264749.078          38.200          20.400
                  24264753.605        3288.742        2562.656
 123132185.082 6  95947202.15044  23431288.797          41.400          25.600
                  23431296.152       -3559.812       -2773.861
 18  2 21  9  7 30.0000000  0  7G09G07G05G30G02G13G06
 114069335.187 8  88885213.29646  21706668.344          50.400          39.800
                  21706674.348       -2476.457       -1929.546
 109133069.353 8  85038808.27646  20767338.820          51.800          41.200
                  20767341.957          19.227          15.224
 112233426.551 8  87454665.25946  21357319.617          51.200          41.200
                  21357323.156        2179.207        1698.280
 109897100.572 8  85634188.13847  20912731.820          52.100          42.100
                  20912737.914        1792.828        1397.239
 116459858.008 7  90747967.81745  22161583.852          45.900          33.900
                  22161584.270       -1634.445       -1273.305
 127413405.266 6  99283268.48543  24245984.047          37.900          20.400
                  24245989.402        3285.105        2559.873
 123239064.412 6  96030484.67944  23451627.422          41.400          26.200
                  23451635.324       -3565.387       -2778.098
 18  2 21  9  8  0.0000000  0  7G09G07G05G30G02G13G06
 114143737.134 8  88943188.83146  21720826.000          50.100          39.500
                  21720831.652       -2483.637       -1935.238
 109132756.939 8  85038564.83846  20767279.445          51.600          41.500
                  20767282.555           1.703           1.523
 112168235.627 8  87403867.13946  21344914.172          51.100          40.900
                  21344917.430        2166.879        1688.641
 109843565.338 8  85592472.37447  20902544.492          52.600          42.400
                  20902550.555        1776.301        1384.291
 116509126.245 7  90786358.63645  22170958.617          44.900          34.200
                  22170960.008       -1650.070       -1285.616
 127314904.453 6  99206514.65443  24227240.391          37.800          20.100
                  24227245.176        3281.723        2557.194
 123346104.936 6  96113892.80744  23471996.945          39.800          25.000
                  23472004.824       -3570.707       -2782.240
 18  2 21  9  8 30.0000000  0  7G09G07G05G30G02G13G06
 114218358.948 8  89001335.67346  21735026.469          50.300          39.500
                  21735031.938       -2491.004       -1940.964
 109132972.153 8  85038732.54047  20767320.234          52.000          42.200
                  20767323.375         -15.859         -12.197
 112103417.239 8  87353359.30546  21332579.805          50.300          40.700
                  21332583.191        2154.461        1678.907
 109790529.622 8  85551145.83147  20892452.492          52.600          43.000
                  20892458.602        1759.559        1371.287
 116558869.116 7  90825119.30145  22180424.086          46.400          34.700
                  22180425.770       -1665.812       -1297.949
 127216510.729 6  99129844.25543  24208516.781          38.600          19.900
                  24208520.598        3278.152        2554.357
 123453303.505 6  96197424.12744  23492395.711          40.100          25.500
                  23492403.688       -3575.797       -2786.325
 18  2 21  9  9  0.0000000  0  7G09G07G05G30G02G13G06
 114293199.612 8  89059653.06546  21749268.164          50.500          39.700
                  21749274.082       -2498.348       -1946.638
 109133715.075 8  85039311.43347  20767461.672          52.100          42.300
                  20767465.285         -33.602         -25.918
 112038973.286 8  87303143.24446  21320316.344          51.000          40.100
                  21320320.086        2141.848        1669.170
 109737994.867 8  85510209.67047  20882455.305          51.900          42.900
                  20882461.500        1742.727        1358.236
 116609084.663 7  90864248.28045  22189980.070          46.700          34.200
                  22189981.102       -1681.781       -1310.210
 127118224.919 6  99053257.93043  24189814.281          40.100          22.000
                  24189817.605        3274.367        2551.527
 123560657.376 6  96281076.45044  23512824.914          40.100          25.300
                  23512831.730       -3581.074       -2790.340
 18  2 21  9  9 30.0000000  0  7G09G07G05G30G02G13G06
 114368257.622 8  89118139.79746  21763551.289          50.200          39.800
                  21763557.980       -2505.625       -1952.332
 109134984.786 8  85040300.81647  20767703.398          51.800          42.100
                  20767706.895         -51.109         -39.635
 111974905.272 8  87253220.11746  21308124.742          50.800          40.200
                  21308128.320        2129.309        1659.307
 109685961.891 8  85469664.50847  20872553.711          51.800          42.400
                  20872559.828        1726.059        1345.152
 116659770.613 7  90903743.80645  22199625.844          46.600          34.300
                  22199626.895       -1697.352       -1322.453
 127020047.537 6  98976756.15243  24171131.109          38.100          20.600
                  24171135.117        3270.695        2548.637
 123668163.137 6  96364847.14144  23533282.813          40.200          26.200
                  23533289.977       -3585.980       -2794.288
 18  2 21  9 10  0.0000000  0  7G09G07G05G30G02G13G06
 114443532.783 8  89176795.73846  21777876.148          51.000          39.900
                  21777881.047       -2512.898       -1957.939
 109136781.885 8  85041701.15347  20768045.125          52.200          42.300
                  20768048.734         -68.848         -53.319
 111911216.035 8  87203592.14946  21296005.000          51.200          39.900
                  21296008.418        2116.504        1649.466
 109634432.899 8  85429512.04847  20862748.156          52.500          42.700
                  20862753.820        1709.090        1332.055
 116710926.307 7  90943605.37045  22209360.109          46.700          35.000
                  22209361.371       -1713.137       -1334.624
 126921980.194 6  98900340.06643  24152469.680          40.800          20.900
                  24152473.496        3266.871        2545.778
 123775818.854 6  96448734.65444  23553769.109          41.200          24.700
                  23553776.164       -3591.172       -2798.154
 18  2 21  9 10 30.0000000  0  7G09G07G05G30G02G13G06
 114519022.956 8  89235619.26046  21792240.930          50.900          39.900
                  21792246.926       -2519.945       -1963.484
 109139104.525 8  85043511.00347  20768487.094          51.300          42.400
                  20768490.492         -86.219         -66.924
 111847906.766 8  87154260.25146  21283957.500          51.400          39.700
                  21283961.148        2103.945        1639.615
 109583408.068 8  85389752.44847  20853038.609          51.800          42.600
                  20853044.203        1692.375        1318.980
 116762548.277 7  90983830.26445  22219183.813          47.800          35.600
                  22219184.477       -1728.449       -1346.669
 126824023.096 6  98824009.90243  24133828.594          41.400          20.100
                  24133832.656        3263.449        2542.960
 123883620.544 7  96532735.94844  23574282.945          42.200          24.800
                  23574289.590       -3595.828       -2801.849
 18  2 21  9 11  0.0000000  0  7G09G07G05G30G02G13G06
 114594727.359 8  89294609.66146  21806647.219          51.300          40.200
                  21806653.551       -2527.094       -1969.012
 109141952.520 8  85045730.22047  20769029.336          52.200          42.000
                  20769032.359        -103.711         -80.566
 111784980.125 8  87105226.51346  21271982.961          51.400          40.200
                  21271986.613        2091.129        1629.654
 109532888.891 8  85350386.86147  20843425.016          53.100          43.300
                  20843431.184        1675.531        1305.844
 116814635.326 7  91024417.56445  22229095.641          47.300          35.700
                  22229096.887       -1743.953       -1358.719
 126726177.353 6  98747766.48643  24115208.977          40.200          20.400
                  24115213.105        3259.688        2540.055
 123991565.562 7  96616848.91744  23594825.141          42.700          26.800
                  23594831.594       -3600.613       -2805.536
 18  2 21  9 11 30.0000000  0  7G09G07G05G30G02G13G06
 114670644.912 8  89353766.17546  21821093.742          51.300          39.900
                  21821098.805       -2534.094       -1974.578
 109145325.582 8  85048358.59647  20769671.078          51.300          42.100
                  20769674.227        -121.145         -94.202
 111722437.814 8  87056492.23346  21260081.555          50.900          39.900
                  21260085.023        2078.285        1619.630
 109482876.649 8  85311416.29147  20833908.195          52.800          43.100
                  20833913.926        1658.605        1292.633
 116867185.557 7  91065365.77145  22239095.914          46.800          35.600
                  22239096.398       -1759.328       -1370.739
 126628443.804 6  98671610.50543  24096610.594          39.900          20.600
                  24096614.844        3255.949        2537.107
 124099650.927 6  96701071.25044  23615391.891          40.900          24.700
                  23615399.254       -3605.145       -2809.163
 18  2 21  9 12  0.0000000  0  7G09G07G05G30G02G13G06
 114746774.430 8  89413087.87646  21835580.852          50.000          39.900
                  21835586.129       -2541.156       -1980.028
 109149223.044 8  85051395.57947  20770412.891          51.000          42.200
                  20770416.066        -138.656        -107.805
 111660281.587 8  87008058.81346  21248254.055          50.900          39.200
                  21248257.352        2065.434        1609.606
 109433372.400 8  85272841.56447  20824488.148          52.700          43.100
                  20824493.398        1641.684        1279.448
 116920196.708 7  91106673.15745  22249182.938          47.500          35.700
                  22249183.793       -1774.777       -1382.684
 126530823.215 6  98595542.54643  24078034.289          40.500          20.600
                  24078038.145        3252.066        2534.176
 124207873.759 6  96785400.68544  23635985.875          40.200          25.800
                  23635993.875       -3609.672       -2812.662
 18  2 21  9 12 30.0000000  0  7G09G07G05G30G02G13G06
 114823115.028 8  89472574.02346  21850108.148          51.400          40.500
                  21850113.816       -2548.238       -1985.527
 109153645.082 8  85054841.32547  20771254.383          51.300          42.500
                  20771257.727        -156.230        -121.454
 111598513.950 8  86959928.19146  21236499.641          50.800          39.200
                  21236502.777        2052.332        1599.444
 109384377.513 8  85234663.73547  20815164.344          52.200          43.300
                  20815169.984        1624.559        1266.180
 116973666.960 7  91148338.26645  22259358.203          47.700          35.500
                  22259359.340       -1790.020       -1394.606
 126433316.553 6  98519563.37543  24059479.906          40.600          22.000
                  24059483.738        3248.242        2531.186
 124316231.233 6  96869835.01243  23656606.258          40.200          22.900
                  23656613.387       -3614.172       -2816.151
 18  2 21  9 13  0.0000000  0  7G09G07G05G30G02G13G06
 114899665.261 8  89532223.54346  21864675.141          51.000          39.800
                  21864681.121       -2555.160       -1990.939
 109158589.941 8  85058694.45946  20772195.242          52.400          41.900
                  20772198.328        -173.437        -135.002
 111537136.194 8  86912101.36346  21224820.211          50.800          38.800
                  21224823.223        2039.488        1589.340
 109335892.767 8  85196883.41447  20805937.844          53.300          43.100
                  20805943.848        1607.633        1252.921
 117027594.177 7  91190359.44846  22269620.367          47.000          36.000
                  22269621.527       -1805.090       -1406.419
 126335924.170 6  98443673.27343  24040946.922          40.700          22.000
                  24040950.688        3244.551        2528.260
 124424720.139 6  96954371.75644  23677250.289          40.600          24.100
                  23677258.223       -3618.324       -2819.489
 18  2 21  9 13 30.0000000  0  7G09G07G05G30G02G13G06
 114976424.063 8  89592035.57046  21879282.016          50.100          39.600
                  21879287.211       -2561.965       -1996.318
 109164057.259 8  85062954.69847  20773235.789          52.500          43.000
                  20773238.945        -190.762        -148.532
 111476150.096 8  86864579.72746  21213214.609          51.000          38.400
                  21213217.719        2026.434        1579.146
 109287919.358 8  85159501.54047  20796808.555          52.800          43.000
                  20796814.633        1590.750        1239.668
 117081976.434 7  91232735.21045  22279969.172          47.000          35.500
                  22279970.043       -1820.098       -1418.200
 126238646.891 6  98367872.83143  24022435.438          40.000          21.800
                  24022439.465        3240.848        2525.228
 124533337.551 6  97039008.63943  23697920.633          40.600          23.400
                  23697927.742       -3622.559       -2822.782
 18  2 21  9 14  0.0000000  0  7G09G07G05G30G02G13G06
 115053390.602 8  89652009.48746  21893928.234          50.300          40.100
                  21893933.730       -2568.961       -2001.712
 109170046.866 8  85067621.91947  20774375.344          52.900          42.500
                  20774378.734        -208.285        -162.099
 111415558.524 8  86817365.51546  21201684.414          50.700          38.100
                  21201687.621        2013.152        1568.865
 109240458.581 8  85122519.13147  20787777.250          52.900          43.100
                  20787782.914        1573.473        1226.317
 117136812.089 7  91275464.26946  22290404.219          46.700          36.200
                  22290404.836       -1835.336       -1429.952
 126141486.379 6  98292163.35843  24003946.445          41.200          22.200
                  24003950.219        3236.770        2522.207
 124642080.708 6  97123743.55344  23718613.211          41.700          25.200
                  23718620.266       -3626.809       -2826.027
 18  2 21  9 14 30.0000000  0  7G09G07G05G30G02G13G06
 115130563.661 8  89712144.30646  21908613.641          48.700          39.500
                  21908619.723       -2575.902       -2007.093
 109176557.883 8  85072695.43947  20775614.086          52.500          42.600
                  20775617.551        -225.641        -175.674
 111355363.021 8  86770459.92746  21190229.773          50.500          38.200
                  21190232.969        1999.930        1558.529
 109193511.459 8  85085936.95847  20778843.352          52.400          42.400
                  20778849.289        1556.398        1212.956
 117192098.533 7  91318544.59245  22300924.266          46.800          35.400
                  22300925.707       -1850.277       -1441.659
 126044443.063 6  98216545.24443  23985479.766          40.400          22.500
                  23985483.699        3232.828        2519.110
 124750946.692 7  97208574.09543  23739330.133          42.300          23.900
                  23739337.566       -3630.828       -2829.220
 18  2 21  9 15  0.0000000  0  7G09G07G05G30G02G13G06
 115207942.201 8  89772439.24546  21923338.438          49.300          38.700
                  21923344.184       -2582.719       -2012.403
 109183589.959 8  85078174.98047  20776952.648          52.400          42.400
                  20776955.637        -243.148        -189.180
 111295565.658 8  86723864.58346  21178850.500          51.100          38.600
                  21178853.508        1986.625        1548.167
 109147079.078 8  85049755.88047  20770008.133          51.900          42.700
                  20770013.305        1539.113        1199.563
 117247834.093 7  91361974.86545  22311530.547          46.900          35.100
                  22311531.891       -1865.305       -1453.296
 125947517.733 6  98141019.07343  23967035.539          41.400          23.900
                  23967038.660        3228.855        2516.044
 124859932.570 6  97293498.13243  23760069.438          40.900          23.300
                  23760075.711       -3634.773       -2832.261
 18  2 21  9 15 30.0000000  0  7G09G07G05G30G02G13G06
 115285525.295 8  89832893.61046  21938101.656          49.300          40.100
                  21938107.441       -2589.574       -2017.750
 109191142.234 8  85084059.86247  20778389.625          52.800          42.900
                  20778393.098        -260.449        -202.711
 111236168.742 8  86677581.26846  21167547.531          50.400          38.300
                  21167550.922        1973.121        1537.707
 109101162.628 8  85013976.83547  20761270.453          51.700          43.200
                  20761275.988        1521.855        1186.113
 117304016.924 7  91405753.65045  22322222.008          46.300          35.100
                  22322223.023       -1880.219       -1464.912
 125850711.599 7  98065585.73343  23948613.570          42.200          22.800
                  23948617.055        3224.793        2512.927
 124969035.552 7  97378513.40944  23780831.039          42.200          24.600
                  23780838.020       -3638.832       -2835.303
 18  2 21  9 16  0.0000000  0  7G09G07G05G30G02G13G06
 115363311.908 7  89893506.52846  21952904.031          47.900          39.500
                  21952910.465       -2596.293       -2022.975
 109199214.457 8  85090349.91547  20779925.609          52.100          42.800
                  20779928.984        -277.711        -216.205
 111177174.187 8  86631611.48346  21156321.391          50.100          38.300
                  21156324.633        1959.789        1527.253
 109055763.176 8  84978600.63847  20752631.016          51.000          43.100
                  20752637.230        1504.676        1172.695
 117360644.524 7  91449878.99745  22332998.055          46.800          34.500
                  22332999.047       -1895.016       -1476.436
 125754024.978 7  97990245.56944  23930215.414          42.300          26.000
                  23930218.953        3220.898        2509.814
 125078252.812 6  97463617.70644  23801614.227          41.200          24.300
                  23801621.660       -3642.441       -2838.231
 18  2 21  9 16 30.0000000  0  7G09G07G05G30G02G13G06
 115441300.869 7  89954277.10646  21967745.383          47.800          39.800
                  21967751.238       -2602.961       -2028.205
 109207805.926 8  85097044.55647  20781560.703          52.100          42.300
                  20781563.398        -295.031        -229.657
 111118583.406 8  86585956.33046  21145172.117          50.600          37.800
                  21145174.973        1946.313        1516.758
 109010881.660 8  84943628.03247  20744090.328          51.900          43.400
                  20744096.277        1487.410        1159.250
 117417714.865 7  91494349.32645  22343857.641          45.700          34.900
                  22343859.113       -1909.664       -1487.886
 125657459.262 7  97914999.58944  23911839.008          42.000          24.700
                  23911842.945        3216.863        2506.699
 125187581.248 6  97548808.63943  23822419.023          40.500          22.800
                  23822425.895       -3645.973       -2841.058
 18  2 21  9 17  0.0000000  0  7G09G07G05G30G02G13G06
 115519491.044 8  90015204.52346  21982623.977          48.400          38.800
                  21982629.492       -2609.695       -2033.438
 109216915.303 8  85104142.77746  20783294.141          51.900          41.700
                  20783297.113        -312.289        -243.108
 111060398.862 8  86540617.71746  21134099.648          49.800          38.300
                  21134102.945        1932.648        1506.176
 108966519.037 8  84909059.75047  20735648.453          51.900          43.800
                  20735653.941        1470.063        1145.739
 117475225.912 7  91539163.05045  22354802.219          45.800          34.700
                  22354802.918       -1924.398       -1499.318
 125561015.192 7  97839848.43044  23893486.734          43.100          24.100
                  23893489.672        3212.766        2503.509
 125297018.060 6  97634084.00244  23843245.102          41.100          24.800
                  23843251.250       -3649.699       -2843.837
 18  2 21  9 17 30.0000000  0  7G09G07G05G30G02G13G06
 115597881.358 7  90076287.85846  21997541.344          47.900          39.600
                  21997547.645       -2616.270       -2038.607
 109226542.193 8  85111644.24047  20785126.039          52.100          42.000
                  20785128.945        -329.406        -256.527
 111002622.070 8  86495596.84546  21123105.219          51.000          38.600
                  21123108.223        1919.141        1495.559
 108922676.227 8  84874896.52047  20727305.711          51.800          43.600
                  20727311.332        1452.719        1132.239
 117533175.694 7  91584318.66245  22365829.391          45.000          33.300
                  22365831.141       -1938.902       -1510.670
 125464693.377 7  97764792.49944  23875157.031          43.000          24.700
                  23875160.441        3208.848        2500.324
 125406560.111 6  97719441.41943  23864088.773          38.300          22.500
                  23864096.594       -3653.027       -2846.546
 18  2 21  9 18  0.0000000  0  7G09G07G05G30G02G13G06
 115676470.901 7  90137526.42746  22012496.313          47.400          39.200
                  22012502.359       -2622.914       -2043.741
 109236686.094 8  85119548.57847  20787056.469          52.300          42.300
                  20787059.441        -346.672        -269.916
 110945255.352 8  86450895.50146  21112188.734          50.700          38.200
                  21112191.617        1905.410        1484.933
 108879354.386 8  84841139.24647  20719061.617          51.700          44.000
                  20719067.227        1435.508        1118.737
 117591562.031 7  91629814.46945  22376940.164          45.000          33.600
                  22376940.984       -1953.395       -1521.936
 125368494.940 7  97689832.69644  23856851.602          42.400          24.700
                  23856854.844        3204.766        2497.161
 125516204.866 6  97804878.81944  23884954.625          39.500          25.200
                  23884961.980       -3656.500       -2849.164
 18  2 21  9 18 30.0000000  0  7G09G07G05G30G02G13G06
 115755258.367 7  90198919.24846  22027489.344          47.800          38.700
                  22027494.156       -2629.531       -2048.912
 109247345.878 8  85127854.89947  20789085.031          52.800          42.000
                  20789087.855        -363.887        -283.363
 110888300.283 8  86406514.92646  21101350.422          50.500          38.300
                  21101353.523        1891.633        1474.146
 108836554.263 8  84807788.50547  20710917.055          52.300          44.100
                  20710923.375        1417.965        1105.111
 117650382.586 7  91675648.57545  22388133.453          45.500          33.400
                  22388134.301       -1967.953       -1533.264
 125272420.377 7  97614969.43643  23838567.828          42.600          22.600
                  23838571.879        3200.484        2493.876
 125625948.967 6  97890393.70043  23905837.211          38.200          23.300
                  23905845.102       -3659.832       -2851.742
 18  2 21  9 19  0.0000000  0  7G09G07G05G30G02G13G06
 115834243.013 8  90260465.71246  22042519.523          48.600          38.600
                  22042525.094       -2636.074       -2054.023
 109258520.973 8  85136562.76547  20791211.320          52.000          42.100
                  20791214.387        -381.086        -296.743
 110831759.205 8  86362456.93546  21090591.242          50.900          38.600
                  21090594.039        1877.891        1463.380
 108794277.012 8  84774845.20447  20702871.758          52.400          43.700
                  20702877.934        1400.574        1091.543
 117709635.396 7  91721819.50945  22399408.563          45.400          33.200
                  22399409.816       -1982.246       -1544.441
 125176470.708 6  97540203.49544  23820310.070          41.700          24.700
                  23820313.496        3196.285        2490.635
 125735789.956 6  97975983.99044  23926739.477          39.200          25.800
                  23926747.945       -3662.855       -2854.153
 18  2 21  9 19 30.0000000  0  7G09G07G05G30G02G13G06
 115913423.521 8  90322164.78646  22057586.969          48.300          38.800
                  22057593.063       -2642.637       -2059.065
 109270210.682 8  85145671.63347  20793435.891          53.100          42.200
                  20793438.953        -398.219        -310.067
 110775633.895 8  86318722.92446  21079911.039          51.000          38.700
                  21079913.996        1863.961        1452.583
 108752523.364 8  84742309.90147  20694926.156          52.300          44.000
                  20694931.992        1383.020        1077.952
 117769318.071 7  91768325.40345  22410766.047          45.900          33.200
                  22410767.672       -1996.551       -1555.544
 125080646.958 7  97465535.70743  23802075.078          42.000          22.800
                  23802078.469        3191.930        2487.337
 125845724.644 6  98061647.34743  23947659.781          39.200          22.300
                  23947666.996       -3665.980       -2856.573
 18  2 21  9 20  0.0000000  0  7G09G07G05G30G02G13G06
 115992799.097 8  90384015.84946  22072691.945          48.500          38.600
                  22072697.047       -2649.141       -2064.162
 109282414.431 8  85155181.04447  20795758.375          53.000          42.400
                  20795761.742        -415.437        -323.418
 110719925.961 8  86275314.14446  21069310.055          50.600          40.100
                  21069313.441        1849.898        1441.684
 108711294.327 8  84710183.37347  20687081.094          52.000          44.200
                  20687086.844        1365.516        1064.297
 117829428.459 7  91815164.58445  22422204.289          45.900          32.800
                  22422206.059       -2010.840       -1566.676
 124984950.094 7  97390966.70143  23783863.828          42.200          21.700
                  23783868.004        3187.691        2484.052
 125955750.306 6  98147381.60044  23968596.695          40.700          25.300
                  23968605.012       -3669.031       -2858.928
 18  2 21  9 20 30.0000000  0  7G09G07G05G30G02G13G06
 116072368.404 8  90446017.89446  22087833.352          49.500          37.800
                  22087838.633       -2655.484       -2069.160
 109295130.654 8  85165089.78747  20798178.266          52.100          42.500
                  20798181.375        -432.473        -336.743
 110664637.311 8  86232232.07846  21058788.953          50.600          39.100
                  21058791.859        1835.945        1430.773
 108670590.639 8  84678466.23047  20679335.133          52.800          43.800
                  20679340.859        1348.016        1050.623
 117889964.523 7  91862335.47845  22433724.391          46.000          33.400
                  22433725.719       -2024.898       -1577.690
 124889380.614 7  97316497.01143  23765678.539          42.600          23.900
                  23765681.625        3183.496        2480.686
 126065863.879 6  98233184.29943  23989550.031          39.200          21.800
                  23989559.129       -3671.762       -2861.171
 18  2 21  9 21  0.0000000  0  7G09G07G05G30G02G13G06
 116152130.563 8  90508170.20046  22103011.648          48.700          38.000
                  22103017.594       -2661.859       -2074.131
 109308358.856 8  85175397.48047  20800694.953          53.400          43.200
                  20800698.391        -449.383        -349.992
 110609770.638 8  86189478.82846  21048347.883          50.800          40.300
                  21048351.176        1821.922        1419.818
 108630413.244 8  84647159.17547  20671689.297          52.900          43.600
                  20671695.535        1330.633        1036.984
 117950923.841 7  91909836.20045  22445324.453          45.600          33.700
                  22445325.953       -2038.902       -1588.637
 124793939.349 7  97242127.22044  23747516.680          43.100          24.400
                  23747519.914        3179.340        2477.397
 126176062.642 6  98319053.43143  24010520.727          40.800          23.000
                  24010528.262       -3674.742       -2863.337
 18  2 21  9 21 30.0000000  0  7G09G07G05G30G02G13G06
 116232084.513 8  90570471.94246  22118226.430          48.600          37.900
                  22118232.094       -2668.266       -2079.135
 109322098.468 8  85186103.66547  20803309.875          52.500          42.300
                  20803313.063        -466.516        -363.298
 110555327.151 8  86147055.33346  21037988.055          50.700          40.600
                  21037991.117        1807.699        1408.785
 108590763.054 8  84616262.92247  20664144.148          51.600          43.900
                  20664150.215        1312.910        1023.239
 118012304.467 7  91957665.20545  22457005.000          46.000          33.000
                  22457005.656       -2053.027       -1599.590
 124698627.410 7  97167858.20743  23729379.086          42.700          23.900
                  23729383.148        3174.867        2474.001
 126286343.612 6  98404986.56043  24031506.531          38.300          22.000
                  24031514.426       -3677.328       -2865.485
 18  2 21  9 22  0.0000000  0  7G09G07G05G30G02G13G06
 116312229.072 8  90632922.23546  22133477.148          48.000          38.100
                  22133482.574       -2674.621       -2084.051
 109336348.201 8  85197207.34847  20806021.547          52.900          42.500
                  20806024.984        -483.453        -376.508
 110501308.635 8  86104962.98246  21027708.820          51.000          40.000
                  21027712.098        1793.582        1397.750
 108551640.584 8  84585777.88447  20656699.500          51.500          43.900
                  20656705.387        1295.301        1009.559
 118074103.722 7  92005820.42445  22468764.789          46.500          34.400
                  22468765.535       -2066.891       -1610.405
 124603445.207 7  97093690.28443  23711266.484          42.100          23.000
                  23711269.934        3170.570        2470.632
 126396703.782 6  98490981.46543  24052508.039          40.900          22.500
                  24052514.902       -3680.051       -2867.460
 18  2 21  9 22 30.0000000  0  7G09G07G05G30G02G13G06
 116392563.222 7  90695520.24246  22148764.625          46.700          37.500
                  22148769.832       -2680.824       -2088.930
 109351107.357 8  85208707.98247  20808829.984          52.300          42.200
                  20808833.582        -500.445        -389.708
 110447717.235 8  86063203.45346  21017510.469          51.200          40.900
                  21017513.934        1779.332        1386.644
 108513046.776 8  84555704.80347  20649355.117          50.300          43.600
                  20649361.313        1277.699         995.845
 118136319.475 7  92054300.19045  22480604.789          45.600          33.900
                  22480605.953       -2080.711       -1621.171
 124508393.872 7  97019624.33944  23693178.750          42.000          24.300
                  23693182.613        3166.262        2467.274
 126507140.388 6  98577035.90143  24073522.992          36.900          20.600
                  24073530.750       -3682.590       -2869.404
 18  2 21  9 23  0.0000000  0  7G09G07G05G30G02G13G06
 116473086.158 8  90758265.35546  22164087.680          48.900          38.100
                  22164093.199       -2687.344       -2093.846
 109366375.237 8  85220605.02247  20811735.594          52.300          42.500
                  20811738.926        -517.441        -402.929
 110394555.115 8  86021778.41846  21007394.234          51.100          41.100
                  21007397.566        1764.805        1375.464
 108474982.673 8  84526044.45847  20642111.875          51.700          43.800
                  20642117.402        1259.797         982.022
 118198949.728 7  92103102.94245  22492522.539          46.000          33.700
                  22492523.809       -2094.633       -1631.921
 124413474.299 6  96945661.03844  23675115.523          40.600          24.800
                  23675119.477        3161.758        2463.781
 126617650.586 6  98663147.71643  24094553.258          39.900          23.500
                  24094560.512       -3685.098       -2871.284
 18  2 21  9 23 30.0000000  0  7G09G07G05G30G02G13G06
 116553796.512 8  90821156.52446  22179445.938          48.200          37.000
                  22179451.934       -2693.508       -2098.734
 109382150.521 8  85232897.44747  20814737.391          52.300          42.300
                  20814740.781        -534.414        -416.120
 110341823.278 8  85980688.67346  20997359.711          51.400          40.900
                  20997362.809        1750.430        1364.217
 108437448.593 8  84496797.12847  20634969.305          51.200          43.900
                  20634975.293        1242.230         968.243
 118261991.723 7  92152226.56445  22504519.367          45.700          34.100
                  22504520.141       -2108.363       -1642.614
 124318687.312 6  96871801.08343  23657079.094          40.900          23.000
                  23657082.270        3157.348        2460.324
 126728231.388 6  98749314.46343  24115594.695          36.700          21.300
                  24115603.180       -3687.051       -2873.047
 18  2 21  9 24  0.0000000  0  7G09G07G05G30G02G13G06
 116634693.371 7  90884192.99546  22194840.555          47.600          38.300
                  22194846.754       -2699.707       -2103.577
 109398432.288 8  85245584.53246  20817835.609          51.900          41.700
                  20817838.680        -551.137        -429.264
 110289524.187 8  85939936.12746  20987407.313          51.400          41.000
                  20987410.840        1736.016        1352.953
 108400445.436 8  84467963.50247  20627928.141          51.200          43.900
                  20627934.320        1224.590         954.443
 118325443.363 7  92201669.39545  22516593.477          45.500          34.200
                  22516594.805       -2121.906       -1653.249
 124224033.146 6  96798044.62044  23639066.086          40.300          24.300
                  23639070.219        3152.871        2456.852
 126838879.846 6  98835534.01643  24136652.047          39.200          23.500
                  24136659.277       -3689.367       -2874.809
 18  2 21  9 24 30.0000000  0  7G09G07G05G30G02G13G06
 116715775.770 7  90947374.07846  22210270.016          46.700          37.300
                  22210275.320       -2705.875       -2108.398
 109415219.929 8  85258665.79046  20821030.117          52.000          41.200
                  20821033.258        -568.082        -442.408
 110237659.749 8  85899522.28546  20977538.117          51.700          40.400
                  20977541.293        1721.563        1341.640
 108363974.052 8  84439544.24847  20620987.930          51.500          44.500
                  20620993.918        1206.738         940.598
 118389302.425 7  92251429.68745  22528745.656          45.200          32.800
                  22528746.973       -2135.469       -1663.812
 124129513.624 6  96724393.06844  23621079.648          40.900          25.100
                  23621083.977        3148.297        2453.345
 126949593.336 6  98921804.20643  24157719.188          36.200          22.000
                  24157726.898       -3691.562       -2876.494
 18  2 21  9 25  0.0000000  0  7G09G07G05G30G02G13G06
 116797042.784 8  91010698.99846  22225734.547          48.200          37.800
                  22225740.590       -2711.875       -2113.123
 109432512.543 8  85272140.55446  20824320.719          52.100          41.800
                  20824323.715        -584.867        -455.494
 110186231.837 8  85859448.59046  20967751.359          51.500          41.100
                  20967754.566        1707.000        1330.313
 108328035.162 8  84411539.92947  20614148.727          52.400          44.300
                  20614155.172        1189.129         926.804
 118453566.431 7  92301505.52145  22540974.383          45.300          33.800
                  22540976.246       -2148.891       -1674.263
 124035129.365 6  96650846.92444  23603119.000          40.300          25.500
                  23603122.699        3143.879        2449.840
 127060368.915 6  99008122.79543  24178800.063          39.400          23.500
                  24178807.637       -3693.484       -2878.038
 18  2 21  9 25 30.0000000  0  7G09G07G05G30G02G13G06
 116878493.457 7  91074167.01946  22241234.008          47.300          37.600
                  22241239.840       -2718.203       -2117.889
 109450309.241 8  85286008.11146  20827707.359          50.900          41.600
                  20827710.414        -601.785        -468.570
 110135242.727 8  85819716.80946  20958048.422          50.900          41.300
                  20958052.039        1692.207        1318.882
 108292629.542 8  84383951.13447  20607411.672          52.500          44.300
                  20607416.859        1171.207         912.938
 118518233.223 7  92351895.22245  22553280.203          45.300          33.000
                  22553281.969       -2162.363       -1684.691
 123940881.133 7  96577406.77944  23585184.609          42.600          25.600
                  23585188.527        3139.254        2446.274
 127171203.945 6  99094487.65843  24199890.414          36.900          21.800
                  24199898.684       -3695.559       -2879.555
 18  2 21  9 26  0.0000000  0  7G09G07G05G30G02G13G06
 116960126.729 8  91137777.33246  22256768.422          48.000          37.600
                  22256774.691       -2724.145       -2122.591
 109468608.880 8  85300267.56147  20831189.828          50.600          42.100
                  20831192.816        -618.285        -481.580
 110084693.781 8  85780328.02346  20948429.273          51.500          41.400
                  20948433.113        1677.660        1307.458
 108257757.844 8  84356778.38247  20600775.563          53.700          44.700
                  20600781.102        1153.555         899.099
 118583300.469 7  92402596.95145  22565661.828          44.400          33.200
                  22565663.512       -2175.508       -1695.033
 123846769.882 6  96504073.34244  23567276.023          41.800          24.800
                  23567279.699        3134.945        2442.770
 127282095.371 6  99180896.51943  24220992.445          38.600          21.700
                  24221000.566       -3697.148       -2880.944
 18  2 21  9 26 30.0000000  0  7G09G07G05G30G02G13G06
 117041941.488 7  91201529.07246  22272337.094          47.700          37.400
                  22272342.793       -2730.246       -2127.367
 109487410.284 8  85314918.00147  20834767.531          50.500          42.000
                  20834770.965        -635.141        -494.678
 110034586.734 8  85741283.57146  20938894.281          51.000          41.300
                  20938897.914        1662.797        1295.888
 108223420.618 8  84330022.10747  20594241.547          52.800          45.000
                  20594247.359        1135.629         885.116
 118648765.823 7  92453608.92445  22578119.234          44.500          33.100
                  22578121.473       -2188.871       -1705.411
 123752796.371 7  96430847.27044  23549393.273          42.200          25.300
                  23549397.211        3130.055        2439.101
 127393040.440 6  99267347.13043  24242105.602          37.400          20.900
                  24242112.355       -3698.996       -2882.375
 18  2 21  9 27  0.0000000  0  7G09G07G05G30G02G13G06
 117123936.608 7  91265421.35246  22287940.289          47.400          37.200
                  22287945.895       -2736.137       -2132.046
 109506712.568 8  85329958.74447  20838440.734          50.000          42.000
                  20838443.934        -651.703        -507.695
 109984923.170 8  85702584.69046  20929443.609          51.300          41.300
                  20929446.840        1648.090        1284.325
 108189618.375 8  84303682.69747  20587809.195          52.900          44.800
                  20587815.336        1117.793         871.198
 118714626.411 7  92504928.84045  22590652.211          43.600          32.700
                  22590654.406       -2201.875       -1715.673
 123658961.137 7  96357728.92643  23531537.172          43.100          22.900
                  23531540.848        3125.602        2435.485
 127504035.977 6  99353837.11243  24263225.117          37.300          19.900
                  24263234.402       -3700.453       -2883.662
 18  2 21  9 27 30.0000000  0  7G09G07G05G30G02G13G06
 117206111.356 7  91329453.59246  22303578.047          47.300          37.500
                  22303583.836       -2742.109       -2136.625
 109526514.808 8  85345389.05247  20842209.164          50.800          42.200
                  20842212.246        -668.398        -520.591
 109935705.336 8  85664233.13646  20920077.773          51.100          41.400
                  20920081.246        1633.094        1272.792
 108156351.926 8  84277760.80047  20581478.516          52.700          44.000
                  20581484.785        1099.988         857.354
 118780880.250 7  92556555.21045  22603260.125          44.800          33.200
                  22603261.840       -2215.004       -1725.772
 123565265.273 7  96284719.16243  23513707.898          43.100          22.600
                  23513710.277        3120.789        2431.928
 127615079.564 6  99440364.52543  24284357.422          36.500          19.900
                  24284365.445       -3702.086       -2884.808
 18  2 21  9 28  0.0000000  0  7G09G07G05G30G02G13G06
 117288464.244 8  91393624.63346  22319249.313          48.700          37.500
                  22319254.395       -2748.129       -2141.288
 109546815.626 8  85361207.86547  20846072.242          51.400          42.000
                  20846075.957        -685.117        -533.560
 109886934.300 8  85626229.73646  20910797.070          51.000          40.900
                  20910800.383        1618.156        1261.142
 108123621.501 8  84252256.57547  20575250.414          52.500          44.600
                  20575256.719        1081.988         843.389
 118847524.314 7  92608485.62945  22615941.813          44.100          32.700
                  22615944.383       -2228.078       -1735.912
 123471709.610 7  96211818.63743  23495904.281          42.000          22.000
                  23495907.289        3116.043        2428.220
 127726167.765 6  99526926.71043  24305496.781          38.600          19.600
                  24305504.754       -3703.785       -2885.954
 18  2 21  9 28 30.0000000  0  7G09G07G05G30G02G13G06
 117370994.579 8  91457933.97146  22334953.648          48.700          37.100
                  22334959.094       -2753.883       -2145.826
 109567614.039 8  85377414.41546  20850029.992          51.600          41.900
                  20850033.180        -701.551        -546.440
 109838612.855 8  85588576.66346  20901601.656          50.900          40.900
                  20901605.309        1603.305        1249.463
 108091427.959 8  84227170.69047  20569124.258          52.800          44.900
                  20569129.961        1064.305         829.474
 118914557.031 7  92660718.87545  22628698.125          45.000          33.000
                  22628699.918       -2240.855       -1745.953
 123378294.750 6  96139027.84944  23478128.000          41.800          24.400
                  23478131.336        3111.555        2424.609
 127837298.194 6  99613521.78843  24326644.516          39.400          20.600
                  24326651.820       -3705.031       -2887.005
 18  2 21  9 29  0.0000000  0  7G09G07G05G30G02G13G06
 117453701.491 7  91522380.89546  22350692.906          46.700          36.600
                  22350697.984       -2759.844       -2150.412
 109588909.012 8  85394007.91847  20854082.141          51.000          42.000
                  20854085.391        -718.160        -559.327
 109790742.827 8  85551275.34046  20892492.555          50.700          41.300
                  20892495.629        1588.043        1237.730
 108059771.932 8  84202503.65947  20563099.891          52.500          43.900
                  20563105.984        1046.227         815.499
 118981975.594 7  92713252.79745  22641527.016          44.200          32.300
                  22641529.172       -2253.793       -1755.943
 123285021.770 6  96066347.64144  23460378.516          41.700          24.700
                  23460382.336        3106.672        2420.915
 127948467.965 6  99700147.49843  24347799.234          37.400          20.900
                  24347807.426       -3706.270       -2887.947
 18  2 21  9 29 30.0000000  0  7G09G07G05G30G02G13G06
 117536583.951 7  91586964.59546  22366464.766          47.600          36.600
                  22366470.680       -2765.766       -2154.991
 109610699.899 8  85410987.82846  20858228.867          50.800          41.200
                  20858232.258        -734.629        -572.210
 109743325.748 8  85514326.96646  20883468.914          50.700          41.100
                  20883472.617        1572.957        1225.927
 108028653.985 8  84178255.90347  20557178.836          52.300          44.100
                  20557184.414        1028.316         801.505
 119049777.491 7  92766085.39145  22654430.063          45.200          34.100
                  22654431.754       -2266.469       -1765.874
 123191891.694 6  95993778.77944  23442656.469          41.400          24.700
                  23442660.195        3101.910        2417.163
 128059674.353 6  99786801.75343  24368960.875          37.800          18.300
                  24368968.449       -3707.547       -2888.917
 18  2 21  9 30  0.0000000  0  7G09G07G05G30G02G13G06
 117619640.783 8  91651684.17046  22382270.109          49.000          37.700
                  22382275.449       -2771.574       -2159.527
 109632985.225 8  85428353.00946  20862469.641          50.800          41.700
                  20862473.375        -751.082        -585.070
 109696363.030 8  85477732.64346  20874532.664          50.900          40.800
                  20874535.934        1557.723        1214.052
 107998074.479 8  84154427.72847  20551359.477          52.300          44.100
                  20551364.973        1010.223         787.461
 119117960.224 7  92819214.76845  22667404.438          45.600          32.700
                  22667406.895       -2279.094       -1775.776
 123098905.359 6  95921321.90044  23424961.633          41.200          24.200
                  23424965.324        3096.992        2413.371
 128170914.386 6  99873482.26543  24390129.766          38.600          21.300
                  24390137.539       -3708.508       -2889.781
 18  2 21  9 30 30.0000000  0  7G09G07G05G30G02G13G06
 117702871.123 8  91716538.96046  22398107.664          48.400          36.500
                  22398113.617       -2777.289       -2163.984
 109655763.846 8  85446102.57846  20866804.172          51.200          41.800
                  20866807.219        -767.473        -597.821
 109649856.847 8  85441494.06146  20865682.406          51.100          41.400
                  20865685.855        1542.578        1202.224
 107968033.993 8  84131019.56047  20545642.984          52.400          44.300
                  20545648.695         992.313         773.511
 119186521.601 7  92872639.17645  22680451.547          45.100          32.700
                  22680452.918       -2291.719       -1785.537
 123006063.125 6  95848977.29743  23407294.523          41.400          23.800
                  23407297.680        3092.289        2409.695
 128282185.322 5  99960186.74743  24411302.188          33.100          18.600
                  24411312.262       -3709.605       -2890.521
 18  2 21  9 31  0.0000000  0  7G09G07G05G30G02G13G06
 117786273.773 8  91781527.99545  22413979.195          48.000          35.700
                  22413984.617       -2782.879       -2168.439
 109679034.491 8  85464235.54946  20871232.484          51.400          41.400
                  20871235.559        -783.906        -610.627
 109603808.306 8  85405612.07646  20856920.063          51.200          41.600
                  20856923.723        1527.320        1190.296
 107938532.770 8  84108031.59647  20540029.023          52.500          44.200
                  20540035.152         974.363         759.474
 119255458.966 7  92926356.57745  22693569.508          45.000          33.700
                  22693571.848       -2304.102       -1795.292
 122913366.205 6  95776745.94343  23389654.375          41.300          23.200
                  23389658.105        3087.445        2405.875
 128393484.105 6 100046912.99342  24432484.109          37.000          17.800
                  24432491.594       -3710.297       -2891.202
 18  2 21  9 31 30.0000000  0  7G09G07G05G30G02G13G06
 117869847.952 8  91846650.70945  22429883.164          48.100          35.800
                  22429888.191       -2788.781       -2172.937
 109702796.237 8  85482751.18946  20875753.945          51.300          41.400
                  20875757.230        -800.273        -623.371
 109558219.848 8  85370088.60546  20848244.609          50.400          40.900
                  20848248.352        1511.883        1178.292
 107909571.508 8  84085464.38847  20534517.672          53.300          43.800
                  20534523.563         956.316         745.426
 119324769.727 7  92980364.89945  22706758.898          44.500          32.400
                  22706760.512       -2316.652       -1804.997
 122820815.735 6  95704628.73644  23372043.000          41.400          25.300
                  23372046.422        3082.430        2402.025
 128504808.117 5 100133658.97843  24453666.117          35.900          19.300
                  24453675.781       -3711.332       -2891.868
 18  2 21  9 32  0.0000000  0  7G09G07G05G30G02G13G06
 117953592.700 7  91911906.33846  22445819.039          47.300          36.400
                  22445824.473       -2794.324       -2177.345
 109727047.925 8  85501648.60846  20880369.039          50.900          41.600
                  20880372.727        -816.512        -636.081
 109513093.192 8  85334924.98646  20839657.078          50.900          41.300
                  20839660.555        1496.484        1166.281
 107881150.703 8  84063318.30447  20529109.539          51.900          43.900
                  20529115.172         938.402         731.390
 119394451.723 7  93034662.55645  22720019.453          45.800          33.800
                  22720020.660       -2328.895       -1814.572
 122728412.207 6  95632625.99844  23354459.023          41.700          25.600
                  23354462.500        3077.492        2398.192
 128616154.695 6 100220422.41543  24474856.328          36.600          19.900
                  24474865.438       -3711.949       -2892.402
 18  2 21  9 32 30.0000000  0  7G09G07G05G30G02G13G06
 118037506.865 7  91977293.96646  22461786.500          46.000          36.300
                  22461793.391       -2800.039       -2181.697
 109751788.531 8  85520926.99646  20885077.117          49.800          41.300
                  20885080.730        -832.855        -648.722
 109468429.340 8  85300121.98346  20831158.102          51.500          41.600
                  20831161.492        1480.957        1154.295
 107853270.598 8  84041593.54447  20523804.258          51.900          44.300
                  20523809.926         920.273         717.400
 119464501.869 7  93089247.04845  22733349.539          45.400          33.000
                  22733351.141       -2341.184       -1824.050
 122636156.453 6  95560738.39644  23336904.133          41.600          24.500
                  23336906.609        3072.645        2394.428
 128727520.718 6 100307201.10043  24496048.039          37.000          18.600
                  24496056.984       -3712.797       -2892.851
 18  2 21  9 33  0.0000000  0  7G09G07G05G30G02G13G06
 118121589.793 7  92042813.07846  22477788.180          47.200          36.300
                  22477793.473       -2805.504       -2186.080
 109777016.699 8  85540585.28046  20889877.750          50.000          41.600
                  20889881.133        -849.051        -661.418
 109424231.110 8  85265681.80646  20822747.461          50.700          41.400
                  20822751.176        1465.445        1142.136
 107825931.873 8  84020290.64847  20518601.531          52.100          44.500
                  20518607.285         902.309         703.281
 119534918.461 7  93144117.05445  22746749.656          46.600          32.700
                  22746750.809       -2353.254       -1833.584
 122544049.627 7  95488966.85044  23319376.219          42.100          25.300
                  23319379.543        3067.805        2390.495
 128838903.758 5 100393993.03643  24517243.484          35.900          19.000
                  24517252.332       -3713.156       -2893.254
 18  2 21  9 33 30.0000000  0  7G09G07G05G30G02G13G06
 118205840.283 7  92108462.79745  22493820.117          46.700          35.500
                  22493824.348       -2811.219       -2190.434
 109802731.393 8  85560622.68546  20894771.344          49.400          41.700
                  20894774.633        -865.266        -674.007
 109380499.549 8  85231605.26046  20814425.672          50.900          41.600
                  20814429.188        1449.902        1130.022
 107799134.724 8  83999409.76047  20513502.500          52.500          44.600
                  20513508.301         884.055         689.216
 119605698.547 7  93199270.35145  22760217.813          45.600          31.400
                  22760219.332       -2365.559       -1843.001
 122452092.354 7  95417311.86544  23301877.289          42.400          26.300
                  23301880.680        3062.617        2386.586
 128950300.788 6 100480795.83643  24538442.047          38.400          20.600
                  24538450.438       -3713.398       -2893.572
 18  2 21  9 34  0.0000000  0  7G09G07G05G30G02G13G06
 118290257.241 7  92174242.24945  22509883.875          46.700          35.400
                  22509889.586       -2816.758       -2194.757
 109828930.964 8  85581037.92246  20899757.000          50.200          41.000
                  20899760.398        -881.410        -686.620
 109337236.386 8  85197893.71146  20806192.914          50.900          41.500
                  20806196.586        1434.230        1117.805
 107772879.442 8  83978951.10247  20508506.180          52.200          44.800
                  20508512.152         866.105         675.114
 119676839.449 7  93254704.75145  22773756.148          46.600          33.400
                  22773757.887       -2377.395       -1852.348
 122360285.191 6  95345773.84544  23284406.648          41.700          26.400
                  23284410.379        3057.672        2382.656
 129061709.031 5 100567607.38842  24559641.984          35.300          17.400
                  24559650.375       -3713.707       -2893.797
 18  2 21  9 34 30.0000000  0  6G09G07G05G30G02G13
 118374840.040 7  92240150.87146  22525979.703          45.100          36.100
                  22525986.039       -2822.109       -2199.010
 109855614.970 8  85601830.65046  20904834.828          50.700          40.700
                  20904837.688        -897.488        -699.129
 109294443.929 8  85164548.94646  20798050.023          51.200          41.200
                  20798053.383        1418.590        1105.588
 107747166.632 8  83958915.15347  20503613.328          52.500          45.200
                  20503619.387         848.098         661.070
 119748338.643 7  93310418.36445  22787361.914          45.200          31.300
                  22787363.152       -2389.082       -1861.558
 122268629.464 7  95274353.81644  23266965.344          42.400          26.700
                  23266968.984        3052.793        2378.772
 18  2 21  9 35  0.0000000  0  6G09G07G05G30G02G13
 118459587.350 7  92306187.67646  22542106.758          47.400          37.200
                  22542113.082       -2827.641       -2203.252
 109882781.242 8  85622999.17046  20910004.656          50.500          41.100
                  20910007.164        -913.582        -711.659
 109252122.955 8  85131571.56246  20789996.469          51.000          41.500
                  20789999.676        1402.828        1093.333
 107721996.301 8  83939301.91947  20498823.305          52.500          44.100
                  20498829.445         829.996         646.983
 119820193.600 7  93366409.17245  22801035.992          45.200          31.500
                  22801037.031       -2401.176       -1870.787
 122177126.022 7  95203052.44944  23249552.008          42.300          25.600
                  23249556.488        3047.609        2374.840
 18  2 21  9 35 30.0000000  0  6G09G07G05G30G02G13
 118544498.542 7  92372352.23345  22558264.586          45.900          35.200
                  22558269.855       -2833.125       -2207.513
 109910429.334 8  85644543.13846  20915265.531          50.500          41.600
                  20915268.609        -929.648        -724.156
 109210275.949 8  85098963.50346  20782033.422          50.700          41.100
                  20782036.594        1386.961        1081.000
 107697369.139 8  83920111.91647  20494137.180          53.200          44.900
                  20494142.945         811.844         632.862
 119892401.849 7  93422675.28145  22814776.359          44.300          31.100
                  22814778.094       -2412.844       -1879.924
 122085775.619 7  95131870.32844  23232168.961          42.600          26.100
                  23232173.074        3042.484        2370.824
 18  2 21  9 36  0.0000000  0  6G09G07G05G30G02G13
 118629572.535 7  92438643.66145  22574453.023          46.500          35.100
                  22574458.336       -2838.430       -2211.772
 109938557.527 8  85666461.20346  20920618.313          51.000          41.700
                  20920621.559        -945.434        -736.623
 109168904.248 8  85066725.81446  20774160.461          50.700          41.400
                  20774164.129        1371.234        1068.613
 107673285.237 8  83901345.23447  20489554.344          52.500          45.000
                  20489559.781         793.902         618.718
 119964960.791 7  93479214.66745  22828584.055          43.600          30.600
                  22828585.152       -2424.375       -1889.045
 121994578.810 7  95060807.90344  23214814.945          43.200          27.100
                  23214818.773        3037.434        2366.794
 18  2 21  9 36 30.0000000  0  6G09G07G05G30G02G13
 118714808.412 7  92505061.17245  22590673.906          46.300          35.900
                  22590679.992       -2843.953       -2215.980
 109967164.745 8  85688752.53646  20926062.125          50.800          41.600
                  20926065.387        -961.586        -749.073
 109128009.575 8  85034859.83846  20766378.633          50.700          41.600
                  20766382.242        1355.133        1056.165
 107649744.913 8  83883002.12947  20485074.289          52.800          44.300
                  20485080.270         775.543         604.577
 120037867.917 7  93536025.36345  22842458.094          44.400          31.600
                  22842459.348       -2436.012       -1898.049
 121903536.903 7  94989866.16344  23197490.313          43.200          26.000
                  23197494.133        3032.086        2362.753
 18  2 21  9 37  0.0000000  0  6G09G07G05G30G02G13
 118800205.303 8  92571604.16346  22606924.422          48.300          36.500
                  22606930.832       -2849.172       -2220.160
 109996249.898 8  85711416.27246  20931596.836          51.000          41.100
                  20931599.961        -977.504        -761.505
 109087593.730 8  85003366.97346  20758687.414          51.000          41.000
                  20758690.840        1339.289        1043.687
 107626748.602 8  83865082.92547  20480698.305          53.100          44.400
                  20480704.563         757.547         590.423
 120111120.568 7  93593105.29845  22856397.352          43.700          30.800
                  22856398.883       -2447.453       -1907.037
 121812650.837 7  94919045.88544  23180195.125          42.600          26.400
                  23180199.352        3027.066        2358.646
 18  2 21  9 37 30.0000000  0  6G09G07G05G30G02G13
 118885762.236 7  92638271.86845  22623204.555          47.500          35.800
                  22623211.133       -2854.488       -2224.259
 110025811.537 8  85734451.30946  20937222.273          50.800          40.600
                  20937225.465        -993.180        -773.786
 109047657.735 8  84972248.01646  20751087.688          50.700          41.700
                  20751091.305        1323.258        1031.266
 107604296.408 8  83847587.70547  20476425.797          52.900          44.700
                  20476431.664         739.469         576.348
 120184716.169 7  93650452.47145  22870402.273          45.100          32.300
                  22870403.605       -2458.883       -1915.843
 121721921.192 7  94848347.47944  23162930.008          42.600          26.300
                  23162933.996        3021.688        2354.650
 18  2 21  9 38  0.0000000  0  6G09G07G05G30G02G13
 118971478.299 7  92705063.57445  22639515.703          45.000          33.500
                  22639521.063       -2859.934       -2228.412
 110055848.424 8  85757856.66946  20942937.836          51.200          41.200
                  20942940.719       -1009.168        -786.170
 109008203.991 8  84941504.83846  20743580.273          49.900          41.300
                  20743583.801        1307.020        1018.680
 107582388.581 8  83830516.67647  20472256.844          52.900          44.500
                  20472262.938         721.113         562.160
 120258652.152 7  93708064.91945  22884471.750          43.200          31.200
                  22884473.152       -2470.266       -1924.705
 121631348.891 7  94777771.68644  23145694.563          43.000          27.900
                  23145698.195        3016.398        2350.511
 18  2 21  9 38 30.0000000  0  7G09G07G05G30G02G28G13
 119057352.631 8  92771978.62945  22655857.945          48.000          34.900
                  22655862.676       -2865.312       -2232.527
 110086359.501 8  85781631.55646  20948743.688          50.900          40.800
                  20948746.773       -1025.059        -798.494
 108969234.302 8  84911138.84646  20736164.422          50.700          41.300
                  20736167.867        1290.781        1006.051
 107561025.480 8  83813870.10147  20468191.742          52.800          45.000
                  20468197.445         702.945         547.995
 120332926.171 7  93765940.70545  22898605.711          44.300          31.600
                  22898607.879       -2481.547       -1933.476
 127735200.425 6  99533980.57243  24307211.086          37.300          18.600
                  24307215.719        3221.363        2510.086
 121540934.912 7  94707319.25344  23128489.414          42.900          27.200
                  23128493.102        3010.996        2346.340
 18  2 21  9 39  0.0000000  0  7G09G07G05G30G02G28G13
 119143385.009 8  92839016.82145  22672229.516          48.300          35.500
                  22672235.129       -2870.320       -2236.541
 110117343.688 8  85805775.07446  20954639.672          50.200          40.400
                  20954642.938       -1040.707        -810.701
 108930750.427 8  84881151.41046  20728841.094          51.300          40.600
                  20728844.645        1274.676         993.492
 107540207.863 8  83797648.58047  20464230.273          52.700          44.900
                  20464235.949         684.832         533.896
 120407535.961 7  93824078.17444  22912803.234          42.700          29.900
                  22912804.684       -2492.391       -1942.079
 127638596.734 6  99458704.96243  24288829.367          37.100          19.900
                  24288833.293        3218.875        2508.319
 121450680.831 7  94636991.41144  23111314.555          42.600          27.800
                  23111318.727        3005.906        2342.259
 18  2 21  9 39 30.0000000  0  7G09G07G05G30G02G28G13
 119229573.096 7  92906176.31545  22688629.570          47.500          35.800
                  22688637.070       -2875.543       -2240.614
 110148798.855 8  85830285.57946  20960625.852          50.200          40.700
                  20960629.074       -1056.414        -822.940
 108892752.701 8  84851542.77846  20721610.570          50.700          40.500
                  20721614.105        1258.387         980.844
 107519934.712 8  83781851.32647  20460372.352          52.900          44.500
                  20460378.145         666.637         519.728
 120482477.725 7  93882474.31445  22927064.258          42.600          31.800
                  22927066.242       -2503.738       -1950.694
 127542063.210 6  99383484.17743  24270458.984          37.500          19.000
                  24270463.297        3216.387        2506.398
 121360586.379 7  94566787.95644  23094170.094          42.500          28.000
                  23094173.945        3000.430        2338.081
 18  2 21  9 40  0.0000000  0  7G09G07G05G30G02G28G13
 119315916.433 7  92973456.76245  22705060.828          46.400          33.800
                  22705066.703       -2880.676       -2244.629
 110180724.227 8  85855162.47646  20966700.898          50.700          40.700
                  20966704.453       -1071.992        -835.130
 108855243.577 8  84822314.88846  20714472.711          51.200          41.400
                  20714476.066        1242.152         968.103
 107500206.533 8  83766478.71547  20456618.031          52.800          44.900
                  20456624.234         648.594         505.569
 120557748.972 7  93941127.16145  22941388.391          44.000          31.800
                  22941390.672       -2514.473       -1959.229
 127445603.152 6  99308320.43543  24252104.438          37.300          19.600
                  24252107.492        3214.188        2504.474
 121270652.728 7  94496709.80644  23077055.945          43.500          28.600
                  23077060.574        2995.223        2333.915
 18  2 21  9 40 30.0000000  0  7G09G07G05G30G02G28G13
 119402413.927 8  93040857.39845  22721521.383          48.000          34.500
                  22721524.906       -2885.766       -2248.593
 110213117.635 8  85880404.08446  20972865.203          50.700          40.500
                  20972868.461       -1087.531        -847.249
 108818224.230 8  84793468.63846  20707428.563          51.200          40.600
                  20707431.527        1225.902         955.403
 107481023.304 8  83751530.74647  20452967.727          53.000          44.800
                  20452973.730         630.398         491.433
 120633347.309 7  94000034.89545  22955774.242          43.900          31.800
                  22955775.406       -2525.203       -1967.658
 127349219.068 6  99233216.08743  24233761.055          36.600          19.600
                  24233767.152        3211.398        2502.535
 121180880.274 7  94426757.26544  23059973.969          43.600          28.900
                  23059977.047        2989.684        2329.712
 18  2 21  9 41  0.0000000  0  7G09G07G05G30G02G28G13
 119489064.482 7  93108377.32645  22738010.227          47.800          34.700
                  22738015.371       -2890.949       -2252.607
 110245977.576 8  85906009.22046  20979118.063          50.700          40.500
                  20979121.422       -1103.109        -859.378
 108781695.662 8  84765004.81746  20700477.180          50.700          40.600
                  20700480.098        1209.430         942.611
 107462384.950 8  83737007.36247  20449420.992          53.000          44.600
                  20449426.832         612.168         477.255
 120709269.686 7  94059195.15845  22970221.266          44.200          32.200
                  22970223.750       -2536.031       -1976.065
 127252913.582 6  99158172.84543  24215435.680          37.800          19.000
                  24215440.395        3208.582        2500.410
 121091270.180 7  94356931.23144  23042921.227          43.700          29.500
                  23042924.621        2984.254        2325.468
 18  2 21  9 41 30.0000000  0  7G09G07G05G30G02G28G13
 119575867.349 7  93176015.86145  22754527.203          45.800          34.800
                  22754534.930       -2895.930       -2256.472
 110279302.964 8  85931977.05546  20985459.648          50.300          40.100
                  20985463.020       -1118.570        -871.388
 108745660.086 8  84736925.14046  20693619.773          50.600          41.100
                  20693622.871        1193.055         929.826
 107444291.749 8  83722908.77147  20445978.078          53.000          44.600
                  20445983.855         594.008         463.159
 120785513.651 7  94118605.94945  22984730.586          42.800          31.300
                  22984732.652       -2546.687       -1984.325
 127156689.600 5  99083193.16443  24197123.086          35.000          19.000
                  24197129.051        3206.004        2498.348
 121001823.417 7  94287232.47545  23025900.023          44.100          30.200
                  23025903.703        2978.879        2321.280
 18  2 21  9 42  0.0000000  0  7G09G07G05G30G02G28G13
 119662821.874 7  93243772.53545  22771074.961          46.900          35.400
                  22771081.406       -2900.922       -2260.472
 110313093.030 8  85958306.96346  20991889.805          50.200          39.900
                  20991892.750       -1133.969        -883.471
 108710119.259 8  84709230.98246  20686856.492          50.600          41.000
                  20686859.465        1176.559         916.909
 107426743.971 8  83709235.17547  20442638.703          53.100          44.900
                  20442644.543         575.910         448.931
 120862076.791 7  94178265.53345  22999299.922          43.300          32.100
                  22999301.582       -2557.301       -1992.647
 127060550.700 6  99008279.84043  24178830.477          37.800          19.000
                  24178835.500        3203.219        2496.008
 120912540.649 7  94217661.50445  23008909.898          44.400          30.400
                  23008914.078        2973.422        2316.957
 18  2 21  9 42 30.0000000  0  7G09G07G05G30G02G28G13
 119749926.774 7  93311646.46545  22787650.805          47.600          34.500
                  22787655.246       -2906.031       -2264.366
 110347345.510 8  85984997.20846  20998408.094          50.100          40.600
                  20998411.094       -1149.531        -895.507
 108675074.159 8  84681923.10646  20680187.656          50.100          41.100
                  20680191.109        1159.852         903.978
 107409741.398 8  83695986.42347  20439403.180          53.200          44.700
                  20439409.082         557.684         434.755
 120938956.156 7  94238171.48145  23013929.313          42.900          31.600
                  23013931.660       -2567.914       -2000.853
 126964499.380 6  98933434.62042  24160551.242          36.000          17.400
                  24160555.676        3200.262        2493.671
 120823423.007 7  94148219.21744  22991951.336          44.300          29.700
                  22991955.512        2967.738        2312.636
 18  2 21  9 43  0.0000000  0  7G09G07G05G30G02G28G13
 119837181.329 7  93379637.05545  22804253.867          46.300          33.400
                  22804259.012       -2911.090       -2268.235
 110382059.547 8  86012047.09246  21005013.766          51.000          40.000
                  21005016.633       -1164.852        -907.418
 108640526.765 8  84655003.04746  20673613.516          50.900          40.700
                  20673616.801        1143.227         891.091
 107393284.214 8  83683162.64547  20436271.461          53.200          44.100
                  20436277.188         539.430         420.631
 121016149.018 7  94298321.69445  23028619.289          44.400          31.600
                  23028621.051       -2578.387       -2008.912
 126868538.723 5  98858660.14343  24142291.227          34.400          20.600
                  24142296.445        3197.094        2491.328
 120734471.274 7  94078906.18544  22975024.586          45.200          29.600
                  22975027.645        2962.211        2308.362
 18  2 21  9 43 30.0000000  0  7G09G07G05G30G02G28G13
 119924584.465 7  93447743.34345  22820886.305          46.300          34.200
                  22820893.438       -2915.965       -2272.083
 110417233.437 8  86039455.31646  21011707.297          50.900          40.000
                  21011710.453       -1180.105        -919.378
 108606478.148 8  84628471.65946  20667134.125          50.900          40.600
                  20667137.559        1126.637         878.097
 107377372.269 8  83670763.72447  20433243.656          52.100          44.600
                  20433249.402         521.324         406.452
 121093652.501 7  94358713.99645  23043367.148          42.400          30.800
                  23043368.793       -2588.504       -2016.962
 126772671.224 5  98783958.28243  24124047.461          35.200          19.600
                  24124053.070        3193.922        2488.829
 120645686.016 7  94009722.87645  22958129.430          45.800          30.700
                  22958132.758        2956.707        2304.002
 18  2 21  9 44  0.0000000  0  7G09G07G05G30G02G28G13
 120012135.538 7  93515964.89245  22837547.625          46.400          35.800
                  22837554.340       -2920.781       -2275.903
 110452866.178 8  86067221.07746  21018487.953          51.200          40.100
                  21018491.125       -1195.344        -931.272
 108572930.314 8  84602330.47346  20660750.391          51.100          40.900
                  20660753.664        1109.953         865.062
 107362005.877 8  83658789.91247  20430319.453          52.200          44.400
                  20430325.418         503.117         392.271
 121171464.232 7  94419346.45445  23058175.680          43.400          31.100
                  23058176.633       -2598.809       -2024.930
 126676900.584 6  98709331.73343  24105824.563          38.100          20.100
                  24105828.320        3190.793        2486.323
 120557068.657 7  93940670.40345  22941266.094          46.600          30.700
                  22941269.746        2951.156        2299.628
 18  2 21  9 44 30.0000000  0  7G09G07G05G30G02G28G13
 120099833.446 7  93584300.85945  22854235.258          46.600          34.200
                  22854241.750       -2925.699       -2279.683
 110488955.896 8  86095342.90446  21025355.992          50.600          39.700
                  21025358.492       -1210.562        -943.103
 108539884.444 8  84576580.43846  20654462.258          51.300          40.700
                  20654465.160        1093.219         852.068
 107347184.729 8  83647240.96447  20427499.227          52.300          44.800
                  20427505.359         485.016         378.152
 121249581.407 7  94480216.95345  23073039.594          42.500          30.600
                  23073041.480       -2608.879       -2032.781
 126581228.837 5  98634782.48242  24087617.117          33.700          17.800
                  24087622.813        3187.574        2483.753
 120468619.304 7  93871748.85945  22924434.766          45.500          30.700
                  22924438.105        2945.574        2295.292
 18  2 21  9 45  0.0000000  0  7G09G07G05G30G02G28G13
 120187677.480 7  93652750.74345  22870951.570          46.200          31.900
                  22870956.492       -2930.648       -2283.487
 110525501.304 8  86123819.83546  21032310.180          51.900          40.500
                  21032312.656       -1225.809        -954.947
 108507342.030 8  84551222.70946  20648269.328          50.900          41.200
                  20648272.090        1076.332         838.912
 107332909.052 8  83636117.06747  20424782.508          52.200          45.000
                  20424788.738         466.695         363.938
 121328001.282 7  94541323.30845  23087962.563          43.200          30.700
                  23087964.121       -2619.078       -2040.673
 126485659.730 6  98560312.98443  24069432.047          36.600          18.600
                  24069435.785        3183.883        2481.018
 120380339.719 7  93802959.58445  22907635.617          46.000          30.100
                  22907638.730        2939.836        2290.832
 18  2 21  9 45 30.0000000  0  7G09G07G05G30G02G28G13
 120275666.589 7  93721313.67645  22887695.797          46.900          32.800
                  22887700.230       -2935.406       -2287.237
 110562500.952 8  86152650.72946  21039350.648          51.100          40.200
                  21039353.734       -1240.832        -966.702
 108475304.842 8  84526258.66146  20642172.938          50.700          40.600
                  20642176.340        1059.582         825.809
 107319178.580 8  83625417.99547  20422169.656          52.300          45.100
                  20422175.648         448.605         349.806
 121406721.304 6  94602663.52544  23102941.945          41.000          29.800
                  23102944.309       -2628.836       -2048.383
 126390195.650 5  98485925.47843  24051264.672          34.600          20.900
                  24051270.852        3180.203        2478.261
 120292230.618 7  93734303.16045  22890869.031          45.500          30.000
                  22890872.051        2934.090        2286.412
 18  2 21  9 46  0.0000000  0  7G09G07G05G30G02G28G13
 120363799.952 7  93789988.99945  22904466.898          47.200          35.200
                  22904474.047       -2939.945       -2290.982
 110599953.230 8  86181834.30846  21046477.844          51.400          40.300
                  21046481.012       -1255.773        -978.466
 108443774.129 8  84501689.26046  20636172.664          50.900          40.800
                  20636175.465        1042.770         812.616
 107305993.385 8  83615143.81847  20419660.430          51.900          44.500
                  20419666.559         430.605         335.637
 121485738.531 6  94664235.33344  23117979.781          41.300          29.800
                  23117980.238       -2638.754       -2056.094
 126294839.585 6  98411622.13743  24033119.859          37.400          19.900
                  24033125.570        3176.785        2475.370
 120204292.524 7  93665779.98444  22874134.805          45.400          29.900
                  22874137.961        2928.598        2281.950
 18  2 21  9 46 30.0000000  0  7G09G07G05G30G02G28G13
 120452076.655 7  93858775.94745  22921265.313          46.400          35.100
                  22921272.434       -2944.887       -2294.706
 110637856.848 8  86211369.58446  21053690.633          51.700          40.600
                  21053694.000       -1270.891        -990.163
 108412751.270 8  84477515.59846  20630269.539          51.500          40.800
                  20630272.883        1025.621         799.398
 107293353.303 8  83605294.40147  20417255.180          52.300          44.600
                  20417261.266         412.309         321.467
 121565050.180 7  94726036.60245  23133071.188          42.900          30.400
                  23133072.637       -2648.656       -2063.726
 126199594.584 6  98337405.28943  24014993.875          36.700          19.900
                  24015000.000        3173.000        2472.504
 120116526.398 7  93597390.80445  22857433.664          45.900          31.200
                  22857436.887        2922.648        2277.454
 18  2 21  9 47  0.0000000  0  7G09G07G05G30G02G28G13
 120540495.620 7  93927673.76345  22938090.461          44.900          32.400
                  22938096.754       -2949.570       -2298.363
 110676210.174 8  86241255.27946  21060989.273          51.500          40.600
                  21060992.320       -1285.824       -1001.811
 108382237.427 8  84453738.57146  20624462.820          50.300          41.200
                  20624465.719        1008.793         786.179
 107281258.016 8  83595869.49147  20414953.898          52.400          45.200
                  20414959.559         394.234         307.330
 121644653.507 6  94788065.09544  23148219.867          41.400          28.500
                  23148221.086       -2658.215       -2071.256
 126104463.612 6  98263277.35343  23996892.219          37.900          20.600
                  23996897.219        3169.195        2469.499
 120028933.024 7  93529136.25845  22840765.617          44.700          31.200
                  22840768.469        2917.008        2272.981
 18  2 21  9 47 30.0000000  0  7G09G07G05G30G02G28G13
 120629056.153 7  93996681.98545  22954943.227          45.100          31.500
                  22954947.828       -2954.414       -2302.067
 110715011.601 8  86271490.15446  21068372.625          51.900          40.300
                  21068375.852       -1300.836       -1013.460
 108352234.038 8  84430359.30346  20618753.352          50.900          41.600
                  20618756.648         991.605         772.875
 107269707.598 8  83586869.17047  20412755.625          53.100          44.500
                  20412761.457         375.891         293.169
 121724545.676 7  94850318.68744  23163422.789          42.900          28.200
                  23163423.902       -2667.805       -2078.729
 126009449.401 6  98189240.31543  23978811.242          38.500          19.300
                  23978814.805        3165.125        2466.395
 119941513.420 7  93461017.11045  22824130.461          42.900          31.400
                  22824133.102        2911.023        2268.447
 18  2 21  9 48  0.0000000  0  8G09G07G20G05G30G02G28G13
 120717757.240 7  94065799.71245  22971823.094          46.100          34.400
                  22971828.723       -2958.875       -2305.671
 110754259.811 8  86302073.18246  21075841.461          52.100          40.500
                  21075844.309       -1315.578       -1025.021
 128452637.868 6 100092997.33543  24443728.641          37.900          19.300
                  24443731.867        3572.566        2783.766
 108322742.730 8  84407379.05246  20613141.602          50.300          41.400
                  20613144.469         974.586         759.579
 107258701.855 8  83578293.26447  20410661.469          52.800          44.900
                  20410667.473         357.863         279.031
 121804724.083 6  94912795.32244  23178679.703          41.800          28.200
                  23178681.730       -2677.332       -2086.115
 125914554.920 6  98115296.62243  23960754.320          37.800          19.900
                  23960758.645        3161.246        2463.256
 119854268.187 7  93393033.82345  22807527.500          45.800          30.400
                  22807531.043        2905.402        2263.927
 18  2 21  9 48 30.0000000  0  8G09G07G20G05G30G02G28G13
 120806597.994 7  94135026.20845  22988727.930          45.100          33.600
                  22988736.094       -2963.574       -2309.291
 110793953.119 8  86333003.01146  21083394.711          51.900          40.500
                  21083397.820       -1330.520       -1036.573
 128345528.806 6 100009535.71043  24423346.813          38.300          19.600
                  24423349.781        3568.281        2780.470
 108293765.044 8  84384799.02547  20607627.453          50.300          42.000
                  20607630.035         957.328         746.209
 107248240.550 8  83570141.59647  20408670.336          52.900          44.700
                  20408676.602         339.699         264.894
 121885186.063 7  94975492.87744  23193992.367          42.500          29.300
                  23193993.715       -2686.852       -2093.427
 125819782.893 6  98041448.36043  23942719.563          39.100          18.600
                  23942724.750        3156.898        2460.036
 119767198.665 7  93325187.47045  22790958.469          45.100          31.400
                  22790962.098        2899.426        2259.324
 18  2 21  9 49  0.0000000  0  8G09G07G20G05G30G02G28G13
 120895577.589 7  94204360.86345  23005660.969          43.000          33.200
                  23005667.816       -2968.215       -2312.888
 110834090.182 8  86364278.64146  21091032.672          51.200          40.100
                  21091035.520       -1345.148       -1048.071
 128238548.077 6  99926174.11543  24402988.664          36.300          20.100
                  24402992.355        3564.043        2777.112
 108265302.094 8  84362620.09547  20602210.906          50.900          42.400
                  20602214.008         940.266         732.841
 107238323.486 8  83562414.00947  20406783.273          53.600          45.000
                  20406789.059         321.656         250.766
 121965928.530 7  95038409.09744  23209355.852          42.300          28.000
                  23209358.172       -2695.906       -2100.692
 125725136.523 6  97967697.99943  23924708.633          38.300          20.600
                  23924713.965        3152.754        2456.740
 119680305.527 7  93257478.54445  22774422.797          45.400          30.100
                  22774426.516        2893.641        2254.753
 18  2 21  9 49 30.0000000  0  8G09G07G20G05G30G02G28G13
 120984695.355 7  94273803.22145  23022620.445          45.900          31.700
                  23022624.832       -2972.859       -2316.484
 110874669.258 8  86395898.68546  21098754.633          51.800          40.400
                  21098757.832       -1360.020       -1059.548
 128131697.865 6  99842914.20443  24382655.664          37.700          20.600
                  24382658.734        3559.551        2773.666
 108237355.500 8  84340843.52546  20596892.852          50.800          41.500
                  20596895.824         922.953         719.381
 107228950.724 8  83555110.55247  20405000.086          53.200          44.900
                  20405006.164         303.340         236.598
 122046949.069 7  95101541.86945  23224775.813          44.200          30.800
                  23224776.520       -2705.102       -2107.883
 125630618.640 6  97894047.81343  23906722.281          38.300          19.300
                  23906727.578        3148.410        2453.375
 119593589.850 7  93189907.89144  22757921.836          44.900          29.200
                  22757924.969        2887.594        2250.111
 18  2 21  9 50  0.0000000  0  8G09G07G20G05G30G02G28G13
 121073949.809 7  94343352.19945  23039603.750          46.800          32.900
                  23039608.840       -2977.414       -2319.983
 110915688.617 8  86427861.81846  21106560.219          52.200          40.500
                  21106563.734       -1374.641       -1070.921
 128024980.030 6  99759757.43743  24362348.469          36.700          20.400
                  24362351.715        3554.949        2770.246
 108209926.139 8  84319469.99146  20591673.266          51.200          41.600
                  20591676.570         905.652         705.974
 107220121.511 8  83548230.65047  20403319.805          53.400          44.800
                  20403325.570         285.203         222.528
 122128244.188 7  95164888.71844  23240243.367          42.400          29.400
                  23240245.891       -2714.242       -2114.961
 125536231.792 6  97820499.61842  23888760.570          36.900          17.400
                  23888764.230        3144.008        2449.952
 119507051.962 7  93122475.76445  22741454.305          45.000          31.200
                  22741457.414        2881.566        2245.529
 18  2 21  9 50 30.0000000  0  8G09G07G20G05G30G02G28G13
 121163340.674 7  94413007.37145  23056613.914          43.900          32.500
                  23056621.043       -2982.125       -2323.604
 110957147.264 8  86460167.25946  21114449.805          52.100          40.400
                  21114452.637       -1389.355       -1082.400
 127918397.349 6  99676706.06843  24342066.383          38.300          20.900
                  24342069.988        3550.227        2766.613
 108183015.797 8  84298500.88946  20586552.234          51.700          41.100
                  20586555.445         888.238         692.387
 107211836.074 8  83541774.46347  20401743.125          52.900          44.700
                  20401748.855         267.082         208.323
 122209812.140 7  95228448.10245  23255767.133          45.000          30.400
                  23255768.590       -2723.574       -2122.107
 125441979.769 6  97747056.60443  23870825.641          38.800          22.600
                  23870829.723        3139.445        2446.330
 119420693.068 7  93055183.12445  22725020.477          46.100          30.500
                  22725023.719        2875.520        2240.765
 18  2 21  9 51  0.0000000  0  8G09G07G20G05G30G02G28G13
 121252866.657 7  94482767.77445  23073650.938          45.300          33.700
                  23073657.891       -2986.359       -2327.011
 110999043.198 8  86492813.42446  21122422.305          52.100          40.300
                  21122425.156       -1403.758       -1093.649
 127811951.710 6  99593761.37843  24321809.570          38.700          21.100
                  24321813.078        3545.961        2763.139
 108156625.435 8  84277936.96646  20581530.156          51.800          41.500
                  20581533.148         871.043         678.956
 107204093.773 8  83535741.50047  20400269.680          53.300          45.000
                  20400275.371         249.094         194.316
 122291649.226 7  95292217.24845  23271338.617          43.800          30.400
                  23271341.621       -2732.469       -2128.974
 125347864.555 6  97673720.11543  23852915.289          36.900          19.600
                  23852920.336        3134.895        2442.851
 119334513.867 7  92988030.51644  22708621.258          45.800          29.800
                  22708624.566        2869.738        2236.188
 18  2 21  9 51 30.0000000  0  8G09G07G20G05G30G02G28G13
 121342527.147 7  94552633.05645  23090713.148          47.700          34.400
                  23090719.598       -2990.875       -2330.495
 111041375.007 8  86525799.25046  21130477.695          52.300          41.400
                  21130480.859       -1418.309       -1104.977
 127705645.467 6  99510925.38043  24301580.930          39.400          22.300
                  24301584.363        3541.254        2759.437
 108130756.348 8  84257779.22446  20576607.352          51.700          41.400
                  20576610.816         853.648         665.390
 107196894.661 8  83530131.80147  20398899.625          53.200          44.800
                  20398905.473         230.988         180.186
 122373753.087 7  95356194.18444  23286964.664          42.900          29.600
                  23286964.867       -2741.172       -2135.857
 125253889.567 6  97600492.89743  23835032.211          38.100          21.800
                  23835038.027        3130.156        2439.135
 119248515.497 7  92921018.80545  22692256.453          44.900          30.900
                  22692259.637        2863.664        2231.459
 18  2 21  9 52  0.0000000  0  8G09G07G20G05G30G02G28G13
 121432320.190 7  94622601.64745  23107799.305          47.100          32.300
                  23107805.195       -2995.230       -2333.914
 111084140.155 8  86559122.73846  21138615.578          52.800          41.200
                  21138618.910       -1432.660       -1116.186
 127599480.422 6  99428199.40243  24281378.180          39.000          20.100
                  24281381.305        3536.539        2755.776
 108105408.890 8  84238027.95747  20571784.227          51.500          42.400
                  20571787.273         836.242         651.850
 107190237.314 8  83524944.25447  20397632.992          53.000          44.900
                  20397638.477         212.848         166.139
 122456119.624 6  95420375.91044  23302636.508          41.800          28.800
                  23302639.816       -2749.758       -2142.612
 125160056.630 6  97527376.39643  23817177.875          37.400          20.900
                  23817181.777        3125.414        2435.414
 119162697.941 7  92854147.99544  22675925.625          44.900          29.900
                  22675929.020        2857.691        2226.770
 18  2 21  9 52 30.0000000  0  8G09G07G20G05G30G02G28G13
 121522246.113 7  94692673.77145  23124911.992          44.900          31.300
                  23124917.656       -2999.875       -2337.420
 111127337.916 8  86592783.32546  21146835.844          52.500          41.400
                  21146839.203       -1447.187       -1127.470
 127493459.449 6  99345585.64543  24261203.313          39.200          22.200
                  24261206.313        3531.605        2751.980
 108080585.464 8  84218685.01846  20567060.539          51.900          41.800
                  20567063.500         818.641         638.151
 107184122.493 8  83520179.46547  20396469.680          53.200          44.900
                  20396475.602         194.754         151.987
 122538747.328 6  95484761.02244  23318361.367          40.700          29.700
                  23318362.777       -2758.605       -2149.465
 125066369.982 6  97454373.85943  23799348.508          36.500          20.100
                  23799353.574        3120.289        2431.534
 119077063.013 7  92787419.50145  22659629.836          44.600          30.700
                  22659633.594        2851.383        2221.958
 18  2 21  9 53  0.0000000  0  8G09G07G20G05G30G02G28G13
 121612303.855 7  94762848.57545  23142050.070          46.800          34.300
                  23142056.875       -3004.094       -2340.792
 111170966.921 8  86626779.94846  21155138.227          51.200          40.600
                  21155141.188       -1461.434       -1138.605
 127387585.070 6  99263086.16443  24241055.828          40.000          20.600
                  24241058.871        3526.672        2748.152
 108056287.449 8  84199751.49346  20562436.352          51.700          41.700
                  20562439.613         801.219         624.537
 107178549.815 8  83515837.12347  20395408.797          52.900          44.500
                  20395414.621         176.715         137.962
 122621633.155 6  95549347.42144  23334132.828          41.300          28.400
                  23334135.098       -2767.062       -2156.111
 124972832.236 6  97381487.35843  23781550.461          37.900          21.100
                  23781553.285        3115.523        2427.682
 118991611.491 7  92720833.91345  22643369.484          45.100          30.200
                  22643372.426        2845.383        2217.220
 18  2 21  9 53 30.0000000  0  8G09G07G20G05G30G02G28G13
 121702492.726 7  94833125.57845  23159212.633          47.400          34.900
                  23159219.531       -3008.629       -2344.227
 111215025.669 8  86661111.45146  21163522.117          51.900          40.600
                  21163525.664       -1475.848       -1149.795
 127281859.573 6  99180702.66043  24220936.719          39.600          21.500
                  24220940.129        3521.660        2744.202
 108032516.016 8  84181228.29046  20557913.141          51.200          41.600
                  20557916.180         783.516         610.798
 107173519.098 8  83511917.07347  20394451.555          52.900          44.500
                  20394457.320         158.531         123.850
 122704774.773 6  95614132.99644  23349954.813          41.100          28.700
                  23349957.348       -2775.641       -2162.723
 124879446.459 6  97308719.27243  23763778.781          36.400          20.100
                  23763781.922        3110.441        2423.651
 118906344.451 7  92654392.08245  22627144.070          45.000          30.900
                  22627147.500        2839.066        2212.380
 18  2 21  9 54  0.0000000  0  8G09G07G20G05G30G02G28G13
 121792811.728 7  94903503.95745  23176398.570          45.600          31.800
                  23176405.527       -3012.867       -2347.583
 111259512.214 8  86695776.28146  21171987.930          52.300          40.900
                  21171991.074       -1489.973       -1160.853
 127176285.141 6  99098436.90543  24200846.500          39.800          19.300
                  24200850.199        3516.684        2740.289
 108009272.500 8  84163116.45946  20553489.898          51.500          41.700
                  20553493.078         766.008         597.101
 107169029.709 8  83508418.85747  20393597.250          52.600          44.600
                  20393603.309         140.617         109.804
 122788168.923 6  95679115.44544  23365823.367          40.500          27.200
                  23365825.836       -2783.977       -2169.264
 124786215.756 6  97236071.97543  23746037.992          36.900          21.100
                  23746040.313        3105.102        2419.622
 118821262.592 7  92588094.53545  22610953.063          43.700          31.200
                  22610956.238        2833.008        2207.576
 18  2 21  9 54 30.0000000  0  8G09G07G20G05G30G02G28G13
 121883260.334 7  94973983.35145  23193611.164          45.200          31.300
                  23193615.648       -3017.090       -2350.948
 111304425.123 8  86730773.34546  21180534.070          52.700          41.100
                  21180537.441       -1504.219       -1171.929
 127070864.430 6  99016290.89543  24180785.648          38.700          20.900
                  24180789.262        3511.496        2736.257
 107986558.291 8  84145417.06547  20549167.555          51.900          42.100
                  20549170.766         748.250         583.300
 107165081.667 8  83505342.45847  20392845.758          52.400          44.900
                  20392851.430         122.527          95.727
 122871813.241 6  95744292.79644  23381740.773          41.300          27.000
                  23381742.816       -2792.297       -2175.706
 124693142.685 6  97163547.57943  23728326.063          39.800          22.600
                  23728330.098        3099.641        2415.434
 118736367.134 7  92521942.24245  22594798.148          43.400          30.700
                  22594800.988        2826.680        2202.719
 18  2 21  9 55  0.0000000  0  8G09G07G20G05G30G02G28G13
 121973837.251 7  95044562.77345  23210847.703          46.300          34.300
                  23210853.508       -3021.418       -2354.262
 111349762.527 8  86766101.18946  21189161.797          52.000          40.700
                  21189164.852       -1518.277       -1182.922
 126965599.302 6  98934266.13443  24160753.742          37.700          20.400
                  24160757.660        3506.305        2732.196
 107964373.856 8  84128130.48347  20544946.398          51.500          42.200
                  20544949.402         730.656         569.565
 107161674.142 8  83502687.24647  20392197.391          51.600          44.700
                  20392203.660         104.504          81.731
 122955704.321 6  95809662.43244  23397704.781          40.200          27.100
                  23397706.813       -2800.457       -2182.072
 124600230.111 6  97091148.23843  23710645.867          40.200          22.300
                  23710650.469        3094.383        2411.292
 118651658.542 7  92455935.56445  22578677.961          44.600          30.200
                  22578681.629        2820.535        2197.859
 18  2 21  9 55 30.0000000  0  8G09G07G20G05G30G02G28G13
 122064541.682 7  95115241.49545  23228108.102          46.100          35.200
                  23228115.645       -3025.656       -2357.518
 111395523.014 8  86801758.70246  21197869.586          51.900          40.800
                  21197873.008       -1532.348       -1193.856
 126860492.312 6  98852364.59843  24140753.609          38.800          21.300
                  24140756.313        3500.816        2728.111
 107942720.612 8  84111257.82347  20540825.352          51.400          42.200
                  20540829.035         712.887         555.769
 107158806.771 8  83500452.92947  20391651.695          52.100          45.000
                  20391657.859          86.520          67.719
 123039839.392 6  95875222.19644  23413715.477          39.800          26.900
                  23413717.547       -2808.605       -2188.327
 124507481.321 6  97018876.48243  23692995.219          39.900          22.000
                  23693000.984        3089.004        2406.988
 118567138.043 7  92390075.42945  22562594.867          44.500          30.900
                  22562597.902        2814.117        2192.971
 18  2 21  9 56  0.0000000  0  8G09G07G20G05G30G02G28G13
 122155372.884 7  95186018.97145  23245391.516          44.700          33.400
                  23245399.879       -3029.660       -2360.805
 111441704.838 8  86837744.52446  21206657.938          51.700          41.100
                  21206661.480       -1546.262       -1204.750
 126755545.862 6  98770588.15743  24120782.031          37.600          19.300
                  24120785.750        3495.555        2723.889
 107921599.944 8  84094800.15247  20536806.516          50.900          42.000
                  20536810.070         695.289         541.939
 107156479.165 8  83498639.21847  20391208.891          51.500          44.300
                  20391214.637          68.750          53.726
 123124215.351 6  95940969.67244  23429770.719          40.900          26.900
                  23429773.199       -2816.332       -2194.575
 124414898.739 6  96946734.31043  23675378.500          39.500          22.500
                  23675383.785        3083.551        2402.680
 118482806.297 7  92324362.38144  22546546.602          43.900          29.500
                  22546550.559        2808.074        2188.105
 18  2 21  9 56 30.0000000  0  8G09G07G20G05G30G02G28G13
 122246330.121 7  95256894.67145  23262701.133          45.100          31.900
                  23262706.039       -3034.047       -2364.103
 111488306.294 8  86874057.33446  21215525.922          52.300          41.000
                  21215529.746       -1560.406       -1215.690
 126650762.246 6  98688938.60543  24100843.102          37.900          20.600
                  24100846.395        3489.969        2719.569
 107901012.946 8  84078758.33247  20532888.883          52.200          42.100
                  20532892.184         677.219         528.022
 107154690.959 8  83497245.79947  20390868.688          51.300          44.500
                  20390874.559          50.551          39.673
 123208830.199 6  96006903.25044  23445873.492          40.800          26.300
                  23445874.707       -2824.508       -2200.771
 124322485.510 6  96874724.02943  23657792.602          39.400          20.100
                  23657795.922        3077.293        2398.168
 118398664.420 7  92258797.31645  22530535.125          44.700          30.100
                  22530538.145        2801.539        2183.128
 18  2 21  9 57  0.0000000  0  8G09G07G20G05G30G02G28G13
 122337412.296 7  95327867.82945  23280034.539          46.600          32.600
                  23280037.992       -3038.062       -2367.300
 111535325.755 8  86910695.83946  21224473.492          52.200          40.700
                  21224476.641       -1574.203       -1226.479
 126546143.407 6  98607417.46543  24080934.898          38.400          21.800
                  24080937.762        3484.531        2715.287
 107880960.973 8  84063133.41847  20529073.273          51.600          42.300
                  20529076.227         659.551         514.139
 107153441.540 8  83496272.22247  20390631.055          51.500          44.300
                  20390636.648          32.719          25.738
 123293680.458 6  96073020.29544  23462018.992          41.600          27.000
                  23462021.922       -2832.195       -2206.805
 124230244.825 6  96802848.20243  23640239.977          38.600          22.300
                  23640243.434        3071.719        2393.688
 118314713.011 7  92193380.62345  22514560.031          45.300          30.600
                  22514562.703        2795.227        2178.176
 18  2 21  9 57 30.0000000  0  8G09G07G20G05G30G02G28G13
 122428618.457 7  95398937.53745  23297389.305          45.800          35.800
                  23297397.414       -3042.090       -2370.534
 111582761.396 8  86947658.67646  21233499.695          51.700          40.100
                  21233502.742       -1587.973       -1237.294
 126441692.295 6  98526026.98543  24061057.914          38.100          21.100
                  24061061.148        3478.996        2710.925
 107861444.352 8  84047925.64747  20525359.180          51.700          42.300
                  20525362.629         641.719         500.218
 107152730.289 8  83495718.00047  20390495.813          51.700          44.500
                  20390501.469          14.816          11.720
 123378763.141 6  96139318.41844  23478210.727          41.400          26.700
                  23478212.527       -2839.687       -2212.839
 124138179.489 6  96731109.01643  23622720.250          38.900          19.900
                  23622723.008        3066.000        2389.085
 118230952.906 7  92128113.02944  22498620.367          46.000          29.600
                  22498624.176        2788.852        2173.188
 18  2 21  9 58  0.0000000  0  8G09G07G20G05G30G02G28G13
 122519947.940 7  95470103.24345  23314768.680          43.600          33.200
                  23314776.684       -3046.215       -2373.753
 111630611.462 8  86984944.44246  21242605.742          52.200          40.200
                  21242608.352       -1601.805       -1248.057
 126337410.983 6  98444768.88543  24041214.063          38.800          22.000
                  24041217.117        3473.168        2706.438
 107842464.607 8  84033136.23447  20521747.344          51.600          42.900
                  20521750.914         623.754         486.222
 107152556.763 8  83495582.78447  20390462.453          51.100          44.600
                  20390468.422          -3.215          -2.254
 123464075.487 6  96205795.55644  23494444.539          41.500          26.800
                  23494446.395       -2847.492       -2218.782
 124046292.294 6  96659508.60143  23605234.602          37.700          22.000
                  23605238.039        3060.035        2384.409
 118147384.994 7  92062995.19245  22482717.813          46.000          31.600
                  22482721.160        2782.469        2168.163
 18  2 21  9 58 30.0000000  0  8G09G07G20G05G30G02G28G13
 122611400.014 7  95541364.49945  23332171.734          46.100          32.200
                  23332177.828       -3050.562       -2376.926
 111678874.683 8  87022552.15146  21251789.703          52.500          40.800
                  21251793.094       -1615.762       -1258.774
 126233301.909 6  98363644.89143  24021402.828          38.800          22.500
                  24021405.723        3467.383        2701.954
 107824023.061 8  84018766.18847  20518238.234          52.100          42.300
                  20518241.578         605.605         472.226
 107152920.572 8  83495866.27147  20390531.773          52.200          44.500
                  20390537.840         -21.187         -16.204
 123549614.797 6  96272449.48744  23510722.305          40.900          25.500
                  23510725.074       -2855.215       -2224.617
 123954585.928 6  96588049.17143  23587782.992          36.700          22.300
                  23587787.551        3053.676        2379.679
 118064010.631 7  91998028.17044  22466852.383          45.700          29.800
                  22466855.770        2775.730        2163.118
 18  2 21  9 59  0.0000000  0  8G09G07G20G05G30G02G28G13
 122702973.484 7  95612720.47345  23349598.445          47.800          31.000
                  23349601.461       -3054.379       -2380.026
 111727549.398 8  87060480.49146  21261052.164          51.900          40.200
                  21261055.945       -1629.289       -1269.398
 126129366.951 6  98282656.64543  24001624.523          38.600          21.700
                  24001627.805        3461.543        2697.420
 107806120.332 8  84004816.01447  20514831.523          52.100          43.000
                  20514835.043         587.816         458.257
 107153820.918 8  83496567.83547  20390703.219          52.200          44.500
                  20390709.211         -38.937         -30.114
 123635378.108 6  96339277.98344  23527042.969          41.700          27.800
                  23527045.629       -2862.449       -2230.384
 123863063.378 6  96516732.94044  23570365.734          38.000          24.100
                  23570371.887        3047.613        2374.887
 117980830.429 7  91933212.45944  22451023.828          45.400          29.700
                  22451027.082        2769.539        2158.096
 18  2 21  9 59 30.0000000  0  8G09G07G20G05G30G02G28G13
 122794667.769 7  95684170.60145  23367046.000          46.800          31.900
                  23367053.590       -3058.445       -2383.153
 111776633.385 8  87098727.74346  21270392.797          52.300          40.700
                  21270395.875       -1642.918       -1280.017
 126025609.363 6  98201806.58343  23981879.516          38.100          21.500
                  23981883.340        3455.781        2692.764
 107788757.775 8  83991286.74647  20511527.523          52.200          43.000
                  20511530.965         569.738         444.202
 107155257.389 8  83497687.16047  20390976.508          52.400          44.600
                  20390982.699         -56.758         -44.027
 123721362.651 6  96406278.85644  23543405.227          41.100          25.600
                  23543406.918       -2869.715       -2236.098
 123771727.593 6  96445562.25744  23552987.203          39.200          26.400
                  23552991.895        3041.566        2370.006
 117897845.132 7  91868548.60544  22435232.250          45.600          29.800
                  22435235.266        2762.980        2153.019
                            4  1
RINEX FILE SPLICE; other post-header comments skipped       COMMENT
 18  2 21 10  0  0.0000000  0  8G09G07G20G05G30G02G28G13
 122886481.987 7  95755714.03245  23384517.531          44.200          31.800
                  23384525.789       -3062.539
 111826125.118 8  87137292.71246  21279810.648          51.600          40.600
                  21279813.707       -1656.531
 125922031.019 6  98121096.19043  23962170.203          38.000          21.700
                  23962173.168        3449.641
 107771936.113 8  83978178.94947  20508326.555          51.400          42.900
                  20508329.680         551.672
 107157229.309 8  83499223.71647  20391351.773          52.500          44.700
                  20391357.375         -74.687
 123807565.392 6  96473449.77744  23559808.992          41.600          27.500
                  23559811.973       -2876.996
 123680581.587 6  96374539.44043  23535642.586          38.600          22.500
                  23535646.813        3034.953
 117815055.645 7  91804037.32744  22419477.688          44.700          29.800
                  22419481.137        2756.328
 18  2 21 10  0 30.0000000  0  8G09G07G20G05G30G02G28G13
 122978415.288 7  95827350.24845  23402014.148          47.800          34.800
                  23402019.723       -3066.539       -2389.365
 111876023.120 8  87176174.26846  21289305.758          52.100          40.000
                  21289309.098       -1670.203       -1301.133
 125818634.496 6  98040527.50243  23942493.570          37.500          21.500
                  23942497.152        3443.289        2683.301
 107755656.836 8  83965493.79347  20505228.781          51.900          43.300
                  20505232.148         533.449         416.023
 107159736.193 8  83501177.12547  20391828.578          52.800          45.000
                  20391834.523         -92.613         -71.827
 123893983.670 7  96540788.60044  23576253.781          42.000          25.300
                  23576256.527       -2884.422       -2247.339
 123589628.081 6  96303666.62143  23518333.945          38.700          22.600
                  23518338.363        3028.480        2359.987
 117732463.234 7  91739679.62744  22403761.000          44.800          28.900
                  22403764.617        2749.719        2142.786
 18  2 21 10  1  0.0000000  0  8G09G07G20G05G30G02G28G13
 123070466.664 7  95899078.60145  23419529.656          46.800          31.500
                  23419534.949       -3070.297       -2392.385
 111926325.244 8  87215370.71346  21298878.125          51.900          39.900
                  21298881.758       -1683.504       -1311.582
 125715421.838 6  97960102.04843  23922853.219          38.400          21.800
                  23922856.434        3437.219        2678.514
 107739920.582 8  83953231.77447  20502233.875          51.700          43.200
                  20502237.367         515.465         401.945
 107162777.264 8  83503546.78647  20392407.430          52.100          45.000
                  20392413.480        -110.242         -85.665
 123980614.099 6  96608292.84344  23592739.430          41.800          24.300
                  23592740.621       -2891.176       -2252.743
 123498870.112 6  96232946.19643  23501064.000          39.600          22.300
                  23501067.613        3021.945        2354.902
 117650068.194 7  91675475.71444  22388081.031          45.400          29.900
                  22388084.816        2743.164        2137.662
 18  2 21 10  1 30.0000000  0  8G09G07G20G05G30G02G28G13
 123162635.615 7  95970898.54444  23437068.367          43.500          28.300
                  23437073.398       -3074.270       -2395.477
 111977030.143 8  87254881.01246  21308527.078          52.000          39.900
                  21308530.203       -1696.852       -1322.046
 125612395.907 6  97879822.11543  23903248.188          38.700          21.300
                  23903251.805        3430.883        2673.639
 107724728.381 8  83941393.69947  20499342.938          51.600          43.700
                  20499346.453         497.336         387.756
 107166352.068 8  83506332.35247  20393087.633          52.500          44.700
                  20393093.516        -128.090         -99.556
 124067454.272 6  96675960.42144  23609264.680          40.400          26.000
                  23609266.617       -2898.090       -2258.185
 123408310.512 6  96162380.26143  23483830.258          40.000          21.300
                  23483832.777        3015.367        2349.703
 117567871.987 7  91611426.73744  22372439.961          44.900          29.300
                  22372443.574        2736.590        2132.458
 18  2 21 10  2  0.0000000  0  8G09G07G20G05G30G02G28G13
 123254921.323 7  96042809.42645  23454630.430          44.300          30.700
                  23454635.715       -3078.160       -2398.488
 112028136.014 8  87294703.75946  21318252.063          51.800          40.200
                  21318255.367       -1710.187       -1332.447
 125509558.888 6  97799689.37743  23883679.141          38.800          22.000
                  23883682.168        3424.855        2668.702
 107710081.502 8  83929980.53347  20496556.133          52.100          43.500
                  20496559.348         479.074         373.592
 107170460.019 8  83509533.34947  20393869.727          52.500          45.000
                  20393875.438        -145.824        -113.371
 124154501.466 7  96743789.33544  23625829.258          42.300          24.400
                  23625830.258       -2905.062       -2263.554
 123317952.232 6  96091971.27243  23466635.563          39.600          21.800
                  23466639.043        3008.566        2344.386
 117485875.609 7  91547533.46944  22356836.609          44.300          29.300
                  22356840.129        2729.824        2127.279
 18  2 21 10  2 30.0000000  0  8G09G07G20G05G30G02G28G13
 123347322.490 7  96114810.32745  23472213.898          44.000          33.300
                  23472220.980       -3082.008       -2401.482
 112079641.090 8  87334837.57946  21328053.070          51.400          40.100
                  21328056.398       -1723.566       -1342.816
 125406913.050 6  97719705.65143  23864145.867          39.500          22.500
                  23864149.398        3418.129        2663.690
 107695980.202 8  83918992.50147  20493872.602          51.500          43.400
                  20493875.738         460.867         359.401
 107175100.124 8  83513149.01447  20394752.570          52.300          44.900
                  20394758.340        -163.605        -127.204
 124241752.382 6  96811777.01843  23642432.422          39.200          22.600
                  23642433.109       -2911.812       -2268.820
 123227797.875 6  96021721.16444  23449478.984          39.800          24.200
                  23449482.766        3001.586        2339.074
 117404079.386 7  91483796.13844  22341271.820          44.600          29.600
                  22341274.566        2723.117        2122.054
 18  2 21 10  3  0.0000000  0  8G09G07G20G05G30G02G28G13
 123439838.606 7  96186900.71445  23489818.211          42.000          31.700
                  23489826.578       -3085.832       -2404.414
 112131543.575 8  87375281.06746  21337929.734          51.800          40.200
                  21337933.379       -1736.766       -1353.070
 125304461.119 6  97639872.96843  23844650.508          39.900          22.500
                  23844653.234        3411.543        2658.667
 107682426.065 8  83908430.82847  20491293.359          51.900          43.600
                  20491296.848         442.621         345.207
 107180271.856 8  83517178.93547  20395736.844          51.300          45.400
                  20395742.391        -181.316        -140.980
 124329204.108 6  96879921.16143  23659074.367          41.100          22.900
                  23659075.359       -2918.414       -2273.917
 123137850.749 6  95951632.49543  23432364.180          39.400          22.600
                  23432367.172        2994.516        2333.692
 117322484.479 7  91420215.71545  22325744.195          44.300          30.900
                  22325747.816        2716.457        2116.850
 18  2 21 10  3 30.0000000  0  8G09G07G20G05G30G02G28G13
 123532469.027 7  96259080.17344  23507445.320          42.800          25.900
                  23507450.848       -3089.504       -2407.431
 112183841.927 8  87416033.01146  21347881.992          51.200          39.300
                  21347885.281       -1749.727       -1363.358
 125202205.564 6  97560193.35243  23825191.445          40.100          22.800
                  23825194.918        3405.125        2653.471
 107669419.797 8  83898296.07647  20488818.289          51.400          43.200
                  20488821.813         424.492         330.924
 107185974.628 8  83521622.65147  20396822.164          53.200          45.300
                  20396827.281        -198.754        -154.801
 124416853.785 6  96948219.54643  23675752.664          39.100          22.800
                  23675754.836       -2924.828       -2279.095
 123048113.732 6  95881707.63344  23415287.242          40.200          24.600
                  23415291.961        2987.754        2328.163
 117241092.147 7  91356793.12545  22310256.297          44.800          30.900
                  22310259.676        2709.805        2111.525
 18  2 21 10  4  0.0000000  0  8G09G07G20G05G30G02G28G13
 123625212.724 7  96331348.00144  23525094.555          44.600          29.600
                  23525099.219       -3093.309       -2410.353
 112236534.389 8  87457092.05746  21357908.664          51.600          40.300
                  21357912.266       -1762.941       -1373.576
 125100148.490 6  97480668.34944  23805770.383          40.900          24.500
                  23805773.367        3398.512        2648.328
 107656962.313 8  83888588.93847  20486447.859          51.600          43.700
                  20486451.363         406.043         316.662
 107192207.704 8  83526479.60047  20398008.148          52.300          45.600
                  20398013.578        -216.551        -168.557
 124504698.693 6  97016670.07343  23692470.523          41.700          22.600
                  23692470.906       -2931.352       -2284.130
 122958589.592 6  95811948.59743  23398251.109          38.800          22.200
                  23398255.090        2980.512        2322.604
 117159903.050 7  91293528.90345  22294806.555          43.900          30.200
                  22294809.934        2702.945        2106.261
 18  2 21 10  4 30.0000000  0  8G09G07G20G05G30G02G28G13
 123718068.684 7  96403703.28745  23542764.063          44.800          31.700
                  23542771.109       -3097.020       -2413.206
 112289618.825 8  87498456.55446  21368010.297          51.700          40.200
                  21368013.734       -1775.930       -1383.685
 124998292.264 6  97401299.89243  23786388.344          40.800          22.800
                  23786391.863        3391.793        2643.129
 107645054.347 8  83879310.00147  20484181.648          51.800          43.700
                  20484185.152         387.848         302.425
 107198970.099 8  83531748.99947  20399295.148          52.500          45.400
                  20399300.602        -234.227        -182.258
 124592735.676 6  97085270.30243  23709222.695          40.600          22.500
                  23709224.258       -2937.703       -2289.024
 122869280.890 6  95742357.48244  23381255.789          40.200          25.000
                  23381261.266        2973.574        2317.000
 117078917.813 7  91230423.53845  22279395.188          44.500          31.400
                  22279398.855        2696.195        2100.973
 18  2 21 10  5  0.0000000  0  8G09G07G20G05G30G02G28G13
 123811036.424 7  96476145.56344  23560454.297          43.300          29.900
                  23560463.555       -3100.984       -2416.185
 112343093.709 8  87540125.27446  21378186.289          51.000          39.400
                  21378189.652       -1789.047       -1393.879
 124896639.652 6  97322090.10243  23767043.547          40.400          22.200
                  23767047.508        3384.848        2637.673
 107633697.223 8  83870460.29247  20482020.797          52.000          43.600
                  20482023.914         369.262         288.028
 107206261.306 8  83537430.45247  20400682.508          52.800          45.200
                  20400687.762        -251.949        -196.043
 124680962.291 6  97154018.23443  23726011.789          40.400          22.200
                  23726013.430       -2944.109       -2294.017
 122780191.083 6  95672936.92443  23364302.617          38.900          22.300
                  23364307.527        2965.852        2311.218
 116998137.714 7  91167478.02245  22264023.906          45.600          31.400
                  22264026.754        2689.203        2095.563
 18  2 21 10  5 30.0000000  0  8G09G07G20G05G30G02G28G13
 123904115.069 7  96548674.25044  23578167.844          43.800          27.900
                  23578174.586       -3104.551       -2419.046
 112396957.316 8  87582096.90746  21388436.313          50.200          39.700
                  21388439.930       -1802.020       -1403.961
 124795193.168 6  97243040.89843  23747739.688          40.500          23.000
                  23747743.141        3378.020        2632.344
 107622891.435 8  83862040.19547  20479964.523          51.400          43.200
                  20479967.945         350.809         273.700
 107214080.558 8  83543523.37647  20402170.492          52.700          44.900
                  20402176.398        -269.504        -209.761
 124769375.363 6  97222911.48144  23742835.992          38.900          25.500
                  23742838.207       -2950.359       -2298.792
 122691322.743 6  95603688.85743  23347392.164          41.300          23.300
                  23347396.168        2958.512        2305.435
 116917563.776 7  91104693.13945  22248690.938          45.400          31.900
                  22248694.148        2682.324        2090.192
 18  2 21 10  6  0.0000000  0  8G09G07G20G05G30G02G28G13
 123997303.471 7  96621288.63744  23595901.641          46.200          27.600
                  23595905.551       -3108.105       -2421.856
 112451207.698 8  87624369.91446  21398760.039          50.900          39.800
                  21398763.188       -1814.750       -1413.967
 124693954.889 6  97164153.96843  23728474.188          39.700          22.500
                  23728478.031        3371.004        2626.949
 107612637.719 8  83854050.27847  20478013.000          51.500          43.900
                  20478016.055         332.613         259.386
 107222426.810 8  83550026.94247  20403758.758          52.800          45.200
                  20403764.363        -287.031        -223.411
 124857972.009 6  97291947.77143  23759695.516          40.200          22.900
                  23759697.211       -2956.336       -2303.519
 122602678.659 6  95534615.64943  23330523.203          39.500          22.500
                  23330527.965        2951.102        2299.582
 116837196.224 7  91042069.08145  22233397.641          45.800          32.600
                  22233400.586        2675.422        2084.863
 18  2 21 10  6 30.0000000  0  8G09G07G20G05G30G02G28G13
 124090601.223 7  96693988.19344  23613654.578          44.700          27.900
                  23613660.375       -3111.668       -2424.679
 112505843.302 8  87666943.10546  21409156.656          50.700          39.000
                  21409160.215       -1827.527       -1423.922
 124592927.512 6  97085431.31543  23709249.984          41.300          23.000
                  23709252.969        3364.086        2621.408
 107602937.147 8  83846491.39147  20476167.008          51.000          43.400
                  20476170.668         314.086         245.019
 107231299.510 8  83556940.73947  20405447.250          52.700          44.500
                  20405453.148        -304.484        -237.055
 124946749.325 6  97361124.83644  23776589.430          40.000          24.900
                  23776591.777       -2962.184       -2308.132
 122514261.939 6  95465719.47543  23313697.719          39.700          22.300
                  23313701.262        2943.520        2293.665
 116757036.276 7  90979606.78845  22218143.594          46.000          33.600
                  22218146.695        2668.586        2079.483
 18  2 21 10  7  0.0000000  0  8G09G07G20G05G30G02G28G13
 124184007.300 7  96766772.04745  23631429.250          43.900          30.800
                  23631437.441       -3115.332       -2427.472
 112560862.169 8  87709814.93746  21419626.633          50.300          39.300
                  21419629.801       -1840.191       -1433.833
 124492113.418 6  97006874.90443  23690065.508          39.300          23.900
                  23690068.797        3356.934        2615.836
 107593789.815 8  83839363.59447  20474426.422          51.300          43.600
                  20474429.930         295.762         230.648
 107240697.712 8  83564264.01047  20407235.688          52.900          44.600
                  20407241.039        -321.973        -250.683
 125035703.940 6  97430440.05343  23793516.813          38.800          22.500
                  23793519.414       -2967.949       -2312.711
 122426075.165 6  95397002.59543  23296916.633          41.400          22.600
                  23296919.348        2935.773        2287.666
 116677085.244 7  90917307.30545  22202929.375          46.700          33.600
                  22202932.648        2661.645        2074.033
 18  2 21 10  7 30.0000000  0  8G09G07G20G05G30G02G28G13
 124277520.930 7  96839639.64245  23649225.359          46.400          32.600
                  23649233.543       -3118.926       -2430.271
 112616262.523 8  87752984.04346  21430168.805          50.100          39.600
                  21430172.035       -1853.039       -1443.761
 124391514.907 6  96928486.45343  23670922.086          37.400          23.900
                  23670924.742        3349.758        2610.245
 107585197.235 8  83832668.07047  20472791.242          50.900          43.400
                  20472794.918         277.180         216.211
 107250620.654 8  83571996.17447  20409123.852          53.200          45.500
                  20409129.352        -339.500        -264.329
 125124833.483 6  97499891.58443  23810477.781          39.400          22.500
                  23810479.449       -2973.836       -2317.183
 122338121.304 6  95328467.09343  23280180.047          40.200          22.500
                  23280181.734        2927.922        2281.583
 116597343.867 7  90855171.16745  22187755.133          47.600          33.900
                  22187758.582        2654.527        2068.544
 18  2 21 10  8  0.0000000  0  8G09G07G20G05G30G02G28G13
 124371141.379 7  96912590.59844  23667039.914          45.400          24.800
                  23667045.621       -3122.570       -2433.084
 112672042.829 8  87796449.19446  21440783.438          49.900          39.200
                  21440787.059       -1865.691       -1453.628
 124291134.572 6  96850268.02343  23651820.023          39.800          22.500
                  23651823.742        3342.336        2604.501
 107577160.126 8  83826405.38347  20471261.609          50.500          42.900
                  20471265.262         258.621         201.738
 107261067.567 8  83580136.62547  20411111.688          53.000          45.300
                  20411117.180        -357.008        -277.960
 125214135.188 6  97569477.28943  23827470.992          38.500          22.500
                  23827473.449       -2979.617       -2321.721
 122250403.380 6  95260115.51243  23263487.445          40.300          21.800
                  23263490.898        2920.012        2275.372
 116517813.165 8  90793199.20745  22172621.047          48.500          35.200
                  22172624.184        2647.512        2063.053
 18  2 21 10  8 30.0000000  0  8G09G07G20G05G30G02G28G13
 124464867.649 7  96985624.14144  23684875.516          43.600          26.900
                  23684879.895       -3125.906       -2435.779
 112728200.833 8  87840208.66746  21451470.000          49.800          38.800
                  21451473.273       -1878.172       -1463.381
 124190975.044 6  96772221.64543  23632760.469          39.800          23.300
                  23632763.598        3335.031        2598.777
 107569678.800 8  83820575.77747  20469838.133          51.000          43.100
                  20469841.754         240.070         187.338
 107272037.316 8  83588684.48347  20413199.250          53.000          44.700
                  20413205.008        -374.383        -291.475
 125303605.979 6  97639194.70043  23844495.852          38.600          22.900
                  23844499.047       -2985.113       -2326.025
 122162923.818 6  95191949.68043  23246840.898          41.300          23.200
                  23246843.570        2911.973        2269.178
 116438493.451 8  90731391.64745  22157526.977          48.500          35.000
                  22157530.320        2640.434        2057.592
