     2.11           OBSERVATION DATA    G (GPS)             RINEX VERSION / TYPE
teqc  2016Nov7                          20180328 12:56:15UTCPGM / RUN BY / DATE
Linux 2.4.21-27.ELsmp|Opteron|gcc|Linux x86_64|=+           COMMENT
teqc  2016Nov7                          20180328 12:56:13UTCCOMMENT
     2.11           OBSERVATION DATA    M (MIXED)           COMMENT
teqc  2016Nov7                          20180328 12:56:11UTCCOMMENT
teqc  2016Nov7      IGN-RGP             20180221 09:14:05UTCCOMMENT
teqc  2015Jun23     IGN-RGP             20180221 09:05:00UTCCOMMENT
Linux2.4.20-8|i386|gcc|Win32-MinGW32|=                      COMMENT
   0.000      (antenna height)                              COMMENT
 +48.80370904 (latitude)                                    COMMENT
  +1.81422468 (longitude)                                   COMMENT
0156.331      (elevation)                                   COMMENT
BIT 2 OF LLI FLAGS DATA COLLECTED UNDER A/S CONDITION       COMMENT
19776M001 (COGO code)                                       COMMENT
SXJ7                                                        MARKER NAME
19776M001                                                   MARKER NUMBER
Automatic           GIE COOP&TECH                           OBSERVER / AGENCY
4951K64796          TRIMBLE NETR5       4.41                REC # / TYPE / VERS
1440936203          TRM55971.00     NONE                    ANT # / TYPE
  4206878.1320   133251.9370  4776327.0180                  APPROX POSITION XYZ
        0.4600        0.0000        0.0000                  ANTENNA: DELTA H/E/N
     1     1                                                WAVELENGTH FACT L1/2
     9    L1    L2    C1    P1    P2    D1    D2    S1    S2# / TYPES OF OBSERV
    30.0000                                                 INTERVAL
    18                                                      LEAP SECONDS
 SNR is mapped to RINEX snr flag value [0-9]                COMMENT
  L1 & L2: min(max(int(snr_dBHz/6), 0), 9)                  COMMENT
teqc_2016 edited: GLONASS # 25 - 30 excluded                COMMENT
Forced Modulo Decimation to 30 seconds                      COMMENT
teqc_2016 edited: all GLONASS satellites excluded           COMMENT
teqc_2016 edited: all SBAS satellites excluded              COMMENT
teqc_2016 edited: all Galileo satellites excluded           COMMENT
  2018     2    21     8     0    0.0000000     GPS         TIME OF FIRST OBS
                                                            END OF HEADER
 18  2 21  8  0  0.0000000  0  8G07G05G09G02G30G23G16G06
 113580384.673 8  88504182.88746  21613627.680                    21613633.551
      2219.930                          50.000          37.500
 124020178.546 7  96639164.10744  23600267.516                    23600272.668
      3255.066                          44.300          29.300
 106561960.650 8  83035359.10047  20278071.164                    20278076.879
     -1110.664                          51.700          43.200
 114884747.965 8  89520615.47646  21861848.789                    21861850.633
       849.531                          48.200          38.500
 120534211.204 7  93922817.73844  22936899.297                    22936906.250
      3433.723                          47.800          29.500
 119019628.244 7  92742601.60245  22648686.898                    22648689.070
     -2571.727                          47.800          30.600
 127585254.741 5                  24278673.000
       850.363                          35.200
 111281202.939 8  86712679.15446  21176117.633                    21176125.516
     -1923.566                          50.100          41.400
 18  2 21  8  0 30.0000000  0  8G07G05G09G02G30G23G16G06
 113514000.736 8  88452455.16846  21600996.156                    21601000.637
      2205.695        1718.893          49.500          38.000
 123922579.476 7  96563112.92144  23581695.133                    23581699.719
      3251.418        2533.661          45.000          27.900
 106595471.082 8  83061471.11747  20284447.672                    20284453.750
     -1123.234        -875.138          52.700          43.800
 114859530.404 8  89500965.44346  21857050.180                    21857051.777
       831.684         648.299          48.000          38.300
 120431313.929 7  93842638.03245  22917319.672                    22917329.117
      3426.211        2669.830          43.900          31.900
 119096867.726 7  92802788.21945  22663385.305                    22663386.711
     -2577.570       -2008.401          47.400          30.700
 127560037.648 5                  24273873.898
       831.133                          35.800
 111339173.392 8  86757850.94046  21187148.367                    21187156.813
     -1940.906       -1512.266          50.300          41.800
 18  2 21  8  1  0.0000000  0  8G07G05G09G02G30G23G16G06
 113448044.004 8  88401060.30946  21588444.711                    21588449.578
      2191.344        1707.764          50.600          38.000
 123825090.071 7  96487147.15445  23563143.813                    23563148.672
      3247.727        2530.802          47.500          30.700
 106629357.839 8  83087876.36747  20290895.984                    20290902.043
     -1135.809        -884.899          53.400          44.100
 114834846.216 7  89481731.00446  21852352.813                    21852354.305
       813.902         634.433          47.500          37.700
 120328642.357 7  93762634.16044  22897780.414                    22897785.996
      3418.582        2663.938          46.800          29.700
 119174280.293 8  92863109.66245  22678116.375                    22678119.051
     -2583.355       -2012.892          48.600          31.100
 127535394.134 6                  24269185.531
       811.852                          36.600
 111397664.133 8  86803428.13446  21198279.008                    21198287.094
     -1958.414       -1525.767          49.300          41.600
 18  2 21  8  1 30.0000000  0  8G07G05G09G02G30G23G16G06
 113382516.127 8  88349999.64246  21575975.125                    21575979.590
      2176.996        1696.601          49.900          37.700
 123727711.713 7  96411267.91044  23544613.492                    23544618.188
      3244.109        2527.877          47.500          29.800
 106663619.635 8  83114573.86247  20297415.906                    20297422.195
     -1148.293        -894.624          52.500          44.300
 114810696.188 7  89462912.79646  21847757.070                    21847759.016
       796.129         620.549          45.500          37.900
 120226198.838 8  93682808.19045  22878286.750                    22878295.340
      3410.965        2657.982          48.900          32.600
 119251864.602 7  92923564.94345  22692880.063                    22692882.273
     -2588.969       -2017.342          46.900          30.700
 127511325.849 6                  24264605.602
       792.707                          36.600
 111456673.171 8  86849409.20546  21209508.148                    21209515.641
     -1975.594       -1539.202          50.000          41.600
 18  2 21  8  2  0.0000000  0  8G07G05G09G02G30G23G16G06
 113317418.908 8  88299274.54246  21563587.141                    21563591.148
      2162.676        1685.420          50.000          38.300
 123630446.333 7  96335476.72144  23526104.305                    23526108.949
      3240.273        2524.923          45.500          28.700
 106698255.017 8  83141562.46547  20304007.078                    20304013.094
     -1160.730        -904.310          52.700          44.800
 114787081.243 7  89444511.51146  21843263.203                    21843264.672
       778.152         606.657          46.900          37.600
 120123985.785 8  93603161.63245  22858837.164                    22858846.145
      3403.160        2651.962          49.100          35.100
 119329619.450 8  92984153.11245  22707676.555                    22707678.359
     -2594.621       -2021.737          48.500          31.400
 127487833.552 6                  24260135.125
       773.430                          38.900
 111516198.383 8  86895792.50147  21220835.500                    21220843.168
     -1992.758       -1552.574          50.700          42.300
 18  2 21  8  2 30.0000000  0  8G07G05G09G02G30G23G16G06
 113252754.035 8  88248886.30946  21551282.469                    21551286.453
      2148.410        1674.207          50.300          37.600
 123533294.497 7  96259773.96745  23507616.766                    23507621.625
      3236.527        2522.028          47.000          30.200
 106733263.054 8  83168841.44947  20310668.383                    20310674.336
     -1173.090        -913.948          53.900          44.500
 114764002.550 8  89426528.12746  21838871.805                    21838873.441
       760.344         592.735          48.300          38.000
 120022005.948 8  93523696.89945  22839430.039                    22839436.195
      3395.367        2645.917          49.300          33.400
 119407543.930 7  93044873.48045  22722504.828                    22722507.781
     -2600.355       -2026.112          46.900          30.200
 127464919.061 6                  24255774.836
       754.207                          37.700
 111576238.157 8  86942576.72547  21232260.852                    21232268.996
     -2009.898       -1565.894          51.000          43.000
 18  2 21  8  3  0.0000000  0  8G07G05G09G02G30G23G16G06
 113188523.203 8  88198836.32046  21539059.508                    21539063.883
      2133.695        1662.872          51.300          38.400
 123436258.677 7  96184161.62445  23489151.273                    23489157.047
      3232.582        2518.964          47.000          31.500
 106768642.364 8  83196409.75647  20317400.789                    20317407.426
     -1185.520        -923.570          51.700          44.100
 114741461.024 7  89408963.28946  21834582.133                    21834583.941
       742.414         578.760          46.700          38.000
 119920261.677 8  93444415.71245  22820068.992                    22820075.566
      3387.488        2639.727          48.600          34.000
 119485636.440 8  93105724.74345  22737365.148                    22737368.426
     -2606.004       -2030.457          48.100          33.100
 127442583.818 6                  24251525.117
       734.844                          38.800
 111636790.249 8  86989760.17447  21243783.000                    21243790.836
     -2026.953       -1579.183          51.000          42.300
 18  2 21  8  3 30.0000000  0  8G07G05G09G02G30G23G16G06
 113124728.519 8  88149126.16545  21526919.906                    21526924.230
      2119.211        1651.513          49.200          34.600
 123339340.186 7  96108640.74344  23470708.820                    23470713.871
      3228.605        2515.857          47.500          29.800
 106804392.022 8  83224266.58246  20324203.938                    20324209.992
     -1197.812        -933.214          51.400          41.900
 114719457.560 8  89391817.71645  21830395.492                    21830396.785
       724.516         564.750          48.100          35.100
 119818755.561 7  93365320.13145  22800752.539                    22800761.637
      3379.523        2633.452          46.700          31.500
 119563896.031 8  93166706.18745  22752258.023                    22752261.035
     -2611.383       -2034.802          48.000          31.400
 127420829.233 6                  24247385.156
       715.414                          38.700
 111697852.931 8  87037341.51045  21255403.563                    21255411.098
     -2044.008       -1592.463          49.000          35.800
 18  2 21  8  4  0.0000000  0  8G07G05G09G02G30G23G16G06
 113061371.651 8  88099757.19946  21514863.398                    21514867.762
      2104.570        1640.111          48.800          37.900
 123242539.699 7  96033211.83445  23452288.266                    23452292.621
      3224.715        2512.782          46.500          30.400
 106840510.520 8  83252410.88947  20331077.234                    20331083.660
     -1210.105        -942.783          52.800          44.200
 114697993.358 7  89375092.36646  21826310.609                    21826312.344
       706.484         550.727          47.800          38.000
 119717490.300 7  93286412.04245  22781482.352                    22781486.867
      3371.457        2627.218          47.600          31.100
 119642321.587 7  93227817.05345  22767181.258                    22767183.977
     -2616.945       -2039.122          47.500          31.400
 127399656.442 6                  24243355.031
       695.996                          36.000
 111759424.345 8  87085319.20147  21267119.891                    21267127.836
     -2060.937       -1605.633          49.900          42.000
 18  2 21  8  4 30.0000000  0  8G07G05G09G02G30G23G16G06
 112998454.686 8  88050730.99546  21502890.672                    21502895.418
      2089.906        1628.675          50.600          38.600
 123145859.591 7  95957876.68945  23433890.922                    23433895.281
      3220.578        2509.632          46.700          30.800
 106876997.200 8  83280842.05447  20338020.336                    20338026.301
     -1222.293        -952.296          52.900          44.300
 114677069.085 8  89358787.73546  21822328.609                    21822330.477
       688.512         536.719          48.000          38.300
 119616468.529 7  93207693.90845  22762258.781                    22762268.344
      3363.277        2620.875          46.700          32.500
 119720912.275 7  93289056.52545  22782136.336                    22782139.586
     -2622.320       -2043.362          46.900          30.200
 127379067.060 5                  24239437.375
       676.379                          33.200
 111821502.626 8  87133691.87346  21278932.781                    21278940.566
     -2077.691       -1618.758          50.300          41.600
 18  2 21  8  5  0.0000000  0  8G07G05G09G02G30G23G16G06
 112935978.694 8  88002048.41846  21491001.852                    21491005.723
      2075.219        1617.216          50.000          39.000
 123049301.816 7  95882636.82045  23415516.961                    23415520.406
      3216.574        2506.464          46.200          30.200
 106913850.451 8  83309558.86647  20345033.008                    20345039.348
     -1234.527        -961.798          51.700          44.300
 114656685.167 7  89342904.15746  21818449.594                    21818451.777
       670.500         522.674          46.700          38.200
 119515692.489 7  93129167.06445  22743081.461                    22743091.414
      3355.102        2614.460          46.500          34.000
 119799666.432 7  93350423.38744  22797123.555                    22797125.898
     -2627.859       -2047.582          46.600          29.500
 127359062.181 5                  24235629.438
       657.078                          34.600
 111884085.513 8  87182457.75346  21290842.305                    21290849.555
     -2094.484       -1631.834          51.300          41.700
 18  2 21  8  5 30.0000000  0  8G07G05G09G02G30G23G16G06
 112873945.791 8  87953711.09346  21479197.281                    21479201.730
      2060.328        1605.653          51.700          38.600
 122952868.303 8  95807493.83045  23397165.695                    23397170.168
      3212.293        2503.186          48.000          31.400
 106951069.230 8  83338560.51147  20352115.531                    20352122.051
     -1246.672        -971.311          51.100          43.800
 114636843.275 7  89327442.94546  21814674.000                    21814675.883
       652.313         508.534          46.600          37.800
 119415164.870 8  93050833.87546  22723952.180                    22723959.836
      3346.652        2607.939          49.100          36.000
 119878583.113 7  93411916.86745  22812140.742                    22812143.672
     -2633.227       -2051.827          47.100          31.800
 127339643.298 5                  24231933.133
       637.145                          32.000
 111947171.162 8  87231615.38547  21302846.734                    21302854.398
     -2111.340       -1644.909          49.900          42.500
 18  2 21  8  6  0.0000000  0  8G07G05G09G02G30G23G16G06
 112812357.817 8  87905720.44046  21467477.602                    21467481.723
      2045.613        1594.106          51.200          40.500
 122856560.005 7  95732448.42845  23378838.727                    23378843.512
      3208.254        2499.947          46.800          30.900
 106988652.382 8  83367846.05747  20359267.570                    20359273.910
     -1258.715        -980.735          52.300          45.300
 114617544.115 7  89312404.62346  21811001.930                    21811003.535
       634.293         494.489          46.500          37.400
 119314888.170 7  92972696.27345  22704869.789                    22704876.645
      3338.402        2601.439          47.600          34.700
 119957661.112 8  93473536.05545  22827188.516                    22827191.164
     -2638.512       -2055.984          48.500          33.100
 127320811.470 6                  24228351.141
       618.133                          37.900
 112010757.565 8  87281163.22346  21314947.203                    21314954.816
     -2127.777       -1657.857          49.900          41.300
 18  2 21  8  6 30.0000000  0  8G07G05G09G02G30G23G16G06
 112751216.221 7  87858077.62945  21455842.922                    21455846.777
      2030.727        1582.514          47.000          30.200
 122760377.938 7  95657501.46043  23360537.047                    23360540.703
      3204.000        2496.712          42.700          19.000
 107026598.865 8  83397414.73046  20366488.141                    20366494.680
     -1270.922        -990.159          49.700          38.400
 114598788.352 7  89297789.73744  21807431.766                    21807434.395
       616.090         480.365          43.800          28.100
 119214865.065 7  92894756.21344  22685835.875                    22685845.582
      3329.934        2594.842          45.300          28.900
 120036899.666 7  93535280.44843  22842267.984                    22842269.613
     -2643.973       -2060.156          42.700          19.000
 127302568.111 5                  24224880.633
       598.590                          34.000
 112074842.790 8  87331099.73145  21327141.969                    21327149.914
     -2144.520       -1670.769          48.400          34.400
 18  2 21  8  7  0.0000000  0  8G07G05G09G02G30G23G16G06
 112690522.555 8  87810783.90545  21444293.281                    21444297.301
      2015.500        1570.792          48.800          32.300
 122664324.165 7  95582654.40043  23342257.766                    23342262.512
      3199.559        2493.244          43.200          18.600
 107064906.907 7  83427265.15046  20373777.828                    20373784.375
     -1282.930        -999.564          47.500          38.600
 114580576.813 7  89283598.92744  21803966.695                    21803969.375
       597.949         466.163          42.100          28.000
 119115097.645 7  92817015.36544  22666850.695                    22666856.895
      3321.246        2588.110          46.800          28.300
 120116296.941 6  93597148.39642  22857376.156                    22857379.008
     -2649.316       -2064.250          39.400          16.300
 127284914.163 6                  24221522.547
       578.551                          36.300
 112139424.361 7  87381423.05645  21339431.516                    21339439.602
     -2161.062       -1683.660          47.500          34.200
 18  2 21  8  7 30.0000000  0  8G07G05G09G02G30G23G16G06
 112630278.370 8  87763840.31945  21432828.859                    21432833.176
      2000.715        1559.154          50.700          35.800
 122568400.122 7  95507908.25643  23324003.883                    23324008.508
      3195.574        2489.963          44.300          20.600
 107103575.353 8  83457396.40146  20381136.273                    20381142.871
     -1294.809       -1008.861          50.900          41.600
 114562909.391 7  89269832.11344  21800604.938                    21800607.469
       580.125         452.090          44.000          28.700
 119015588.416 8  92739475.75245  22647915.141                    22647921.770
      3312.711        2581.423          48.200          32.700
 120195852.091 7  93659139.41144  22872515.039                    22872517.887
     -2654.324       -2068.316          43.500          26.700
 127267850.906 5                  24218272.891
       558.891                          34.400
 112204500.260 8  87432131.48146  21351815.289                    21351823.066
     -2177.352       -1696.452          48.100          37.200
 18  2 21  8  8  0.0000000  0  8G07G05G09G02G30G23G16G06
 112570485.631 8  87717248.60845  21421451.180                    21421455.410
      1985.555        1547.337          51.900          35.400
 122472608.018 7  95433265.07344  23305775.000                    23305779.813
      3191.027        2486.430          45.000          24.100
 107142603.291 8  83487807.77247  20388563.320                    20388569.488
     -1306.750       -1018.234          51.200          42.700
 114545788.223 7  89256490.92845  21797346.516                    21797348.980
       561.664         437.842          45.100          30.400
 118916340.121 8  92662139.42545  22629028.625                    22629035.918
      3303.953        2574.566          48.500          33.600
 120275563.776 7  93721252.33245  22887683.375                    22887686.707
     -2659.523       -2072.392          46.800          31.000
 127251379.416 6                  24215139.656
       539.207                          41.300
 112270068.585 8  87483223.66446  21364292.844                    21364300.703
     -2193.730       -1709.252          50.400          37.600
 18  2 21  8  8 30.0000000  0  8G07G05G09G02G30G23G16G06
 112511145.901 8  87671009.86246  21410158.680                    21410163.367
      1970.500        1535.601          51.900          40.400
 122376949.110 8  95358725.72545  23287571.766                    23287576.402
      3186.508        2482.980          48.200          32.300
 107181989.249 8  83518498.10747  20396058.391                    20396064.984
     -1318.695       -1027.497          52.700          45.700
 114529213.337 8  89243575.41646  21794192.648                    21794194.789
       543.477         423.671          49.000          38.300
 118817355.111 8  92585008.30445  22610192.008                    22610200.246
      3295.133        2567.720          48.200          35.000
 120355431.029 7  93783486.50845  22902882.133                    22902885.488
     -2664.789       -2076.421          47.200          33.100
 127235500.574 7  99144589.80644  24212119.008                    24212122.129
       519.504         404.997          44.700          24.100
 112336127.095 8  87534697.85246  21376863.172                    21376870.637
     -2210.000       -1721.926          50.200          41.100
 18  2 21  8  9  0.0000000  0  8G07G05G09G02G30G23G16G06
 112452260.383 8  87625125.05446  21398953.398                    21398957.961
      1955.273        1523.799          52.400          40.600
 122281424.915 7  95284291.30845  23269394.203                    23269398.867
      3181.926        2479.485          44.800          31.800
 107221731.928 8  83549466.42047  20403621.227                    20403627.750
     -1330.664       -1036.729          52.800          45.300
 114513185.288 8  89231086.01546  21791142.727                    21791145.031
       525.133         409.454          48.700          37.500
 118718635.609 7  92508084.03545  22591406.445                    22591414.422
      3286.273        2560.810          45.200          35.700
 120435452.510 7  93845840.88845  22918109.922                    22918111.918
     -2669.832       -2080.394          47.300          32.300
 127220215.602 7  99132679.42443  24209209.570                    24209213.297
       499.582         389.571          44.200          21.700
 112402673.404 8  87586552.10747  21389526.539                    21389534.047
     -2226.270       -1734.557          51.000          42.000
 18  2 21  8  9 30.0000000  0  8G07G05G09G02G30G23G16G06
 112393831.245 8  87579595.85746  21387834.773                    21387838.875
      1940.086        1511.872          51.900          40.900
 122186037.083 7  95209963.12645  23251242.297                    23251247.230
      3177.301        2475.842          46.300          31.500
 107261830.597 8  83580712.12947  20411251.242                    20411258.059
     -1342.500       -1046.018          53.200          45.500
 114497705.308 7  89219023.68646  21788196.742                    21788199.242
       506.867         395.172          47.500          37.800
 118620184.736 7  92431369.12145  22572672.016                    22572678.875
      3277.305        2553.749          46.000          35.000
 120515627.681 7  93908315.04945  22933366.375                    22933369.121
     -2674.953       -2084.411          47.900          32.900
 127205525.890 7  99121232.86243  24206414.727                    24206416.840
       479.836         374.053          42.900          21.700
 112469705.983 8  87638785.25546  21402282.609                    21402290.594
     -2242.547       -1747.244          50.300          41.800
 18  2 21  8 10  0.0000000  0  8G07G05G09G02G30G23G16G06
 112335859.941 8  87534423.40846  21376802.969                    21376807.660
      1924.633        1500.004          52.100          41.300
 122090787.278 8  95135742.50245  23233116.695                    23233121.813
      3172.602        2472.289          48.000          31.000
 107302283.796 8  83612234.08047  20418949.742                    20418955.742
     -1354.477       -1055.151          50.900          45.400
 114482773.817 7  89207388.76646  21785355.641                    21785358.008
       488.480         380.950          47.600          37.800
 118522004.701 7  92354865.20146  22553988.922                    22553996.750
      3268.113        2546.735          47.200          36.000
 120595954.877 7  93970907.62445  22948652.289                    22948655.094
     -2680.203       -2088.323          47.200          32.500
 127191432.515 7  99110251.02743  24203732.984                    24203735.965
       459.641         358.542          43.600          22.300
 112537222.316 8  87691395.34346  21415130.086                    21415137.887
     -2258.742       -1759.723          48.300          41.500
 18  2 21  8 10 30.0000000  0  8G07G05G09G02G30G23G16G06
 112278347.643 8  87489608.63046  21365858.383                    21365863.258
      1909.344        1488.039          52.700          40.600
 121995676.914 7  95061630.53445  23215018.023                    23215022.566
      3168.004        2468.620          47.400          31.200
 107343090.091 8  83644031.19347  20426714.703                    20426721.551
     -1366.098       -1064.337          53.400          45.900
 114468391.292 8  89196181.60046  21782618.867                    21782620.777
       470.188         366.647          48.600          37.700
 118424097.754 8  92278574.09445  22535357.758                    22535364.492
      3259.031        2539.571          48.400          35.000
 120676433.032 7  94033617.87345  22963966.414                    22963968.945
     -2685.164       -2092.232          47.300          33.100
 127177936.180 7  99099734.37643  24201165.164                    24201167.258
       439.969         343.052          43.900          22.000
 112605220.148 8  87744380.63646  21428069.883                    21428077.746
     -2274.555       -1772.208          48.800          41.500
 18  2 21  8 11  0.0000000  0  8G07G05G09G02G30G23G16G06
 112221296.284 8  87445153.02346  21355002.109                    21355006.430
      1893.941        1476.041          51.400          40.900
 121900708.375 7  94987629.09845  23196946.305                    23196950.770
      3163.230        2464.903          47.000          32.400
 107384248.582 8  83676102.73647  20434547.016                    20434553.363
     -1377.832       -1073.475          53.200          45.400
 114454558.777 8  89185403.01246  21779986.367                    21779988.504
       451.852         352.359          48.500          38.000
 118326466.708 7  92202498.00645  22516779.344                    22516786.988
      3249.699        2532.369          47.800          35.500
 120757061.459 7  94096445.18245  22979309.656                    22979313.281
     -2690.191       -2096.124          47.000          33.200
 127165037.774 7  99089683.67143  24198709.805                    24198712.094
       419.973         327.484          42.300          22.200
 112673697.574 8  87797739.61046  21441100.578                    21441108.867
     -2290.555       -1784.648          50.900          41.100
 18  2 21  8 11 30.0000000  0  8G07G05G09G02G30G23G16G06
 112164707.507 8  87401057.86146  21344233.586                    21344237.859
      1878.523        1464.018          53.100          41.400
 121805883.282 8  94913739.44445  23178901.391                    23178905.938
      3158.410        2461.176          48.600          32.400
 107425758.054 8  83708447.76747  20442445.859                    20442452.734
     -1389.492       -1082.556          52.700          45.900
 114441276.829 7  89175053.42846  21777459.117                    21777460.711
       433.500         338.071          47.900          38.100
 118229114.075 8  92126638.84245  22498253.164                    22498260.234
      3240.352        2525.118          48.300          35.900
 120837838.830 7  94159388.57445  22994681.313                    22994683.172
     -2694.953       -2099.969          46.100          32.400
 127152738.629 6  99080099.90343  24196369.039                    24196371.137
       399.895         311.926          40.000          19.900
 112742652.362 7  87851470.55946  21454222.227                    21454229.633
     -2306.359       -1797.006          47.800          41.000
 18  2 21  8 12  0.0000000  0  8G07G05G09G02G30G23G16G06
 112108582.653 8  87357324.21546  21333553.477                    21333558.145
      1863.176        1451.942          52.700          41.100
 121711202.658 7  94839962.34245  23160884.398                    23160888.754
      3153.676        2457.386          47.400          31.700
 107467617.117 8  83741065.21947  20450411.336                    20450418.035
     -1401.129       -1091.629          52.000          45.300
 114428545.669 8  89165133.04046  21775035.867                    21775038.180
       415.336         323.774          48.800          37.600
 118132042.080 8  92050998.34245  22479781.391                    22479789.086
      3231.086        2517.805          49.200          35.700
 120918764.298 7  94222447.34645  23010080.797                    23010084.293
     -2699.910       -2103.814          46.100          33.400
 127141039.504 6  99070983.70443  24194143.102                    24194146.086
       379.992         296.326          38.700          20.600
 112812082.227 8  87905571.69846  21467434.445                    21467442.785
     -2322.148       -1809.307          49.800          41.500
 18  2 21  8 12 30.0000000  0  8G07G05G09G02G30G23G16G06
 112052923.195 8  87313953.21446  21322962.063                    21322966.789
      1847.512        1439.839          52.600          41.300
 121616668.583 8  94766299.45945  23142895.070                    23142899.379
      3148.660        2453.571          48.300          32.700
 107509824.333 8  83773953.94747  20458443.422                    20458450.125
     -1412.727       -1100.662          53.000          45.500
 114416365.815 8  89155642.23846  21772718.766                    21772720.965
       396.777         309.430          48.200          38.200
 118035253.045 8  91975578.33046  22461362.633                    22461370.504
      3221.543        2510.422          48.800          36.100
 120999836.162 7  94285620.21845  23025508.406                    23025510.816
     -2704.797       -2107.589          46.300          32.700
 127129940.935 6  99062335.46343  24192029.617                    24192034.449
       359.867         280.720          39.800          19.900
 112881984.691 8  87960041.10346  21480736.570                    21480744.449
     -2337.961       -1821.563          48.500          41.600
 18  2 21  8 13  0.0000000  0  8G07G05G09G02G30G23G16G06
 111997730.547 8  87270945.94946  21312458.977                    21312463.543
      1832.074        1427.723          52.600          41.100
 121522282.859 8  94692752.12345  23124934.234                    23124938.754
      3143.785        2449.759          48.100          32.900
 107552378.971 9  83807113.39947  20466541.102                    20466547.871
     -1424.156       -1109.635          54.000          45.400
 114404738.448 7  89146581.94846  21770506.188                    21770508.043
       378.512         295.108          47.300          38.100
 117938749.886 7  91900381.12046  22442999.156                    22443006.684
      3212.141        2503.000          47.800          36.800
 121081053.879 7  94348906.73945  23040964.211                    23040966.656
     -2709.609       -2111.347          44.900          31.800
 127119444.442 6  99054156.39643  24190032.203                    24190036.773
       339.941         265.071          37.800          19.300
 112952358.017 8  88014877.42046  21494128.555                    21494135.734
     -2353.516       -1833.732          49.500          40.600
 18  2 21  8 13 30.0000000  0  8G07G05G09G02G30G23G16G06
 111943006.790 8  87228304.06446  21302045.523                    21302049.855
      1816.281        1415.476          51.500          41.300
 121428045.923 7  94619320.76845  23107001.281                    23107005.848
      3138.652        2445.772          45.600          33.200
 107595279.714 9  83840542.53647  20474705.141                    20474711.430
     -1435.762       -1118.646          54.800          45.100
 114393663.848 7  89137952.38346  21768398.375                    21768400.590
       359.914         280.688          47.900          38.700
 117842535.016 7  91825408.52346  22424689.703                    22424697.934
      3202.277        2495.425          46.500          36.400
 121162416.310 7  94412306.00045  23056446.477                    23056449.473
     -2714.527       -2115.128          45.200          32.100
 127109551.061 6  99046447.28443  24188149.656                    24188154.891
       319.590         249.378          38.100          21.100
 113023199.817 8  88070078.80246  21507608.688                    21507616.906
     -2369.199       -1845.927          49.800          40.900
 18  2 21  8 14  0.0000000  0  8G07G05G09G02G30G23G16G06
 111888752.615 8  87186028.07646  21291721.656                    21291726.148
      1800.566        1403.310          52.100          40.900
 121333960.770 7  94546007.67545  23089097.766                    23089102.559
      3133.539        2441.861          47.500          32.600
 107638524.873 8  83874240.06947  20482934.500                    20482940.840
     -1447.242       -1127.549          53.900          45.000
 114383142.105 7  89129753.60946  21766396.859                    21766398.281
       341.492         266.353          47.600          37.900
 117746610.367 8  91750662.05845  22406435.648                    22406443.141
      3192.563        2487.908          48.000          35.800
 121243922.019 7  94475816.93945  23071956.258                    23071958.699
     -2719.242       -2118.812          45.800          33.600
 127100260.846 6  99039208.16743  24186381.055                    24186387.301
       299.566         233.722          38.800          22.000
 113094507.412 8  88125643.15346  21521177.828                    21521185.758
     -2384.695       -1857.960          49.500          40.400
 18  2 21  8 14 30.0000000  0  8G07G05G09G02G30G23G16G06
 111834969.812 8  87144119.40646  21281486.578                    21281491.051
      1784.805        1391.017          51.500          40.900
 121240029.618 7  94472814.59845  23071222.680                    23071227.723
      3128.379        2437.807          47.800          32.600
 107682113.651 9  83908205.33747  20491228.992                    20491235.063
     -1458.746       -1136.475          54.500          45.300
 114373174.393 8  89121986.55346  21764499.586                    21764501.680
       322.941         251.934          48.100          38.400
 117650978.871 8  91676144.03046  22388237.828                    22388244.500
      3182.715        2480.217          48.400          36.100
 121325570.161 7  94539438.82445  23087493.367                    23087496.902
     -2724.098       -2122.529          46.000          32.400
 127091574.963 6  99032439.99043  24184728.789                    24184734.914
       279.363         217.987          37.000          21.800
 113166278.921 8  88181568.97446  21534836.039                    21534843.688
     -2400.137       -1870.014          50.400          40.800
 18  2 21  8 15  0.0000000  0  8G07G05G09G02G30G23G16G06
 111781659.448 8  87102578.88046  21271341.727                    21271346.898
      1769.055        1378.739          52.800          41.300
 121146253.441 8  94399742.24945  23053378.586                    23053382.934
      3123.250        2433.805          48.900          31.900
 107726044.475 8  83942437.15147  20499588.805                    20499595.242
     -1470.098       -1145.343          52.300          45.700
 114363760.547 8  89114651.08746  21762708.125                    21762710.230
       304.527         237.561          48.300          38.400
 117555642.560 8  91601856.01646  22370095.617                    22370103.203
      3172.926        2472.541          48.800          36.900
 121407359.323 7  94603170.64345  23103057.227                    23103059.273
     -2728.695       -2126.163          45.800          30.800
 127083494.208 6  99026143.31344  24183190.250                    24183197.488
       259.238         202.289          39.900          24.500
 113238511.684 7  88237854.24846  21548581.367                    21548589.059
     -2415.453       -1881.936          47.600          40.900
 18  2 21  8 15 30.0000000  0  8G07G05G09G02G30G23G16G06
 111728823.462 8  87061407.98946  21261287.516                    21261292.441
      1753.281        1366.392          53.300          41.000
 121052634.044 8  94326792.05545  23035562.867                    23035566.984
      3118.051        2429.705          48.600          32.400
 107770316.419 9  83976934.76047  20508013.555                    20508019.723
     -1481.324       -1154.193          54.500          45.300
 114354901.576 7  89107747.98746  21761022.227                    21761024.344
       286.035         223.131          47.500          38.200
 117460604.257 8  91527800.19346  22352010.430                    22352017.754
      3163.016        2464.771          48.800          36.900
 121489289.032 7  94667011.94445  23118648.609                    23118651.633
     -2733.297       -2129.795          47.000          33.200
 127076019.008 6  99020318.47644  24181768.797                    24181774.414
       239.004         186.525          38.100          24.200
 113311203.696 8  88294497.33946  21562414.594                    21562422.051
     -2430.738       -1893.855          48.700          40.900
 18  2 21  8 16  0.0000000  0  8G07G05G09G02G30G23G16G06
 111676463.463 8  87020608.00246  21251323.875                    21251328.656
      1737.332        1354.021          52.400          41.400
 120959172.369 7  94253964.78245  23017778.039                    23017782.281
      3112.758        2425.582          47.800          32.700
 107814928.366 8  84011697.31247  20516502.945                    20516509.164
     -1492.734       -1163.017          53.800          45.100
 114346597.897 8  89101277.58946  21759442.523                    21759444.688
       267.586         208.706          48.100          38.600
 117365866.415 8  91453978.52546  22333982.531                    22333990.566
      3152.859        2456.921          48.100          36.400
 121571358.247 7  94730961.95645  23134265.398                    23134267.711
     -2737.961       -2133.403          45.600          31.500
 127069150.549 6  99014966.44344  24180461.391                    24180467.910
       218.777         170.774          38.800          24.800
 113384352.635 7  88351496.46546  21576333.984                    21576341.664
     -2445.855       -1905.681          47.100          40.400
 18  2 21  8 16 30.0000000  0  8G07G05G09G02G30G23G16G06
 111624580.146 8  86980179.43246  21241450.805                    21241455.102
      1721.523        1341.650          52.400          40.600
 120865870.777 8  94181262.25745  23000023.266                    23000027.359
      3107.363        2421.434          48.000          32.700
 107859878.768 8  84046723.58847  20525056.906                    20525062.980
     -1504.035       -1171.744          53.000          45.100
 114338849.548 7  89095239.90146  21757967.906                    21757970.273
       249.027         194.307          46.700          38.600
 117271431.233 7  91380392.69246  22316012.070                    22316018.945
      3142.813        2449.058          47.400          37.100
 121653565.429 7  94795019.48345  23149908.867                    23149913.027
     -2742.543       -2136.952          46.700          32.300
 127062889.251 6  99010087.51444  24179270.242                    24179276.391
       198.633         155.041          38.800          26.200
 113457956.026 8  88408849.72846  21590340.352                    21590347.953
     -2460.992       -1917.441          48.300          40.100
 18  2 21  8 17  0.0000000  0  8G07G05G09G02G30G23G16G06
 111573175.131 8  86940123.59446  21231668.813                    21231673.691
      1705.672        1329.184          53.000          40.500
 120772731.124 7  94108685.92045  22982298.883                    22982304.094
      3102.000        2417.141          45.500          32.800
 107905166.424 9  84082012.67147  20533674.852                    20533680.758
     -1515.129       -1180.546          54.000          45.700
 114331657.117 8  89089635.40346  21756599.195                    21756601.039
       230.469         179.813          48.000          38.500
 117177301.148 7  91307044.61046  22298099.852                    22298108.164
      3132.617        2441.062          47.800          37.300
 121735909.554 7  94859183.69145  23165578.047                    23165581.590
     -2747.035       -2140.534          46.300          30.400
 127057235.736 6  99005682.16344  24178194.688                    24178200.793
       178.473         139.180          39.600          25.300
 113532011.440 8  88466555.19846  21604432.352                    21604440.328
     -2475.969       -1929.187          48.300          40.500
 18  2 21  8 17 30.0000000  0  8G07G05G09G02G30G23G16G06
 111522249.739 8  86900441.48446  21221978.164                    21221982.301
      1689.598        1316.744          52.300          41.100
 120679755.468 7  94036237.38345  22964606.023                    22964610.625
      3096.527        2412.934          46.300          32.600
 107950790.034 9  84117563.52947  20542356.586                    20542362.656
     -1526.254       -1189.186          54.600          45.700
 114325020.483 7  89084463.99646  21755336.273                    21755338.754
       212.027         165.449          47.100          39.000
 117083478.487 7  91233936.06646  22280245.914                    22280253.707
      3122.305        2433.097          47.100          37.200
 121818389.378 7  94923453.70245  23181274.156                    23181276.809
     -2751.562       -2143.986          46.700          31.800
 127052190.792 7  99001751.02144  24177234.977                    24177240.695
       157.961         123.420          42.100          26.000
 113606516.443 8  88524610.95346  21618610.594                    21618618.375
     -2490.910       -1940.771          50.300          40.300
 18  2 21  8 18  0.0000000  0  8G07G05G09G02G30G23G16G06
 111471805.253 8  86861134.10746  21212378.344                    21212382.828
      1673.426        1304.206          52.800          41.200
 120586944.585 8  93963917.23145  22946944.930                    22946949.824
      3090.938        2408.602          48.300          33.300
 107996748.398 9  84153375.23647  20551102.250                    20551108.398
     -1537.473       -1197.901          54.400          45.600
 114318940.311 7  89079726.19746  21754179.094                    21754181.535
       193.301         150.940          47.300          39.100
 116989965.627 8  91161068.93846  22262450.703                    22262457.641
      3111.898        2425.010          48.200          36.700
 121901004.235 7  94987828.84845  23196995.453                    23196998.398
     -2756.109       -2147.521          43.700          32.400
 127047754.891 6  98998294.49144  24176390.602                    24176395.785
       137.523         107.564          41.700          26.000
 113681468.705 8  88583015.25346  21632873.484                    21632881.578
     -2505.887       -1952.399          49.400          40.400
 18  2 21  8 18 30.0000000  0  8G07G05G09G02G30G23G16G06
 111421842.900 8  86822202.40746  21202871.125                    21202875.680
      1657.375        1291.667          52.900          41.300
 120494301.035 7  93891727.47245  22929315.469                    22929319.949
      3085.336        2404.242          47.200          32.600
 108043040.151 8  84189446.72647  20559910.914                    20559917.086
     -1548.648       -1206.551          53.800          45.500
 114313416.992 7  89075422.31546  21753128.055                    21753130.352
       174.781         136.471          46.300          39.000
 116896764.953 7  91088445.05546  22244715.664                    22244722.332
      3101.383        2416.865          47.800          37.300
 121983752.877 7  95052308.32145  23212741.703                    23212744.035
     -2760.555       -2150.987          47.000          30.900
 127043928.483 7  98995312.83644  24175663.391                    24175667.750
       117.348          91.750          43.400          26.500
 113756865.764 8  88641766.17046  21647221.008                    21647228.801
     -2520.613       -1963.911          48.800          40.000
 18  2 21  8 19  0.0000000  0  8G07G05G09G02G30G23G16G06
 111372364.212 8  86783647.59946  21193455.648                    21193460.305
      1641.105        1279.094          52.800          40.900
 120401826.162 7  93819669.14545  22911718.063                    22911722.543
      3079.605        2399.821          46.800          33.200
 108089664.247 8  84225777.18047  20568783.484                    20568789.863
     -1559.750       -1215.175          53.400          45.200
 114308450.846 7  89071552.57646  21752182.703                    21752185.219
       156.215         122.004          46.100          38.700
 116803878.939 8  91016066.34346  22227040.180                    22227047.430
      3090.828        2408.662          48.800          37.400
 122066634.437 7  95116891.26945  23228513.969                    23228517.707
     -2764.969       -2154.421          46.500          32.100
 127040712.303 7  98992806.73544  24175051.141                    24175055.918
        97.035          75.848          42.700          26.400
 113832705.305 8  88700861.87546  21661652.875                    21661661.008
     -2535.410       -1975.394          49.900          40.000
 18  2 21  8 19 30.0000000  0  8G07G05G09G02G30G23G16G06
 111323370.405 8  86745470.62246  21184132.102                    21184137.262
      1625.000        1266.475          53.000          41.200
 120309521.810 7  93747743.68045  22894152.805                    22894157.414
      3073.906        2395.369          47.300          32.700
 108136619.256 8  84262365.50247  20577718.492                    20577724.766
     -1570.637       -1223.736          53.900          45.100
 114304042.008 7  89068117.11346  21751344.047                    21751345.980
       137.691         107.542          47.200          38.500
 116711309.888 7  90943934.64046  22209424.125                    22209432.637
      3080.320        2400.412          47.700          37.900
 122149647.824 7  95181577.05144  23244310.320                    23244311.625
     -2769.363       -2157.834          45.100          29.400
 127038106.932 7  98990776.54444  24174555.109                    24174560.234
        76.602          60.023          43.700          26.900
 113908984.774 8  88760300.34946  21676168.500                    21676176.336
     -2550.008       -1986.771          50.400          39.800
 18  2 21  8 20  0.0000000  0  8G07G05G09G02G30G23G16G06
 111274862.776 8  86707672.46546  21174901.852                    21174905.742
      1608.820        1253.832          52.600          39.400
 120217389.692 7  93675952.42945  22876621.133                    22876625.766
      3068.195        2390.874          47.500          32.600
 108183903.989 8  84299210.76646  20586716.477                    20586722.754
     -1581.574       -1232.300          51.300          38.900
 114300190.799 7  89065116.14645  21750611.453                    21750613.754
       119.055          93.027          46.700          35.200
 116619060.385 8  90872051.92045  22191870.227                    22191878.090
      3069.617        2392.064          48.200          35.300
 122232792.027 7  95246364.73143  23260132.039                    23260135.523
     -2773.539       -2161.215          42.800          22.600
 127036112.690 6  98989222.54743  24174175.875                    24174180.859
        56.242          44.150          41.500          22.300
 113985701.869 7  88820079.85745  21690767.523                    21690774.789
     -2564.484       -1998.128          47.200          34.900
 18  2 21  8 20 30.0000000  0  8G07G05G09G02G30G23G16G06
 111226842.717 8  86670254.25346  21165763.703                    21165768.000
      1592.445        1241.128          52.300          39.800
 120125431.875 7  93604296.97745  22859122.102                    22859126.348
      3062.359        2386.325          47.700          32.800
 108231517.526 8  84336312.20846  20595777.172                    20595783.480
     -1592.699       -1240.826          51.200          40.400
 114296897.590 7  89062550.00145  21749984.625                    21749986.418
       100.383          78.531          46.600          35.800
 116527132.559 7  90800419.91445  22174377.695                    22174384.820
      3058.773        2383.668          45.900          33.900
 122316066.268 6  95311253.68443  23275980.266                    23275980.957
     -2778.070       -2164.561          38.800          19.900
 127034730.163 6  98988145.31543  24173912.906                    24173917.121
        35.801          28.208          40.900          20.400
 114062854.247 7  88880198.53845  21705449.195                    21705457.355
     -2578.988       -2009.406          47.900          35.400
 18  2 21  8 21  0.0000000  0  8G07G05G09G02G30G23G16G06
 111179311.105 8  86633216.65146  21156718.969                    21156723.023
      1576.297        1228.434          51.000          37.900
 120033649.807 8  93532778.49245  22841656.492                    22841661.324
      3056.559        2381.732          48.200          33.100
 108279458.367 8  84373668.70047  20604899.984                    20604906.027
     -1603.395       -1249.317          51.800          42.600
 114294162.451 8  89060418.70446  21749464.188                    21749465.883
        81.914          64.042          48.000          37.800
 116435528.899 7  90729040.44145  22156944.859                    22156952.395
      3048.164        2375.247          47.300          34.000
 122399468.996 7  95376242.81644  23291849.836                    23291852.789
     -2782.086       -2167.918          44.600          27.400
 127033960.092 5  98987545.15842  24173766.914                    24173770.988
        15.473          12.339          33.200          14.800
 114140439.323 8  88940654.40246  21720212.828                    21720221.371
     -2593.387       -2020.623          49.200          38.300
 18  2 21  8 21 30.0000000  0  8G07G05G09G02G30G23G16G06
 111132269.595 8  86596560.97046  21147767.164                    21147771.656
      1559.887        1215.660          51.100          37.500
 119942045.170 7  93461398.27945  22824224.586                    22824229.492
      3050.441        2377.071          47.800          33.900
 108327725.339 8  84411279.33546  20614085.047                    20614091.250
     -1614.391       -1257.801          50.600          41.800
 114291985.498 7  89058722.37446  21749050.266                    21749051.953
        63.102          49.503          47.000          38.600
 116344251.965 8  90657915.56545  22139575.664                    22139583.418
      3037.098        2366.684          48.300          35.000
 122482999.614 7  95441331.55544  23307744.734                    23307748.070
     -2786.520       -2171.250          42.600          26.000
 127033802.610 5  98987422.45642  24173736.453                    24173740.320
        -4.750          -3.613          35.400          17.400
 114218454.763 8  89001445.60546  21735058.664                    21735067.480
     -2607.602       -2031.772          49.200          39.200
 18  2 21  8 22  0.0000000  0  8G07G05G09G02G30G23G16G06
 111085719.190 8  86560287.93846  21138909.023                    21138913.293
      1543.246        1202.901          51.300          38.600
 119850620.538 8  93390158.33045  22806827.086                    22806831.824
      3044.438        2372.368          48.400          34.300
 108376317.175 8  84449143.09147  20623331.438                    20623338.277
     -1625.266       -1266.209          52.100          42.400
 114290367.124 8  89057461.30446  21748741.523                    21748744.695
        44.480          34.985          48.000          39.600
 116253303.862 8  90587046.96846  22122268.688                    22122276.535
      3026.027        2358.121          48.800          36.500
 122566656.889 7  95506519.08244  23323664.516                    23323667.070
     -2790.766       -2174.517          44.300          29.700
 127034258.254 6  98987777.51943  24173823.234                    24173827.051
       -25.492         -19.520          36.400          19.000
 114296897.793 8  89062569.98046  21749985.875                    21749993.996
     -2621.965       -2042.842          49.200          39.100
 18  2 21  8 22 30.0000000  0  8G07G05G09G02G30G23G16G06
 111039660.944 8  86524398.37246  21130144.023                    21130148.527
      1526.992        1190.147          51.700          38.100
 119759376.630 8  93319059.19345  22789463.867                    22789468.504
      3038.371        2367.712          48.200          32.800
 108425232.497 8  84487258.89847  20632640.133                    20632646.367
     -1635.961       -1274.551          52.100          43.300
 114289307.247 8  89056635.41346  21748540.242                    21748542.102
        25.930          20.532          48.900          38.100
 116162686.821 8  90516436.28946  22105024.781                    22105032.355
      3014.953        2349.545          49.100          37.400
 122650439.933 7  95571804.43644  23339608.859                    23339611.266
     -2794.918       -2177.719          46.400          28.500
 127035326.985 6  98988610.28043  24174026.227                    24174030.797
       -45.809         -35.422          40.400          21.500
 114375765.984 8  89124025.63646  21764994.188                    21765002.035
     -2635.918       -2053.808          49.900          38.900
 18  2 21  8 23  0.0000000  0  8G07G05G09G02G30G23G16G06
 110994096.025 8  86488893.25646  21121473.563                    21121477.820
      1510.672        1177.307          52.100          38.700
 119668315.722 8  93248102.64345  22772135.617                    22772140.254
      3032.293        2362.906          48.200          34.400
 108474470.252 8  84525625.96947  20642009.563                    20642015.988
     -1646.551       -1282.937          52.800          44.100
 114288806.277 8  89056245.04446  21748444.875                    21748446.938
         7.441           6.002          48.200          38.400
 116072403.466 7  90446085.64246  22087844.328                    22087850.969
      3003.867        2340.814          47.600          37.000
 122734347.505 7  95637187.01145  23355574.117                    23355578.402
     -2798.941       -2180.957          43.500          30.200
 127037009.426 6  98989921.24143  24174346.320                    24174350.723
       -66.328         -51.385          40.700          23.400
 114455057.093 8  89185810.87346  21780083.070                    21780091.234
     -2649.996       -2064.786          49.000          38.800
 18  2 21  8 23 30.0000000  0  8G07G05G09G02G30G23G16G06
 110949025.584 8  86453773.43646  21112896.859                    21112901.586
      1494.055        1164.423          52.900          40.500
 119577439.772 7  93177290.19745  22754842.375                    22754847.242
      3026.133        2358.066          47.500          34.300
 108524028.907 8  84564243.10547  20651440.016                    20651447.059
     -1657.273       -1291.274          52.000          43.800
 114288863.816 8  89056289.85546  21748456.031                    21748458.145
       -11.242          -8.528          49.300          39.600
 115982455.784 8  90375996.55846  22070728.320                    22070735.336
      2992.711        2332.067          49.300          38.500
 122818378.527 7  95702665.65245  23371565.453                    23371569.359
     -2803.039       -2184.178          46.400          30.800
 127039305.568 6  98991710.44643  24174784.055                    24174788.109
       -86.715         -67.348          40.200          22.500
 114534768.230 8  89247923.45546  21795251.141                    21795259.734
     -2664.082       -2075.694          49.600          39.500
 18  2 21  8 24  0.0000000  0  8G07G05G09G02G30G23G16G06
 110904451.092 8  86419040.07346  21104414.930                    21104419.273
      1477.512        1151.529          52.300          41.100
 119486750.770 8  93106623.46845  22737584.813                    22737589.586
      3019.887        2353.217          48.100          34.600
 108573907.462 8  84603109.50647  20660931.953                    20660938.605
     -1668.059       -1299.580          52.200          43.300
 114289480.258 8  89056770.21246  21748573.125                    21748575.523
       -29.902         -23.046          48.800          39.200
 115892846.308 8  90306171.03646  22053676.031                    22053683.586
      2981.328        2323.244          50.700          39.100
 122902532.290 7  95768240.02344  23387579.742                    23387581.613
     -2807.180       -2187.357          46.100          29.600
 127042216.168 6  98993978.43443  24175337.242                    24175341.668
      -107.320         -83.320          41.400          22.600
 114614897.035 8  89310361.46646  21810499.781                    21810507.605
     -2677.910       -2086.492          49.400          40.000
 18  2 21  8 24 30.0000000  0  8G07G05G09G02G30G23G16G06
 110860373.361 8  86384693.81145  21096027.102                    21096031.164
      1460.891        1138.656          48.400          35.000
 119396250.060 7  93036103.48843  22720363.594                    22720368.086
      3013.488        2348.324          43.100          23.300
 108624104.923 8  84642224.35647  20670483.984                    20670490.418
     -1678.605       -1307.773          51.500          43.000
 114290655.899 7  89057686.36844  21748797.078                    21748799.242
       -48.375         -37.520          44.500          29.100
 115803577.536 8  90236610.99845  22036688.719                    22036695.496
      2969.926        2314.403          48.900          33.300
 122986808.173 6  95833909.54143  23403616.898                    23403619.891
     -2811.316       -2190.458          39.700          20.100
 127045741.914 5                  24176006.766
      -127.715                          32.200
 114695441.130 7  89373123.13045  21825826.555                    21825834.238
     -2691.730       -2097.199          45.100          31.400
 18  2 21  8 25  0.0000000  0  8G07G05G09G02G30G23G16G06
 110816793.127 8  86350735.20545  21087734.203                    21087737.840
      1444.273        1125.685          49.800          35.000
 119305939.571 7  92965731.71543  22703178.398                    22703183.074
      3007.004        2343.313          44.300          23.300
 108674619.210 8  84681586.12346  20680096.313                    20680103.047
     -1689.227       -1316.029          50.800          40.900
 114292389.996 7  89059037.59744  21749127.211                    21749129.371
       -67.312         -52.079          44.400          29.100
 115714651.129 8  90167317.65845  22019767.141                    22019773.516
      2958.391        2305.452          48.900          34.400
 123071204.031 6  95899672.46342  23419676.180                    23419680.699
     -2815.281       -2193.617          36.500          15.600
 127049881.425 5                  24176796.398
      -148.324                          32.900
 114776397.386 7  89436205.88645  21841231.516                    21841239.801
     -2705.527       -2107.921          47.100          32.600
 18  2 21  8 25 30.0000000  0  8G07G05G09G02G30G23G16G06
 110773712.117 8  86317165.59745  21079536.008                    21079540.145
      1427.754        1112.764          50.100          35.900
 119215820.943 7  92895509.42543  22686029.086                    22686033.336
      3000.746        2338.361          44.100          22.500
 108725449.669 8  84721194.27946  20689769.094                    20689775.590
     -1699.605       -1324.194          51.300          40.900
 114294682.880 7  89060824.23144  21749563.289                    21749566.000
       -85.668         -66.521          45.200          28.300
 115626069.810 8  90098293.28045  22002910.742                    22002916.859
      2946.957        2296.499          48.200          35.000
 123155719.967 5  95965529.00042  23435760.750                    23435762.277
     -2819.320       -2196.745          33.300          16.900
 127054636.077 5                  24177700.625
      -168.906                          35.600
 114857763.647 7  89499608.12345  21856715.359                    21856722.660
     -2718.879       -2118.479          47.600          33.200
 18  2 21  8 26  0.0000000  0  8G07G05G09G02G30G23G16G06
 110731130.966 7  86283985.53345  21071433.219                    21071437.379
      1411.000        1099.668          47.200          33.300
 119125896.069 7  92825438.01743  22668917.242                    22668921.277
      2994.320        2333.214          44.700          22.200
 108776594.957 8  84761047.74746  20699501.516                    20699508.805
     -1710.137       -1332.442          51.000          41.600
 114297534.725 7  89063046.40445  21750106.352                    21750108.047
      -104.430         -81.160          44.500          30.000
 115537835.796 7  90029539.56345  21986120.148                    21986126.777
      2935.301        2287.360          47.900          31.700
 123240354.459 6  96031477.93943  23451866.273                    23451867.559
     -2823.051       -2199.806          38.100          19.900
 127060005.792 6                  24178723.234
      -189.254                          41.300
 114939537.237 7  89563327.78445  21872276.266                    21872283.598
     -2732.520       -2129.132          47.500          33.400
 18  2 21  8 26 30.0000000  0  8G07G05G09G02G30G23G16G06
 110689051.899 7  86251196.63245  21063425.539                    21063430.313
      1394.262        1086.629          47.600          34.700
 119036168.614 8  92755520.49945  22651842.563                    22651846.438
      2987.566        2328.074          48.200          32.100
 108828054.834 8  84801146.32947  20709294.211                    20709301.504
     -1720.551       -1340.571          51.800          43.000
 114300946.476 7  89065704.87145  21750755.445                    21750757.273
      -123.125         -95.657          46.400          35.900
 115449952.411 7  89961059.04045  21969396.344                    21969403.328
      2923.512        2278.261          46.400          32.100
 123325107.695 6  96097519.40444  23467992.945                    23467996.441
     -2826.957       -2202.891          41.000          24.900
 127065991.541 5                  24179859.625
      -209.746                          30.100
 115021716.578 7  89627363.62945  21887914.320                    21887922.508
     -2746.066       -2139.620          47.500          35.500
 18  2 21  8 27  0.0000000  0  8G07G05G09G02G30G23G16G06
 110647475.015 8  86218799.08946  21055513.945                    21055518.063
      1377.461        1073.580          49.300          38.400
 118946638.585 8  92685756.85945  22634805.023                    22634809.559
      2980.965        2322.945          48.800          35.400
 108879827.024 8  84841488.32347  20719146.438                    20719152.969
     -1730.879       -1348.643          49.500          42.400
 114304917.089 8  89068798.84946  21751511.086                    21751513.316
      -141.750        -110.174          48.700          39.200
 115362421.039 7  89892852.76446  21952739.859                    21952746.586
      2911.816        2269.103          47.200          37.600
 123409977.744 7  96163651.87345  23484144.141                    23484146.207
     -2830.926       -2205.877          46.300          30.400
 127072592.485 6                  24181117.375
      -230.234                          39.600
 115104298.209 8  89691712.95446  21903629.219                    21903637.043
     -2759.461       -2150.021          48.300          38.400
 18  2 21  8 27 30.0000000  0  8G07G05G09G02G30G23G16G06
 110606401.353 8  86186793.61546  21047698.102                    21047702.672
      1360.750        1060.523          50.000          38.500
 118857307.918 8  92616148.56345  22617806.172                    22617810.863
      2974.352        2317.738          50.500          35.000
 108931910.493 8  84882072.83647  20729057.180                    20729064.152
     -1741.293       -1356.721          49.900          42.900
 114309446.607 8  89072328.33346  21752372.813                    21752374.922
      -160.246        -124.683          48.000          39.900
 115275243.830 8  89824922.47446  21936150.234                    21936157.418
      2900.000        2259.867          50.400          39.400
 123494963.491 7  96229874.49444  23500315.906                    23500318.941
     -2834.781       -2208.870          43.500          28.600
 127079808.821 6                  24182491.234
      -250.742                          39.000
 115187279.348 8  89756373.55846  21919419.875                    21919427.934
     -2772.633       -2160.362          48.100          38.800
 18  2 21  8 28  0.0000000  0  8G07G05G09G02G30G23G16G06
 110565831.692 8  86155180.86547  21039977.469                    21039982.129
      1343.953        1047.424          50.500          42.500
 118768178.171 8  92546696.84445  22600845.102                    22600849.559
      2967.594        2312.504          48.900          35.100
 108984303.681 8  84922898.66247  20739027.219                    20739033.703
     -1751.512       -1364.724          51.800          44.800
 114314534.464 7  89076292.90646  21753341.164                    21753343.801
      -178.898        -139.176          46.700          39.500
 115188422.989 8  89757269.88546  21919629.047                    21919635.941
      2888.090        2250.604          49.600          39.800
 123580063.715 7  96296186.34544  23516509.570                    23516512.043
     -2838.477       -2211.805          44.100          29.700
 127087640.638 7  99029378.99344  24183982.367                    24183985.281
      -271.344        -211.162          45.300          24.700
 115270657.330 7  89821343.39546  21935286.922                    21935294.824
     -2785.816       -2170.630          47.100          38.300
 18  2 21  8 28 30.0000000  0  8G07G05G09G02G30G23G16G06
 110525766.954 8  86123961.61546  21032353.359                    21032358.102
      1327.074        1034.251          50.200          41.900
 118679251.576 8  92477403.39645  22583923.289                    22583927.215
      2960.734        2307.159          49.300          34.800
 109037005.342 8  84963964.87947  20749056.273                    20749062.828
     -1761.961       -1372.772          51.700          43.800
 114320180.605 8  89080692.47846  21754415.141                    21754417.211
      -197.500        -153.700          48.500          38.900
 115101960.645 8  89689896.64246  21903175.703                    21903183.477
      2876.035        2241.222          49.100          40.000
 123665277.932 7  96362587.01544  23532725.141                    23532727.906
     -2842.379       -2214.797          43.000          28.600
 127096087.750 7  99035961.18244  24185589.438                    24185592.648
      -291.836        -227.157          45.000          26.000
 115354429.439 7  89886620.32846  21951228.039                    21951235.844
     -2799.102       -2180.860          47.200          38.400
 18  2 21  8 29  0.0000000  0  8G07G05G09G02G30G23G16G06
 110486208.411 8  86093136.77746  21024825.758                    21024830.430
      1310.230        1021.124          50.500          41.700
 118590530.355 8  92408269.97845  22567040.063                    22567044.301
      2954.066        2301.876          49.400          34.000
 109090014.355 8  85005270.59647  20759143.781                    20759150.375
     -1772.023       -1380.707          50.700          44.100
 114326385.151 8  89085527.18446  21755596.000                    21755598.164
      -216.090        -168.173          48.500          39.300
 115015859.142 8  89622804.62546  21886790.813                    21886798.789
      2864.074        2231.843          49.600          40.200
 123750605.140 7  96429075.67244  23548963.523                    23548966.148
     -2846.043       -2217.705          42.500          28.800
 127105150.317 7  99043022.89843  24187314.570                    24187317.230
      -312.215        -243.107          45.700          23.300
 115438593.177 7  89952202.41746  21967244.344                    21967252.086
     -2811.859       -2190.979          47.200          38.400
 18  2 21  8 29 30.0000000  0  8G07G05G09G02G30G23G16G06
 110447156.637 8  86062706.83946  21017394.336                    21017398.926
      1293.289        1007.927          50.000          41.700
 118502015.774 7  92339297.58445  22550196.148                    22550200.660
      2947.070        2296.432          47.600          34.600
 109143329.337 8  85046814.72647  20769289.109                    20769295.684
     -1782.285       -1388.666          49.600          44.100
 114333147.878 8  89090796.82546  21756883.031                    21756885.238
      -234.734        -182.689          49.000          39.400
 114930120.650 8  89555995.41746  21870475.477                    21870482.363
      2851.914        2222.379          48.500          39.900
 123836044.052 7  96495651.44544  23565221.055                    23565223.910
     -2849.762       -2220.601          43.800          28.600
 127114828.454 7  99050564.32944  24189156.273                    24189158.801
      -332.781        -259.142          45.600          24.700
 115523145.743 7  90018087.51246  21983333.641                    21983341.590
     -2824.715       -2201.052          46.800          38.600
 18  2 21  8 30  0.0000000  0  8G07G05G09G02G30G23G16G06
 110408612.825 8  86032672.70046  21010059.563                    21010064.477
      1276.391         994.750          50.200          41.800
 118413710.394 7  92270488.19745  22533392.352                    22533396.789
      2940.070        2291.008          46.700          34.300
 109196949.340 8  85088596.54547  20779492.250                    20779499.133
     -1792.312       -1396.560          50.300          43.800
 114340468.507 8  89096501.20146  21758276.352                    21758277.703
      -253.316        -197.157          48.400          38.700
 114844747.618 8  89489470.98546  21854229.500                    21854236.551
      2839.711        2212.868          48.300          39.400
 123921593.959 7  96562313.68044  23581501.422                    23581503.961
     -2853.418       -2223.452          43.200          29.200
 127125122.288 7  99058585.49144  24191113.938                    24191118.305
      -353.352        -275.102          43.600          25.300
 115608084.782 7  90084273.73146  21999497.563                    21999505.645
     -2837.687       -2211.061          47.200          38.400
 18  2 21  8 30 30.0000000  0  8G07G05G09G02G30G23G16G06
 110370577.970 8  86003035.17246  21002821.766                    21002826.160
      1259.383         981.491          50.500          41.400
 118325615.402 8  92201842.76245  22516628.391                    22516632.832
      2932.965        2285.471          48.800          34.900
 109250873.313 8  85130615.21247  20789753.828                    20789760.336
     -1802.516       -1404.469          52.200          44.300
 114348347.162 7  89102640.39146  21759775.289                    21759777.629
      -271.898        -211.666          47.500          39.400
 114759742.454 8  89423233.20846  21838053.828                    21838060.070
      2827.367        2203.268          49.300          39.600
 124007254.239 7  96629061.92444  23597801.680                    23597803.629
     -2857.148       -2226.332          43.000          28.100
 127136031.562 7  99067086.21044  24193190.117                    24193194.129
      -373.902        -291.105          43.300          25.600
 115693407.753 7  90150759.14246  22015733.484                    22015741.395
     -2850.527       -2221.000          47.300          38.300
 18  2 21  8 31  0.0000000  0  8G07G05G09G02G30G23G16G06
 110333053.085 8  85973795.00546  20995681.148                    20995685.547
      1242.277         968.289          49.500          41.900
 118237733.364 7  92133363.25845  22499904.773                    22499909.035
      2925.777        2279.985          47.000          34.700
 109305099.934 8  85172869.70547  20800072.883                    20800079.730
     -1812.598       -1412.261          50.900          43.900
 114356783.611 8  89109214.24246  21761380.781                    21761382.406
      -290.570        -226.124          49.000          39.100
 114675107.308 7  89357283.77746  21821947.906                    21821955.672
      2814.961        2193.679          47.500          39.700
 124093023.904 7  96695895.38544  23614122.648                    23614126.602
     -2860.879       -2229.121          42.200          28.600
 127147555.918 7  99076066.22944  24195382.820                    24195387.918
      -394.535        -307.045          43.900          26.200
 115779111.945 7  90217541.58246  22032042.602                    22032050.234
     -2863.184       -2230.820          47.300          38.000
 18  2 21  8 31 30.0000000  0  8G07G05G09G02G30G23G16G06
 110296038.699 8  85944952.64347  20988637.211                    20988641.738
      1225.262         954.989          49.800          42.000
 118150065.562 8  92065050.70745  22483222.094                    22483226.535
      2918.641        2274.375          49.600          34.700
 109359627.722 8  85215358.87947  20810449.102                    20810455.816
     -1822.637       -1420.101          50.600          43.900
 114365777.260 8  89116222.27146  21763092.336                    21763094.688
      -309.145        -240.606          48.900          39.400
 114590844.099 8  89291624.17646  21805913.359                    21805919.395
      2802.480        2183.953          50.000          39.700
 124178901.791 7  96762813.17844  23630465.680                    23630467.285
     -2864.453       -2231.972          44.300          28.000
 127159695.644 7  99085525.72644  24197693.328                    24197698.004
      -414.879        -323.051          44.000          24.100
 115865194.438 7  90284618.80546  22048423.156                    22048431.262
     -2875.824       -2240.669          46.600          38.100
 18  2 21  8 32  0.0000000  0  8G07G05G09G02G30G23G16G06
 110259535.907 8  85916508.91646  20981691.219                    20981695.355
      1208.246         941.694          50.500          41.800
 118062614.315 8  91996906.88945  22466580.805                    22466585.301
      2911.336        2268.722          49.800          35.100
 109414455.515 8  85258081.82047  20820882.789                    20820889.426
     -1832.672       -1427.860          52.700          43.700
 114375327.772 8  89123664.20546  21764909.313                    21764911.270
      -327.641        -255.053          49.000          39.100
 114506955.106 8  89226256.12246  21789949.813                    21789956.281
      2790.023        2174.237          50.700          40.400
 124264887.037 7  96829814.64244  23646827.813                    23646831.047
     -2867.992       -2234.709          44.000          28.800
 127172450.113 7  99095464.27444  24200120.695                    24200124.898
      -435.453        -339.012          45.000          26.400
 115951652.598 7  90351988.76746  22064875.930                    22064883.484
     -2888.195       -2250.350          47.300          37.900
 18  2 21  8 32 30.0000000  0  8G07G05G09G02G30G23G16G06
 110223545.712 8  85888464.61746  20974842.320                    20974846.930
      1191.102         928.349          50.300          41.200
 117975381.691 8  91928933.40745  22449980.867                    22449985.457
      2904.078        2263.021          49.600          34.900
 109469582.109 8  85301037.60247  20831373.031                    20831379.688
     -1842.555       -1435.617          51.100          44.500
 114385435.042 7  89131540.00646  21766833.211                    21766835.203
      -346.164        -269.518          47.900          38.400
 114423442.518 8  89161181.42246  21774057.695                    21774065.094
      2777.441        2164.396          51.400          39.900
 124350978.518 7  96896898.88644  23663209.945                    23663211.855
     -2871.535       -2237.494          43.700          26.500
 127185819.410 7  99105881.88744  24202664.094                    24202669.496
      -455.855        -354.978          44.000          25.700
 116038483.744 7  90419649.35246  22081399.500                    22081406.547
     -2900.645       -2260.025          46.700          37.600
 18  2 21  8 33  0.0000000  0  8G07G05G09G02G30G23G16G06
 110188068.774 8  85860820.25646  20968091.531                    20968095.820
      1174.047         915.025          50.300          41.500
 117888368.774 8  91861131.14045  22433422.539                    22433427.563
      2896.793        2257.288          50.000          34.900
 109525006.340 8  85344225.31047  20841919.578                    20841926.816
     -1852.340       -1443.308          52.000          43.800
 114396098.890 8  89139849.46346  21768862.258                    21768865.227
      -364.629        -283.966          49.800          38.900
 114340308.671 8  89096401.81146  21758237.664                    21758244.957
      2764.883        2154.556          50.900          40.100
 124437175.498 7  96964065.36544  23679612.273                    23679616.680
     -2874.871       -2240.207          43.600          29.000
 127199803.374 7  99116778.45644  24205325.180                    24205330.242
      -476.191        -370.922          43.000          24.200
 116125685.246 7  90487598.53946  22097993.648                    22098001.539
     -2912.852       -2269.605          46.000          37.900
 18  2 21  8 33 30.0000000  0  8G07G05G09G02G30G23G16G06
 110153105.435 8  85833576.10546  20961438.078                    20961442.789
      1156.828         901.679          50.300          41.600
 117801578.194 8  91793502.10545  22416907.234                    22416911.805
      2889.270        2251.488          49.400          35.500
 109580726.828 8  85387643.86147  20852523.398                    20852529.902
     -1862.410       -1451.007          51.900          44.100
 114407318.828 7  89148592.27046  21770998.016                    21770998.590
      -383.211        -298.408          46.600          38.800
 114257555.447 8  89031918.85046  21742490.273                    21742498.598
      2751.961        2144.607          51.100          40.800
 124523477.127 7  97031313.29344  23696036.516                    23696038.121
     -2878.609       -2242.926          44.100          28.300
 127214401.518 6  99128153.62244  24208102.445                    24208108.621
      -496.945        -386.887          41.400          24.700
 116213254.179 7  90555834.01946  22114657.328                    22114664.582
     -2925.094       -2279.120          47.000          38.000
 18  2 21  8 34  0.0000000  0  8G07G05G09G02G30G23G16G06
 110118656.859 8  85806733.07446  20954882.750                    20954887.012
      1139.625         888.316          50.800          41.500
 117715011.782 7  91726047.77345  22400434.078                    22400439.082
      2881.738        2245.685          47.300          35.700
 109636742.399 8  85431292.34647  20863182.531                    20863188.703
     -1872.152       -1458.632          52.400          43.800
 114419094.427 8  89157768.05546  21773238.375                    21773241.020
      -401.801        -312.821          50.700          39.400
 114175185.101 8  88967734.19346  21726815.930                    21726822.820
      2739.172        2134.673          49.700          40.400
 124609882.462 7  97098642.12144  23712478.461                    23712481.180
     -2882.004       -2245.566          43.200          28.400
 127229613.796 7  99140007.29144  24210997.500                    24211003.648
      -517.348        -402.798          42.600          24.000
 116301187.903 7  90624353.77646  22131390.930                    22131398.164
     -2937.191       -2288.538          46.300          38.300
 18  2 21  8 34 30.0000000  0  8G07G05G09G02G30G23G16G06
 110084723.726 8  85780291.67746  20948425.406                    20948429.508
      1122.602         874.897          50.800          41.700
 117628670.928 8  91658769.20245  22384003.539                    22384008.020
      2874.262        2239.762          49.000          35.800
 109693051.778 8  85475169.77647  20873898.234                    20873904.945
     -1881.777       -1466.262          51.600          44.000
 114431425.209 8  89167376.43446  21775584.891                    21775586.535
      -420.250        -327.253          48.800          39.000
 114093199.714 8  88903849.50146  21711214.648                    21711221.250
      2726.469        2124.630          51.300          40.000
 124696390.432 7  97166050.86744  23728940.766                    23728942.926
     -2885.285       -2248.246          43.600          27.900
 127245440.082 6  99152339.43243  24214007.805                    24214014.727
      -537.691        -418.774          39.500          21.700
 116389483.618 7  90693155.59146  22148192.852                    22148200.539
     -2949.082       -2297.907          46.400          38.100
 18  2 21  8 35  0.0000000  0  8G07G05G09G02G30G23G16G06
 110051306.837 8  85754252.55147  20942066.430                    20942070.461
      1105.387         861.465          50.800          42.100
 117542558.232 8  91591668.39645  22367616.891                    22367621.965
      2866.594        2233.809          49.900          35.400
 109749653.771 8  85519275.22247  20884668.992                    20884675.973
     -1891.535       -1473.838          52.700          44.000
 114444310.782 8  89177417.15046  21778036.711                    21778039.293
      -438.773        -341.668          50.000          38.700
 114011601.481 8  88840266.49546  21695686.797                    21695692.879
      2713.484        2114.550          50.400          40.500
 124783000.306 7  97233539.06944  23745421.953                    23745424.234
     -2888.629       -2250.867          45.600          27.500
 127261879.520 5  99165149.29643  24217136.625                    24217142.762
      -558.137        -434.715          35.700          21.300
 116478138.715 7  90762237.43446  22165063.313                    22165071.184
     -2961.156       -2307.231          46.000          37.700
 18  2 21  8 35 30.0000000  0  8G07G05G09G02G30G23G16G06
 110018406.903 8  85728616.25446  20935805.781                    20935810.469
      1088.070         848.055          50.300          41.700
 117456675.555 8  91524746.83645  22351274.188                    22351279.055
      2858.953        2227.828          49.800          35.500
 109806547.228 8  85563607.77347  20895495.492                    20895502.191
     -1901.320       -1481.384          52.300          43.700
 114457750.803 8  89187889.85046  21780594.883                    21780597.066
      -457.301        -356.032          50.000          38.700
 113930392.555 8  88776986.82346  21680233.328                    21680240.371
      2700.395        2104.427          50.700          40.600
 124869711.011 7  97301105.79644  23761921.711                    23761925.195
     -2892.000       -2253.476          45.600          27.900
 127278932.081 6  99178436.99143  24220382.211                    24220388.387
      -578.742        -450.623          40.300          21.300
 116567150.384 7  90831597.12446  22182001.375                    22182009.340
     -2972.953       -2316.421          45.700          37.600
 18  2 21  8 36  0.0000000  0  8G07G05G09G02G30G23G16G06
 109986024.624 8  85703383.31646  20929643.789                    20929647.906
      1070.809         834.588          50.100          41.600
 117371024.231 8  91458005.56545  22334975.453                    22334980.234
      2851.270        2221.782          49.500          35.700
 109863730.872 8  85608166.45147  20906376.922                    20906383.578
     -1910.898       -1488.936          52.300          43.700
 114471744.716 8  89198794.21446  21783257.234                    21783259.520
      -475.637        -370.443          50.600          38.800
 113849575.046 8  88714012.18546  21664854.172                    21664860.938
      2687.477        2094.223          51.100          40.800
 124956521.898 7  97368750.62144  23778441.539                    23778444.105
     -2895.230       -2256.077          44.800          28.400
 127296597.787 6  99192202.42743  24223744.891                    24223750.035
      -598.926        -466.524          38.900          20.600
 116656515.886 7  90901232.53646  22199007.242                    22199015.402
     -2984.668       -2325.621          46.300          36.600
 18  2 21  8 36 30.0000000  0  8G07G05G09G02G30G23G16G06
 109954160.698 8  85678554.28946  20923579.977                    20923584.387
      1053.504         821.121          50.600          41.600
 117285606.637 8  91391446.40646  22318721.000                    22318725.715
      2843.289        2215.686          50.800          36.300
 109921203.436 8  85652950.25447  20917314.102                    20917320.289
     -1920.535       -1496.413          51.800          44.300
 114486292.204 8  89210129.87146  21786026.141                    21786028.559
      -494.117        -384.807          50.200          39.700
 113769150.990 8  88651344.13246  21649549.406                    21649556.746
      2674.227        2083.981          52.000          41.100
 125043431.897 7  97436472.63144  23794980.008                    23794983.957
     -2898.684       -2258.631          43.800          28.100
 127314875.318 6  99206444.60843  24227222.563                    24227226.664
      -619.473        -482.429          40.600          19.000
 116746232.390 7  90971141.46846  22216079.844                    22216087.234
     -2996.320       -2334.677          46.100          36.900
 18  2 21  8 37  0.0000000  0  8G07G05G09G02G30G23G16G06
 109922815.806 8  85654129.70546  20917615.688                    20917619.945
      1036.184         807.639          50.000          41.100
 117200424.622 8  91325070.81246  22302511.648                    22302515.711
      2835.449        2209.541          50.300          36.200
 109978963.708 8  85697958.24747  20928305.063                    20928311.715
     -1930.238       -1503.876          51.600          43.600
 114501392.609 8  89221896.44846  21788898.586                    21788900.844
      -512.566        -399.145          49.000          38.300
 113689122.469 8  88588984.29246  21634320.914                    21634327.941
      2660.984        2073.678          52.000          41.000
 125130439.987 7  97504271.11644  23811536.898                    23811538.867
     -2902.035       -2261.174          42.200          26.000
 127333764.428 6  99221163.41443  24230817.953                    24230820.824
      -639.875        -498.298          41.900          20.600
 116836297.163 7  91041321.76845  22233218.594                    22233225.941
     -3007.930       -2343.695          46.600          35.800
 18  2 21  8 37 30.0000000  0  8G07G05G09G02G30G23G16G06
 109891990.600 7  85630110.10745  20911748.836                    20911753.813
      1018.863         794.152          46.800          32.400
 117115480.174 7  91258880.32445  22286347.594                    22286351.379
      2827.547        2203.391          46.800          30.600
 110037010.394 8  85743189.46145  20939351.031                    20939357.480
     -1939.594       -1511.260          50.100          34.800
 114517045.436 7  89234093.38945  21791878.438                    21791880.750
      -530.969        -413.467          47.800          35.800
 113609491.591 8  88526934.29845  21619168.102                    21619175.492
      2647.684        2063.344          49.600          34.500
 125217545.447 7  97572145.38343  23828113.547                    23828115.176
     -2905.168       -2263.642          43.800          23.200
 127353265.090 6  99236358.65243  24234529.281                    24234533.102
      -660.191        -514.185          41.500          18.600
 116926707.455 7  91111771.27745  22250423.750                    22250430.152
     -3019.453       -2352.605          45.700          30.700
 18  2 21  8 38  0.0000000  0  8G07G05G09G02G30G23G16G06
 109861685.700 8  85606495.88047  20905982.875                    20905987.246
      1001.609         780.641          49.800          42.000
 117030774.847 8  91192876.19346  22270227.883                    22270232.523
      2819.559        2197.147          50.100          36.500
 110095342.551 8  85788643.05247  20950451.594                    20950458.016
     -1949.090       -1518.661          50.800          44.300
 114533249.908 8  89246720.27946  21794961.086                    21794963.203
      -549.262        -427.776          49.100          38.300
 113530260.469 8  88465195.79946  21604090.727                    21604097.668
      2634.367        2052.955          52.800          40.900
 125304747.411 7  97640095.02244  23844707.500                    23844709.730
     -2908.207       -2266.141          43.400          27.500
 127373376.694 7  99252030.06943  24238355.969                    24238359.434
      -680.574        -529.996          42.500          19.000
 117017460.347 7  91182487.85446  22267692.984                    22267700.848
     -3030.676       -2361.445          45.800          37.600
 18  2 21  8 38 30.0000000  0  8G07G05G09G02G30G23G16G06
 109831901.722 8  85583287.59247  20900315.219                    20900319.457
       983.949         767.044          49.700          42.300
 116946311.091 8  91127060.29946  22254155.328                    22254159.660
      2811.309        2190.804          50.500          36.000
 110153958.559 8  85834317.84647  20961605.969                    20961612.102
     -1958.738       -1526.068          50.700          44.300
 114550005.779 8  89259776.79246  21798149.859                    21798151.500
      -567.914        -442.152          49.200          37.900
 113451430.965 8  88403770.25046  21589089.641                    21589097.156
      2620.848        2042.436          52.100          41.400
 125392044.834 6  97708118.93044  23861318.836                    23861322.992
     -2911.711       -2268.690          40.800          27.000
 127394098.616 7  99268177.03443  24242299.047                    24242300.410
      -701.027        -545.909          43.700          20.100
 117108553.044 7  91253469.14046  22285027.414                    22285034.820
     -3042.219       -2370.312          47.000          37.200
 18  2 21  8 39  0.0000000  0  8G07G05G09G02G30G23G16G06
 109802639.049 8  85560485.54146  20894746.445                    20894750.914
       966.859         753.532          49.200          41.900
 116862090.702 8  91061434.02746  22238128.836                    22238133.016
      2803.332        2184.477          49.900          36.400
 110212857.444 8  85880213.07847  20972813.813                    20972820.672
     -1967.918       -1533.372          50.700          43.700
 114567312.159 7  89273262.26146  21801442.922                    21801445.254
      -585.937        -456.419          47.500          38.000
 113373005.291 8  88342659.39246  21574165.719                    21574172.801
      2607.602        2031.961          51.500          40.700
 125479437.100 7  97776216.75544  23877949.477                    23877951.684
     -2914.609       -2271.115          42.200          27.700
 127415430.370 7  99284799.17843  24246359.008                    24246360.586
      -721.137        -561.705          43.700          20.400
 117199982.836 7  91324713.10646  22302425.555                    22302434.430
     -3053.180       -2378.999          45.800          37.300
 18  2 21  8 39 30.0000000  0  8G07G05G09G02G30G23G16G06
 109773898.585 8  85538090.38946  20889277.297                    20889281.730
       949.430         739.982          50.000          41.700
 116778115.936 8  90995999.13246  22222148.523                    22222153.348
      2795.164        2178.094          49.800          36.100
 110272038.028 8  85926327.81347  20984075.703                    20984081.992
     -1977.262       -1540.654          51.800          44.000
 114585168.742 8  89287176.45946  21804841.172                    21804842.512
      -604.254        -470.656          48.800          38.900
 113294985.613 8  88281864.89346  21559319.063                    21559325.746
      2593.961        2021.401          52.500          41.600
 125566923.280 6  97844387.77844  23894597.297                    23894600.387
     -2917.691       -2273.516          41.600          26.600
 127437371.624 7  99301896.30543  24250533.688                    24250535.934
      -741.391        -577.514          44.700          20.100
 117291746.940 7  91396217.58946  22319887.703                    22319895.543
     -3064.262       -2387.619          44.900          36.000
 18  2 21  8 40  0.0000000  0  8G07G05G09G02G30G23G16G06
 109745681.099 8  85516102.74746  20883907.508                    20883912.055
       931.840         726.332          49.500          41.900
 116694388.499 8  90930756.99246  22206215.719                    22206220.613
      2786.793        2171.635          49.700          37.100
 110331499.139 8  85972661.13547  20995390.563                    20995397.023
     -1986.680       -1547.958          50.600          44.100
 114603574.889 8  89301518.88546  21808344.164                    21808346.633
      -622.738        -484.983          49.200          38.300
 113217373.942 8  88221388.32746  21544549.781                    21544556.512
      2580.176        2010.737          51.900          41.100
 125654502.318 7  97912631.11744  23911262.688                    23911267.121
     -2920.953       -2275.955          42.300          25.700
 127459921.638 7  99319467.73843  24254824.734                    24254827.508
      -761.852        -593.361          42.800          21.500
 117383842.639 7  91467980.41746  22337412.680                    22337421.504
     -3075.449       -2396.260          45.500          36.100
 18  2 21  8 40 30.0000000  0  8G07G05G09G02G30G23G16G06
 109717986.380 8  85494522.45146  20878637.719                    20878641.813
       914.348         712.748          49.900          41.900
 116610909.971 8  90865708.78446  22190330.625                    22190335.059
      2778.266        2165.082          49.500          36.100
 110391239.269 8  86019211.87047  21006759.023                    21006765.145
     -1996.090       -1555.202          51.400          43.700
 114622529.636 8  89316288.80246  21811950.898                    21811952.586
      -641.098        -499.237          49.200          38.300
 113140171.871 8  88161230.89146  21529858.859                    21529864.977
      2566.488        2000.061          52.100          41.000
 125742173.385 7  97980946.18744  23927947.055                    23927949.168
     -2924.023       -2278.334          44.300          28.000
 127483079.607 7  99337512.91443  24259231.789                    24259235.262
      -782.215        -609.157          43.900          22.200
 117476266.757 7  91539999.17245  22355001.039                    22355008.723
     -3086.441       -2404.766          46.100          35.900
 18  2 21  8 41  0.0000000  0  8G07G05G09G02G30G23G16G06
 109690815.805 8  85473350.58146  20873467.461                    20873471.664
       896.992         699.157          49.800          41.800
 116527683.600 8  90800857.07146  22174492.914                    22174497.320
      2770.023        2158.575          50.000          36.200
 110451257.824 8  86065979.56647  21018180.156                    21018186.441
     -2005.215       -1562.399          51.600          43.800
 114642032.835 8  89331486.09246  21815662.047                    21815664.473
      -659.156        -513.437          49.000          38.400
 113063382.097 8  88101394.75346  21515246.195                    21515253.070
      2552.816        1989.346          51.800          41.400
 125829936.210 7  98049332.80444  23944646.242                    23944650.105
     -2926.875       -2280.666          42.300          26.000
 127506845.048 7  99356031.41243  24263753.516                    24263758.723
      -802.305        -624.887          43.100          22.600
 117569017.090 7  91612272.09946  22372651.328                    22372658.418
     -3097.074       -2413.147          46.400          36.100
 18  2 21  8 41 30.0000000  0  8G07G05G09G02G30G23G16G06
 109664169.698 8  85452587.38147  20868397.031                    20868401.043
       879.426         685.529          49.800          42.200
 116444709.952 8  90736202.28845  22158703.641                    22158708.359
      2761.535        2151.969          49.700          35.700
 110511553.367 8  86112963.10447  21029653.813                    21029660.535
     -2014.426       -1569.568          51.800          43.700
 114662083.433 8  89347109.91146  21819477.805                    21819480.359
      -677.477        -527.646          48.900          37.900
 112987006.500 8  88041881.33846  21500712.438                    21500720.066
      2538.898        1978.593          52.100          41.400
 125917789.757 6  98117790.04644  23961364.531                    23961368.379
     -2929.898       -2283.018          41.200          26.100
 127531217.659 6  99375023.03443  24268391.117                    24268396.234
      -822.559        -640.674          41.800          22.000
 117662090.574 7  91684796.87746  22390361.578                    22390369.727
     -3107.887       -2421.509          45.800          36.300
 18  2 21  8 42  0.0000000  0  8G07G05G09G02G30G23G16G06
 109638048.218 8  85432232.99847  20863426.148                    20863430.207
       861.941         671.873          50.200          42.500
 116361991.568 8  90671746.40046  22142962.961                    22142967.250
      2752.934        2145.271          48.900          36.100
 110572124.405 8  86160161.31047  21041180.070                    21041186.531
     -2023.645       -1576.750          51.800          43.800
 114682680.602 8  89363159.66246  21823396.969                    21823399.621
      -695.703        -541.863          48.600          38.100
 112911046.627 8  87982691.86147  21486257.828                    21486265.051
      2525.094        1967.738          52.600          42.200
 126005732.864 7  98186317.08544  23978100.141                    23978103.582
     -2932.984       -2285.371          42.000          27.400
 127556196.551 6  99394487.08543  24273143.961                    24273148.988
      -842.754        -656.416          39.800          21.800
 117755484.126 7  91757571.04546  22408134.492                    22408141.707
     -3118.457       -2429.826          46.400          36.700
 18  2 21  8 42 30.0000000  0  8G07G05G09G02G30G23G16G06
 109612451.743 8  85412287.69747  20858555.445                    20858559.449
       844.484         658.261          49.900          42.300
 116279530.844 8  90607491.30845  22127270.875                    22127275.379
      2744.379        2138.610          49.300          35.900
 110632969.710 8  86207573.22247  21052758.531                    21052764.820
     -2032.719       -1583.820          51.900          43.400
 114703823.650 8  89379634.75346  21827420.852                    21827422.691
      -713.844        -556.004          48.500          38.100
 112835504.415 8  87923827.82647  21471882.453                    21471889.941
      2511.059        1956.870          52.300          42.400
 126093764.400 7  98254913.03544  23994851.641                    23994856.082
     -2935.840       -2287.629          43.400          25.300
 127581780.260 6  99414422.38743  24278012.234                    24278017.398
      -862.789        -672.117          39.700          21.100
 117849194.765 7  91830592.28245  22425966.523                    22425974.410
     -3128.906       -2437.990          45.100          35.400
 18  2 21  8 43  0.0000000  0  8G07G05G09G02G30G23G16G06
 109587381.278 8  85392752.28147  20853784.469                    20853788.316
       826.855         644.557          51.500          42.600
 116197329.121 8  90543438.02846  22111628.422                    22111633.051
      2735.762        2131.826          48.200          36.600
 110694088.505 8  86255198.24147  21064389.148                    21064395.848
     -2041.895       -1590.946          52.700          43.800
 114725511.960 8  89396534.73346  21831547.867                    21831550.281
      -732.055        -570.185          48.400          38.200
 112760382.321 8  87865291.15547  21457587.078                    21457594.762
      2497.035        1945.913          52.600          42.000
 126181884.213 7  98323577.81244  24011620.000                    24011623.539
     -2938.805       -2289.930          43.000          25.300
 127607969.161 6  99434829.26843  24282995.711                    24283000.957
      -883.027        -687.816          39.200          20.600
 117943220.194 7  91903858.84646  22443859.109                    22443867.531
     -3139.430       -2446.151          44.400          36.200
 18  2 21  8 43 30.0000000  0  8G07G05G09G02G30G23G16G06
 109562837.059 8  85373626.92647  20849113.828                    20849118.227
       809.422         630.894          50.800          43.000
 116115388.895 8  90479588.49746  22096035.688                    22096040.559
      2726.961        2124.993          48.300          36.500
 110755479.263 8  86303035.19347  21076071.188                    21076078.160
     -2050.812       -1597.978          51.600          43.800
 114747744.732 8  89413858.94446  21835778.727                    21835780.598
      -750.051        -584.303          48.900          37.700
 112685681.985 8  87807083.12547  21443372.047                    21443379.199
      2482.984        1934.940          52.700          42.100
 126270091.129 7  98392310.40244  24028406.070                    24028408.832
     -2941.609       -2292.178          42.600          26.700
 127634761.371 6  99455706.28543  24288095.109                    24288100.059
      -903.012        -703.492          39.000          20.600
 118037557.200 7  91977368.12945  22461811.008                    22461818.891
     -3149.672       -2454.204          45.000          35.400
 18  2 21  8 44  0.0000000  0  8G07G05G09G02G30G23G16G06
 109538819.147 8  85354911.68347  20844543.023                    20844547.938
       791.859         617.196          50.900          42.600
 116033711.595 7  90415943.84746  22080492.898                    22080497.473
      2718.301        2118.154          47.700          36.700
 110817140.804 8  86351083.11947  21087805.109                    21087811.512
     -2059.777       -1604.993          51.600          43.400
 114770520.731 7  89431606.46646  21840112.688                    21840115.023
      -768.195        -598.415          47.900          37.300
 112611405.238 8  87749205.14346  21429237.867                    21429244.582
      2468.855        1923.931          52.200          41.400
 126358384.091 7  98461110.07344  24045207.039                    24045210.676
     -2944.402       -2294.401          42.700          24.100
 127662156.721 6  99477053.30643  24293307.992                    24293312.711
      -923.020        -719.147          38.400          20.400
 118132202.849 7  92051117.91645  22479821.266                    22479830.230
     -3159.832       -2462.183          45.700          35.900
 18  2 21  8 44 30.0000000  0  8G07G05G09G02G30G23G16G06
 109515327.978 8  85336606.88547  20840072.844                    20840077.484
       774.238         603.537          50.800          42.600
 115952299.410 8  90352505.78946  22065001.102                    22065005.797
      2709.270        2111.251          49.300          37.000
 110879071.921 8  86399341.13647  21099590.273                    21099597.223
     -2068.848       -1611.968          52.100          43.600
 114793839.440 8  89449776.86646  21844550.258                    21844551.797
      -786.309        -612.494          49.000          37.400
 112537554.117 8  87691658.81647  21415184.352                    21415191.238
      2454.625        1912.851          52.500          42.300
 126446762.461 7  98529976.26244  24062025.453                    24062029.301
     -2947.402       -2296.614          42.700          25.900
 127690154.113 6  99498869.40343  24298636.750                    24298640.855
      -943.133        -734.719          39.800          22.000
 118227154.330 7  92125106.08346  22497890.156                    22497899.184
     -3169.906       -2470.074          44.700          36.400
 18  2 21  8 45  0.0000000  0  8G07G05G09G02G30G23G16G06
 109492364.130 8  85318712.98247  20835703.031                    20835707.590
       756.652         589.853          50.700          42.600
 115871154.404 8  90289275.90446  22049559.742                    22049564.012
      2700.355        2104.314          49.700          37.100
 110941271.399 8  86447808.24847  21111426.547                    21111433.219
     -2077.734       -1618.909          52.400          43.200
 114817700.028 8  89468369.52946  21849090.578                    21849091.984
      -804.336        -626.530          48.900          37.500
 112464130.460 8  87634445.58547  21401212.641                    21401219.441
      2440.336        1901.751          53.000          42.100
 126535225.295 7  98598908.28644  24078859.086                    24078862.625
     -2950.176       -2298.777          42.900          24.900
 127718752.946 6  99521154.17243  24304078.484                    24304083.445
      -963.316        -750.351          40.100          21.300
 118322408.743 7  92199330.25145  22516016.828                    22516024.258
     -3180.215       -2477.896          45.600          35.300
 18  2 21  8 45 30.0000000  0  8G07G05G09G02G30G23G16G06
 109469928.003 8  85301230.29047  20831433.828                    20831438.121
       738.984         576.136          51.200          42.500
 115790278.486 8  90226255.72146  22034169.242                    22034173.898
      2691.309        2097.277          48.100          36.700
 111003738.088 8  86496483.58047  21123313.664                    21123319.809
     -2086.695       -1625.861          52.100          43.400
 114842101.366 7  89487383.55646  21853733.594                    21853735.441
      -822.363        -640.581          47.800          37.200
 112391136.192 8  87577566.95147  21387322.133                    21387329.129
      2425.875        1890.538          52.700          42.300
 126623771.997 7  98667905.69344  24095709.133                    24095712.297
     -2953.047       -2300.967          43.100          26.500
 127747952.052 6  99543906.73343  24309634.641                    24309638.348
      -983.395        -765.936          40.900          21.100
 118417963.249 7  92273788.22746  22534200.422                    22534210.160
     -3190.180       -2485.678          46.700          36.900
 18  2 21  8 46  0.0000000  0  8G07G05G09G02G30G23G16G06
 109448019.417 8  85284158.67547  20827264.438                    20827269.012
       721.434         562.402          51.300          42.400
 115709673.749 8  90163446.84546  22018830.664                    22018835.613
      2682.223        2090.206          48.500          37.500
 111066470.780 8  86545366.18447  21135251.047                    21135257.734
     -2095.574       -1632.755          51.500          42.600
 114867042.629 7  89506818.30746  21858480.234                    21858481.387
      -840.477        -654.602          47.000          36.600
 112318573.165 8  87521024.34347  21373513.734                    21373520.746
      2411.574        1879.330          52.300          42.400
 126712401.689 7  98736967.70744  24112574.711                    24112579.086
     -2955.676       -2303.090          42.000          25.500
 127777750.536 6  99567126.32843  24315305.258                    24315309.313
     -1003.305        -781.515          40.900          22.000
 118513814.957 7  92348477.85445  22552440.445                    22552447.664
     -3200.023       -2493.373          45.200          35.700
 18  2 21  8 46 30.0000000  0  8G07G05G09G02G30G23G16G06
 109426639.012 8  85267498.61747  20823196.398                    20823200.688
       703.844         548.710          51.300          42.900
 115629341.868 8  90100850.58046  22003544.047                    22003548.367
      2673.223        2083.157          50.200          37.300
 111129468.183 8  86594455.05947  21147239.047                    21147245.941
     -2104.324       -1639.608          52.300          43.600
 114892522.935 8  89526673.05846  21863329.234                    21863331.047
      -858.297        -668.556          48.500          36.900
 112246443.237 8  87464819.20647  21359787.828                    21359794.793
      2397.133        1868.075          53.400          42.200
 126801113.722 7  98806093.90244  24129456.422                    24129459.574
     -2958.387       -2305.194          43.500          25.100
 127808147.630 6  99590812.36643  24321089.914                    24321094.133
     -1023.145        -797.018          40.900          21.800
 118609960.824 6  92423396.65345  22570735.508                    22570744.016
     -3209.730       -2500.954          41.700          33.500
 18  2 21  8 47  0.0000000  0  8G07G05G09G02G30G23G16G06
 109405787.115 8  85251250.38447  20819228.188                    20819232.727
       686.242         534.952          51.900          42.400
 115549284.514 8  90038468.22446  21988309.992                    21988314.734
      2664.004        2075.907          51.300          37.600
 111192729.199 8  86643749.35047  21159277.102                    21159283.824
     -2113.074       -1646.460          52.500          43.500
 114918541.138 8  89546946.96546  21868280.148                    21868281.918
      -876.141        -682.554          48.200          36.900
 112174748.289 8  87408953.01247  21346144.750                    21346152.023
      2382.516        1856.708          52.300          42.600
 126889906.387 7  98875282.98344  24146352.859                    24146355.770
     -2961.086       -2307.319          43.400          25.800
 127839142.293 6  99614964.10243  24326987.914                    24326990.438
     -1043.055        -812.559          40.900          21.300
 118706398.106 7  92498542.59545  22589086.484                    22589096.680
     -3219.309       -2508.511          44.800          35.000
 18  2 21  8 47 30.0000000  0  8G07G05G09G02G30G23G16G06
 109385464.070 8  85235414.21647  20815360.805                    20815364.844
       668.609         521.214          51.600          42.300
 115469505.342 8  89976302.64246  21973128.313                    21973132.664
      2654.656        2068.672          50.700          37.600
 111256252.692 8  86693248.15347  21171365.555                    21171372.168
     -2121.816       -1653.261          52.100          42.600
 114945096.467 8  89567639.44846  21873332.680                    21873334.992
      -894.168        -696.508          48.000          36.600
 112103490.209 8  87353427.24746  21332584.688                    21332591.730
      2367.930        1845.354          53.300          41.600
 126978779.724 6  98944534.88244  24163265.023                    24163268.363
     -2963.891       -2309.400          41.700          25.200
 127870734.149 6  99639581.13943  24332998.523                    24333002.734
     -1063.059        -828.050          37.400          19.300
 118803124.013 7  92573913.39745  22607493.500                    22607501.676
     -3229.012       -2515.983          44.600          34.400
 18  2 21  8 48  0.0000000  0  8G07G05G09G02G30G23G16G06
 109365670.611 8  85219990.75547  20811594.313                    20811599.098
       651.043         507.464          51.800          42.400
 115390005.785 8  89914354.92846  21958000.531                    21958004.152
      2645.465        2061.390          50.700          37.500
 111320037.846 8  86742950.86847  21183503.344                    21183510.332
     -2130.406       -1660.045          51.200          42.900
 114972188.297 7  89588749.93646  21878488.750                    21878490.609
      -911.902        -710.415          47.000          37.200
 112032671.242 8  87298243.63947  21319108.711                    21319115.922
      2353.387        1833.914          52.300          42.200
 127067733.300 7  99013849.28544  24180192.930                    24180195.996
     -2966.324       -2311.495          43.400          24.500
 127902921.526 5  99664662.17542  24339122.867                    24339127.520
     -1082.746        -843.531          35.400          16.900
 118900135.950 7  92649507.01045  22625955.102                    22625963.504
     -3238.324       -2523.372          46.700          35.200
 18  2 21  8 48 30.0000000  0  8G07G05G09G02G30G23G16G06
 109346406.372 8  85204979.66447  20807927.867                    20807932.773
       633.324         493.711          51.700          42.800
 115310786.750 8  89852625.81346  21942925.063                    21942929.492
      2635.938        2054.081          51.200          37.800
 111384083.023 8  86792856.18047  21195690.641                    21195697.348
     -2139.105       -1666.778          52.400          42.800
 114999815.264 7  89610277.40446  21883746.953                    21883748.324
      -929.766        -724.314          46.700          36.500
 111962292.684 8  87243403.22047  21305715.906                    21305722.953
      2338.633        1822.457          52.900          42.700
 127156765.511 7  99083224.98044  24197134.766                    24197138.262
     -2968.973       -2313.534          43.700          24.700
 127935703.203 6  99690206.32443  24345361.391                    24345365.426
     -1102.516        -858.944          37.000          19.000
 118997430.521 7  92725320.94646  22644469.563                    22644478.648
     -3247.836       -2530.655          45.900          36.400
 18  2 21  8 49  0.0000000  0  8G07G05G09G02G30G23G16G06
 109327671.431 8  85190381.00047  20804363.094                    20804367.555
       615.695         479.984          51.900          42.200
 115231851.274 8  89791117.64946  21927904.492                    21927908.883
      2626.520        2046.708          51.600          38.100
 111448386.998 8  86842963.16547  21207927.289                    21207933.969
     -2147.770       -1673.465          51.900          43.200
 115027976.264 7  89632221.04846  21889104.766                    21889106.965
      -947.652        -738.160          46.700          37.200
 111892356.364 8  87188907.40046  21292407.391                    21292413.992
      2323.809        1810.964          52.800          41.900
 127245875.982 7  99152661.66443  24214091.414                    24214094.676
     -2971.715       -2315.532          42.300          23.300
 127969078.330 6  99716212.87243  24351712.602                    24351716.832
     -1122.164        -874.300          38.500          19.000
 119095004.748 7  92801352.78245  22663037.242                    22663043.918
     -3257.094       -2537.880          44.900          34.000
 18  2 21  8 49 30.0000000  0  8G07G05G09G02G30G23G16G06
 109309466.396 8  85176195.26747  20800898.758                    20800903.590
       598.086         466.215          51.700          42.300
 115153200.475 8  89729831.31646  21912937.469                    21912942.121
      2616.969        2039.271          50.500          37.600
 111512948.812 8  86893271.06747  21220213.023                    21220219.480
     -2156.309       -1680.148          52.400          43.200
 115056670.382 8  89654580.08046  21894564.828                    21894567.391
      -965.316        -751.967          48.100          36.600
 111822864.218 8  87134757.67347  21279183.484                    21279189.875
      2309.000        1799.407          53.400          42.200
 127335064.009 7  99222158.77244  24231064.398                    24231066.324
     -2973.969       -2317.504          44.000          24.200
 128003046.024 6  99742681.17143  24358177.984                    24358181.160
     -1142.066        -889.721          38.700          19.900
 119192855.901 7  92877600.40445  22681657.133                    22681667.641
     -3266.430       -2545.049          42.700          34.600
 18  2 21  8 50  0.0000000  0  8G07G05G09G02G30G23G16G06
 109291791.415 8  85162422.56447  20797535.484                    20797539.762
       580.293         452.441          51.600          43.100
 115074837.779 8  89668769.48646  21898025.922                    21898029.883
      2607.270        2031.779          50.000          38.000
 111577767.385 8  86943779.03847  21232547.180                    21232554.348
     -2164.863       -1686.800          52.000          43.100
 115085896.469 7  89677353.63246  21900126.883                    21900128.914
      -983.004        -765.773          47.700          36.900
 111753818.180 8  87080955.56747  21266044.336                    21266050.969
      2294.094        1787.809          52.900          43.000
 127424328.105 7  99291715.13444  24248051.188                    24248054.891
     -2976.707       -2319.507          44.400          25.100
 128037605.563 6  99769610.65643  24364753.875                    24364757.918
     -1161.816        -905.043          41.700          21.800
 119290981.272 7  92954061.74946  22700329.898                    22700338.195
     -3275.437       -2552.099          46.200          36.000
 18  2 21  8 50 30.0000000  0  8G07G05G09G02G30G23G16G06
 109274646.007 8  85149062.52747  20794272.453                    20794277.063
       562.695         438.687          51.500          42.200
 114996763.973 8  89607932.74346  21883168.836                    21883173.195
      2597.652        2024.253          51.100          37.900
 111642840.918 8  86994485.66747  21244930.383                    21244937.797
     -2173.355       -1693.417          52.800          43.000
 115115652.875 7  89700540.44146  21905788.633                    21905791.254
     -1000.664        -779.550          46.700          36.800
 111685219.350 8  87027501.93347  21252990.609                    21252997.258
      2279.121        1776.156          52.900          42.100
 127513667.737 7  99361330.41744  24265050.930                    24265054.832
     -2979.180       -2321.438          43.100          24.700
 128072754.526 6  99796999.47443  24371442.492                    24371446.664
     -1181.375        -920.344          41.800          22.500
 119389377.341 7  93030733.87645  22719054.438                    22719062.492
     -3284.223       -2559.112          47.200          33.400
 18  2 21  8 51  0.0000000  0  8G07G05G09G02G30G23G16G06
 109258031.397 8  85136116.08547  20791110.977                    20791115.473
       545.070         424.902          51.800          42.700
 114918981.749 8  89547323.23146  21868367.602                    21868371.449
      2587.938        2016.652          50.000          38.200
 111708169.128 8  87045390.75847  21257362.148                    21257369.035
     -2181.746       -1700.004          52.500          43.000
 115145939.548 8  89724140.43146  21911552.406                    21911555.281
     -1018.270        -793.295          48.000          37.000
 111617070.387 8  86974398.84647  21240022.180                    21240028.938
      2264.191        1764.458          52.500          42.300
 127603082.935 7  99431004.54744  24282066.719                    24282069.395
     -2981.617       -2323.406          43.400          24.000
 128108493.001 7  99824847.58943  24378243.984                    24378247.945
     -1200.961        -935.638          42.700          22.900
 119488041.983 7  93107615.41945  22737830.039                    22737839.254
     -3293.211       -2566.052          44.500          34.600
 18  2 21  8 51 30.0000000  0  8G07G05G09G02G30G23G16G06
 109241946.910 8  85123582.71847  20788050.094                    20788054.863
       527.332         411.132          51.500          42.500
 114841492.630 8  89486942.10246  21853621.789                    21853625.852
      2578.129        2009.001          50.800          38.100
 111773750.189 8  87096492.86647  21269841.898                    21269848.922
     -2190.328       -1706.578          52.300          42.500
 115176754.429 7  89748152.00746  21917416.727                    21917419.184
     -1035.930        -807.013          46.100          37.000
 111549372.345 8  86921647.15247  21227139.625                    21227146.512
      2249.105        1752.721          52.200          42.600
 127692572.030 7  99500736.24644  24299096.414                    24299099.164
     -2984.250       -2325.317          43.600          26.100
 128144819.589 6  99853153.99343  24385156.367                    24385161.707
     -1220.637        -950.905          40.800          22.200
 119586971.547 7  93184703.36745  22756655.742                    22756661.871
     -3301.918       -2572.909          42.900          32.800
 18  2 21  8 52  0.0000000  0  8G07G05G09G02G30G23G16G06
 109226392.963 8  85111462.76547  20785090.641                    20785094.953
       509.598         397.330          51.100          42.200
 114764298.739 8  89426791.01446  21838931.914                    21838936.645
      2568.043        2001.293          50.900          38.200
 111839583.217 8  87147791.32247  21282369.336                    21282376.449
     -2198.734       -1713.128          52.500          42.700
 115208096.848 7  89772574.67246  21923380.375                    21923382.891
     -1053.559        -820.711          46.000          36.700
 111482127.257 8  86869248.38247  21214343.617                    21214350.270
      2233.914        1740.902          53.700          42.800
 127782134.615 7  99570525.18743  24316138.344                    24316142.742
     -2986.609       -2327.201          43.600          23.900
 128181733.000 6  99881917.64443  24392179.664                    24392185.941
     -1240.203        -966.104          38.700          21.800
 119686163.506 7  93261995.76845  22775530.914                    22775540.430
     -3310.809       -2579.698          44.500          34.400
 18  2 21  8 52 30.0000000  0  8G07G05G09G02G30G23G16G06
 109211369.473 8  85099756.15247  20782231.422                    20782236.066
       491.863         383.537          51.700          42.600
 114687402.125 8  89366871.57846  21824299.203                    21824303.152
      2558.184        1993.556          51.000          37.800
 111905666.979 8  87199285.14647  21294944.578                    21294951.285
     -2207.082       -1719.615          51.400          42.800
 115239965.416 7  89797407.31146  21929444.688                    21929447.336
     -1071.180        -834.378          46.400          36.700
 111415336.772 8  86817203.85347  21201633.820                    21201639.996
      2218.695        1729.090          52.800          42.700
 127871769.778 7  99640370.76443  24333195.570                    24333199.035
     -2989.051       -2329.111          43.600          22.900
 128219231.309 6  99911137.08943  24399316.906                    24399321.328
     -1259.832        -981.344          39.000          20.900
 119785614.798 7  93339490.28645  22794455.547                    22794464.742
     -3319.430       -2586.390          44.500          34.400
 18  2 21  8 53  0.0000000  0  8G07G05G09G02G30G23G16G06
 109196876.821 8  85088463.16747  20779473.867                    20779477.910
       474.215         369.767          51.000          42.600
 114610805.486 8  89307185.88146  21809723.461                    21809727.578
      2548.219        1985.740          49.700          38.300
 111972000.519 8  87250973.59247  21307567.773                    21307574.352
     -2215.258       -1726.082          51.900          42.200
 115272359.167 7  89822649.18846  21935609.305                    21935612.047
     -1088.512        -847.984          46.900          37.300
 111349002.784 8  86765515.03147  21189010.656                    21189017.441
      2203.492        1717.214          53.400          42.600
 127961476.951 7  99710272.36143  24350266.398                    24350269.586
     -2991.430       -2330.945          43.200          22.600
 128257313.955 6  99940811.86843  24406562.492                    24406567.957
     -1279.270        -996.493          38.300          20.900
 119885322.682 7  93417184.68045  22813429.367                    22813437.805
     -3327.828       -2593.006          46.300          33.800
 18  2 21  8 53 30.0000000  0  8G07G05G09G02G30G23G16G06
 109182914.950 8  85077583.78746  20776816.914                    20776821.039
       456.551         355.969          50.000          41.900
 114534510.677 8  89247735.37846  21795204.828                    21795209.297
      2538.074        1977.863          49.200          38.600
 112038582.597 8  87302855.71147  21320237.922                    21320244.520
     -2223.547       -1732.518          52.900          42.000
 115305276.634 7  89848299.14746  21941873.492                    21941875.711
     -1105.957        -861.572          46.900          37.100
 111283126.838 8  86714183.12547  21176475.063                    21176481.641
      2188.301        1705.300          52.400          42.500
 128051255.316 7  99780229.47043  24367350.734                    24367354.543
     -2993.809       -2332.792          42.700          23.800
 128295979.467 5  99970940.82843  24413919.914                    24413925.695
     -1298.586       -1011.618          35.600          18.600
 119985284.185 7  93495076.72145  22832451.516                    22832460.355
     -3336.270       -2599.577          46.400          34.100
 18  2 21  8 54  0.0000000  0  8G07G05G09G02G30G23G16G06
 109169484.131 8  85067118.22647  20774260.984                    20774265.598
       438.824         342.177          51.600          42.100
 114458519.240 8  89188521.27446  21780744.344                    21780748.313
      2528.004        1969.985          50.400          38.100
 112105412.144 8  87354930.67047  21332955.469                    21332961.730
     -2231.770       -1738.927          51.700          42.200
 115338716.862 7  89874356.48346  21948236.695                    21948240.039
     -1123.379        -875.114          45.200          37.400
 111217710.776 8  86663209.57447  21164026.688                    21164033.648
      2172.809        1693.347          52.900          42.900
 128141104.254 7  99850241.54943  24384449.328                    24384452.117
     -2996.156       -2334.586          44.900          23.000
 128335227.144 5 100001523.39343  24421388.203                    24421393.074
     -1318.059       -1026.712          34.400          19.000
 120085496.431 7  93573164.13945  22851521.336                    22851529.168
     -3344.531       -2606.021          45.600          33.700
 18  2 21  8 54 30.0000000  0  8G07G05G09G02G30G23G16G06
 109156583.928 8  85057066.12247  20771806.164                    20771810.602
       421.188         328.436          51.200          42.300
 114382832.984 8  89129544.97546  21766341.633                    21766346.129
      2517.820        1962.039          49.300          39.100
 112172487.678 8  87407197.31247  21345719.492                    21345725.977
     -2239.914       -1745.291          51.200          42.300
 115372678.481 7  89900820.06746  21954699.313                    21954702.301
     -1140.680        -888.628          46.000          36.600
 111152755.891 8  86612595.38347  21151666.031                    21151673.273
      2157.488        1681.349          52.300          42.900
 128231022.684 7  99920307.80043  24401560.047                    24401562.813
     -2998.441       -2336.389          43.500          22.200
 128375055.209 6 100032558.17443  24428969.164                    24428973.098
     -1337.293       -1041.720          37.500          18.300
 120185956.115 7  93651444.35645  22870638.320                    22870646.898
     -3352.687       -2612.399          47.000          33.500
 18  2 21  8 55  0.0000000  0  8G07G05G09G02G30G23G16G06
 109144214.221 8  85047427.39447  20769452.273                    20769456.582
       403.395         314.624          52.100          42.800
 114307454.178 8  89070808.24446  21751997.430                    21752002.000
      2507.352        1953.996          50.700          39.200
 112239808.127 8  87459654.79047  21358529.797                    21358536.230
     -2248.090       -1751.652          51.200          42.400
 115407159.845 7  89927688.65746  21961261.477                    21961263.449
     -1158.094        -902.143          45.200          37.100
 111088263.866 8  86562341.87847  21139393.555                    21139400.957
      2141.887        1669.275          53.300          43.100
 128321009.783 7  99990427.57643  24418683.594                    24418686.625
     -3000.770       -2338.186          42.700          22.500
 128415461.763 6 100064043.80043  24436658.602                    24436661.523
     -1356.613       -1056.786          40.000          21.500
 120286660.387 7  93729915.17645  22889802.586                    22889809.703
     -3360.902       -2618.747          44.100          32.400
 18  2 21  8 55 30.0000000  0  8G07G05G09G02G30G23G16G06
 109132375.369 8  85038202.30947  20767199.172                    20767203.539
       385.766         300.872          51.300          42.100
 114232385.234 8  89012312.95346  21737712.398                    21737716.688
      2497.059        1945.948          50.600          39.100
 112307372.561 8  87512302.38447  21371387.305                    21371393.813
     -2256.262       -1757.976          53.000          42.200
 115442160.119 7  89954961.57446  21967921.398                    21967925.117
     -1175.316        -915.569          46.600          37.800
 111024236.520 8  86512450.44047  21127209.281                    21127216.508
      2126.414        1657.230          53.500          43.500
 128411065.183 7 100060600.54343  24435820.828                    24435824.113
     -3003.016       -2339.950          42.900          23.900
 128456446.005 6 100095979.60143  24444456.813                    24444460.668
     -1375.664       -1071.719          40.300          20.400
 120387606.394 7  93808574.40745  22909010.883                    22909018.766
     -3368.785       -2624.973          43.500          32.500
 18  2 21  8 56  0.0000000  0  8G07G05G09G02G30G23G16G06
 109121067.052 8  85029390.64147  20765047.602                    20765052.168
       368.152         287.045          51.000          42.300
 114157628.242 8  88954060.75446  21723486.898                    21723491.113
      2486.785        1937.798          51.000          39.200
 112375179.624 8  87565139.03646  21384290.773                    21384296.922
     -2264.227       -1764.270          51.400          41.600
 115477677.535 7  89982637.47046  21974679.789                    21974682.918
     -1192.465        -929.029          46.800          37.000
 110960675.344 8  86462922.25847  21115114.297                    21115120.859
      2110.953        1645.057          52.300          43.400
 128501187.599 7 100130825.70043  24452970.742                    24452974.785
     -3005.160       -2341.676          42.900          22.800
 128498006.089 6 100128364.05243  24452365.555                    24452370.461
     -1394.836       -1086.687          40.300          22.800
 120488791.229 7  93887419.70745  22928266.570                    22928275.254
     -3376.687       -2631.165          47.700          34.200
 18  2 21  8 56 30.0000000  0  9G07G05G09G02G30G23G16G13G06
 109110289.870 8  85020992.83847  20762996.992                    20763001.266
       350.355         273.251          52.100          42.600
 114083185.304 8  88896053.27746  21709320.570                    21709324.668
      2476.121        1929.591          51.100          39.200
 112443228.464 8  87618164.09047  21397239.781                    21397246.477
     -2272.336       -1770.532          51.500          42.200
 115513711.040 7  90010715.52646  21981536.789                    21981539.418
     -1209.781        -942.424          47.300          36.800
 110897582.176 8  86413758.74547  21103107.938                    21103114.477
      2095.270        1632.885          51.900          43.000
 128591376.898 6 100201103.01443  24470132.664                    24470136.664
     -3007.437       -2343.434          41.400          22.600
 128540141.321 6 100161196.66643  24460383.484                    24460389.172
     -1414.086       -1101.639          39.500          22.300
 129698382.658 6 101063761.07543  24680797.102                    24680803.801
      3318.688        2586.016          39.100          20.100
 120590212.114 7  93966448.90445  22947565.773                    22947573.813
     -3384.645       -2637.262          45.100          32.900
 18  2 21  8 57  0.0000000  0  9G07G05G09G02G30G23G16G13G06
 109100043.471 8  85013008.62947  20761046.945                    20761051.484
       332.676         259.479          51.600          42.200
 114009058.410 8  88838292.05646  21695214.719                    21695219.055
      2465.586        1921.393          51.000          38.800
 112511518.066 8  87671376.74846  21410235.195                    21410241.184
     -2280.410       -1776.770          52.100          41.800
 115550259.459 7  90039194.78446  21988492.273                    21988494.676
     -1226.930        -955.774          46.200          36.800
 110834958.696 8  86364961.23247  21091191.172                    21091197.488
      2079.594        1620.680          51.300          42.600
 128681632.369 7 100271431.92743  24487308.414                    24487310.668
     -3009.684       -2345.115          42.500          23.600
 128582850.242 6 100194476.31943  24468510.773                    24468516.313
     -1433.160       -1116.494          38.600          23.200
 129598864.841 7 100986214.71643  24661860.406                    24661865.078
      3315.766        2583.785          42.600          19.900
 120691866.082 7  94045659.76445  22966909.695                    22966920.281
     -3392.363       -2643.262          45.700          33.000
 18  2 21  8 57 30.0000000  0  9G07G05G09G02G30G23G16G13G06
 109090327.281 8  85005437.56847  20759197.758                    20759201.977
       315.004         245.723          51.500          42.300
 113935249.269 8  88780778.44846  21681169.445                    21681173.754
      2454.934        1913.106          51.000          39.400
 112580046.869 8  87724775.79547  21423275.539                    21423281.949
     -2288.367       -1782.958          52.100          42.200
 115587320.748 7  90068073.68246  21995545.031                    21995547.152
     -1243.941        -969.070          45.800          36.700
 110772806.088 8  86316530.62847  21079364.094                    21079370.813
      2063.762        1608.420          51.900          43.500
 128771952.718 6 100341811.37044  24504495.086                    24504499.227
     -3011.812       -2346.813          41.400          24.700
 128626130.881 5 100228201.40543  24476745.938                    24476752.469
     -1452.375       -1131.351          35.500          19.600
 129499434.064 7 100908736.24843  24642939.297                    24642944.469
      3312.836        2581.510          42.100          20.600
 120793749.943 7  94125049.70645  22986297.859                    22986305.613
     -3400.047       -2649.208          46.800          32.500
 18  2 21  8 58  0.0000000  0  9G07G05G09G02G30G23G16G13G06
 109081141.309 8  84998279.67147  20757449.656                    20757454.070
       297.328         231.916          52.300          42.600
 113861759.539 8  88723513.71546  21667184.516                    21667189.449
      2444.266        1904.788          52.000          39.400
 112648813.776 8  87778360.38846  21436361.328                    21436367.734
     -2296.102       -1789.150          52.200          41.400
 115624893.956 7  90097351.49946  22002694.023                    22002697.410
     -1260.969        -982.365          47.600          36.900
 110711125.919 8  86268468.16447  21067626.453                    21067633.613
      2048.180        1596.125          53.200          43.000
 128862337.528 6 100412241.02644  24521695.453                    24521697.906
     -3013.871       -2348.458          41.700          24.200
 128669981.586 6 100262370.70943  24485089.727                    24485095.926
     -1471.164       -1146.133          36.700          19.000
 129400091.076 6 100831326.12743  24624034.945                    24624039.852
      3310.074        2579.250          40.500          22.200
 120895860.657 7  94204616.44845  23005729.070                    23005737.750
     -3407.434       -2655.063          45.500          32.900
 18  2 21  8 58 30.0000000  0  9G07G05G09G02G30G23G16G13G06
 109072485.840 8  84991535.15247  20755802.938                    20755807.332
       279.625         218.126          52.100          42.300
 113788591.332 8  88666499.54146  21653261.141                    21653265.527
      2433.480        1896.395          51.600          38.900
 112717817.843 8  87832129.77947  21449492.555                    21449498.977
     -2304.051       -1795.304          53.300          42.000
 115662977.812 7  90127027.22046  22009942.039                    22009944.066
     -1278.000        -995.613          47.900          36.600
 110649919.914 8  86220775.17347  21055979.500                    21055986.758
      2032.309        1583.774          52.800          43.600
 128952786.007 7 100482720.26044  24538908.320                    24538909.926
     -3016.059       -2350.114          42.700          24.500
 128714401.518 6 100296983.68643  24493543.859                    24493548.148
     -1490.086       -1160.953          38.800          20.100
 129300836.822 6 100753985.20543  24605147.070                    24605152.215
      3306.922        2576.885          41.100          21.800
 120998195.460 7  94284357.81445  23025202.773                    23025210.383
     -3414.937       -2660.864          43.100          30.100
 18  2 21  8 59  0.0000000  0  9G07G05G09G02G30G23G16G13G06
 109064360.441 8  84985203.67147  20754256.531                    20754260.977
       262.055         204.411          52.200          42.400
 113715747.241 8  88609737.90146  21639399.320                    21639403.352
      2422.758        1887.981          51.600          39.700
 112787057.783 8  87886082.97347  21462668.195                    21462674.773
     -2311.895       -1801.382          52.300          42.200
 115701570.473 8  90157099.41546  22017285.789                    22017287.816
     -1294.844       -1008.772          48.300          36.600
 110589189.440 8  86173452.73047  21044422.891                    21044429.922
      2016.445        1571.445          52.300          43.400
 129043297.345 6 100553248.55443  24556130.523                    24556133.215
     -3018.109       -2351.724          41.600          21.100
 128759388.873 6 100332038.71643  24502106.375                    24502109.117
     -1509.051       -1175.599          40.600          20.600
 129201671.949 6 100676713.90943  24586277.539                    24586282.270
      3304.020        2574.585          39.400          22.000
 121100751.241 7  94364271.40945  23044717.820                    23044727.145
     -3422.191       -2666.520          44.600          32.200
 18  2 21  8 59 30.0000000  0  9G07G05G09G02G30G23G16G13G06
 109056764.836 8  84979285.01047  20752811.484                    20752815.813
       244.336         190.631          51.700          42.700
 113643229.800 8  88553230.81246  21625599.797                    21625604.297
      2411.707        1879.448          51.300          39.000
 112856532.616 8  87940219.18146  21475888.797                    21475895.270
     -2319.805       -1807.510          51.700          41.600
 115740670.561 7  90187567.00346  22024726.227                    22024728.754
     -1311.836       -1021.963          47.600          36.400
 110528936.084 8  86126502.05447  21032956.945                    21032964.230
      2000.422        1558.998          53.000          43.100
 129133871.148 6 100623825.47843  24573366.898                    24573370.035
     -3020.246       -2353.332          41.700          22.900
 128804941.893 7 100367534.62543  24510773.688                    24510777.488
     -1527.961       -1190.308          42.600          22.000
 129102597.473 6 100599513.06543  24567423.828                    24567428.883
      3300.801        2572.182          40.500          22.000
 121203525.176 7  94444354.92745  23064275.648                    23064283.137
     -3429.473       -2672.174          43.900          31.200
                            4  1
RINEX FILE SPLICE; other post-header comments skipped       COMMENT
 18  2 21  9  0  0.0000000  0  9G07G05G09G02G30G23G16G13G06
 109049698.942 8  84973779.12946  20751466.930                    20751471.039
       226.621                          52.300          41.500
 113571040.505 8  88496979.42346  21611862.414                    21611867.418
      2400.797                          50.900          39.200
 112926241.083 8  87994537.46246  21489154.203                    21489160.512
     -2327.430                          52.400          41.700
 115780276.548 7  90218428.80446  22032263.609                    22032266.211
     -1328.680                          46.500          36.400
 110469161.344 8  86079924.34347  21021582.453                    21021589.355
      1984.492                          52.700          43.300
 129224506.245 7 100694450.14943  24590614.766                    24590617.121
     -3022.168                          42.300          22.500
 128851058.874 7 100403469.94743  24519549.602                    24519553.523
     -1546.629                          42.800          21.800
 129003614.142 6 100522383.22243  24548587.250                    24548592.828
      3297.949                          39.200          21.100
 121306514.203 7  94524606.07145  23083874.039                    23083882.887
     -3436.461                          42.600          30.600
 18  2 21  9  0 30.0000000  0  9G07G05G09G02G30G23G16G13G06
 109043162.647 8  84968685.91247  20750222.750                    20750227.109
       209.074         163.149          52.500          42.000
 113499180.635 8  88440984.72146  21598188.016                    21598192.984
      2389.852        1862.345          51.400          38.900
 112996182.131 8  88049036.96246  21502463.484                    21502469.559
     -2335.195       -1819.547          52.300          41.700
 115820387.207 7  90249683.83146  22039896.000                    22039898.309
     -1345.383       -1048.135          47.500          36.800
 110409866.636 8  86033720.67947  21010298.984                    21010306.109
      1968.566        1534.110          52.400          43.600
 129315202.174 7 100765122.23743  24607871.867                    24607875.645
     -3024.316       -2356.501          42.700          22.000
 128897738.554 7 100439843.71643  24528432.828                    24528437.121
     -1565.246       -1219.477          42.100          22.300
 128904722.880 6 100445325.09143  24529768.883                    24529775.484
      3294.844        2567.471          40.200          22.500
 121409715.376 7  94605022.59645  23103511.727                    23103519.297
     -3443.441       -2683.165          43.800          30.800
 18  2 21  9  1  0.0000000  0  9G07G05G09G02G30G23G16G13G06
 109037155.723 8  84964005.19747  20749079.734                    20749084.434
       191.406         149.397          52.300          42.100
 113427653.267 8  88385249.11446  21584576.820                    21584581.230
      2378.672        1853.696          51.400          39.400
 113066354.776 8  88103716.93746  21515816.602                    21515822.977
     -2342.855       -1825.521          51.900          41.700
 115861000.756 7  90281330.76046  22047624.117                    22047627.160
     -1362.215       -1061.187          47.900          36.700
 110351053.651 8  85987892.37047  20999107.438                    20999114.176
      1952.414        1521.579          52.000          43.600
 129405958.412 7 100835841.31343  24625143.750                    24625146.109
     -3026.258       -2358.056          42.500          22.300
 128944979.913 6 100476655.08543  24537420.344                    24537426.754
     -1584.043       -1234.033          38.500          20.600
 128805924.224 6 100368339.18143  24510968.117                    24510974.398
      3291.711        2565.054          39.500          21.700
 121513125.961 7  94685602.17045  23123190.320                    23123199.844
     -3450.566       -2688.579          45.200          31.800
 18  2 21  9  1 30.0000000  0  9G07G05G09G02G30G23G16G13G06
 109031678.221 8  84959737.02047  20748037.375                    20748042.012
       173.773         135.621          52.400          42.600
 113356460.179 8  88329773.98646  21571028.922                    21571033.512
      2367.426        1844.935          52.100          39.400
 113136758.012 8  88158576.57646  21529214.305                    21529220.465
     -2350.676       -1831.549          52.100          41.300
 115902115.785 7  90313368.43146  22055448.383                    22055451.289
     -1378.871       -1074.224          46.800          36.000
 110292723.822 8  85942440.56847  20988007.336                    20988014.805
      1936.246        1508.965          52.100          43.500
 129496774.316 6 100906606.87143  24642425.008                    24642427.844
     -3028.250       -2359.629          41.400          22.000
 128992780.368 6 100513902.10143  24546518.258                    24546523.215
     -1602.527       -1248.571          37.300          20.900
 128707219.363 6 100291426.36343  24492185.047                    24492190.727
      3288.633        2562.596          39.400          20.900
 121616742.991 7  94766342.68145  23142908.508                    23142916.430
     -3457.410       -2693.935          43.900          31.700
 18  2 21  9  2  0.0000000  0  9G07G05G09G02G30G23G16G13G06
 109026729.300 8  84955880.71447  20747095.703                    20747099.965
       156.211         121.913          52.500          42.300
 113285603.666 8  88274561.11346  21557545.758                    21557550.293
      2356.258        1836.197          51.700          39.500
 113207390.447 8  88213614.82946  21542655.367                    21542661.543
     -2358.141       -1837.456          52.400          41.700
 115943730.859 7  90345795.73946  22063366.922                    22063369.941
     -1395.387       -1087.149          47.300          36.000
 110234878.415 8  85897366.21547  20976999.500                    20977006.914
      1920.188        1496.405          52.300          43.500
 129587648.694 6 100977418.06343  24659717.484                    24659720.668
     -3029.961       -2361.085          41.700          22.600
 129041138.360 6 100551583.60043  24555719.906                    24555725.676
     -1621.168       -1263.003          40.900          22.300
 128608608.877 6 100214587.03243  24473420.758                    24473425.781
      3285.594        2560.160          39.800          22.600
 121720563.201 7  94847241.47945  23162664.094                    23162673.977
     -3464.004       -2699.144          43.800          31.000
 18  2 21  9  2 30.0000000  0  9G07G05G09G02G30G23G16G13G06
 109022309.089 8  84952436.39147  20746254.945                    20746259.066
       138.527         108.174          52.800          42.100
 113215085.682 8  88219612.04946  21544126.500                    21544131.379
      2344.934        1827.374          52.500          40.100
 113278251.125 8  88268830.91646  21556139.594                    21556145.520
     -2365.770       -1843.379          51.400          41.400
 115985844.275 7  90378611.38646  22071380.891                    22071383.688
     -1412.160       -1100.101          45.500          36.100
 110177518.913 8  85852670.49147  20966084.656                    20966091.352
      1903.801        1483.759          52.800          43.900
 129678581.190 7 101048274.41543  24677022.352                    24677025.473
     -3032.121       -2362.586          42.200          22.500
 129090052.727 7 100589698.63743  24565028.766                    24565033.863
     -1639.684       -1277.466          42.500          22.500
 128510093.591 6 100137821.92543  24454673.391                    24454679.664
      3282.102        2557.637          40.800          22.000
 121824583.861 7  94928296.47445  23182458.953                    23182468.688
     -3470.680       -2704.305          42.800          32.600
 18  2 21  9  3  0.0000000  0  7G07G05G09G02G30G13G06
 109018417.370 8  84949403.87746  20745513.914                    20745518.398
       121.066          94.476          51.000          41.900
 113144908.316 8  88164928.38046  21530772.094                    21530776.895
      2333.484        1818.513          52.000          40.300
 113349339.103 8  88324224.12546  21569667.117                    21569673.727
     -2373.375       -1849.268          51.100          41.700
 116028454.598 7  90411814.20846  22079489.688                    22079492.605
     -1428.641       -1112.984          44.500          36.600
 110120646.905 8  85808354.65047  20955262.398                    20955269.445
      1887.629        1471.075          52.000          43.400
 128411674.545 6 100061131.75743  24435945.664                    24435950.758
      3279.004        2555.132          41.300          22.300
 121928802.135 7  95009505.42045  23202291.727                    23202300.172
     -3477.145       -2709.401          44.600          31.500
 18  2 21  9  3 30.0000000  0  7G07G05G09G02G30G13G06
 109015053.685 8  84946782.82547  20744874.109                    20744878.082
       103.352          80.717          52.200          42.400
 113075073.347 8  88110511.52146  21517483.125                    21517487.660
      2322.156        1809.574          52.100          40.300
 113420653.116 8  88379793.47847  21583237.852                    21583244.129
     -2380.797       -1855.160          50.400          42.200
 116071560.050 7  90445402.83546  22087692.648                    22087695.109
     -1444.988       -1125.823          47.500          36.300
 110064263.680 8  85764419.67847  20944532.719                    20944539.949
      1871.234        1458.330          52.400          44.100
 128313352.315 7  99984517.09843  24417235.383                    24417240.309
      3275.699        2552.573          42.000          22.500
 122033214.889 7  95090866.00145  23222159.531                    23222169.984
     -3483.598       -2714.458          43.400          30.200
 18  2 21  9  4  0.0000000  0  7G07G05G09G02G30G13G06
 109012217.909 8  84944573.13447  20744334.305                    20744338.668
        85.684          67.047          49.700          42.100
 113005582.689 8  88056362.94946  21504259.375                    21504263.973
      2310.543        1800.613          52.500          40.500
 113492192.169 8  88435538.18546  21596851.055                    21596857.957
     -2388.406       -1860.969          51.400          41.200
 116115158.836 7  90479375.91245  22095989.172                    22095991.523
     -1461.531       -1138.610          44.100          34.900
 110008370.562 8  85720866.60047  20933896.531                    20933903.547
      1854.883        1445.614          53.200          44.100
 128215127.578 6  99907978.35843  24398543.563                    24398548.895
      3272.633        2550.072          40.600          22.600
 122137819.228 7  95172375.81745  23242066.359                    23242074.055
     -3489.949       -2719.356          46.000          31.000
 18  2 21  9  4 30.0000000  0  7G07G05G09G02G30G13G06
 109009908.872 8  84942773.88046  20743894.836                    20743899.391
        68.195          53.359          51.200          41.800
 112936438.124 8  88002484.07446  21491101.914                    21491106.125
      2298.992        1791.604          52.400          40.000
 113563954.842 8  88491457.13246  21610506.750                    21610513.609
     -2395.801       -1866.759          51.700          41.200
 116159249.186 7  90513731.98445  22104379.453                    22104381.957
     -1477.832       -1151.345          47.200          35.800
 109952968.665 8  85677696.30447  20923354.461                    20923361.281
      1838.527        1432.835          52.800          43.800
 128117000.993 6  99831516.13143  24379870.844                    24379876.547
      3269.246        2547.501          41.200          23.000
 122242611.919 6  95254032.41445  23262007.055                    23262016.395
     -3496.102       -2724.203          41.800          31.200
 18  2 21  9  5  0.0000000  0  7G07G05G09G02G30G13G06
 109008126.967 8  84941385.38547  20743555.719                    20743560.172
        50.484          39.661          52.100          42.100
 112867642.204 8  87948876.85646  21478010.352                    21478014.766
      2287.250        1782.524          53.200          40.400
 113635940.268 8  88547549.65746  21624205.359                    21624212.434
     -2403.324       -1872.546          51.500          41.000
 116203829.538 7  90548469.89746  22112862.508                    22112864.590
     -1494.266       -1164.061          46.600          36.600
 109898059.546 8  85634909.96947  20912905.344                    20912912.191
      1821.965        1420.023          53.200          44.400
 128018973.947 7  99755131.47943  24361216.258                    24361221.684
      3265.777        2544.916          42.200          21.500
 122347590.114 7  95335833.61044  23281983.508                    23281991.859
     -3502.344       -2729.013          42.800          29.100
 18  2 21  9  5 30.0000000  0  7G07G05G09G02G30G13G06
 109006871.517 8  84940407.11747  20743317.289                    20743321.223
        33.109          25.994          50.500          42.200
 112799197.287 8  87895543.15946  21464985.953                    21464990.016
      2275.695        1773.365          52.800          40.600
 113708147.243 8  88603814.80646  21637945.586                    21637952.555
     -2410.516       -1878.292          51.600          41.300
 116248898.144 7  90583588.25545  22121439.398                    22121440.426
     -1510.332       -1176.745          44.600          35.700
 109843644.408 8  85592508.57147  20902550.578                    20902557.391
      1805.668        1407.160          53.700          43.900
 127921046.783 6  99678824.65043  24342581.016                    24342586.969
      3262.691        2542.279          41.600          22.800
 122452750.869 7  95417776.98545  23301995.836                    23302004.613
     -3508.281       -2733.709          44.700          30.100
 18  2 21  9  6  0.0000000  0  7G07G05G09G02G30G13G06
 109006142.294 8  84939838.88447  20743178.359                    20743182.102
        15.516          12.358          51.900          42.500
 112731105.178 8  87842484.36846  21452028.422                    21452032.516
      2263.852        1764.207          52.300          40.500
 113780574.888 8  88660251.91746  21651728.344                    21651735.262
     -2417.957       -1883.981          51.300          41.000
 116294453.621 7  90619085.99845  22130108.133                    22130109.469
     -1526.590       -1189.330          44.900          35.300
 109789724.746 8  85550493.24947  20892289.820                    20892296.582
      1789.008        1394.299          53.500          44.500
 127823220.462 6  99602596.41043  24323965.484                    24323970.727
      3259.191        2539.692          41.600          22.300
 122558091.376 7  95499860.40945  23322041.336                    23322050.156
     -3514.305       -2738.315          42.800          30.100
 18  2 21  9  6 30.0000000  0  7G07G05G09G02G30G13G06
 109005938.915 8  84939680.39547  20743139.398                    20743143.328
        -1.992          -1.322          52.100          42.500
 112663367.912 8  87789702.08246  21439138.281                    21439142.809
      2251.973        1754.916          52.100          40.300
 113853221.963 8  88716860.00946  21665553.297                    21665559.555
     -2425.238       -1889.693          51.200          41.100
 116340494.098 7  90654961.67245  22138868.883                    22138870.992
     -1542.750       -1201.937          46.500          35.800
 109736301.678 8  85508864.88747  20882124.016                    20882130.543
      1772.504        1381.365          52.800          43.400
 127725495.732 7  99526447.28843  24305369.000                    24305374.504
      3255.805        2537.014          42.800          22.800
 122663608.387 7  95582081.45044  23342119.586                    23342129.395
     -3520.098       -2742.899          42.700          29.900
 18  2 21  9  7  0.0000000  0  7G07G05G09G02G30G13G06
 109006260.854 8  84939931.25646  20743200.523                    20743204.492
       -19.434         -14.940          52.700          41.600
 112595987.040 8  87737197.49746  21426316.281                    21426320.531
      2240.195        1745.678          52.200          40.300
 113926087.482 8  88773638.32646  21679418.680                    21679425.516
     -2432.410       -1895.333          51.600          41.100
 116387017.732 7  90691213.83845  22147722.281                    22147724.586
     -1558.766       -1214.461          46.700          35.200
 109683376.623 8  85467624.59047  20872052.305                    20872059.137
      1755.863        1368.410          53.700          43.600
 127627873.655 6  99450378.17443  24286792.555                    24286798.262
      3252.367        2534.381          41.100          23.400
 122769299.245 7  95664437.94045  23362232.453                    23362241.527
     -3525.926       -2747.374          44.100          31.600
 18  2 21  9  7 30.0000000  0  7G07G05G09G02G30G13G06
 109007107.300 8  84940590.82446  20743361.891                    20743365.906
       -36.898         -28.573          51.200          41.900
 112528964.065 8  87684971.81246  21413561.961                    21413566.387
      2228.094        1736.330          52.300          40.300
 113999170.113 8  88830585.81346  21693325.859                    21693332.422
     -2439.617       -1900.964          51.300          41.100
 116434022.502 7  90727840.91445  22156667.039                    22156668.879
     -1574.816       -1226.922          46.100          35.500
 109630950.483 8  85426773.04747  20862076.063                    20862082.773
      1739.215        1355.448          53.600          43.700
 127530354.623 7  99374389.39043  24268235.648                    24268240.715
      3248.867        2531.653          42.000          23.300
 122875160.604 7  95746927.23744  23382377.578                    23382386.930
     -3531.527       -2751.753          42.200          29.700
 18  2 21  9  8  0.0000000  0  7G07G05G09G02G30G13G06
 109008478.633 8  84941659.39647  20743622.664                    20743626.973
       -54.402         -42.191          53.200          42.300
 112462302.823 8  87633027.98246  21400876.875                    21400881.480
      2216.070        1726.928          52.300          40.200
 114072469.092 8  88887701.88146  21707274.242                    21707281.316
     -2446.801       -1906.558          51.100          40.900
 116481507.132 8  90764841.89246  22165703.297                    22165705.422
     -1590.762       -1239.375          48.100          36.000
 109579024.889 8  85386311.55547  20852195.125                    20852202.055
      1722.594        1342.440          53.000          44.100
 127432939.695 6  99298481.68043  24249697.711                    24249703.398
      3245.512        2528.946          41.800          22.800
 122981189.768 7  95829547.35344  23402553.961                    23402562.863
     -3536.988       -2756.066          43.400          29.900
 18  2 21  9  8 30.0000000  0  7G07G05G09G02G30G13G06
 109010373.485 8  84943135.89947  20743983.273                    20743987.551
       -71.996         -55.794          50.900          42.100
 112396004.535 8  87581366.97946  21388260.875                    21388265.664
      2203.762        1717.453          52.400          40.500
 114145983.153 8  88944985.53846  21721263.266                    21721269.699
     -2454.094       -1912.143          51.300          40.600
 116529469.539 8  90802215.16845  22174830.039                    22174832.750
     -1606.684       -1251.753          48.500          35.700
 109527600.790 8  85346240.83647  20842409.266                    20842416.172
      1705.762        1329.381          53.400          43.900
 127335629.538 6  99222655.64444  24231180.531                    24231186.020
      3241.770        2526.230          41.600          24.100
 123087383.687 7  95912295.81345  23422762.219                    23422771.613
     -3542.625       -2760.340          42.400          31.400
 18  2 21  9  9  0.0000000  0  7G07G05G09G02G30G13G06
 109012791.776 8  84945020.27847  20744443.641                    20744447.414
       -89.184         -69.353          50.200          42.000
 112330071.033 8  87529990.21846  21375713.828                    21375718.375
      2191.805        1707.991          51.800          40.200
 114219711.355 8  89002436.07546  21735293.250                    21735300.039
     -2461.066       -1917.679          50.700          40.400
 116577907.864 7  90839959.28146  22184047.125                    22184049.586
     -1622.402       -1264.080          46.400          36.300
 109476679.576 8  85306561.96447  20832719.289                    20832725.961
      1689.098        1316.329          52.700          44.200
 127238424.951 6  99146911.83943  24212682.781                    24212688.105
      3238.418        2523.510          41.100          22.900
 123193739.405 7  95995170.36945  23443000.547                    23443010.680
     -3547.785       -2764.479          42.300          30.600
 18  2 21  9  9 30.0000000  0  7G07G05G09G02G30G13G06
 109015732.772 8  84947311.96147  20745003.297                    20745007.434
      -106.742         -82.955          52.200          42.400
 112264504.086 8  87478899.09446  21363236.914                    21363241.492
      2179.398        1698.398          51.700          40.300
 114293652.378 8  89060052.43546  21749363.852                    21749371.008
     -2468.305       -1923.225          50.500          40.300
 116626820.099 7  90878072.66745  22193355.289                    22193357.457
     -1638.301       -1276.395          47.300          35.000
 109426262.178 8  85267275.68547  20823125.430                    20823132.008
      1672.152        1303.203          52.200          44.100
 127141326.544 6  99071250.82943  24194205.641                    24194211.402
      3234.855        2520.703          41.200          22.900
 123300253.809 6  96078168.55044  23463269.945                    23463279.027
     -3553.168       -2768.593          41.900          29.500
 18  2 21  9 10  0.0000000  0  7G07G05G09G02G30G13G06
 109019196.549 8  84950011.00947  20745662.367                    20745666.492
      -124.199         -96.546          51.100          42.400
 112199306.163 8  87428095.51546  21350830.156                    21350834.461
      2166.984        1688.799          51.600          40.200
 114367805.725 8  89117834.24046  21763474.633                    21763481.781
     -2475.410       -1928.726          50.500          40.600
 116676205.123 7  90916554.46545  22202752.648                    22202755.801
     -1654.082       -1288.660          46.600          35.400
 109376350.315 8  85228383.33847  20813627.422                    20813634.262
      1655.203        1290.029          52.600          44.300
 127044335.454 6  98995673.39743  24175748.313                    24175754.277
      3231.094        2517.891          40.300          22.500
 123406924.441 6  96161288.49645  23483568.188                    23483578.348
     -3558.320       -2772.587          41.400          30.200
 18  2 21  9 10 30.0000000  0  7G07G05G09G02G30G13G06
 109023181.595 8  84953116.24147  20746420.586                    20746424.891
      -141.461        -110.034          52.300          42.000
 112134478.853 8  87377580.72846  21338493.836                    21338498.406
      2154.766        1679.165          51.800          39.700
 114442169.716 8  89175780.18246  21777625.602                    21777632.727
     -2482.281       -1934.173          50.600          40.000
 116726059.955 7  90955402.33146  22212240.188                    22212242.914
     -1669.566       -1300.800          47.900          36.000
 109326944.486 8  85189885.29047  20804225.609                    20804232.809
      1638.430        1276.929          53.400          44.100
 126947452.194 7  98920179.98544  24157312.703                    24157317.523
      3227.641        2515.092          42.100          25.300
 123513747.813 7  96244527.40944  23503896.531                    23503905.965
     -3563.340       -2776.507          42.300          28.600
 18  2 21  9 11  0.0000000  0  7G07G05G09G02G30G13G06
 109027687.748 8  84956627.52546  20747277.867                    20747282.137
      -158.875        -123.596          52.100          41.800
 112070024.917 8  87327356.88246  21326228.406                    21326233.813
      2142.246        1669.410          51.800          39.800
 114516743.610 8  89233889.69646  21791816.703                    21791823.590
     -2489.297       -1939.622          50.300          40.000
 116776383.454 7  90994615.42045  22221815.891                    22221818.996
     -1685.164       -1312.974          47.300          35.500
 109278046.195 8  85151782.73047  20794920.539                    20794927.316
      1621.477        1263.703          53.500          44.500
 126850677.953 6  98844771.56044  24138897.016                    24138902.793
      3223.941        2512.192          40.700          24.700
 123620721.155 7  96327883.23744  23524252.969                    23524262.059
     -3568.273       -2780.422          42.600          28.900
 18  2 21  9 11 30.0000000  0  7G07G05G09G02G30G13G06
 109032714.322 8  84960544.36747  20748234.523                    20748238.719
      -176.234        -137.093          53.000          42.200
 112005945.828 8  87277425.13646  21314034.891                    21314039.094
      2129.613        1659.653          51.200          40.000
 114591526.181 8  89292161.80446  21806047.594                    21806054.145
     -2496.242       -1945.035          49.100          40.200
 116827173.499 7  91034192.02245  22231481.422                    22231484.141
     -1700.785       -1325.075          46.100          35.400
 109229656.346 8  85114076.35647  20785712.195                    20785719.273
      1604.434        1250.466          52.700          44.200
 126754013.320 6  98769448.57443  24120502.703                    24120506.957
      3220.316        2509.357          41.000          23.000
 123727841.333 6  96411353.44444  23544637.227                    23544646.910
     -3573.156       -2784.169          41.900          28.900
 18  2 21  9 12  0.0000000  0  7G07G05G09G02G30G13G06
 109038260.740 8  84964866.24347  20749290.172                    20749294.223
      -193.531        -150.584          52.900          42.000
 111942243.503 8  87227786.95146  21301912.563                    21301917.340
      2117.133        1649.879          51.000          38.800
 114666516.422 8  89350595.72946  21820317.688                    21820324.586
     -2503.141       -1950.382          49.200          40.200
 116878427.988 8  91074130.55945  22241234.914                    22241237.320
     -1716.203       -1337.080          48.000          35.700
 109181776.045 8  85076767.02947  20776600.891                    20776607.738
      1587.535        1237.266          53.400          44.500
 126657458.943 6  98694211.45843  24102129.016                    24102134.598
      3216.637        2506.524          40.900          23.900
 123835105.486 7  96494935.87644  23565048.703                    23565058.031
     -3577.844       -2787.859          42.100          28.700
 18  2 21  9 12 30.0000000  0  7G07G05G09G02G30G13G06
 109044327.627 8  84969593.68046  20750444.773                    20750449.414
      -210.953        -164.074          52.900          41.900
 111878920.957 8  87178444.71246  21289862.672                    21289867.266
      2104.438        1639.988          51.200          40.100
 114741713.947 8  89409191.19346  21834627.430                    21834634.508
     -2510.039       -1955.743          48.600          39.900
 116930145.672 7  91114430.00546  22251076.617                    22251079.484
     -1731.617       -1349.086          46.600          36.000
 109134407.132 8  85039856.19347  20767586.813                    20767593.988
      1570.508        1223.969          51.200          44.700
 126561016.370 6  98619061.52543  24083775.961                    24083781.223
      3212.754        2503.597          41.100          22.800
 123942511.392 7  96578628.71044  23585487.938                    23585497.324
     -3582.527       -2791.488          42.600          28.500
 18  2 21  9 13  0.0000000  0  7G07G05G09G02G30G13G06
 109050912.715 8  84974724.91347  20751697.727                    20751701.969
      -228.125        -177.552          52.500          42.600
 111815979.142 8  87129399.13946  21277885.609                    21277889.973
      2091.746        1630.057          51.600          40.100
 114817117.045 8  89467946.82946  21848975.867                    21848982.625
     -2516.848       -1961.107          48.400          39.900
 116982323.977 7  91155088.35045  22261005.719                    22261008.621
     -1746.934       -1361.053          46.600          34.900
 109087549.900 8  85003344.06647  20758670.250                    20758677.207
      1553.379        1210.625          51.300          44.500
 126464685.378 6  98543998.49743  24065444.898                    24065450.086
      3209.199        2500.679          41.400          22.500
 124050055.224 7  96662429.05244  23605953.656                    23605962.703
     -3586.937       -2795.042          43.600          28.300
 18  2 21  9 13 30.0000000  0  7G07G05G09G02G30G13G06
 109058015.691 8  84980259.69646  20753049.469                    20753053.645
      -245.352        -190.993          52.500          41.600
 111753419.919 8  87080651.69746  21265980.820                    21265985.195
      2078.938        1620.088          50.700          39.900
 114892724.758 8  89526861.90246  21863363.516                    21863370.133
     -2523.695       -1966.404          48.900          39.200
 117034961.073 7  91196104.24146  22271022.578                    22271024.938
     -1762.078       -1372.949          47.700          36.000
 109041205.550 8  84967231.59847  20749851.273                    20749858.410
      1536.301        1197.304          52.300          44.300
 126368466.957 6  98469023.19343  24047134.430                    24047140.344
      3205.301        2497.735          41.600          22.500
 124157734.248 7  96746334.74744  23626443.266                    23626453.355
     -3591.469       -2798.522          42.000          29.300
 18  2 21  9 14  0.0000000  0  7G07G05G09G02G30G13G06
 109065636.043 8  84986197.62747  20754499.563                    20754503.859
      -262.551        -204.399          52.400          42.400
 111691245.975 8  87032204.47346  21254149.594                    21254153.691
      2066.082        1610.088          51.000          39.900
 114968535.983 8  89585935.56446  21877789.719                    21877796.727
     -2530.262       -1971.640          50.200          39.400
 117088055.165 7  91237476.20345  22281125.883                    22281128.566
     -1777.316       -1384.771          45.500          35.000
 108995375.046 8  84931519.52247  20741130.031                    20741136.777
      1519.199        1183.950          52.700          44.100
 126272362.378 7  98394136.56144  24028846.195                    24028851.648
      3201.672        2494.799          42.500          25.000
 124265545.520 6  96830343.47044  23646959.484                    23646969.059
     -3595.863       -2801.907          40.900          27.700
 18  2 21  9 14 30.0000000  0  7G07G05G09G02G30G13G06
 109073772.946 8  84992538.07047  20756047.969                    20756052.207
      -279.855        -217.863          53.000          42.500
 111629458.979 8  86984058.76346  21242391.836                    21242396.535
      2053.055        1599.938          51.200          40.200
 115044549.747 8  89645167.05746  21892254.781                    21892261.719
     -2537.180       -1976.939          49.300          39.000
 117141603.702 7  91279202.24745  22291316.461                    22291318.465
     -1792.531       -1396.602          46.300          35.300
 108950059.438 8  84896208.66347  20732506.758                    20732513.676
      1501.922        1170.523          51.700          44.500
 126176372.114 6  98319339.03544  24010579.609                    24010586.121
      3197.668        2491.791          41.800          25.500
 124373486.024 6  96914452.93044  23667499.352                    23667509.625
     -3600.273       -2805.276          40.700          28.700
 18  2 21  9 15  0.0000000  0  7G07G05G09G02G30G13G06
 109082425.825 8  84999280.57447  20757694.445                    20757698.789
      -297.008        -231.241          53.200          42.000
 111568060.935 8  86936216.12546  21230708.289                    21230712.672
      2039.965        1589.817          51.500          39.900
 115120764.972 8  89704555.51946  21906758.031                    21906765.695
     -2543.891       -1982.162          49.900          39.600
 117195605.000 7  91321281.13445  22301592.047                    22301594.555
     -1807.590       -1408.318          46.200          35.000
 108905259.606 8  84861299.70347  20723981.453                    20723988.770
      1484.664        1157.137          52.500          45.000
 126080496.837 7  98244631.08544  23992335.992                    23992340.848
      3193.910        2488.780          42.800          24.700
 124481552.820 6  96998660.74444  23688064.484                    23688073.754
     -3604.398       -2808.513          40.500          28.800
 18  2 21  9 15 30.0000000  0  7G07G05G09G02G30G13G06
 109091593.796 8  85006424.44747  20759439.148                    20759443.480
      -314.105        -244.596          53.700          42.400
 111507054.102 8  86888678.33546  21219098.969                    21219103.555
      2027.066        1579.651          52.100          40.200
 115197180.686 8  89764100.21446  21921299.602                    21921306.918
     -2550.551       -1987.347          50.500          39.200
 117250057.186 7  91363711.36145  22311954.281                    22311956.879
     -1822.516       -1419.983          46.200          35.400
 108860976.707 8  84826793.55547  20715554.609                    20715562.137
      1467.527        1143.694          53.100          44.600
 125984737.669 6  98170013.59843  23974113.195                    23974118.246
      3189.984        2485.746          41.700          22.000
 124589743.020 6  97082964.74344  23708651.961                    23708661.449
     -3608.375       -2811.664          39.700          28.100
 18  2 21  9 16  0.0000000  0  7G07G05G09G02G30G13G06
 109101276.532 8  85013969.43647  20761281.617                    20761285.961
      -331.297        -257.938          53.300          42.200
 111446440.530 8  86841446.97846  21207564.711                    21207569.004
      2013.941        1569.459          51.900          40.100
 115273795.996 8  89823800.42346  21935879.320                    21935886.094
     -2557.125       -1992.506          49.800          39.000
 117304957.868 7  91406491.07145  22322400.711                    22322404.039
     -1837.504       -1431.604          45.700          34.500
 108817211.733 8  84792690.97647  20707226.477                    20707234.004
      1450.156        1130.247          53.000          44.500
 125889094.828 7  98095486.76244  23955913.328                    23955917.836
      3186.113        2482.758          42.600          25.300
 124698053.767 6  97167362.67444  23729262.195                    23729272.703
     -3612.305       -2814.751          40.200          28.500
 18  2 21  9 16 30.0000000  0  7G07G05G09G02G30G13G06
 109111473.289 8  85021914.96147  20763222.078                    20763226.563
      -348.492        -271.321          53.000          43.100
 111386221.667 8  86794523.19646  21196105.695                    21196109.570
      2000.668        1559.117          51.600          40.400
 115350609.726 8  89883655.27546  21950495.633                    21950502.977
     -2563.695       -1997.683          50.400          39.400
 117360305.041 7  91449618.68645  22332933.555                    22332935.922
     -1852.301       -1443.190          46.900          34.500
 108773965.593 8  84758992.68147  20698997.156                    20699004.449
      1432.852        1116.730          53.600          44.700
 125793569.705 7  98021051.67944  23937734.438                    23937741.027
      3182.156        2479.651          43.100          24.600
 124806482.067 6  97251852.19044  23749896.375                    23749905.277
     -3616.227       -2817.776          39.000          26.100
 18  2 21  9 17  0.0000000  0  7G07G05G09G02G30G13G06
 109122182.560 8  85030259.84747  20765259.852                    20765264.348
      -365.500        -284.593          53.400          42.200
 111326399.909 8  86747908.83446  21184721.641                    21184726.109
      1987.438        1548.817          51.700          40.100
 115427620.805 8  89943663.86846  21965151.078                    21965158.141
     -2570.270       -2002.776          49.100          38.600
 117416096.501 7  91493092.50945  22343549.898                    22343552.957
     -1867.105       -1454.707          45.700          34.500
 108731238.979 8  84725699.22347  20690866.344                    20690873.793
      1415.449        1103.235          53.100          44.900
 125698162.900 7  97946708.76844  23919579.602                    23919584.703
      3178.219        2476.600          42.000          25.300
 124915024.825 6  97336430.92344  23770552.141                    23770560.578
     -3619.973       -2820.700          41.100          28.000
 18  2 21  9 17 30.0000000  0  7G07G05G09G02G30G13G06
 109133403.937 8  85039003.76747  20767395.055                    20767399.387
      -382.633        -297.914          53.700          42.600
 111266976.881 8  86701605.18046  21173413.664                    21173418.059
      1974.035        1538.401          51.300          41.100
 115504828.112 8  90003825.38846  21979842.891                    21979850.543
     -2576.852       -2007.861          49.300          39.000
 117472330.366 7  91536911.01845  22354251.039                    22354254.086
     -1881.852       -1466.162          46.000          34.500
 108689032.868 8  84692811.34247  20682835.016                    20682842.281
      1398.172        1089.704          53.500          44.800
 125602875.124 7  97872458.59344  23901447.375                    23901451.887
      3174.262        2473.479          43.100          26.000
 125023679.072 6  97421096.49944  23791227.859                    23791237.148
     -3623.680       -2823.576          40.100          27.100
 18  2 21  9 18  0.0000000  0  7G07G05G09G02G30G13G06
 109145136.566 8  85048146.08647  20769627.836                    20769631.820
      -399.605        -311.192          53.000          42.700
 111207954.652 8  86655613.83246  21162182.477                    21162186.570
      1960.727        1527.963          51.500          40.400
 115582230.688 8  90064139.05546  21994572.211                    21994579.164
     -2583.262       -2012.921          49.600          39.000
 117529004.258 7  91581072.43145  22365035.602                    22365038.414
     -1896.379       -1477.589          45.500          34.400
 108647348.099 8  84660329.69947  20674902.586                    20674909.852
      1380.789        1076.129          52.800          45.200
 125507707.062 7  97798301.69844  23883337.414                    23883341.461
      3170.277        2470.360          43.200          24.100
 125132441.901 7  97505846.67844  23811925.008                    23811933.902
     -3627.121       -2826.352          42.200          27.700
 18  2 21  9 18 30.0000000  0  7G07G05G09G02G30G13G06
 109157379.730 8  85057686.20047  20771957.906                    20771962.125
      -416.609        -324.424          53.200          42.200
 111149335.251 8  86609936.38646  21151027.531                    21151031.422
      1947.242        1517.487          51.700          40.400
 115659827.645 8  90124604.20546  22009338.453                    22009345.641
     -2589.777       -2017.961          48.600          38.600
 117586116.389 7  91625575.31945  22375904.047                    22375906.941
     -1911.008       -1488.933          45.900          33.800
 108606185.702 8  84628255.11047  20667069.531                    20667076.605
      1363.328        1062.562          53.200          44.600
 125412659.570 7  97724238.76244  23865250.438                    23865255.203
      3166.219        2467.197          43.500          24.400
 125241310.539 6  97590679.38744  23832642.156                    23832650.711
     -3630.695       -2829.093          41.100          27.800
 18  2 21  9 19  0.0000000  0  7G07G05G09G02G30G13G06
 109170132.599 8  85067623.50647  20774384.727                    20774388.797
      -433.691        -337.637          53.000          42.900
 111091120.951 8  86564574.59546  21139949.453                    21139954.086
      1933.613        1506.955          51.200          40.600
 115737618.142 8  90185220.13746  22024141.648                    22024148.844
     -2596.344       -2022.950          48.200          38.900
 117643664.519 7  91670417.93845  22386855.406                    22386857.672
     -1925.527       -1500.209          45.600          33.500
 108565546.647 8  84596588.31047  20659336.391                    20659343.668
      1345.816        1048.991          52.900          44.800
 125317733.520 7  97650270.44144  23847186.758                    23847190.883
      3162.109        2464.072          43.300          25.000
 125350282.179 6  97675592.23944  23853378.383                    23853387.594
     -3634.070       -2831.707          41.700          28.100
 18  2 21  9 19 30.0000000  0  7G07G05G09G02G30G13G06
 109183394.614 8  85077957.54247  20776908.258                    20776912.719
      -450.648        -350.873          52.500          42.900
 111033313.694 8  86519529.98246  21128949.258                    21128953.680
      1920.102        1496.350          52.300          40.600
 115815601.057 8  90245986.04546  22038981.586                    22038987.664
     -2602.719       -2027.945          48.500          38.300
 117701646.521 7  91715598.65845  22397888.914                    22397891.125
     -1939.957       -1511.461          45.400          33.600
 108525431.737 8  84565329.94647  20651702.844                    20651709.828
      1328.293        1035.337          53.400          44.800
 125222930.032 7  97576397.64143  23829145.781                    23829150.285
      3157.945        2460.875          42.900          23.600
 125459353.752 7  97760583.06644  23874134.586                    23874142.891
     -3637.398       -2834.286          42.000          27.700
 18  2 21  9 20  0.0000000  0  7G07G05G09G02G30G13G06
 109197165.049 8  85088687.74947  20779528.875                    20779533.238
      -467.512        -364.022          53.000          43.200
 110975915.117 8  86474803.81746  21118026.688                    21118031.355
      1906.434        1485.734          51.900          41.300
 115893775.629 8  90306901.27046  22053857.359                    22053864.066
     -2609.023       -2032.893          49.300          38.400
 117760060.225 7  91761115.79145  22409004.188                    22409006.773
     -1954.328       -1522.623          45.700          34.000
 108485841.884 8  84534480.71647  20644168.773                    20644176.105
      1310.863        1021.711          52.700          44.800
 125128250.007 7  97502621.03143  23811128.852                    23811133.520
      3153.902        2457.673          43.000          22.500
 125568522.599 6  97845649.61844  23894908.359                    23894918.035
     -3640.680       -2836.740          39.500          26.800
 18  2 21  9 20 30.0000000  0  7G07G05G09G02G30G13G06
 109211442.211 8  85099812.80047  20782245.648                    20782250.270
      -484.461        -377.224          52.600          42.900
 110918927.072 8  86430397.55946  21107181.789                    21107186.852
      1892.656        1474.999          52.200          41.500
 115972140.505 7  90367964.77646  22068769.984                    22068777.105
     -2615.348       -2037.853          47.900          38.700
 117818903.442 7  91806967.63445  22420202.016                    22420204.953
     -1968.660       -1533.799          45.400          33.600
 108446777.608 8  84504041.01647  20636735.047                    20636742.645
      1293.320        1008.025          51.700          45.200
 125033693.648 7  97428940.79444  23793135.094                    23793139.820
      3149.824        2454.433          43.100          25.600
 125677785.435 6  97930789.43844  23915700.750                    23915709.137
     -3643.750       -2839.183          41.300          26.700
 18  2 21  9 21  0.0000000  0  7G07G05G09G02G30G13G06
 109226225.461 8  85111332.21447  20785058.680                    20785063.371
      -501.117        -390.308          51.500          42.900
 110862352.193 8  86386313.23746  21096416.586                    21096420.852
      1878.988        1464.299          52.800          41.300
 116050694.764 7  90429175.86046  22083717.867                    22083725.301
     -2621.555       -2042.704          47.900          37.900
 117878173.770 7  91853152.26745  22431480.852                    22431483.902
     -1982.699       -1544.801          45.800          34.000
 108408239.798 8  84474011.55047  20629401.797                    20629408.906
      1275.844         994.391          52.500          44.700
 124939261.909 6  97355357.64244  23775164.930                    23775170.660
      3145.629        2451.228          41.600          24.700
 125787139.509 6  98016000.34444  23936509.688                    23936518.660
     -3646.574       -2841.463          41.300          26.800
 18  2 21  9 21 30.0000000  0  7G07G05G09G02G30G13G06
 109241514.332 8  85123245.61447  20787968.180                    20787972.734
      -518.047        -403.438          52.200          42.300
 110806191.933 8  86342552.00846  21085729.313                    21085733.953
      1865.039        1453.488          52.400          41.600
 116129437.566 7  90490533.88146  22098702.727                    22098709.113
     -2627.965       -2047.617          47.500          37.900
 117937869.483 7  91899668.43445  22442840.633                    22442843.602
     -1996.949       -1555.844          46.400          34.200
 108370229.337 8  84444393.01947  20622168.641                    20622175.852
      1258.203         980.657          52.200          44.900
 124844955.785 6  97281872.39544  23757219.391                    23757224.930
      3141.414        2447.957          41.300          25.600
 125896581.940 6  98101280.11044  23957336.203                    23957344.637
     -3649.484       -2843.745          40.400          26.200
 18  2 21  9 22  0.0000000  0  7G07G05G09G02G30G13G06
 109257307.486 8  85135551.96847  20790973.430                    20790977.957
      -534.832        -416.536          52.800          43.300
 110750448.124 8  86299115.26446  21075121.523                    21075126.188
      1851.195        1442.661          51.900          41.600
 116208367.783 8  90552037.92746  22113722.570                    22113729.039
     -2634.039       -2052.484          48.700          37.700
 117997987.916 7  91946513.96745  22454280.680                    22454283.199
     -2010.871       -1566.805          45.700          33.900
 108332746.770 8  84415185.82547  20615035.977                    20615043.215
      1240.594         966.925          53.000          45.100
 124750775.782 7  97208485.42744  23739297.578                    23739303.324
      3137.289        2444.629          42.000          24.700
 126006109.737 6  98186626.37644  23978179.250                    23978188.410
     -3652.191       -2845.910          40.500          27.600
 18  2 21  9 22 30.0000000  0  7G07G05G09G02G30G13G06
 109273604.173 8  85148250.68847  20794074.375                    20794078.871
      -551.656        -429.590          53.000          43.200
 110695122.983 8  86256004.76946  21064593.617                    21064597.891
      1837.086        1431.746          52.400          41.300
 116287484.548 8  90613687.32446  22128777.992                    22128784.887
     -2640.434       -2057.311          48.200          38.200
 118058526.879 7  91993687.18045  22465800.680                    22465804.102
     -2025.039       -1577.692          45.600          33.600
 108295792.948 8  84386390.63647  20608003.867                    20608010.684
      1222.875         953.223          53.500          44.600
 124656722.977 7  97135197.54744  23721400.305                    23721404.738
      3133.027        2441.351          42.700          25.600
 126115720.056 6  98272036.97044  23999036.078                    23999045.273
     -3655.059       -2848.000          40.800          25.300
 18  2 21  9 23  0.0000000  0  7G07G05G09G02G30G13G06
 109290403.656 8  85161341.18547  20797271.422                    20797276.293
      -568.258        -442.610          50.900          43.100
 110640218.669 8  86213222.19446  21054145.453                    21054150.539
      1823.242        1420.841          53.000          41.100
 116366786.996 8  90675481.42446  22143868.617                    22143875.348
     -2646.406       -2062.099          48.100          38.300
 118119484.455 7  92041186.60645  22477400.672                    22477403.762
     -2038.801       -1588.505          44.800          34.000
 108259368.827 8  84358008.20447  20601072.523                    20601079.813
      1205.371         939.465          52.900          44.900
 124562798.137 6  97062009.39244  23703526.734                    23703531.465
      3128.801        2438.005          39.600          24.900
 126225410.242 6  98357509.79544  24019910.625                    24019919.590
     -3657.578       -2850.042          41.700          28.200
 18  2 21  9 23 30.0000000  0  7G07G05G09G02G30G13G06
 109307704.385 8  85174822.27347  20800563.523                    20800568.156
      -585.047        -455.691          51.100          42.700
 110585736.142 8  86170768.28846  21043777.773                    21043782.504
      1809.012        1409.780          52.800          40.900
 116446273.749 7  90737419.13846  22158994.297                    22159001.309
     -2652.578       -2066.916          46.600          38.700
 118180857.822 7  92089010.01045  22489079.805                    22489082.398
     -2052.719       -1599.354          46.000          33.900
 108223474.578 8  84330038.65747  20594242.070                    20594248.977
      1187.555         925.633          52.900          44.600
 124469001.916 6  96988921.46644  23685677.430                    23685682.082
      3124.422        2434.618          40.800          24.700
 126335176.877 6  98443042.16944  24040798.273                    24040807.953
     -3660.129       -2852.051          40.200          25.600
 18  2 21  9 24  0.0000000  0  7G07G05G09G02G30G13G06
 109325505.447 8  85188693.22147  20803951.273                    20803955.598
      -601.738        -468.646          52.000          42.900
 110531677.937 8  86128645.00446  21033491.133                    21033495.418
      1794.883        1398.761          53.000          41.200
 116525943.948 8  90799499.78546  22174154.711                    22174162.055
     -2658.652       -2071.640          48.700          38.100
 118242644.753 7  92137155.66745  22500837.281                    22500840.324
     -2066.453       -1610.018          46.700          33.500
 108188110.973 8  84302482.59847  20587512.734                    20587519.738
      1169.922         911.872          52.700          44.600
 124375334.612 6  96915933.95744  23667853.266                    23667858.461
      3120.098        2431.278          39.900          25.300
 126445017.177 7  98528631.94744  24061700.523                    24061709.480
     -3662.527       -2853.887          42.100          26.700
 18  2 21  9 24 30.0000000  0  7G07G05G09G02G30G13G06
 109343806.157 8  85202953.48647  20807433.609                    20807437.906
      -618.316        -481.622          51.500          42.500
 110478046.022 8  86086853.90546  21023285.234                    21023289.609
      1780.613        1387.653          52.700          41.400
 116605796.761 7  90861722.74546  22189350.984                    22189357.355
     -2664.797       -2076.415          47.800          37.100
 118304843.231 7  92185621.97645  22512673.164                    22512675.926
     -2080.031       -1620.701          45.700          33.400
 108153278.829 8  84275340.67247  20580884.367                    20580890.906
      1152.129         898.023          53.000          44.800
 124281797.909 7  96843048.27144  23650054.016                    23650059.434
      3115.695        2427.860          43.300          25.700
 126554928.462 6  98614277.04444  24082615.070                    24082624.172
     -3664.789       -2855.733          41.300          27.000
 18  2 21  9 25  0.0000000  0  7G07G05G09G02G30G13G06
 109362605.661 8  85217602.44647  20811011.195                    20811015.660
      -635.023        -494.571          51.800          43.000
 110424842.375 8  86045396.51546  21013160.969                    21013165.680
      1766.297        1376.502          53.500          41.000
 116685831.343 8  90924087.31746  22204580.836                    22204587.910
     -2670.910       -2081.115          49.800          37.500
 118367450.825 7  92234407.09145  22524587.820                    22524589.703
     -2093.770       -1631.311          44.900          32.700
 108118978.918 8  84248613.47447  20574357.375                    20574364.363
      1134.453         884.211          53.500          44.600
 124188392.504 7  96770264.84444  23632279.484                    23632283.785
      3111.355        2424.470          43.900          24.800
 126664907.920 7  98699975.28044  24103544.563                    24103553.496
     -3667.121       -2857.452          42.900          27.200
 18  2 21  9 25 30.0000000  0  7G07G05G09G02G30G13G06
 109381902.814 8  85232639.18247  20814683.063                    20814687.293
      -651.543        -507.474          51.100          42.700
 110372069.143 8  86004274.51846  21003118.570                    21003123.230
      1751.973        1365.312          52.900          40.900
 116766046.591 8  90986592.68446  22219845.102                    22219851.750
     -2676.844       -2085.783          48.800          37.300
 118430465.273 7  92283509.25345  22536578.555                    22536581.469
     -2107.203       -1641.840          45.000          33.400
 108085211.710 8  84222301.35947  20567931.617                    20567938.523
      1116.734         870.376          53.800          44.700
 124095118.932 7  96697584.17444  23614530.477                    23614534.875
      3106.934        2420.988          44.300          25.800
 126774952.577 7  98785724.28144  24124485.070                    24124494.387
     -3669.281       -2859.120          43.100          26.600
 18  2 21  9 26  0.0000000  0  7G07G05G09G02G30G13G06
 109401696.556 8  85248062.86547  20818450.039                    20818453.863
      -667.973        -520.345          51.800          42.500
 110319727.875 8  85963489.11846  20993158.164                    20993162.594
      1737.570        1354.081          53.200          41.100
 116846441.671 8  91049238.18446  22235143.953                    22235151.406
     -2682.840       -2090.442          48.800          38.300
 118493884.292 7  92332926.64645  22548646.672                    22548649.250
     -2120.602       -1652.299          45.800          32.700
 108051977.931 8  84196404.90747  20561607.734                    20561614.668
      1098.977         856.537          53.200          44.600
 124001978.185 7  96625006.98744  23596806.031                    23596811.113
      3102.422        2417.551          44.300          26.800
 126885059.633 6  98871521.93544  24145437.375                    24145446.629
     -3671.160       -2860.695          41.400          25.600
 18  2 21  9 26 30.0000000  0  7G07G05G09G02G30G13G06
 109421985.360 8  85263872.31747  20822310.734                    20822315.250
      -684.492        -533.215          52.500          42.600
 110267820.082 8  85923041.49046  20983280.820                    20983285.246
      1723.063        1342.783          51.800          41.000
 116927015.243 8  91112022.75046  22250477.008                    22250483.078
     -2688.687       -2095.059          48.600          37.100
 118557705.359 7  92382657.32145  22560791.688                    22560794.047
     -2133.930       -1662.731          45.600          33.100
 108019277.760 8  84170924.26347  20555384.859                    20555391.586
      1081.113         842.632          52.600          44.200
 123908970.674 7  96552533.62644  23579107.281                    23579112.313
      3098.031        2414.071          44.100          26.400
 126995225.866 7  98957365.66944  24166402.742                    24166411.594
     -3673.180       -2862.197          42.900          27.400
 18  2 21  9 27  0.0000000  0  7G07G05G09G02G30G13G06
 109442768.488 8  85280066.97047  20826265.570                    20826269.805
      -700.980        -546.018          52.400          43.400
 110216347.612 8  85882933.06446  20973485.719                    20973489.691
      1708.414        1331.454          53.700          41.300
 117007766.438 8  91174945.75246  22265843.359                    22265849.781
     -2694.672       -2099.649          49.100          37.900
 118621925.837 7  92432699.21145  22573012.258                    22573015.172
     -2147.332       -1673.070          45.300          33.800
 107987111.836 8  84145859.91447  20549264.109                    20549270.992
      1063.270         828.755          52.500          45.200
 123816097.158 7  96480164.67144  23561433.977                    23561438.992
      3093.566        2410.618          42.500          25.600
 127105448.429 6  99043253.32643  24187376.109                    24187385.145
     -3675.074       -2863.618          40.000          23.000
 18  2 21  9 27 30.0000000  0  7G07G05G09G02G30G13G06
 109464045.110 8  85296646.15147  20830314.242                    20830318.867
      -717.430        -558.835          52.600          42.600
 110165312.840 8  85843165.71346  20963773.969                    20963778.293
      1693.781        1320.052          53.000          41.100
 117088694.724 8  91238006.71346  22281243.445                    22281250.309
     -2700.562       -2104.256          48.400          37.600
 118686543.764 7  92483050.81145  22585308.789                    22585311.301
     -2160.504       -1683.363          45.800          33.500
 107955481.070 8  84121212.56347  20543244.617                    20543251.676
      1045.449         814.857          51.900          45.000
 123723358.835 7  96407901.07144  23543786.313                    23543792.359
      3088.980        2407.051          42.200          27.300
 127215724.906 7  99129183.00344  24208362.203                    24208370.039
     -3676.668       -2864.962          43.100          26.100
 18  2 21  9 28  0.0000000  0  7G07G05G09G02G30G13G06
 109485813.670 8  85313608.66647  20834456.555                    20834461.559
      -733.727        -571.607          51.100          42.700
 110114716.839 8  85803740.25146  20954145.867                    20954150.559
      1679.242        1308.637          53.000          41.000
 117169798.519 7  91301204.45646  22296677.156                    22296683.105
     -2706.305       -2108.810          47.700          36.900
 118751556.157 7  92533709.77045  22597679.789                    22597682.969
     -2173.520       -1693.574          46.300          33.200
 107924385.462 8  84096982.22247  20537327.445                    20537334.352
      1027.711         800.916          52.900          45.200
 123630756.188 6  96335743.22444  23526164.219                    23526168.934
      3084.629        2403.536          41.200          24.700
 127326051.827 6  99215151.96044  24229356.031                    24229365.668
     -3678.152       -2866.243          40.200          25.300
 18  2 21  9 28 30.0000000  0  7G07G05G09G02G30G13G06
 109508073.275 8  85330953.79847  20838692.602                    20838696.977
      -750.258        -584.357          51.300          42.200
 110064562.547 8  85764658.98446  20944602.133                    20944606.160
      1664.355        1297.115          53.000          41.600
 117251077.369 8  91364538.61046  22312143.164                    22312150.703
     -2712.266       -2113.335          48.400          37.300
 118816961.578 7  92584674.97745  22610126.492                    22610129.738
     -2186.781       -1703.768          45.600          33.200
 107893825.940 8  84073169.60647  20531512.367                    20531519.250
      1009.684         786.996          52.800          45.000
 123538290.140 7  96263691.71544  23508568.539                    23508573.563
      3079.832        2399.972          42.200          26.500
 127436426.877 6  99301158.43644  24250359.852                    24250368.543
     -3679.922       -2867.503          41.700          27.500
 18  2 21  9 29  0.0000000  0  7G07G05G09G02G30G13G06
 109530822.666 8  85348680.61147  20843021.695                    20843025.984
      -766.418        -597.026          51.800          42.400
 110014851.736 8  85725923.28446  20935142.273                    20935146.871
      1649.637        1285.603          52.900          41.300
 117332530.308 8  91428008.39546  22327643.469                    22327650.191
     -2717.961       -2117.838          48.800          37.300
 118882757.053 7  92635944.15145  22622646.539                    22622649.406
     -2199.562       -1713.853          45.200          32.400
 107863802.934 8  84049775.05947  20525799.273                    20525805.941
       991.891         773.084          52.800          45.700
 123445961.439 7  96191747.33144  23490999.953                    23491003.398
      3075.414        2396.425          42.300          26.000
 127546847.027 6  99387200.03344  24271372.063                    24271381.496
     -3681.391       -2868.574          41.100          25.300
 18  2 21  9 29 30.0000000  0  7G07G05G09G02G30G13G06
 109554061.316 8  85366788.63947  20847443.656                    20847448.355
      -782.793        -609.708          51.700          42.500
 109965586.068 8  85687534.45246  20925767.172                    20925771.934
      1634.742        1274.045          52.600          41.400
 117414156.463 8  91491613.16146  22343177.016                    22343183.613
     -2723.734       -2122.316          48.100          37.300
 118948940.259 7  92687515.41045  22635241.313                    22635243.941
     -2212.598       -1723.874          45.500          32.500
 107834317.043 8  84026799.04147  20520188.086                    20520195.129
       973.902         759.127          52.200          45.300
 123353771.240 6  96119910.77444  23473456.500                    23473460.621
      3070.711        2392.819          40.500          27.900
 127657309.589 6  99473274.72944  24292392.086                    24292400.781
     -3682.793       -2869.668          41.700          24.900
 18  2 21  9 30  0.0000000  0  7G07G05G09G02G30G13G06
 109577787.388 8  85385276.48747  20851958.813                    20851963.559
      -799.051        -622.374          51.800          42.800
 109916766.787 8  85649493.44146  20916477.438                    20916481.750
      1619.754        1262.401          52.800          41.600
 117495954.483 7  91555351.85246  22358742.648                    22358749.176
     -2729.516       -2126.781          47.900          36.800
 119015508.424 7  92739386.65845  22647908.555                    22647911.336
     -2225.383       -1733.877          45.600          32.600
 107805368.299 8  84004241.57947  20514679.375                    20514686.324
       955.871         745.150          52.100          45.200
 123261719.961 7  96048182.53644  23455939.766                    23455944.680
      3065.953        2389.177          42.200          27.700
 127767811.347 6  99559379.92343  24313420.336                    24313429.551
     -3684.137       -2870.635          40.400          22.900
 18  2 21  9 30 30.0000000  0  7G07G05G09G02G30G13G06
 109601999.941 8  85404143.40647  20856566.148                    20856570.789
      -815.090        -634.993          50.300          42.000
 109868396.361 8  85611802.20746  20907272.633                    20907277.441
      1604.930        1250.734          53.400          41.800
 117577923.809 7  91619224.04146  22374340.766                    22374347.418
     -2734.957       -2131.210          47.300          36.700
 119082459.619 7  92791556.38045  22660648.883                    22660651.934
     -2238.020       -1743.792          46.000          33.200
 107776957.446 8  83982103.25847  20509272.727                    20509280.055
       938.199         731.197          52.300          45.600
 123169808.251 6  95976563.02344  23438449.336                    23438454.398
      3061.492        2385.565          40.700          26.800
 127878349.717 6  99645513.66244  24334454.594                    24334464.707
     -3685.133       -2871.562          40.400          24.600
 18  2 21  9 31  0.0000000  0  7G07G05G09G02G30G13G06
 109626697.401 8  85423388.17347  20861266.016                    20861270.754
      -831.254        -647.572          50.900          42.700
 109820475.662 8  85574461.39346  20898153.898                    20898158.359
      1589.914        1239.034          53.000          41.300
 117660063.017 7  91683228.57946  22389971.570                    22389978.762
     -2740.789       -2135.600          46.800          37.000
 119149790.966 7  92844022.31745  22673462.453                    22673464.348
     -2250.543       -1753.599          46.100          32.100
 107749084.378 8  83960383.99347  20503968.703                    20503975.988
       920.180         717.217          53.400          45.600
 123078036.983 7  95905052.97644  23420986.102                    23420990.613
      3056.738        2381.913          43.200          27.100
 127988921.497 6  99731673.42544  24355495.766                    24355504.363
     -3686.211       -2872.406          39.200          24.200
 18  2 21  9 31 30.0000000  0  7G07G05G09G02G30G13G06
 109651878.999 8  85443010.19047  20866058.008                    20866062.559
      -847.492        -660.112          51.500          42.900
 109773007.392 8  85537473.12747  20889120.508                    20889125.898
      1574.664        1227.270          53.200          42.100
 117742371.565 8  91747365.08246  22405634.211                    22405640.703
     -2746.531       -2139.982          48.400          36.100
 119217499.996 7  92896782.55345  22686346.164                    22686349.043
     -2263.227       -1763.377          45.400          32.600
 107721749.987 8  83939084.46447  20498767.109                    20498774.266
       902.094         703.224          53.100          45.600
 122986407.412 6  95833653.34944  23403548.891                    23403554.090
      3051.871        2378.221          40.900          26.700
 128099524.118 6  99817857.23043  24376543.961                    24376552.758
     -3687.258       -2873.121          40.000          23.900
 18  2 21  9 32  0.0000000  0  7G07G05G09G02G30G13G06
 109677543.559 8  85463008.54247  20870941.773                    20870946.488
      -863.516        -672.676          51.800          42.600
 109725993.391 8  85500838.85046  20880174.641                    20880178.891
      1559.555        1215.413          52.900          41.600
 117824848.632 8  91811632.91046  22421329.070                    22421335.617
     -2752.027       -2144.379          48.800          37.000
 119285584.671 7  92949835.49245  22699302.992                    22699305.621
     -2275.699       -1773.134          44.900          32.400
 107694954.637 8  83918204.97447  20493668.266                    20493675.125
       884.184         689.193          53.400          45.300
 122894920.046 6  95762364.50444  23386139.398                    23386144.121
      3047.242        2374.504          41.600          27.600
 128210154.920 7  99904062.95944  24397596.164                    24397604.863
     -3688.121       -2873.876          42.300          24.600
 18  2 21  9 32 30.0000000  0  7G07G05G09G02G30G13G06
 109703689.945 8  85483382.34147  20875917.250                    20875921.699
      -879.480        -685.142          51.900          42.700
 109679434.649 8  85464559.30147  20871314.469                    20871319.219
      1544.406        1203.609          52.500          42.000
 117907493.044 8  91876031.11346  22437055.289                    22437063.199
     -2757.437       -2148.662          49.000          36.700
 119354041.917 7  93003178.72345  22712329.555                    22712332.680
     -2288.062       -1782.748          45.500          32.800
 107668698.485 8  83897745.64347  20488671.883                    20488679.027
       866.227         675.237          53.400          45.400
 122803575.619 7  95691187.04944  23368757.070                    23368762.348
      3042.441        2370.796          42.700          27.400
 128320810.838 6  99990288.30143  24418651.984                    24418662.156
     -3688.828       -2874.434          41.300          23.400
 18  2 21  9 33  0.0000000  0  7G07G05G09G02G30G13G06
 109730316.751 8  85504130.47547  20880983.938                    20880988.570
      -895.480        -697.629          51.900          42.000
 109633334.064 8  85428636.77246  20862541.664                    20862546.895
      1529.074        1191.651          53.400          41.700
 117990304.238 8  91940559.29845  22452813.766                    22452820.590
     -2763.117       -2153.027          48.100          35.800
 119422870.001 7  93056810.95345  22725427.344                    22725430.129
     -2300.320       -1792.372          44.800          32.300
 107642982.193 9  83877706.97447  20483778.125                    20483785.266
       848.344         661.177          54.100          45.800
 122712375.286 7  95620121.84944  23351402.828                    23351407.152
      3037.719        2367.044          42.300          27.000
 128431489.369 7 100076531.28844  24439714.141                    24439723.445
     -3689.527       -2875.023          42.600          24.700
 18  2 21  9 33 30.0000000  0  7G07G05G09G02G30G13G06
 109757422.863 8  85525252.10847  20886141.992                    20886146.602
      -911.477        -710.027          51.200          42.300
 109587692.655 8  85393072.02847  20853856.500                    20853861.020
      1513.762        1179.755          53.000          42.000
 118073280.956 8  92005216.44646  22468603.891                    22468611.625
     -2768.543       -2157.287          48.800          36.100
 119492065.934 7  93110729.83145  22738594.648                    22738598.168
     -2312.629       -1801.867          44.700          32.400
 107617805.715 8  83858088.93747  20478987.156                    20478994.707
       830.297         647.186          53.300          46.100
 122621319.437 7  95549169.25444  23334075.430                    23334080.137
      3032.777        2363.297          43.400          27.400
 128542187.410 6 100162789.45543  24460778.430                    24460788.492
     -3690.285       -2875.501          40.700          22.800
 18  2 21  9 34  0.0000000  0  7G07G05G09G02G30G13G06
 109785006.592 8  85546745.92147  20891391.156                    20891395.777
      -927.477        -722.461          51.400          42.300
 109542512.257 8  85357866.52547  20845259.109                    20845263.914
      1498.266        1167.715          52.800          42.400
 118156422.285 8  92070001.86046  22484425.109                    22484432.297
     -2774.219       -2161.587          49.400          36.100
 119561627.119 7  93164933.30245  22751831.945                    22751834.883
     -2324.828       -1811.343          45.400          31.700
 107593169.424 9  83838891.83247  20474299.211                    20474306.313
       812.164         633.113          54.000          45.600
 122530408.780 7  95478329.78444  23316775.125                    23316779.523
      3027.875        2359.464          42.800          26.500
 128652902.139 6 100249060.57843  24481846.594                    24481857.555
     -3690.820       -2875.888          39.200          22.500
 18  2 21  9 34 30.0000000  0  7G07G05G09G02G30G13G06
 109813067.468 8  85568611.52347  20896730.859                    20896735.453
      -943.211        -734.823          51.800          42.000
 109497795.237 8  85323022.09047  20836749.711                    20836754.277
      1482.879        1155.650          52.500          42.400
 118239727.565 8  92134915.02346  22500277.617                    22500285.211
     -2779.539       -2165.828          50.100          36.600
 119631551.044 7  93219419.42545  22765137.586                    22765141.105
     -2336.699       -1820.731          45.900          31.800
 107569073.781 8  83820116.00847  20469714.281                    20469720.617
       794.152         619.059          53.500          45.000
 122439644.448 7  95407604.35644  23299503.117                    23299508.188
      3023.004        2355.674          43.900          28.500
 128763630.973 6 100335342.70943  24502918.477                    24502928.813
     -3691.164       -2876.246          40.400          22.900
 18  2 21  9 35  0.0000000  0  7G07G05G09G02G30G13G06
 109841603.375 8  85590847.29346  20902161.648                    20902166.047
      -959.199        -747.158          52.400          41.800
 109453542.550 8  85288539.47846  20828328.578                    20828333.418
      1467.199        1143.569          53.000          41.800
 118323195.685 8  92199955.08545  22516161.547                    22516168.012
     -2785.012       -2170.038          48.800          35.700
 119701835.212 7  93274186.26645  22778512.719                    22778515.738
     -2348.801       -1830.055          45.000          31.800
 107545518.841 8  83801761.50947  20465231.734                    20465239.008
       776.055         605.026          53.100          45.500
 122349027.420 7  95336993.70344  23282259.555                    23282263.840
      3018.059        2351.842          43.200          27.500
 128874370.958 6 100421633.61544  24523991.539                    24524000.801
     -3691.715       -2876.502          39.100          24.700
 18  2 21  9 35 30.0000000  0  7G07G05G09G02G30G13G06
 109870613.633 8  85613452.67946  20907681.781                    20907685.738
      -974.906        -759.459          51.600          41.800
 109409756.519 8  85254420.49246  20819996.805                    20820001.273
      1451.770        1131.417          53.000          41.800
 118406825.866 8  92265121.43946  22532075.344                    22532082.523
     -2790.398       -2174.250          48.600          36.300
 119772477.121 7  93329231.85545  22791955.938                    22791958.316
     -2360.629       -1839.322          44.600          32.300
 107522505.001 9  83783828.64747  20460852.445                    20460859.484
       758.176         590.958          54.200          45.900
 122258558.121 7  95266498.15044  23265043.539                    23265049.051
      3013.137        2347.990          45.200          28.200
 128985119.427 6 100507931.01543  24545066.570                    24545075.969
     -3691.660       -2876.669          39.400          22.600
 18  2 21  9 36  0.0000000  0  7G07G05G09G02G30G28G13
 109900096.750 8  85636426.52846  20913292.008                    20913296.461
      -990.723        -771.723          51.900          41.300
 109366438.846 8  85220666.46147  20811753.641                    20811757.957
      1435.992        1119.258          52.500          42.300
 118490617.365 8  92330413.47446  22548020.156                    22548027.910
     -2795.836       -2178.412          49.100          36.600
 119843474.354 7  93384554.34145  22805465.789                    22805468.156
     -2372.617       -1848.516          43.800          32.000
 107500032.602 8  83766317.69147  20456575.750                    20456582.516
       739.984         576.907          53.700          45.600
 127686454.975 6  99495828.17543  24297892.586                    24297897.930
      3215.762        2505.902          39.700          20.400
 122168237.392 7  95196118.40644  23247855.969                    23247861.766
      3008.098        2344.114          44.500          27.900
 18  2 21  9 36 30.0000000  0  7G07G05G09G02G30G28G13
 109930051.613 8  85659767.97246  20918992.453                    20918996.656
     -1006.422        -783.987          52.500          41.500
 109323591.327 8  85187278.78846  20803599.734                    20803604.543
      1420.348        1106.971          52.700          41.600
 118574569.326 8  92395830.54546  22563996.375                    22564003.316
     -2801.152       -2182.603          48.700          36.000
 119914824.513 7  93440151.82445  22819043.391                    22819046.273
     -2384.176       -1857.685          44.300          31.400
 107478101.898 8  83749228.83147  20452402.609                    20452409.449
       721.918         562.795          53.000          46.000
 127590010.628 6  99420676.79443  24279540.180                    24279545.637
      3213.695        2504.227          40.600          22.000
 122078066.525 7  95125855.36444  23230697.250                    23230702.906
      3003.242        2340.188          44.700          29.600
 18  2 21  9 37  0.0000000  0  7G07G05G09G02G30G28G13
 109960476.511 8  85683475.67946  20924782.156                    20924786.820
     -1021.914        -796.155          51.500          41.400
 109281215.257 8  85154258.46846  20795536.148                    20795540.461
      1404.758        1094.759          52.800          41.700
 118658680.410 8  92461371.62446  22580001.961                    22580009.215
     -2806.195       -2186.685          49.400          36.100
 119986524.273 7  93496021.74045  22832687.094                    22832689.945
     -2395.648       -1866.696          45.200          32.200
 107456712.664 8  83732561.89147  20448332.305                    20448339.602
       704.023         548.763          53.700          45.800
 127493630.126 6  99345575.14543  24261198.961                    24261204.867
      3211.719        2502.573          39.500          22.300
 121988045.882 7  95055709.48144  23213566.898                    23213573.117
      2998.215        2336.302          44.600          28.900
 18  2 21  9 37 30.0000000  0  7G07G05G09G02G30G28G13
 109991370.192 8  85707548.67546  20930660.773                    20930665.543
     -1037.500        -808.252          52.500          41.800
 109239311.929 8  85121606.52147  20787561.836                    20787566.754
      1388.945        1082.490          52.800          42.000
 118742949.885 8  92527036.11746  22596037.750                    22596045.758
     -2811.527       -2190.752          48.700          36.100
 120058571.359 7  93552162.28745  22846397.734                    22846400.313
     -2407.227       -1875.650          43.100          31.000
 107435865.170 8  83716317.08847  20444365.445                    20444372.223
       685.949         534.730          53.400          46.400
 127397317.023 6  99270526.02143  24242870.539                    24242878.344
      3209.285        2500.872          39.400          21.500
 121898176.071 7  94985681.03144  23196465.859                    23196469.336
      2993.301        2332.442          43.900          28.400
 18  2 21  9 38  0.0000000  0  7G07G05G09G02G30G28G13
 110022731.358 8  85731985.93647  20936628.742                    20936633.113
     -1053.125        -820.452          51.800          42.000
 109197883.805 8  85089324.85846  20779678.789                    20779683.203
      1373.027        1070.066          53.200          41.600
 118827376.878 8  92592823.35945  22612103.820                    22612110.941
     -2816.879       -2194.903          48.600          35.300
 120130963.232 7  93608571.50645  22860173.047                    22860175.691
     -2418.820       -1884.646          44.000          31.600
 107415559.571 8  83700494.53747  20440501.203                    20440508.184
       667.848         520.593          53.800          45.500
 127301074.214 7  99195531.67743  24224557.500                    24224562.750
      3206.934        2498.891          42.400          23.000
 121808458.101 7  94915770.97444  23179392.930                    23179397.844
      2988.105        2328.421          44.100          29.100
 18  2 21  9 38 30.0000000  0  7G07G05G09G02G30G28G13
 110054559.454 8  85756787.05747  20942685.453                    20942689.625
     -1068.711        -832.549          51.200          42.100
 109156933.279 8  85057415.35847  20771886.047                    20771890.320
      1356.973        1057.641          53.200          42.000
 118911961.154 7  92658733.12746  22628199.867                    22628207.766
     -2822.105       -2198.968          47.700          36.300
 120203697.998 7  93665247.91245  22874014.109                    22874016.891
     -2430.199       -1893.493          42.700          31.200
 107395796.704 9  83685094.90247  20436740.594                    20436747.629
       649.648         506.498          54.200          46.000
 127204905.133 6  99120594.81043  24206255.469                    24206262.766
      3204.406        2496.959          40.300          19.600
 121718893.365 7  94845980.25344  23162348.906                    23162352.824
      2982.945        2324.430          42.400          28.100
 18  2 21  9 39  0.0000000  0  7G07G05G09G02G30G28G13
 110086851.785 8  85781949.90946  20948830.852                    20948834.738
     -1084.109        -844.565          52.300          41.600
 109116460.648 8  85025878.23546  20764184.156                    20764188.895
      1341.129        1045.246          52.900          41.800
 118996700.963 8  92724764.13345  22644324.930                    22644332.039
     -2827.234       -2202.963          48.100          35.800
 120276771.936 7  93722188.61245  22887919.219                    22887922.680
     -2441.422       -1902.239          42.100          30.500
 107376575.670 9  83670117.47347  20433082.758                    20433090.102
       631.664         492.457          54.000          45.600
 127108811.602 6  99045716.70743  24187970.422                    24187975.371
      3201.828        2494.992          40.600          21.700
 121629481.880 7  94776309.01644  23145333.977                    23145340.203
      2977.938        2320.483          44.500          28.900
 18  2 21  9 39 30.0000000  0  7G07G05G09G02G30G28G13
 110119607.433 8  85807473.77946  20955063.766                    20955068.117
     -1099.645        -856.633          51.900          41.900
 109076467.509 8  84994714.74546  20756573.688                    20756578.188
      1325.086        1032.737          52.400          41.400
 119081595.298 8  92790915.51245  22660480.203                    22660487.621
     -2832.453       -2206.996          49.100          35.300
 120350182.485 7  93779391.59045  22901889.758                    22901892.605
     -2452.531       -1910.976          42.500          31.100
 107357896.632 8  83655562.37347  20429528.328                    20429535.359
       613.582         478.339          53.200          45.800
 127012796.970 6  98970900.19743  24169699.305                    24169705.512
      3199.105        2492.859          38.400          21.800
 121540224.479 7  94706757.81144  23128349.617                    23128353.820
      2972.703        2316.417          45.300          29.300
 18  2 21  9 40  0.0000000  0  7G07G05G09G02G30G28G13
 110152825.321 8  85833357.84746  20961385.227                    20961389.211
     -1114.820        -868.568          52.400          41.700
 109036956.198 8  84963926.70547  20749054.992                    20749059.172
      1309.086        1020.221          51.900          42.000
 119166643.476 8  92857186.79045  22676664.477                    22676671.699
     -2837.371       -2210.947          48.100          35.000
 120423926.991 7  93836854.82245  22915922.555                    22915925.566
     -2463.629       -1919.604          43.200          31.200
 107339759.817 8  83641429.79147  20426076.945                    20426084.203
       595.551         464.288          52.500          45.700
 126916864.186 6  98896147.42943  24151444.258                    24151449.242
      3196.363        2490.698          40.200          21.800
 121451122.168 7  94637327.44944  23111393.555                    23111399.387
      2967.559        2312.406          43.700          29.700
 18  2 21  9 40 30.0000000  0  7G07G05G09G02G30G28G13
 110186503.413 8  85859600.50847  20967793.711                    20967797.750
     -1130.254        -880.523          51.100          42.100
 108997927.995 8  84933515.11846  20741628.273                    20741632.434
      1292.984        1007.654          52.700          41.800
 119251844.647 8  92923577.26745  22692877.781                    22692884.855
     -2842.496       -2214.922          48.100          35.900
 120498003.043 7  93894576.37445  22930018.664                    22930021.703
     -2474.594       -1928.183          43.700          31.500
 107322165.208 8  83627719.70347  20422728.813                    20422736.109
       577.504         450.186          52.700          45.900
 126821015.973 6  98821460.57043  24133204.398                    24133210.547
      3193.523        2488.471          39.700          22.200
 121362175.267 7  94568018.20344  23094467.922                    23094472.840
      2962.273        2308.347          43.400          29.600
 18  2 21  9 41  0.0000000  0  7G07G05G09G02G30G28G13
 110220640.017 8  85886200.45546  20974289.836                    20974293.816
     -1145.445        -892.394          52.300          41.500
 108959383.957 8  84903480.80646  20734293.563                    20734297.820
      1276.734         995.076          51.400          41.800
 119337197.641 7  92990086.05845  22709119.648                    22709127.285
     -2847.594       -2218.849          47.600          35.200
 120572407.618 7  93952553.92745  22944177.281                    22944180.539
     -2485.547       -1936.673          43.700          32.000
 107305112.610 8  83614431.96147  20419483.609                    20419490.711
       559.391         436.111          53.300          46.200
 126725254.703 6  98746841.42443  24114981.570                    24114987.336
      3190.582        2486.211          38.800          21.300
 121273384.909 7  94498830.93544  23077572.133                    23077576.797
      2956.980        2304.273          44.000          29.400
 18  2 21  9 41 30.0000000  0  7G07G05G09G02G30G28G13
 110255234.230 8  85913156.98246  20980872.922                    20980877.078
     -1160.805        -904.301          52.800          41.600
 108921326.503 8  84873825.64346  20727051.344                    20727055.863
      1260.473         982.373          51.700          41.700
 119422701.961 8  93056712.75045  22725390.695                    22725397.234
     -2852.605       -2222.783          48.100          35.100
 120647138.365 7  94010785.66145  22958398.711                    22958401.320
     -2496.488       -1945.142          44.900          32.100
 107288602.376 9  83601566.84747  20416341.883                    20416349.094
       541.301         422.022          54.000          45.900
 126629583.812 6  98672292.79143  24096775.609                    24096782.016
      3187.367        2483.729          38.600          21.100
 121184752.178 7  94429766.49844  23060705.383                    23060710.148
      2951.902        2300.171          45.500          29.800
 18  2 21  9 42  0.0000000  0  7G07G05G09G02G30G28G13
 110290285.100 8  85940469.34046  20987542.875                    20987546.551
     -1175.969        -916.128          52.800          41.700
 108883757.380 8  84844551.00146  20719902.016                    20719906.652
      1244.148         969.689          51.500          41.800
 119508356.852 7  93123456.81345  22741689.883                    22741697.820
     -2857.773       -2226.689          47.400          35.600
 120722192.934 7  94069269.69945  22972680.273                    22972683.738
     -2507.297       -1953.515          44.500          31.400
 107272634.649 8  83589124.45847  20413303.172                    20413310.379
       523.180         407.945          53.100          45.500
 126534006.466 6  98597816.88943  24078587.852                    24078593.680
      3184.293        2481.361          39.400          22.500
 121096277.609 7  94360825.26844  23043868.984                    23043873.250
      2946.348        2296.042          42.600          27.800
 18  2 21  9 42 30.0000000  0  7G07G05G09G02G30G28G13
 110325790.182 8  85968135.63147  20994299.227                    20994303.336
     -1191.059        -927.917          52.900          42.800
 108846677.429 8  84815657.52646  20712846.086                    20712850.496
      1227.930         956.946          50.800          41.800
 119594161.014 7  93190317.13945  22758018.336                    22758025.840
     -2862.523       -2230.540          46.700          35.900
 120797568.060 7  94128003.54145  22987023.672                    22987026.988
     -2517.727       -1961.790          45.100          31.400
 107257208.908 8  83577104.39747  20410368.086                    20410374.926
       505.262         393.868          53.700          45.900
 126438525.178 6  98523416.02644  24060418.961                    24060424.789
      3181.164        2478.795          41.800          24.800
 121007962.066 7  94292007.98944  23027062.898                    23027067.773
      2941.281        2291.904          44.600          29.100
 18  2 21  9 43  0.0000000  0  7G07G05G09G02G30G28G13
 110361748.805 8  85996155.32546  21001142.258                    21001146.066
     -1206.070        -939.660          52.900          41.700
 108810088.964 8  84787147.03347  20705883.500                    20705887.938
      1211.383         944.146          51.700          42.200
 119680113.959 7  93257293.42045  22774375.094                    22774381.836
     -2867.602       -2234.414          47.300          35.500
 120873261.325 7  94186985.25645  23001428.375                    23001431.254
     -2528.305       -1970.036          45.200          31.300
 107242325.535 8  83565506.97147  20407535.852                    20407543.035
       487.125         379.771          53.500          45.700
 126343143.200 6  98449092.44543  24042267.188                    24042273.844
      3177.633        2476.173          39.600          23.400
 120919806.530 7  94223315.40244  23010288.109                    23010291.922
      2935.875        2287.738          45.100          29.100
 18  2 21  9 43 30.0000000  0  7G07G05G09G02G30G28G13
 110398159.224 8  86024527.07647  21008070.719                    21008074.684
     -1221.156        -951.406          53.300          42.100
 108773993.074 8  84759020.36846  20699014.883                    20699019.180
      1194.957         931.341          50.900          41.800
 119766214.638 7  93324384.84045  22790759.227                    22790766.230
     -2872.430       -2238.245          45.500          35.000
 120949269.882 7  94246212.69345  23015891.508                    23015894.188
     -2538.914       -1978.213          44.700          30.500
 107227984.312 8  83554331.98147  20404806.852                    20404813.680
       468.969         365.678          53.400          45.800
 126247863.182 6  98374848.30443  24024137.078                    24024143.219
      3174.168        2473.464          39.900          22.600
 120831811.551 7  94154747.89845  22993542.930                    22993548.191
      2930.496        2283.525          45.500          30.100
 18  2 21  9 44  0.0000000  0  7G07G05G09G02G30G28G13
 110435020.189 8  86053249.89746  21015084.711                    21015089.426
     -1236.301        -963.084          53.500          41.500
 108738391.599 8  84731278.95646  20692239.813                    20692244.656
      1178.457         918.486          51.900          41.700
 119852462.299 7  93391590.75245  22807171.859                    22807179.500
     -2877.398       -2242.021          47.200          35.300
 121025591.040 7  94305683.68845  23030415.555                    23030418.688
     -2549.187       -1986.267          45.700          31.400
 107214185.180 8  83543579.42247  20402180.906                    20402187.988
       450.969         351.617          53.200          45.300
 126152688.334 7  98300686.09343  24006026.258                    24006031.434
      3170.758        2470.726          42.100          23.500
 120743978.211 7  94086306.35044  22976828.875                    22976833.254
      2925.027        2279.365          45.900          29.900
 18  2 21  9 44 30.0000000  0  7G07G05G09G02G30G28G13
 110472330.031 8  86082322.47946  21022184.719                    21022189.250
     -1251.305        -974.719          53.400          41.700
 108703286.148 8  84703924.06047  20685559.906                    20685564.816
      1161.805         905.599          52.300          42.500
 119938856.165 7  93458910.62845  22823611.914                    22823618.355
     -2882.297       -2245.817          47.000          34.800
 121102222.433 7  94365396.40245  23044997.867                    23045000.465
     -2559.602       -1994.281          45.100          30.200
 107200928.155 8  83533249.26947  20399658.250                    20399665.305
       432.789         337.528          53.700          45.300
 126057621.288 6  98226607.97443  23987934.469                    23987941.113
      3166.902        2467.874          40.500          21.700
 120656306.887 7  94017991.05045  22960145.930                    22960151.184
      2919.496        2275.118          44.600          30.700
 18  2 21  9 45  0.0000000  0  7G07G05G09G02G30G28G13
 110510087.227 8  86111743.65646  21029369.883                    21029373.820
     -1266.090        -986.317          53.200          41.800
 108668677.964 8  84676956.63747  20678973.898                    20678978.563
      1145.313         892.658          51.600          42.100
 120025395.310 7  93526343.68645  22840079.672                    22840087.578
     -2887.113       -2249.592          47.400          35.300
 121179160.944 7  94425348.45345  23059639.133                    23059641.480
     -2569.793       -2002.251          45.100          30.400
 107188213.091 8  83523341.42747  20397238.273                    20397245.250
       414.707         323.456          53.800          45.300
 125962665.377 6  98152616.38043  23969864.875                    23969870.648
      3163.207        2464.974          40.100          22.300
 120568798.989 7  93949803.12645  22943493.570                    22943497.867
      2914.223        2270.893          45.900          30.900
 18  2 21  9 45 30.0000000  0  7G07G05G09G02G30G28G13
 110548290.348 8  86141512.30746  21036639.563                    21036643.746
     -1280.809        -997.848          53.700          41.800
 108634569.006 8  84650378.23147  20672483.422                    20672488.051
      1128.715         879.698          51.700          42.400
 120112078.798 7  93593889.23945  22856574.727                    22856582.012
     -2891.801       -2253.318          46.900          34.600
 121256404.195 7  94485537.93245  23074338.453                    23074340.367
     -2579.715       -2010.089          44.600          31.200
 107176039.694 8  83513855.66247  20394921.672                    20394929.133
       396.852         309.438          53.900          45.200
 125867823.120 6  98078713.35643  23951817.031                    23951822.742
      3159.492        2462.020          40.800          22.300
 120481455.351 7  93881743.14445  22926871.742                    22926877.223
      2908.695        2266.624          45.700          30.500
 18  2 21  9 46  0.0000000  0  7G07G05G09G02G30G28G13
 110586937.717 8  86171627.13246  21043994.055                    21043997.969
     -1295.613       -1009.389          53.600          41.300
 108600960.535 8  84624189.81647  20666087.484                    20666092.516
      1111.977         866.652          51.100          42.400
 120198905.930 8  93661546.69445  22873098.117                    22873105.016
     -2896.531       -2257.044          48.400          35.300
 121333949.121 7  94545962.50145  23089095.055                    23089097.746
     -2589.840       -2017.915          44.200          30.300
 107164407.990 8  83504791.99947  20392708.328                    20392715.719
       378.715         295.326          53.800          45.300
 125773097.521 6  98004901.24943  23933791.727                    23933796.500
      3155.531        2458.896          39.900          22.500
 120394276.395 7  93813811.52245  22910282.563                    22910287.652
      2903.230        2262.332          46.400          30.100
 18  2 21  9 46 30.0000000  0  7G07G05G09G02G30G28G13
 110626028.084 8  86202087.15446  21051432.695                    21051436.781
     -1310.375       -1020.908          53.800          41.400
 108567854.072 8  84598392.56347  20659787.930                    20659792.457
      1095.195         853.574          51.500          42.600
 120285875.816 7  93729315.39045  22889647.461                    22889654.570
     -2901.277       -2260.767          47.500          34.000
 121411793.125 7  94606620.12845  23103908.445                    23103910.551
     -2599.687       -2025.640          42.900          31.600
 107153317.784 8  83496150.28447  20390597.727                    20390605.250
       360.656         281.250          53.100          45.400
 125678491.808 6  97931182.52843  23915789.570                    23915794.000
      3151.605        2455.719          39.600          22.300
 120307263.029 7  93746008.92344  22893724.984                    22893728.191
      2897.711        2257.970          46.700          29.900
 18  2 21  9 47  0.0000000  0  7G07G05G09G02G30G28G13
 110665559.667 8  86232890.96946  21058955.070                    21058959.461
     -1324.984       -1032.304          53.200          41.800
 108535250.769 8  84572987.39847  20653583.477                    20653588.164
      1078.438         840.519          51.100          42.300
 120372987.362 7  93797194.49345  22906223.742                    22906232.313
     -2905.898       -2264.405          46.800          34.400
 121489933.316 7  94667508.54745  23118778.016                    23118780.293
     -2609.574       -2033.305          43.300          31.400
 107142768.615 8  83487930.15247  20388590.984                    20388597.945
       342.730         267.211          53.000          45.400
 125584008.583 6  97857559.27644  23897809.953                    23897815.230
      3147.418        2452.531          40.500          24.200
 120220415.983 7  93678335.90145  22877198.508                    22877203.523
      2892.207        2253.674          45.900          30.700
 18  2 21  9 47 30.0000000  0  7G07G05G09G02G30G28G13
 110705530.850 8  86264037.33846  21066561.047                    21066566.066
     -1339.707       -1043.716          53.700          41.300
 108503152.118 8  84547975.45747  20647475.398                    20647479.918
      1061.473         827.387          51.400          42.300
 120460239.948 7  93865183.43645  22922828.102                    22922835.289
     -2910.719       -2268.044          47.400          34.000
 121568366.890 7  94728625.56445  23133703.055                    23133706.250
     -2619.387       -2040.891          44.400          31.200
 107132760.457 8  83480131.58147  20386686.586                    20386693.051
       324.559         253.161          52.900          45.800
 125489650.750 6  97784033.76044  23879853.359                    23879859.219
      3143.262        2449.268          39.900          24.100
 120133736.164 7  93610793.19845  22860703.961                    22860707.230
      2886.535        2249.337          47.400          30.500
 18  2 21  9 48  0.0000000  0  7G07G05G09G02G30G28G13
 110745940.394 8  86295525.29146  21074251.133                    21074255.430
     -1354.348       -1055.130          53.500          41.400
 108471559.941 8  84523358.16847  20641463.695                    20641467.980
      1044.625         814.160          51.600          42.700
 120547632.746 7  93933281.72845  22939458.094                    22939465.512
     -2915.469       -2271.727          46.700          33.900
 121647091.350 7  94789969.24145  23148683.500                    23148686.180
     -2628.977       -2048.451          43.200          30.500
 107123293.158 8  83472754.46547  20384884.625                    20384891.504
       306.543         239.079          53.200          45.100
 125395421.471 6  97710608.38743  23861921.945                    23861927.422
      3138.773        2445.809          39.200          21.300
 120047224.264 7  93543381.32045  22844240.953                    22844245.801
      2880.941        2244.911          47.200          30.500
 18  2 21  9 48 30.0000000  0  7G07G05G09G02G30G28G13
 110786786.526 8  86327353.43046  21082024.117                    21082028.207
     -1368.836       -1066.413          53.800          41.600
 108440475.811 8  84499136.76247  20635548.391                    20635552.926
      1027.629         800.985          52.800          42.600
 120635164.904 7  94001488.53845  22956114.992                    22956122.527
     -2920.102       -2275.322          46.600          34.200
 121726104.008 7  94851537.50544  23163719.039                    23163722.527
     -2638.492       -2055.874          43.300          29.800
 107114366.443 9  83465798.58247  20383186.453                    20383193.242
       288.477         225.063          54.100          45.500
 125301323.430 6  97637285.26743  23844015.961                    23844021.102
      3134.348        2442.416          40.500          23.000
 119960881.544 7  93476101.30644  22827811.172                    22827814.605
      2875.195        2240.542          47.600          29.800
 18  2 21  9 49  0.0000000  0  7G07G05G09G02G30G28G13
 110828067.976 8  86359520.79646  21089879.063                    21089884.059
     -1383.434       -1077.729          52.800          41.400
 108409901.007 8  84475312.24447  20629730.578                    20629734.984
      1010.484         787.718          51.600          42.600
 120722835.650 7  94069803.36745  22972798.625                    22972805.004
     -2924.820       -2278.920          45.500          33.900
 121805401.902 7  94913328.02645  23178808.867                    23178812.156
     -2648.141       -2063.267          43.300          30.200
 107105980.052 8  83459263.73447  20381589.977                    20381596.754
       270.391         211.027          53.700          45.300
 125207359.840 6  97564066.92843  23826135.555                    23826139.969
      3129.691        2438.875          40.100          22.200
 119874708.713 7  93408953.62445  22811412.250                    22811416.902
      2869.445        2236.103          46.600          31.400
 18  2 21  9 49 30.0000000  0  7G07G05G09G02G30G28G13
 110869782.665 8  86392025.74246  21097817.180                    21097821.941
     -1397.789       -1088.943          53.200          40.900
 108379836.921 8  84451885.68047  20624009.359                    20624013.871
       993.504         774.439          51.700          42.600
 120810644.127 7  94138225.51045  22989507.539                    22989515.719
     -2929.391       -2282.482          45.100          34.600
 121884982.163 7  94975338.57644  23193952.352                    23193955.645
     -2657.418       -2070.553          42.000          28.700
 107098133.692 8  83453149.68847  20380097.297                    20380103.820
       252.531         197.011          53.900          44.900
 125113533.386 6  97490955.43644  23808280.500                    23808286.109
      3125.199        2435.294          40.000          25.800
 119788706.485 7  93341938.94245  22795046.992                    22795050.887
      2863.875        2231.664          46.900          30.000
 18  2 21  9 50  0.0000000  0  7G07G05G09G02G30G28G13
 110911929.131 8  86424867.13146  21105837.516                    21105842.137
     -1412.062       -1100.115          53.700          41.300
 108350284.796 8  84428858.03947  20618385.742                    20618390.297
       976.469         761.151          52.800          43.000
 120898589.233 7  94206754.14045  23006243.297                    23006249.430
     -2933.707       -2285.980          43.100          33.700
 121964841.871 7  95037566.85944  23209149.789                    23209152.137
     -2666.695       -2077.754          43.400          29.800
 107090826.889 8  83447456.07747  20378706.781                    20378713.445
       234.578         183.023          53.800          45.200
 125019846.786 6  97417952.95943  23790452.008                    23790458.375
      3120.527        2431.638          39.900          22.800
 119702875.486 7  93275057.63345  22778713.289                    22778718.246
      2858.168        2227.235          46.700          30.500
 18  2 21  9 50 30.0000000  0  8G07G05G09G02G30G28G13G20
 110954506.210 8  86458044.06646  21113939.609                    21113944.031
     -1426.469       -1111.297          52.900          40.800
 108321246.329 8  84406230.65447  20612859.961                    20612864.465
       959.336         747.779          51.500          42.900
 120986670.510 7  94275388.86045  23023004.680                    23023012.590
     -2938.398       -2289.534          45.400          34.200
 122044978.801 7  95100011.19744  23224399.570                    23224401.457
     -2675.824       -2084.947          43.800          29.800
 107084059.583 8  83442182.84647  20377418.734                    20377425.488
       216.621         169.010          53.200          45.800
 124926303.816 6  97345062.40943  23772652.242                    23772657.910
      3115.660        2427.826          40.300          23.500
 119617216.699 7  93208310.55945  22762413.547                    22762417.109
      2852.297        2222.710          47.000          31.300
 128413553.970 7 100062565.92543  24436296.781                    24436300.926
      3561.359        2775.123          42.100          22.000
 18  2 21  9 51  0.0000000  0  8G07G05G09G02G30G28G13G20
 110997512.084 8  86491555.13046  21122123.234                    21122127.531
     -1440.684       -1122.409          53.200          41.500
 108292722.823 8  84384004.54947  20607432.078                    20607436.332
       942.141         734.395          51.400          43.100
 121074887.028 7  94344128.94545  23039791.906                    23039798.645
     -2942.797       -2293.030          45.300          33.200
 122125389.877 7  95162669.15245  23239701.625                    23239703.867
     -2684.930       -2092.007          44.900          30.700
 107077831.356 8  83437329.69147  20376233.586                    20376240.457
       198.551         155.015          53.300          45.600
 124832906.670 6  97272285.46743  23754879.109                    23754884.078
      3110.715        2424.052          39.700          21.800
 119531730.970 7  93141698.29745  22746145.445                    22746149.148
      2846.594        2218.223          45.800          31.600
 128306777.168 6  99979363.22443  24415977.344                    24415981.148
      3556.875        2771.765          40.600          20.400
 18  2 21  9 51 30.0000000  0  8G07G05G09G02G30G28G13G20
 111040944.852 8  86525398.83446  21130388.438                    21130393.031
     -1454.973       -1133.504          52.700          41.000
 108264715.127 8  84362180.35947  20602102.406                    20602106.902
       924.918         720.954          52.700          43.000
 121163237.769 7  94412973.65645  23056604.070                    23056612.426
     -2947.324       -2296.537          45.200          34.700
 122206071.931 7  95225538.23645  23255054.961                    23255057.453
     -2693.992       -2099.042          43.800          30.500
 107072141.714 8  83432896.20147  20375151.086                    20375157.695
       180.613         140.993          53.900          45.600
 124739658.227 6  97199624.39343  23737133.867                    23737139.461
      3105.715        2420.114          38.500          22.900
 119446418.980 7  93075221.42045  22729911.398                    22729915.539
      2840.781        2213.678          46.300          31.400
 128200131.132 6  99896262.40343  24395682.336                    24395687.309
      3552.609        2768.314          38.800          20.100
 18  2 21  9 52  0.0000000  0  8G07G05G09G02G30G28G13G20
 111084803.174 8  86559574.13046  21138734.555                    21138738.828
     -1468.957       -1144.495          52.500          40.700
 108237224.903 8  84340759.39547  20596871.414                    20596875.773
       907.789         707.540          52.600          42.800
 121251722.025 7  94481922.33845  23073442.641                    23073449.191
     -2951.625       -2299.948          44.500          32.900
 122287022.363 7  95288616.46445  23270458.406                    23270461.762
     -2702.766       -2105.939          44.400          30.100
 107066990.325 8  83428882.13147  20374170.719                    20374177.598
       162.766         127.058          53.500          45.600
 124646561.564 6  97127081.62243  23719418.031                    23719423.805
      3100.750        2416.175          39.200          22.000
 119361281.807 7  93008880.77845  22713710.344                    22713714.145
      2835.063        2209.161          47.500          31.200
 128093618.804 6  99813265.85443  24375414.414                    24375419.020
      3548.246        2764.874          39.600          20.900
 18  2 21  9 52 30.0000000  0  8G07G05G09G02G30G28G13G20
 111129085.184 8  86594079.59646  21147161.250                    21147165.324
     -1483.129       -1155.514          53.000          40.900
 108210253.580 8  84319742.77747  20591738.875                    20591742.930
       890.402         693.995          51.200          42.600
 121340339.012 7  94550974.53045  23090305.336                    23090312.879
     -2956.137       -2303.418          44.600          32.600
 122368238.273 7  95351901.54244  23285913.563                    23285917.363
     -2711.586       -2112.848          44.300          28.500
 107062376.885 9  83425287.24247  20373292.867                    20373299.586
       144.801         113.045          54.500          45.300
 124553620.000 6  97054659.65544  23701731.641                    23701736.969
      3095.422        2412.056          40.800          24.400
 119276320.175 7  92942676.92645  22697542.695                    22697547.020
      2829.172        2204.554          45.100          30.300
 127987242.228 6  99730375.00443  24355171.258                    24355175.621
      3543.676        2761.275          39.700          18.600
 18  2 21  9 53  0.0000000  0  8G07G05G09G02G30G28G13G20
 111173789.934 8  86628914.45546  21155668.086                    21155672.176
     -1497.191       -1166.474          52.900          40.100
 108183802.994 8  84299131.92247  20586705.211                    20586709.559
       873.039         680.480          51.700          42.800
 121429088.256 7  94620129.71545  23107194.125                    23107201.387
     -2960.570       -2306.854          45.000          33.000
 122449717.382 7  95415391.69844  23301418.141                    23301422.223
     -2720.336       -2119.620          43.600          28.500
 107058301.283 8  83422111.44647  20372517.352                    20372523.918
       126.910          99.103          52.900          45.200
 124460836.320 6  96982360.74743  23684076.234                    23684081.270
      3090.113        2407.956          40.600          23.400
 119191535.237 7  92876610.75745  22681408.742                    22681413.285
      2823.211        2199.979          46.100          31.900
 127881004.108 6  99647592.07143  24334955.750                    24334959.590
      3538.973        2757.653          41.100          22.300
 18  2 21  9 53 30.0000000  0  8G07G05G09G02G30G28G13G20
 111218915.251 8  86664077.06646  21164255.281                    21164259.633
     -1511.156       -1177.373          53.600          41.100
 108157873.798 8  84278927.35047  20581771.148                    20581775.727
       855.609         666.905          51.900          43.200
 121517968.527 7  94689387.03945  23124107.445                    23124114.316
     -2964.781       -2310.218          44.400          32.200
 122531456.455 7  95479084.43744  23316972.148                    23316976.129
     -2728.945       -2126.349          43.600          28.400
 107054762.724 8  83419354.12847  20371843.875                    20371850.613
       109.031          85.170          53.600          45.400
 124368213.220 6  96910186.96243  23666450.492                    23666454.379
      3084.672        2403.728          41.300          22.200
 119106927.480 7  92810682.64945  22665308.211                    22665312.383
      2817.258        2195.359          46.800          31.900
 127774906.329 6  99564918.44043  24314764.984                    24314769.977
      3534.285        2753.962          39.900          20.900
 18  2 21  9 54  0.0000000  0  8G07G05G09G02G30G28G13G20
 111264459.457 8  86699566.05346  21172921.891                    21172926.270
     -1525.152       -1188.236          53.600          41.000
 108132467.643 8  84259130.34047  20576936.688                    20576940.816
       838.172         653.309          52.700          43.400
 121606979.023 7  94758745.83745  23141045.203                    23141054.094
     -2969.176       -2313.620          44.000          32.800
 122613452.668 6  95542977.53444  23332576.555                    23332579.441
     -2737.367       -2132.989          41.900          27.700
 107051760.758 8  83417014.93847  20371272.617                    20371279.621
        91.066          71.203          53.000          45.300
 124275753.848 6  96838140.75744  23648855.813                    23648861.734
      3079.293        2399.469          41.700          25.300
 119022497.689 7  92744893.21945  22649241.703                    22649246.484
      2811.293        2190.707          47.200          31.300
 127668951.200 6  99482356.00943  24294603.836                    24294608.289
      3529.430        2750.266          38.400          21.500
 18  2 21  9 54 30.0000000  0  8G07G05G09G02G30G28G13G20
 111310420.724 8  86735380.01546  21181668.352                    21181672.359
     -1538.891       -1199.015          53.400          41.100
 108107585.636 8  84239741.76147  20572201.664                    20572206.219
       820.727         639.707          53.000          43.500
 121696119.008 7  94828205.52345  23158008.523                    23158014.359
     -2973.379       -2316.938          45.600          32.600
 122695703.216 7  95607068.82444  23348228.469                    23348231.586
     -2745.781       -2139.542          43.200          28.700
 107049294.936 8  83415093.51447  20370803.422                    20370810.453
        73.363          57.331          52.400          45.100
 124183460.533 6  96766223.95944  23631293.008                    23631299.305
      3073.813        2395.120          41.700          25.400
 118938246.745 7  92679243.14045  22633209.391                    22633213.609
      2805.414        2186.070          46.300          31.000
 127563140.963 6  99399906.51143  24274467.773                    24274472.777
      3524.633        2746.479          38.600          20.900
 18  2 21  9 55  0.0000000  0  8G07G05G09G02G30G28G13G20
 111356797.480 8  86771517.75146  21190493.422                    21190497.359
     -1552.805       -1209.771          53.800          40.600
 108083228.681 8  84220762.31147  20567566.922                    20567571.453
       803.055         626.075          53.300          43.400
 121785387.513 7  94897765.32145  23174995.953                    23175004.098
     -2977.664       -2320.226          44.900          32.400
 122778205.089 7  95671355.97044  23363927.914                    23363930.020
     -2754.207       -2146.000          45.500          29.300
 107047364.699 8  83413589.43647  20370435.695                    20370442.961
        55.418          43.453          53.400          45.000
 124091336.573 6  96694439.10343  23613762.570                    23613767.984
      3067.844        2390.708          39.900          22.800
 118854175.385 8  92613733.00445  22617210.898                    22617215.750
      2799.398        2181.443          48.000          31.500
 127457477.952 6  99317571.69443  24254361.664                    24254365.629
      3519.504        2742.657          38.100          22.300
 18  2 21  9 55 30.0000000  0  8G07G05G09G02G30G28G13G20
 111403588.293 8  86807978.11946  21199397.320                    21199401.473
     -1566.516       -1220.517          53.900          40.500
 108059398.217 8  84202193.11247  20563032.180                    20563036.293
       785.645         612.363          53.400          42.700
 121874783.899 7  94967424.82745  23192007.180                    23192013.828
     -2982.090       -2323.596          47.500          31.900
 122860955.470 7  95735836.75944  23379674.430                    23379677.559
     -2762.336       -2152.414          44.500          28.400
 107045969.672 8  83412502.40447  20370170.586                    20370177.383
        37.660          29.533          53.800          45.600
 123999385.088 6  96622788.65543  23596264.469                    23596270.793
      3062.328        2386.167          40.400          23.900
 118770284.765 7  92548363.70145  22601247.320                    22601251.281
      2793.414        2176.711          47.600          31.100
 127351964.531 6  99235353.54243  24234281.766                    24234287.184
      3514.699        2738.737          38.100          22.200
 18  2 21  9 56  0.0000000  0  8G07G05G09G02G30G28G13G20
 111450791.004 8  86844759.44846  21208379.648                    21208384.039
     -1580.312       -1231.187          53.500          41.600
 108036095.385 8  84184035.05647  20558597.844                    20558602.348
       767.945         598.667          52.800          42.800
 121964306.988 7  95037182.99645  23209043.500                    23209051.156
     -2986.250       -2326.831          45.800          32.100
 122943950.964 7  95800508.53544  23395468.375                    23395470.809
     -2770.645       -2158.770          45.000          29.200
 107045108.980 8  83411831.74547  20370006.688                    20370014.070
        19.758          15.673          53.200          45.000
 123907608.307 6  96551274.34444  23578799.555                    23578804.660
      3056.121        2381.595          41.700          24.500
 118686575.209 8  92483135.50145  22585317.898                    22585322.395
      2787.281        2172.012          48.100          31.400
 127246602.921 6  99153253.52543  24214232.531                    24214236.793
      3509.422        2734.759          36.000          21.500
 18  2 21  9 56 30.0000000  0  8G07G05G09G02G30G28G13G20
 111498403.417 9  86881860.02346  21217439.930                    21217444.422
     -1594.000       -1241.845          54.100          41.300
 108013320.852 8  84166288.66347  20554263.953                    20554268.609
       750.234         584.888          52.700          43.000
 122053955.550 7  95107039.02345  23226102.500                    23226109.258
     -2990.395       -2330.131          46.300          31.300
 123027188.940 7  95865369.25344  23411307.594                    23411310.949
     -2778.668       -2165.059          45.300          28.800
 107044781.715 8  83411576.72147  20369944.258                    20369951.273
         1.926           1.775          53.400          45.400
 123816008.705 6  96479898.06543  23561368.820                    23561373.938
      3050.160        2376.928          41.000          22.800
 118603047.252 7  92418048.77845  22569423.297                    22569427.277
      2781.129        2167.235          47.800          31.100
 127141394.693 6  99071273.17643  24194212.484                    24194217.082
      3504.273        2730.686          38.700          21.700
 18  2 21  9 57  0.0000000  0  8G07G05G09G02G30G28G13G20
 111546424.869 8  86919279.30746  21226578.328                    21226582.762
     -1607.453       -1252.407          53.500          41.100
 107991077.013 8  84148955.80447  20550031.031                    20550035.000
       732.617         571.107          52.000          43.000
 122143729.775 7  95176992.86645  23243186.961                    23243193.730
     -2994.543       -2333.346          46.400          33.200
 123110667.072 7  95930417.10144  23427192.688                    23427196.102
     -2786.605       -2171.240          43.800          28.500
 107044988.175 9  83411737.59947  20369983.641                    20369990.488
       -15.730         -12.036          54.100          45.500
 123724590.597 6  96408663.21244  23543973.125                    23543977.762
      3044.215        2372.203          40.800          26.000
 118519702.350 7  92353104.71745  22553562.945                    22553567.742
      2775.207        2162.507          46.300          32.000
 127036342.956 6  98989414.65443  24174222.477                    24174225.820
      3499.055        2726.632          38.800          21.700
 18  2 21  9 57 30.0000000  0  8G07G05G09G02G30G28G13G20
 111594853.715 8  86957016.05646  21235794.313                    21235798.359
     -1621.125       -1262.997          52.800          40.800
 107969364.488 8  84132036.95547  20545899.180                    20545903.938
       714.805         557.290          52.000          43.100
 122233628.758 7  95247044.00245  23260292.930                    23260300.633
     -2998.781       -2336.623          44.900          31.600
 123194382.477 7  95995649.82344  23443123.875                    23443127.516
     -2794.555       -2177.386          43.600          28.500
 107045727.878 8  83412313.99847  20370124.328                    20370131.227
       -33.605         -25.903          52.900          45.100
 123633357.000 6  96337572.15343  23526611.703                    23526617.188
      3038.102        2367.366          40.400          22.600
 118436541.561 7  92288304.14245  22537737.813                    22537742.762
      2769.012        2157.721          46.000          32.400
 126931450.779 6  98907680.52343  24154261.906                    24154266.016
      3493.691        2722.436          38.500          22.000
 18  2 21  9 58  0.0000000  0  8G07G05G09G02G30G28G13G20
 111643687.966 8  86995068.71546  21245086.695                    21245091.512
     -1634.598       -1273.519          52.300          40.400
 107948184.696 8  84115533.20647  20541868.609                    20541873.410
       697.059         543.408          52.300          43.600
 122323651.713 7  95317191.71245  23277424.758                    23277431.809
     -3002.844       -2339.810          45.600          32.700
 123278332.192 7  96061065.12944  23459098.625                    23459102.262
     -2802.125       -2183.434          42.400          27.900
 107047000.143 8  83413305.37347  20370366.508                    20370373.293
       -51.336         -39.749          53.200          45.500
 123542310.445 6  96266626.82644  23509285.320                    23509291.895
      3031.621        2362.460          39.400          24.300
 118353565.602 7  92223647.55045  22521948.430                    22521952.840
      2762.699        2152.870          46.100          32.300
 126826720.060 6  98826072.17443  24134330.688                    24134336.270
      3488.230        2718.230          40.900          22.600
 18  2 21  9 58 30.0000000  0  8G07G05G09G02G30G28G13G20
 111692926.171 8  87033436.15246  21254456.828                    21254460.797
     -1647.957       -1283.965          52.100          41.000
 107927538.828 8  84099445.51147  20537939.992                    20537944.832
       679.336         529.566          52.500          43.000
 122413797.803 7  95387435.36845  23294578.844                    23294586.613
     -3006.773       -2342.980          43.900          32.800
 123362513.406 7  96126660.81344  23475117.961                    23475121.836
     -2809.773       -2189.395          44.500          28.600
 107048804.342 8  83414711.24247  20370709.680                    20370716.633
       -68.902         -53.524          52.300          45.400
 123451453.510 6  96195829.24044  23491996.430                    23492002.180
      3025.293        2357.518          39.500          24.600
 118270775.462 7  92159135.76545  22506193.414                    22506198.207
      2756.605        2148.061          47.600          31.700
 126722153.085 6  98744591.38243  24114433.359                    24114438.141
      3482.832        2713.962          41.100          23.800
 18  2 21  9 59  0.0000000  0  8G07G05G09G02G30G28G13G20
 111742566.864 8  87072117.20846  21263903.047                    21263907.270
     -1661.215       -1294.387          52.800          40.700
 107907427.874 8  84083774.64247  20534113.211                    20534117.617
       661.539         515.655          52.400          43.400
 122504066.231 7  95457774.36745  23311756.352                    23311763.008
     -3010.910       -2346.146          45.200          32.500
 123446923.336 7  96192434.72944  23491181.258                    23491184.422
     -2817.297       -2195.291          43.200          28.100
 107051139.812 8  83416531.08547  20371154.180                    20371160.691
       -86.594         -67.316          52.600          44.800
 123360789.327 6  96125181.89644  23474743.430                    23474748.926
      3019.082        2352.492          40.600          25.100
 118188172.077 7  92094769.49645  22490474.945                    22490478.297
      2750.453        2143.205          46.800          32.000
 126617751.818 6  98663239.81043  24094566.086                    24094571.367
      3477.301        2709.625          40.200          21.500
 18  2 21  9 59 30.0000000  0  8G07G05G09G02G30G28G13G20
 111792607.784 8  87111110.11846  21273425.250                    21273430.066
     -1674.680       -1304.787          53.000          40.600
 107887853.166 8  84068521.61747  20530387.969                    20530392.617
       643.504         501.680          52.300          43.500
 122594456.283 7  95528208.10245  23328957.305                    23328964.605
     -3015.043       -2349.334          44.100          31.800
 123531559.113 7  96258384.64644  23507287.141                    23507290.070
     -2824.953       -2201.168          44.100          28.800
 107054006.045 8  83418764.51747  20371699.859                    20371706.438
      -104.348         -81.121          52.700          45.400
 123270320.927 6  96054687.06544  23457527.906                    23457533.559
      3012.293        2347.337          41.900          24.100
 118105756.014 7  92030549.19645  22474791.539                    22474795.758
      2744.039        2138.302          47.400          31.800
 126513519.715 6  98582019.94743  24074731.984                    24074735.895
      3471.559        2705.178          40.900          22.500
                            4  1
RINEX FILE SPLICE; other post-header comments skipped       COMMENT
 18  2 21 10  0  0.0000000  0  8G07G05G09G02G30G28G13G20
 111843047.230 8  87150413.56546  21283023.852                    21283028.230
     -1687.895                          53.100          40.900
 107868815.394 8  84053686.97747  20526765.328                    20526770.066
       625.652                          51.900          43.400
 122684967.020 7  95598735.93745  23346180.742                    23346187.305
     -3019.074                          44.300          31.800
 123616417.638 7  96324508.13044  23523434.805                    23523437.832
     -2832.289                          43.800          27.800
 107057402.229 8  83421410.89447  20372345.922                    20372353.270
      -122.074                          52.800          44.800
 123180051.107 6  95984346.98444  23440350.289                    23440355.367
      3005.621                          41.600          25.700
 118023528.023 7  91966475.43445  22459144.320                    22459148.082
      2737.848                          46.600          33.200
 126409458.258 6  98500933.15644  24054929.609                    24054934.227
      3465.754                          41.800          24.000
 18  2 21 10  0 30.0000000  0  8G07G05G09G02G30G28G13G20
 111893883.682 8  87190026.38746  21292697.617                    21292702.176
     -1701.215       -1325.400          52.600          41.000
 107850316.130 8  84039271.96747  20523244.938                    20523249.395
       607.629         473.729          52.500          42.900
 122775597.693 7  95669357.14645  23363427.445                    23363435.754
     -3023.074       -2355.547          45.100          33.600
 123701496.202 7  96390803.06844  23539623.758                    23539627.961
     -2839.691       -2212.586          44.500          27.200
 107061327.722 8  83424469.72047  20373092.938                    20373099.621
      -139.734        -108.624          52.800          45.100
 123089982.644 6  95914163.77844  23423210.414                    23423215.922
      2998.836        2336.870          41.800          24.500
 117941489.355 7  91902549.21345  22443532.664                    22443537.012
      2731.367        2128.491          46.800          32.600
 126305570.168 6  98419981.38743  24035159.500                    24035164.480
      3459.938        2696.175          39.800          21.800
 18  2 21 10  1  0.0000000  0  8G07G05G09G02G30G28G13G20
 111945115.244 8  87229947.06346  21302446.867                    21302451.051
     -1714.270       -1335.622          53.000          41.300
 107832356.324 8  84025277.30947  20519827.203                    20519831.719
       589.605         459.722          52.000          43.000
 122866347.592 7  95740071.34145  23380695.922                    23380702.250
     -3027.008       -2358.606          45.400          31.100
 123786791.790 7  96457267.07544  23555855.289                    23555859.227
     -2846.844       -2218.158          43.200          27.000
 107065781.959 8  83427940.54347  20373940.383                    20373947.125
      -157.242        -122.317          52.300          45.500
 123000118.759 7  95844139.99644  23406110.359                    23406114.902
      2992.137        2331.580          43.000          24.500
 117859640.414 7  91838770.81845  22427957.273                    22427961.699
      2725.188        2123.566          46.800          32.100
 126201857.637 7  98339166.48743  24015424.328                    24015428.996
      3454.066        2691.583          42.000          22.500
 18  2 21 10  1 30.0000000  0  8G07G05G09G02G30G28G13G20
 111996740.301 8  87270174.37146  21312270.664                    21312275.199
     -1727.336       -1345.838          53.100          41.100
 107814936.820 8  84011703.66447  20516512.602                    20516516.840
       571.602         445.653          52.200          43.000
 122957215.954 7  95810877.80045  23397988.352                    23397996.199
     -3030.773       -2361.692          46.900          33.100
 123872301.600 6  96523898.05544  23572127.258                    23572131.004
     -2853.840       -2223.715          40.900          25.700
 107070764.188 8  83431822.80047  20374888.422                    20374895.211
      -174.805        -136.045          53.100          44.500
 122910462.142 7  95774277.74044  23389049.836                    23389054.957
      2985.109        2326.112          43.100          25.800
 117777982.471 7  91775141.27945  22412418.305                    22412422.844
      2718.836        2118.577          47.300          32.200
 126098323.258 6  98258490.35243  23995721.797                    23995727.328
      3448.320        2686.952          41.100          22.600
 18  2 21 10  2  0.0000000  0  8G07G05G09G02G30G28G13G20
 112048756.934 8  87310706.80046  21322169.188                    21322173.602
     -1740.277       -1355.996          53.200          41.200
 107798058.874 8  83998552.01047  20513300.680                    20513305.379
       553.637         431.569          52.300          43.000
 123048201.902 7  95881775.88545  23415301.750                    23415308.766
     -3034.680       -2364.758          45.200          31.100
 123958022.834 7  96590693.77044  23588439.844                    23588442.629
     -2860.797       -2229.168          42.600          26.800
 107076273.677 8  83436115.90147  20375937.281                    20375943.883
      -192.332        -149.718          52.900          44.700
 122821015.576 7  95704579.15944  23372028.273                    23372032.969
      2978.199        2320.605          42.900          24.900
 117696516.363 7  91711661.20445  22396915.414                    22396920.188
      2712.414        2113.591          46.000          31.900
 125994969.326 7  98177954.84544  23976055.063                    23976059.473
      3442.230        2682.216          42.300          24.100
 18  2 21 10  2 30.0000000  0  8G07G05G09G02G30G28G13G20
 112101163.641 8  87351543.17346  21332142.117                    21332146.191
     -1753.414       -1366.088          53.200          41.100
 107781723.105 8  83985822.84647  20510192.172                    20510196.258
       535.496         417.505          51.300          43.000
 123139304.614 7  95952764.98645  23432638.539                    23432645.793
     -3038.789       -2367.754          46.800          32.100
 124043952.490 6  96657651.86744  23604791.922                    23604794.848
     -2867.746       -2234.508          41.000          27.000
 107082309.622 8  83440819.22947  20377085.469                    20377092.250
      -209.996        -163.366          52.700          45.000
 122731781.951 7  95635046.51244  23355047.758                    23355052.559
      2970.895        2315.087          43.500          24.200
 117615242.586 7  91648330.98945  22381449.867                    22381454.320
      2705.906        2108.586          47.300          32.600
 125891798.169 6  98097561.74144  23956421.484                    23956426.633
      3435.887        2677.473          41.600          25.300
 18  2 21 10  3  0.0000000  0  8G07G05G09G02G30G28G13G20
 112153958.457 8  87392681.99146  21342188.156                    21342192.773
     -1766.250       -1376.173          53.200          40.700
 107765931.086 8  83973517.36147  20507187.055                    20507191.703
       517.379         403.345          52.100          43.400
 123230523.387 7  96023844.47444  23449996.758                    23450004.000
     -3042.504       -2370.775          45.600          29.600
 124130087.539 6  96724770.06244  23621182.563                    23621185.398
     -2874.500       -2239.834          40.900          26.200
 107088871.295 8  83445932.21947  20378334.398                    20378341.246
      -227.477        -177.033          53.500          45.100
 122642764.423 7  95565682.25344  23338107.313                    23338113.098
      2963.656        2309.379          43.800          24.200
 117534162.185 7  91585151.47445  22366021.109                    22366025.613
      2699.484        2103.534          46.800          33.200
 125788812.390 6  98017313.08443  23936823.711                    23936829.098
      3429.824        2672.603          39.500          23.200
 18  2 21 10  3 30.0000000  0  8G07G05G09G02G30G28G13G20
 112207139.631 8  87434121.85546  21352308.391                    21352312.922
     -1779.113       -1386.175          53.400          41.200
 107750683.352 8  83961636.01047  20504285.430                    20504290.094
       499.121         389.180          51.600          43.300
 123321857.363 7  96095013.80045  23467376.383                    23467384.246
     -3046.395       -2373.778          46.300          31.000
 124216424.926 6  96792045.85044  23637612.789                    23637616.141
     -2881.187       -2245.048          41.400          27.700
 107095957.887 8  83451454.23447  20379682.898                    20379689.828
      -244.992        -190.662          53.000          44.600
 122553965.771 7  95496488.49543  23321210.266                    23321214.449
      2956.313        2303.678          43.800          23.900
 117453276.119 7  91522123.37345  22350628.656                    22350633.293
      2692.980        2098.473          46.700          33.200
 125686014.332 6  97937210.69943  23917263.180                    23917266.320
      3423.426        2667.688          41.100          22.800
 18  2 21 10  4  0.0000000  0  8G07G05G09G02G30G28G13G20
 112260705.605 8  87475861.56546  21362501.461                    21362506.219
     -1791.844       -1396.147          53.200          40.900
 107735981.140 8  83950179.73447  20501487.469                    20501491.953
       481.004         375.010          51.800          42.900
 123413305.918 7  96166272.32845  23484779.031                    23484786.867
     -3050.148       -2376.723          46.900          32.100
 124302962.070 6  96859477.36344  23654080.133                    23654083.449
     -2887.727       -2250.187          40.300          27.200
 107103568.792 8  83457384.81347  20381131.242                    20381138.086
      -262.285        -204.257          53.000          45.100
 122465388.916 7  95427467.64144  23304354.484                    23304359.898
      2948.879        2297.883          43.700          25.500
 117372585.294 8  91459247.41245  22335273.844                    22335278.266
      2686.566        2093.413          48.000          33.300
 125583406.254 6  97857256.40643  23897736.906                    23897741.469
      3417.098        2662.739          39.500          22.600
 18  2 21 10  4 30.0000000  0  8G07G05G09G02G30G28G13G20
 112314654.278 8  87517899.48146  21372767.750                    21372772.379
     -1804.551       -1405.998          53.000          40.300
 107721825.272 8  83939149.18047  20498793.773                    20498798.488
       462.832         360.864          53.200          43.300
 123504868.063 7  96237619.40345  23502202.352                    23502210.055
     -3053.828       -2379.588          45.700          30.600
 124389695.967 6  96927062.14144  23670585.305                    23670588.965
     -2894.277       -2255.222          40.500          26.800
 107111702.978 8  83463723.13747  20382679.320                    20382686.023
      -279.754        -217.787          53.100          44.700
 122377036.356 7  95358621.49244  23287541.945                    23287545.371
      2941.301        2292.073          44.200          24.700
 117292090.227 7  91396524.00145  22319955.789                    22319960.230
      2679.996        2088.358          47.200          32.900
 125480990.632 6  97777451.98943  23878247.492                    23878251.059
      3410.664        2657.774          40.900          21.500
 18  2 21 10  5  0.0000000  0  8G07G05G09G02G30G28G13G20
 112368983.935 8  87560234.28046  21383106.070                    21383110.695
     -1817.344       -1415.935          52.600          40.900
 107708217.008 8  83928545.33047  20496204.203                    20496209.090
       444.434         346.580          52.800          43.000
 123596543.173 7  96309054.50245  23519647.648                    23519655.598
     -3057.711       -2382.602          46.300          31.000
 124476623.871 7  96994798.13744  23687126.570                    23687130.535
     -2900.930       -2260.282          42.300          27.500
 107120359.787 8  83470468.70247  20384326.664                    20384333.156
      -297.352        -231.407          53.400          45.800
 122288911.550 7  95289952.83944  23270772.063                    23270777.117
      2933.691        2286.082          43.600          25.800
 117211792.071 7  91333954.02245  22304675.953                    22304680.391
      2673.234        2083.187          47.500          33.200
 125378769.987 6  97697799.57244  23858796.336                    23858800.543
      3403.926        2652.611          41.500          24.700
 18  2 21 10  5 30.0000000  0  8G07G05G09G02G30G28G13G20
 112423692.830 8  87602864.57346  21393516.914                    21393521.145
     -1829.891       -1425.721          52.300          40.500
 107695156.916 8  83918368.64047  20493719.266                    20493723.871
       426.281         332.370          51.900          43.000
 123688330.437 7  96380577.00944  23537114.305                    23537121.398
     -3061.332       -2385.434          44.900          29.900
 124563742.728 6  97062682.87744  23703705.188                    23703708.570
     -2907.117       -2265.146          38.900          26.200
 107129538.303 8  83477620.79047  20386073.109                    20386080.152
      -314.480        -244.909          52.900          45.100
 122201016.975 6  95221463.60144  23254046.391                    23254052.035
      2926.008        2280.074          40.400          25.600
 117131691.793 8  91271538.21045  22289433.203                    22289437.207
      2666.734        2078.069          48.000          33.400
 125276746.888 6  97618301.05543  23839381.203                    23839384.984
      3397.516        2647.504          41.300          22.000
 18  2 21 10  6  0.0000000  0  8G07G05G09G02G30G28G13G20
 112478779.262 8  87645789.06246  21403999.359                    21404003.859
     -1842.520       -1435.566          53.200          40.500
 107682646.105 8  83908619.95847  20491338.570                    20491342.871
       407.754         318.019          53.000          43.000
 123780229.092 7  96452186.28245  23554602.016                    23554610.676
     -3065.172       -2388.383          44.300          31.600
 124651049.832 6  97130714.35544  23720318.805                    23720322.293
     -2913.430       -2270.074          40.200          26.800
 107139237.736 8  83485178.79347  20387918.844                    20387926.051
      -332.082        -258.484          53.800          45.500
 122113355.724 7  95153156.22144  23237364.789                    23237369.969
      2917.961        2273.916          42.200          26.000
 117051789.797 7  91209276.94245  22274228.148                    22274233.102
      2660.086        2072.879          46.600          33.600
 125174923.633 7  97538958.28144  23820005.422                    23820009.789
      3390.668        2642.213          42.500          25.900
 18  2 21 10  6 30.0000000  0  8G07G05G09G02G30G28G13G20
 112534241.449 8  87689006.34246  21414553.719                    21414558.344
     -1854.953       -1445.255          52.800          40.100
 107670685.422 8  83899299.93047  20489062.602                    20489066.961
       389.598         303.783          53.400          43.300
 123872238.443 7  96523881.83645  23572111.102                    23572118.574
     -3068.742       -2391.211          45.700          31.500
 124738542.027 6  97198890.02144  23736968.188                    23736971.723
     -2919.414       -2274.811          40.900          26.500
 107149457.247 9  83493142.04147  20389863.656                    20389870.352
      -349.211        -271.930          54.000          45.500
 122025930.592 7  95085032.80444  23220727.938                    23220733.684
      2910.191        2267.797          43.600          26.200
 116972087.086 7  91147170.95745  22259060.859                    22259065.727
      2653.398        2067.716          47.400          34.200
 125073302.614 7  97459773.13743  23800666.414                    23800672.164
      3383.918        2636.971          42.800          23.900
 18  2 21 10  7  0.0000000  0  8G07G05G09G02G30G28G13G20
 112590077.402 8  87732514.86646  21425178.719                    21425183.262
     -1867.477       -1454.948          52.800          40.200
 107659275.108 8  83890408.77347  20486891.172                    20486895.922
       371.125         289.457          52.300          43.300
 123964357.543 7  96595662.86445  23589641.633                    23589649.359
     -3072.594       -2394.072          44.600          30.600
 124826215.987 6  97267207.34344  23753652.219                    23753655.637
     -2925.492       -2279.496          40.600          26.200
 107160195.820 8  83501509.76147  20391907.016                    20391914.070
      -366.742        -285.430          53.700          45.500
 121938744.294 7  95017095.43644  23204136.641                    23204140.871
      2902.063        2261.560          43.800          24.600
 116892584.867 7  91085221.19245  22243932.648                    22243937.004
      2646.625        2062.484          46.800          33.100
 124971886.360 7  97380747.43344  23781368.813                    23781372.480
      3376.973        2631.615          43.600          24.700
 18  2 21 10  7 30.0000000  0  8G07G05G09G02G30G28G13G20
 112646285.319 8  87776313.23546  21435875.078                    21435879.254
     -1879.605       -1464.615          52.400          40.400
 107648416.733 8  83881947.70647  20484824.625                    20484829.746
       352.867         275.077          53.200          43.000
 124056585.691 7  96667528.92944  23607191.250                    23607198.477
     -3075.941       -2396.925          45.800          29.300
 124914069.380 6  97335664.46743  23770370.219                    23770373.430
     -2931.375       -2284.153          40.400          23.800
 107171452.648 8  83510281.31247  20394048.984                    20394056.168
      -383.758        -298.908          53.500          45.000
 121851799.692 7  94949346.46544  23187591.391                    23187596.402
      2894.148        2255.224          43.300          26.700
 116813283.874 7  91023428.22845  22228841.898                    22228846.340
      2640.125        2057.204          46.000          32.700
 124870677.102 7  97301883.14343  23762108.992                    23762113.590
      3370.309        2626.191          43.200          23.500
 18  2 21 10  8  0.0000000  0  8G07G05G09G02G30G28G13G20
 112702863.719 8  87820400.29446  21446641.391                    21446645.434
     -1892.102       -1474.223          51.700          40.500
 107638111.128 8  83873917.36247  20482863.547                    20482868.477
       334.293         260.704          52.600          43.600
 124148922.265 7  96739479.45545  23624762.633                    23624770.313
     -3079.637       -2399.723          45.000          30.600
 125002099.246 6  97404259.11844  23787121.688                    23787125.348
     -2937.293       -2288.729          39.600          26.700
 107183226.877 9  83519456.02747  20396289.977                    20396296.652
      -401.047        -312.335          54.100          45.400
 121765099.871 7  94881788.18344  23171093.273                    23171098.758
      2885.910        2248.817          43.800          26.300
 116734185.103 7  90961792.83745  22213790.008                    22213794.234
      2633.305        2051.957          46.900          33.400
 124769677.479 7  97223182.08243  23742888.664                    23742893.172
      3363.250        2620.724          42.300          22.900
 18  2 21 10  8 30.0000000  0  8G07G05G09G02G30G28G13G20
 112759810.366 8  87864774.29146  21457477.961                    21457482.273
     -1904.391       -1483.740          51.600          39.700
 107628358.711 8  83866318.07247  20481007.945                    20481012.465
       315.820         246.365          51.700          43.000
 124241366.241 7  96811513.67045  23642354.008                    23642362.055
     -3083.266       -2402.484          44.900          30.400
 125090302.764 6  97472989.04944  23803906.492                    23803910.289
     -2943.043       -2293.135          41.300          26.000
 107195517.407 8  83529033.06747  20398628.555                    20398635.383
      -418.285        -325.699          53.700          45.500
 121678647.284 7  94814422.59944  23154642.242                    23154646.816
      2877.559        2242.384          44.500          26.700
 116655288.848 7  90900315.23945  22198776.305                    22198781.293
      2626.520        2046.710          46.800          33.200
 124668890.053 6  97144646.46443  23723709.711                    23723714.301
      3355.969        2615.185          41.000          22.500
 18  2 21 10  9  0.0000000  0  8G07G05G09G02G30G28G13G20
 112817123.578 8  87909433.92646  21468384.477                    21468389.180
     -1916.543       -1493.243          51.600          40.500
 107619160.312 8  83859150.48347  20479257.289                    20479262.469
       297.320         231.947          52.900          43.800
 124333917.075 7  96883631.14645  23659965.469                    23659972.984
     -3086.820       -2405.239          44.300          30.900
 125178676.587 6  97541851.71744  23820723.516                    23820726.785
     -2948.488       -2297.526          41.300          27.900
 107208323.473 8  83539011.81147  20401065.672                    20401072.504
      -435.488        -339.088          53.000          45.700
 121592445.079 7  94747252.05044  23138238.344                    23138242.809
      2869.180        2235.859          42.700          26.200
 116576596.488 7  90838996.53545  22183802.367                    22183806.227
      2619.578        2041.375          46.300          34.100
 124568317.304 6  97066278.08343  23704571.508                    23704575.508
      3348.648        2609.578          41.200          22.600
 18  2 21 10  9 30.0000000  0  8G07G05G09G02G30G28G13G20
 112874802.053 8  87954378.18746  21479360.281                    21479364.418
     -1928.602       -1502.716          53.000          39.600
 107610517.110 8  83852415.51647  20477612.461                    20477617.305
       278.922         217.539          52.400          43.600
 124426574.048 7  96955831.33644  23677597.164                    23677604.777
     -3090.301       -2407.982          44.100          29.100
 125267218.045 6  97610844.98544  23837572.000                    23837575.961
     -2954.129       -2301.873          41.700          25.100
 107221644.158 9  83549391.56547  20403600.430                    20403607.418
      -452.488        -352.438          54.100          45.300
 121506496.043 7  94680278.84044  23121882.289                    23121888.984
      2860.715        2229.245          44.700          27.400
 116498109.030 7  90777837.48845  22168866.203                    22168870.867
      2612.895        2036.064          46.800          33.600
 124467961.746 6  96988078.99043  23685474.023                    23685479.113
      3341.617        2603.894          40.100          22.500
