     2.11           OBSERVATION DATA    G (GPS)             RINEX VERSION / TYPE
teqc  2016Nov7                          20180328 12:56:15UTCPGM / RUN BY / DATE
Linux 2.4.21-27.ELsmp|Opteron|gcc|Linux x86_64|=+           COMMENT
teqc  2016Nov7                          20180328 12:56:14UTCCOMMENT
     2.11           OBSERVATION DATA    M (MIXED)           COMMENT
teqc  2016Nov7                          20180328 12:56:13UTCCOMMENT
teqc  2016Nov7      IGN-RGP             20180221 09:16:18UTCCOMMENT
teqc  2015Jun23     IGN-RGP             20180221 09:08:07UTCCOMMENT
Linux2.4.20-8|i386|gcc|Win32-MinGW32|=                      COMMENT
   0.000      (antenna height)                              COMMENT
 +48.65482660 (latitude)                                    COMMENT
  +1.98280364 (longitude)                                   COMMENT
0230.781      (elevation)                                   COMMENT
BIT 2 OF LLI FLAGS DATA COLLECTED UNDER A/S CONDITION       COMMENT
CTX5 (COGO code)                                            COMMENT
SXJ8                                                        MARKER NAME
18698M001                                                   MARKER NUMBER
Automatic           GIE COOP&TECH                           OBSERVER / AGENCY
5105K73505          TRIMBLE NETR5       4.70                REC # / TYPE / VERS
31187723            TRM57971.00     NONE                    ANT # / TYPE
  4218953.6690   146061.3310  4765461.7440                  APPROX POSITION XYZ
        1.2600        0.0000        0.0000                  ANTENNA: DELTA H/E/N
     1     1                                                WAVELENGTH FACT L1/2
     7    L1    L2    C1    P1    P2    S1    S2            # / TYPES OF OBSERV
    30.0000                                                 INTERVAL
    18                                                      LEAP SECONDS
 SNR is mapped to RINEX snr flag value [0-9]                COMMENT
  L1 & L2: min(max(int(snr_dBHz/6), 0), 9)                  COMMENT
teqc_2016 edited: GLONASS # 25 - 30 excluded                COMMENT
Forced Modulo Decimation to 30 seconds                      COMMENT
teqc_2016 edited: all GLONASS satellites excluded           COMMENT
teqc_2016 edited: all SBAS satellites excluded              COMMENT
teqc_2016 edited: all Galileo satellites excluded           COMMENT
  2018     2    21     8     0    0.0000000     GPS         TIME OF FIRST OBS
                                                            END OF HEADER
 18  2 21  8  0  0.0000000  0  8G07G02G09G30G06G05G23G16
 113511700.984 8  88450682.91446  21600554.953                    21600558.098
        52.100          40.200
 114942472.944 7  89565565.14846  21872828.063                    21872828.910
        46.500          37.100
 106558500.197 8  83032632.20147  20277405.078                    20277410.352
        53.200          46.000
 120457340.692 8  93862905.21745  22922270.867                    22922277.961
        48.000          34.700
 111263310.546 8  86698716.05946  21172707.586                    21172714.176
        50.300          41.700
 124112033.198 7  96710686.85744  23617735.438                    23617739.734
        42.600          27.800
 118998628.181 8  92726222.51745  22644686.672                    22644687.949
        49.300          34.100
 127582847.793 6  99415215.05843  24278206.133                    24278210.332
        36.900          21.300
 18  2 21  8  0 30.0000000  0  8G07G02G09G30G06G05G23G16
 113445578.589 8  88399158.96646  21587972.188                    21587975.582
        52.100          40.700
 114916942.529 7  89545671.31146  21867970.391                    21867970.391
        46.900          37.200
 106591908.156 8  83058664.36147  20283762.445                    20283767.785
        53.200          46.300
 120354583.592 8  93782834.79345  22902717.453                    22902723.723
        49.300          34.900
 111320927.821 8  86743612.63847  21183671.820                    21183678.441
        49.800          42.600
 124014377.186 7  96634591.24944  23599151.523                    23599154.000
        44.100          26.800
 119075698.381 8  92786277.20345  22659352.500                    22659354.449
        49.400          35.000
 127558022.079 6  99395870.34043  24273481.789                    24273486.664
        37.300          21.300
 18  2 21  8  1  0.0000000  0  8G07G02G09G30G06G05G23G16
 113379884.141 8  88347968.49946  21575470.758                    21575474.410
        51.900          40.300
 114891944.877 7  89526192.62046  21863213.047                    21863213.637
        46.900          37.600
 106625690.561 8  83084988.30947  20290190.922                    20290196.785
        53.400          46.100
 120252053.442 8  93702941.18545  22883205.945                    22883212.543
        48.100          34.700
 111379066.261 8  86788915.30647  21194735.570                    21194741.863
        50.500          42.900
 123916828.898 7  96558579.56044  23580589.578                    23580593.457
        44.600          29.100
 119152940.556 8  92846465.88445  22674051.016                    22674052.957
        48.100          34.800
 127533770.157 6  99376972.75543  24268867.289                    24268870.813
        38.400          22.000
 18  2 21  8  1 30.0000000  0  8G07G02G09G30G06G05G23G16
 113314619.501 8  88297112.93546  21563051.508                    21563055.008
        52.400          40.600
 114867480.964 7  89507129.83246  21858557.563                    21858558.109
        46.300          37.100
 106659846.383 8  83111603.22947  20296690.742                    20296696.117
        52.800          46.000
 120149752.828 8  93623226.44545  22863739.109                    22863745.887
        48.200          35.800
 111437724.164 8  86834622.76047  21205897.297                    21205904.074
        50.800          42.000
 123819389.826 7  96482653.08444  23562047.086                    23562052.348
        44.100          28.900
 119230353.645 8  92906787.75945  22688782.609                    22688783.727
        49.100          34.000
 127510093.785 6  99358523.65043  24264361.461                    24264365.391
        38.500          22.500
 18  2 21  8  2  0.0000000  0  8G07G02G09G30G06G05G23G16
 113249786.393 8  88246593.63946  21550714.406                    21550717.188
        51.500          40.300
 114843551.653 7  89488483.61746  21854004.039                    21854004.473
        45.900          36.700
 106694374.106 8  83138507.93547  20303261.211                    20303266.809
        52.300          46.700
 120047684.006 8  93543692.32945  22844315.867                    22844322.871
        48.900          35.600
 111496899.275 8  86880733.23446  21217157.875                    21217164.504
        48.800          41.800
 123722061.933 7  96406813.16044  23543526.938                    23543529.059
        45.400          28.100
 119307936.377 8  92967241.82845  22703546.289                    22703547.977
        48.900          34.000
 127486993.594 6  99340523.51543  24259965.734                    24259970.625
        38.900          22.500
 18  2 21  8  2 30.0000000  0  8G07G02G09G30G06G05G23G16
 113185386.511 8  88196411.91046  21538459.328                    21538462.648
        51.300          40.000
 114820158.199 7  89470254.95446  21849552.117                    21849553.270
        46.000          37.100
 106729272.913 8  83165701.79947  20309902.352                    20309907.504
        52.200          46.200
 119945849.839 8  93464341.08146  22824937.344                    22824944.453
        48.800          36.200
 111556590.064 8  86927245.53346  21228516.922                    21228523.391
        49.900          41.800
 123624845.812 7  96331060.27744  23525027.125                    23525029.648
        44.300          29.600
 119385687.905 8  93027827.40645  22718341.742                    22718343.754
        49.600          34.800
 127464471.592 6  99322973.90043  24255680.766                    24255683.859
        38.800          23.000
 18  2 21  8  3  0.0000000  0  8G07G02G09G30G06G05G23G16
 113121421.473 8  88146569.02546  21526287.313                    21526290.293
        52.200          39.900
 114797301.404 7  89452444.46646  21845202.820                    21845203.715
        47.900          37.600
 106764541.236 8  83193183.60547  20316613.438                    20316619.145
        53.500          46.500
 119844252.502 8  93385174.35646  22805604.211                    22805611.152
        48.600          36.300
 111616794.248 8  86974157.86746  21239973.547                    21239980.082
        50.300          41.800
 123527743.776 7  96255396.38344  23506548.609                    23506553.582
        44.700          29.900
 119463606.483 8  93088543.16545  22733169.148                    22733170.840
        48.800          34.600
 127442528.792 6  99305875.63843  24251504.883                    24251508.699
        40.000          22.600
 18  2 21  8  3 30.0000000  0  8G07G02G09G30G06G05G23G16
 113057893.342 8  88097066.58446  21514198.141                    21514201.273
        51.500          39.900
 114774982.279 7  89435052.93546  21840955.359                    21840956.500
        45.500          37.400
 106800178.085 8  83220952.58147  20323395.078                    20323400.191
        52.300          45.900
 119742894.716 7  93306194.30446  22786316.367                    22786323.453
        47.300          36.600
 111677510.113 8  87021468.91647  21251527.406                    21251534.043
        50.100          42.400
 123430757.280 7  96179822.50245  23488093.406                    23488097.016
        45.500          31.000
 119541691.277 8  93149388.45045  22748027.898                    22748029.699
        49.300          34.000
 127421166.984 6  99289230.06843  24247440.172                    24247443.758
        39.400          22.200
 18  2 21  8  4  0.0000000  0  8G07G02G09G30G06G05G23G16
 112994804.052 8  88047906.08846  21502192.555                    21502195.871
        51.000          39.900
 114753201.921 7  89418081.22846  21836810.750                    21836811.855
        47.000          37.700
 106836182.421 8  83249007.89947  20330246.406                    20330251.820
        53.200          46.100
 119641779.160 8  93227402.99946  22767074.984                    22767081.676
        48.400          36.800
 111738735.807 8  87069177.25247  21263177.992                    21263184.703
        49.800          42.200
 123333887.035 7  96104339.19845  23469659.305                    23469662.750
        46.200          30.000
 119619941.387 7  93210362.52345  22762918.711                    22762920.547
        47.500          33.900
 127400387.421 6  99273038.22043  24243485.461                    24243489.121
        40.400          22.600
 18  2 21  8  4 30.0000000  0  8G07G02G09G30G06G05G23G16
 112932155.313 8  87999088.89646  21490271.094                    21490274.352
        51.200          40.000
 114731961.065 7  89401529.90946  21832768.984                    21832769.766
        46.200          37.400
 106872553.084 8  83277348.66847  20337167.438                    20337172.559
        53.800          45.800
 119540908.368 8  93148802.42045  22747879.594                    22747886.605
        48.900          35.800
 111800469.420 8  87117281.35246  21274925.633                    21274932.371
        51.200          41.700
 123237135.170 7  96028948.14245  23451248.266                    23451251.887
        46.900          30.900
 119698355.628 7  93271464.51345  22777840.227                    22777842.242
        47.500          33.400
 127380191.307 6  99257300.96843  24239642.891                    24239645.613
        38.100          20.100
 18  2 21  8  5  0.0000000  0  8G07G02G09G30G06G05G23G16
 112869948.331 8  87950615.92846  21478433.180                    21478436.754
        50.700          39.500
 114711260.082 7  89385399.26446  21828829.445                    21828830.535
        46.600          37.400
 106909288.576 8  83305973.71847  20344158.195                    20344163.281
        53.400          45.900
 119440284.574 8  93070394.31146  22728731.094                    22728738.422
        49.200          36.700
 111862708.663 8  87165779.44346  21286769.453                    21286775.871
        50.200          41.800
 123140503.736 7  95953650.91944  23432859.281                    23432862.758
        45.600          28.900
 119776932.401 7  93332693.14945  22792792.969                    22792794.457
        47.200          33.900
 127360579.723 6  99242019.20443  24235910.164                    24235914.215
        37.500          20.600
 18  2 21  8  5 30.0000000  0  8G07G02G09G30G06G05G23G16
 112808185.031 8  87902488.67846  21466679.836                    21466683.469
        51.100          40.300
 114691100.488 7  89369690.48146  21824993.563                    21824994.453
        46.200          37.800
 106946387.773 8  83334882.17647  20351218.070                    20351223.191
        52.600          46.000
 119339910.363 7  92992180.66846  22709630.656                    22709637.355
        47.900          36.200
 111925451.592 8  87214670.02746  21298708.977                    21298715.695
        50.700          41.800
 123043994.546 8  95878448.95945  23414494.813                    23414498.414
        48.000          32.400
 119855670.655 7  93394047.61445  22807776.102                    22807778.172
        47.200          34.200
 127341554.091 6  99227194.07043  24232289.539                    24232292.801
        37.600          19.000
 18  2 21  8  6  0.0000000  0  8G07G02G09G30G06G05G23G16
 112746867.297 8  87854708.62646  21455011.344                    21455014.992
        50.800          39.500
 114671483.125 7  89354404.22346  21821260.453                    21821261.230
        45.800          36.600
 106983849.613 8  83364073.20647  20358346.547                    20358351.555
        52.900          45.700
 119239788.360 8  92914163.56946  22690578.211                    22690584.805
        48.400          36.000
 111988696.303 8  87263951.60446  21310744.734                    21310750.512
        50.000          41.700
 122947608.631 7  95803343.06845  23396152.961                    23396157.133
        45.600          31.600
 119934569.408 7  93455527.13445  22822790.492                    22822792.402
        47.500          33.800
 127323115.745 6  99212826.52243  24228781.281                    24228783.387
        39.500          20.400
 18  2 21  8  6 30.0000000  0  8G07G02G09G30G06G05G23G16
 112685996.636 8  87807276.94546  21443428.188                    21443431.805
        51.600          39.900
 114652408.593 7  89339540.94446  21817630.445                    21817631.480
        46.300          37.700
 107021672.908 8  83393545.89447  20365544.125                    20365548.992
        53.400          46.000
 119139921.111 7  92836344.96045  22671574.297                    22671580.523
        47.500          35.500
 112052440.819 8  87313622.64046  21322874.297                    21322880.602
        50.600          41.800
 122851347.097 7  95728334.09444  23377834.445                    23377838.703
        44.100          29.800
 120013627.679 8  93517130.97745  22837834.820                    22837836.605
        48.000          32.700
 127305265.905 6  99198917.51543  24225384.586                    24225387.598
        40.900          20.900
 18  2 21  8  7  0.0000000  0  8G07G02G09G30G06G05G23G16
 112625574.808 8  87760195.00546  21431930.445                    21431933.914
        50.900          39.800
 114633878.146 7  89325101.62446  21814104.172                    21814105.254
        47.400          37.100
 107059856.426 8  83423299.27847  20372810.109                    20372815.258
        53.400          45.600
 119040311.090 8  92758726.80045  22652618.719                    22652625.348
        48.200          35.800
 112116683.029 8  87363681.49747  21335099.219                    21335105.652
        49.900          42.100
 122755211.994 8  95653423.61445  23359541.102                    23359545.066
        48.300          32.100
 120092844.182 7  93578858.11545  22852908.875                    22852911.418
        47.000          33.400
 127288005.661 6  99185467.94443  24222100.633                    24222103.328
        39.700          21.500
 18  2 21  8  7 30.0000000  0  8G07G02G09G30G06G05G23G16
 112565603.453 8  87713464.07946  21420518.016                    21420521.617
        50.800          39.400
 114615891.795 7  89311086.28646  21810681.891                    21810682.637
        46.700          38.000
 107098398.948 8  83453332.41247  20380144.602                    20380149.820
        52.700          45.900
 118940960.736 8  92681310.96746  22633713.438                    22633719.754
        48.500          36.400
 112181420.878 8  87414126.57146  21347418.320                    21347424.723
        49.500          41.300
 122659205.021 7  95578613.01545  23341271.102                    23341275.570
        46.700          31.600
 120172217.783 7  93640707.64545  22868013.156                    22868015.688
        46.900          33.500
 127271336.189 6  99172478.74643  24218928.359                    24218930.984
        40.600          21.800
 18  2 21  8  8  0.0000000  0  8G07G02G09G30G06G05G23G16
 112506084.149 8  87667085.40046  21409192.367                    21409195.867
        51.000          40.300
 114598451.014 7  89297496.05646  21807362.766                    21807363.832
        46.200          37.600
 107137299.180 8  83483644.27747  20387546.930                    20387552.180
        53.500          46.100
 118841872.537 7  92604099.40245  22614857.508                    22614863.246
        46.600          35.900
 112246652.134 8  87464956.09346  21359831.555                    21359838.145
        49.300          41.300
 122563327.935 7  95503903.60445  23323026.875                    23323030.230
        45.800          31.800
 120251747.161 7  93702678.57445  22883147.055                    22883149.453
        46.300          33.300
 127255258.751 6  99159950.89543  24215868.422                    24215871.977
        41.000          22.300
 18  2 21  8  8 30.0000000  0  8G07G02G09G30G06G05G23G16
 112447018.568 8  87621060.28646  21397952.078                    21397956.273
        51.000          40.000
 114581556.136 7  89284331.20746  21804147.383                    21804148.926
        47.200          37.300
 107176555.902 8  83514233.92447  20395017.461                    20395022.105
        53.200          45.900
 118743048.860 7  92527093.95946  22596052.125                    22596058.047
        47.400          36.400
 112312374.684 8  87516168.45046  21372337.992                    21372344.152
        49.700          41.500
 122467582.185 7  95429296.54445  23304806.773                    23304810.902
        45.300          31.000
 120331431.321 7  93764770.10045  22898310.703                    22898313.414
        46.000          33.500
 127239773.980 6  99147884.81443  24212922.117                    24212926.023
        41.100          21.800
 18  2 21  8  9  0.0000000  0  8G07G02G09G30G06G05G23G16
 112388408.007 8  87575389.73046  21386798.875                    21386803.016
        51.500          40.400
 114565207.849 8  89271592.27546  21801036.313                    21801038.098
        48.900          37.300
 107216167.770 8  83545100.30147  20402555.227                    20402560.199
        53.600          45.500
 118644492.095 8  92450296.50146  22577297.539                    22577303.512
        48.500          36.300
 112378586.281 8  87567761.86146  21384937.750                    21384944.012
        49.800          41.300
 122371969.448 7  95354793.10445  23286612.336                    23286615.996
        47.600          30.900
 120411269.018 7  93826981.27345  22913503.172                    22913505.414
        46.700          32.800
 127224883.227 6  99136281.63243  24210088.344                    24210091.746
        40.400          21.300
 18  2 21  8  9 30.0000000  0  8G07G02G09G30G06G05G23G16
 112330254.515 8  87530075.33046  21375732.648                    21375736.660
        51.600          40.400
 114549407.303 7  89259280.15446  21798030.367                    21798031.285
        47.500          37.700
 107256133.984 8  83576242.80047  20410160.570                    20410165.320
        53.700          45.600
 118546205.262 8  92373709.38646  22558593.633                    22558600.453
        48.000          36.800
 112445285.240 8  87619735.03046  21397630.320                    21397636.586
        51.000          41.600
 122276491.166 7  95280394.46545  23268443.648                    23268447.375
        46.600          32.200
 120491259.630 7  93889311.59645  22928724.961                    22928727.176
        46.300          33.200
 127210587.798 6  99125142.36243  24207368.000                    24207371.711
        38.900          21.500
 18  2 21  8 10  0.0000000  0  8G07G02G09G30G06G05G23G16
 112272559.544 8  87485118.20946  21364753.680                    21364757.648
        52.300          40.900
 114534154.884 7  89247395.14646  21795127.414                    21795128.719
        47.100          37.300
 107296453.136 8  83607660.32047  20417832.859                    20417837.902
        53.700          45.600
 118448190.529 8  92297334.30746  22539942.227                    22539948.828
        48.100          37.100
 112512469.192 8  87672086.12246  21410414.969                    21410421.184
        49.100          40.600
 122181148.980 7  95206101.89045  23250300.031                    23250304.230
        46.900          32.000
 120571401.477 7  93951759.77445  22943975.383                    22943977.977
        45.700          32.700
 127196888.644 6  99114467.73843  24204760.773                    24204764.563
        39.700          21.500
 18  2 21  8 10 30.0000000  0  8G07G02G09G30G06G05G23G16
 112215324.403 8  87440519.40346  21353862.328                    21353866.430
        51.900          40.800
 114519451.220 7  89235937.74446  21792329.742                    21792330.953
        47.600          37.400
 107337123.942 8  83639351.85547  20425572.609                    20425577.910
        53.500          45.800
 118350450.333 8  92221173.14446  22521342.695                    22521349.930
        48.100          37.600
 112580135.889 8  87724813.36946  21423291.766                    21423297.723
        49.700          40.500
 122085944.561 7  95131916.63845  23232183.625                    23232187.922
        47.400          31.900
 120651693.733 7  94014325.13645  22959255.008                    22959256.777
        47.000          31.600
 127183786.782 6  99104258.52543  24202267.422                    24202271.609
        39.000          21.300
 18  2 21  8 11  0.0000000  0  8G07G02G09G30G06G05G23G16
 112158550.898 8  87396280.31846  21343058.813                    21343062.410
        52.000          41.500
 114505297.262 7  89224908.67446  21789636.008                    21789637.512
        47.300          37.300
 107378145.342 8  83671316.57747  20433378.570                    20433383.793
        53.500          46.000
 118252987.330 7  92145227.99046  22502795.898                    22502802.840
        46.300          37.500
 112648283.378 8  87777915.26146  21436259.508                    21436265.523
        49.200          40.900
 121990880.101 7  95057840.44945  23214093.570                    23214097.164
        45.800          31.100
 120732135.484 7  94077007.00745  22974562.023                    22974564.484
        45.800          32.400
 127171282.867 6  99094515.22543  24199887.992                    24199892.316
        39.200          21.300
 18  2 21  8 11 30.0000000  0  8G07G02G09G30G06G05G23G16
 112102240.356 8  87352401.98546  21332343.266                    21332347.379
        52.300          41.300
 114491693.226 8  89214308.11946  21787047.352                    21787048.848
        48.900          37.900
 107419515.871 8  83703553.34547  20441251.070                    20441256.371
        53.800          45.900
 118155803.656 7  92069500.48246  22484302.203                    22484309.551
        47.600          37.300
 112716909.111 8  87831389.80946  21449318.648                    21449324.844
        49.300          40.700
 121895956.887 7  94983874.33145  23196029.852                    23196034.199
        47.100          32.700
 120812725.211 7  94139804.17145  22989898.031                    22989900.406
        46.100          32.800
 127159377.933 6  99085238.64543  24197622.938                    24197627.035
        41.100          21.700
 18  2 21  8 12  0.0000000  0  8G07G02G09G30G06G05G23G16
 112046394.311 8  87308885.59147  21321716.484                    21321719.930
        52.800          42.000
 114478639.646 8  89204136.49046  21784563.023                    21784564.871
        48.300          37.400
 107461234.365 9  83736061.26047  20449189.844                    20449194.934
        54.300          45.700
 118058901.882 7  91993992.64146  22465862.328                    22465869.656
        47.600          36.400
 112786011.005 8  87885235.40346  21462468.391                    21462474.777
        49.200          40.700
 121801176.203 8  94910019.27645  23177993.945                    23177998.113
        48.000          33.200
 120893462.211 7  94202716.08945  23005261.977                    23005263.707
        45.800          32.400
 127148072.949 6  99076429.57443  24195471.953                    24195475.215
        41.200          21.800
 18  2 21  8 12 30.0000000  0  8G07G02G09G30G06G05G23G16
 111991014.267 8  87265732.32647  21311177.852                    21311181.273
        53.500          42.300
 114466137.021 7  89194394.17746  21782184.383                    21782185.609
        47.500          37.000
 107503299.446 8  83768839.24147  20457194.500                    20457199.988
        51.500          45.900
 117962284.358 7  91918706.28446  22447476.656                    22447483.551
        47.900          36.800
 112855586.688 7  87939450.18246  21475708.180                    21475714.555
        47.500          40.900
 121706540.223 7  94836276.94745  23159985.445                    23159989.250
        47.400          33.000
 120974344.967 7  94265741.60045  23020652.930                    23020655.020
        44.800          32.200
 127137368.554 7  99068088.50843  24193435.203                    24193437.539
        42.500          20.900
 18  2 21  8 13  0.0000000  0  8G07G02G09G30G06G05G23G16
 111936101.617 8  87222943.26047  21300728.203                    21300731.992
        53.400          42.200
 114454186.622 7  89185082.15946  21779910.094                    21779911.570
        47.800          37.400
 107545710.365 9  83801886.71147  20465265.234                    20465270.000
        54.500          45.800
 117865953.917 7  91843643.63346  22429145.641                    22429152.566
        47.700          36.900
 112925634.440 8  87994032.84346  21489037.641                    21489044.688
        50.000          40.600
 121612050.642 7  94762648.72145  23142004.336                    23142008.594
        46.000          32.500
 121055372.837 7  94328880.16545  23036072.453                    23036074.219
        45.100          32.600
 127127266.123 6  99060216.45143  24191512.813                    24191515.227
        41.400          22.200
 18  2 21  8 13 30.0000000  0  8G07G02G09G30G06G05G23G16
 111881658.264 8  87180519.87547  21290367.961                    21290371.492
        53.600          42.100
 114442788.435 8  89176200.44546  21777741.625                    21777742.316
        48.000          37.600
 107588465.633 8  83835202.49847  20473401.188                    20473406.461
        53.700          45.800
 117769912.801 7  91768806.43246  22410870.008                    22410876.805
        47.300          37.100
 112996151.587 8  88048981.24346  21502456.930                    21502463.676
        48.000          40.500
 121517707.763 7  94689134.79745  23124051.688                    23124055.988
        47.000          33.300
 121136544.535 7  94392130.83345  23051518.672                    23051520.832
        45.400          31.900
 127117766.607 7  99052814.24343  24189705.445                    24189707.059
        42.500          22.000
 18  2 21  8 14  0.0000000  0  8G07G02G09G30G06G05G23G16
 111827685.186 8  87138462.93847  21280097.102                    21280100.332
        53.300          42.500
 114431942.919 7  89167749.39446  21775677.148                    21775678.648
        47.000          37.900
 107631563.860 8  83868785.52747  20481602.234                    20481607.566
        53.700          46.000
 117674163.268 8  91694196.42146  22392649.094                    22392655.871
        49.500          36.800
 113067135.777 8  88104293.59046  21515964.539                    21515971.160
        48.600          39.900
 121423514.901 8  94615737.77945  23106127.953                    23106131.176
        48.400          32.600
 121217858.920 7  94455492.67245  23066992.609                    23066994.332
        45.400          31.900
 127108870.241 6  99045882.00143  24188013.414                    24188012.820
        41.200          20.900
 18  2 21  8 14 30.0000000  0  8G07G02G09G30G06G05G23G16
 111774183.927 9  87096773.64947  21269916.234                    21269919.492
        54.100          42.600
 114421651.048 8  89159729.74146  21773718.898                    21773720.539
        48.400          37.800
 107675004.034 8  83902635.00047  20489868.906                    20489874.133
        53.800          46.100
 117578707.975 8  91619815.69146  22374484.672                    22374491.250
        48.400          37.400
 113138584.917 8  88159968.23346  21529560.969                    21529567.668
        49.200          39.800
 121329474.043 7  94542459.19345  23088232.094                    23088236.004
        47.000          32.100
 121299314.932 7  94518964.85945  23082493.039                    23082495.602
        44.300          32.100
 127100578.075 7  99039420.54643  24186434.453                    24186435.445
        42.100          22.500
 18  2 21  8 15  0.0000000  0  8G07G02G09G30G06G05G23G16
 111721155.639 8  87055452.91547  21259825.383                    21259828.797
        53.700          43.000
 114411912.745 7  89152141.44446  21771865.758                    21771866.496
        47.200          38.100
 107718784.693 9  83936749.79647  20498200.258                    20498205.215
        54.300          46.000
 117483549.072 8  91545665.91946  22356376.961                    22356383.203
        48.200          37.100
 113210496.396 8  88216003.11546  21543245.367                    21543251.887
        50.000          40.200
 121235586.196 7  94469299.83945  23070365.695                    23070369.320
        46.600          33.100
 121380911.291 7  94582546.42045  23098020.508                    23098022.430
        45.900          31.800
 127092890.830 6  99033430.44543  24184972.273                    24184973.500
        41.100          21.800
 18  2 21  8 15 30.0000000  0  8G07G02G09G30G06G05G23G16
 111668602.204 9  87014502.19647  21249824.578                    21249828.324
        54.000          42.300
 114402728.955 7  89144985.22946  21770118.477                    21770119.195
        47.200          37.300
 107762904.887 8  83971129.16447  20506595.867                    20506601.203
        53.000          46.000
 117388689.316 8  91471749.22846  22338325.547                    22338332.066
        48.600          36.900
 113282868.226 7  88272396.70146  21557017.305                    21557023.633
        47.700          40.200
 121141853.201 8  94396261.15845  23052528.953                    23052532.703
        48.300          33.000
 121462647.451 7  94646236.90745  23113574.594                    23113576.379
        45.500          31.700
 127085809.062 6  99027912.15643  24183624.063                    24183624.969
        39.500          20.400
 18  2 21  8 16  0.0000000  0  8G07G02G09G30G06G05G23G16
 111616525.260 8  86973922.76247  21239914.891                    21239918.145
        53.500          42.900
 114394100.204 8  89138261.52646  21768476.477                    21768476.922
        48.100          37.700
 107807363.495 9  84005772.23847  20515056.086                    20515061.098
        54.100          45.800
 117294131.244 8  91398067.62446  22320332.070                    22320337.910
        49.100          38.100
 113355698.222 8  88329147.30346  21570876.250                    21570882.762
        49.100          40.300
 121048275.980 7  94323343.86045  23034721.836                    23034725.250
        47.900          32.900
 121544522.479 7  94710035.60945  23129154.523                    23129156.281
        46.600          31.600
 127079333.783 6  99022866.45943  24182392.148                    24182393.246
        39.500          21.500
 18  2 21  8 16 30.0000000  0  8G07G02G09G30G06G05G23G16
 111564925.535 9  86933715.17547  21230095.938                    21230099.359
        54.300          42.900
 114386026.524 7  89131970.34146  21766939.891                    21766941.090
        47.900          38.100
 107852159.071 8  84040677.87147  20523580.391                    20523585.609
        52.200          45.400
 117199877.054 8  91324622.81946  22302395.945                    22302402.207
        49.000          37.700
 113428983.808 7  88386252.89846  21584822.156                    21584828.953
        47.200          40.500
 120954856.932 7  94250549.82145  23016944.531                    23016947.625
        47.400          32.500
 121626534.845 7  94773941.32245  23144761.438                    23144762.996
        45.700          30.900
 127073465.558 6  99018293.81043  24181274.898                    24181278.008
        37.900          21.100
 18  2 21  8 17  0.0000000  0  8G07G02G09G30G06G05G23G16
 111513804.599 9  86893880.68146  21220367.734                    21220370.852
        54.100          41.900
 114378508.471 7  89126112.11446  21765509.547                    21765510.340
        47.800          38.800
 107897290.385 8  84075845.12347  20532168.391                    20532173.477
        53.100          45.900
 117105929.120 8  91251416.66046  22284517.961                    22284524.488
        48.800          37.900
 113502722.601 8  88443711.61646  21598854.313                    21598860.676
        48.600          40.600
 120861597.922 7  94177880.47345  22999197.773                    22999201.320
        46.400          33.500
 121708683.473 7  94837953.20845  23160393.555                    23160395.750
        46.000          31.600
 127068204.940 6  99014194.64143  24180272.914                    24180276.203
        36.900          18.600
 18  2 21  8 17 30.0000000  0  8G07G02G09G30G06G05G23G16
 111463163.854 8  86854420.36646  21210731.258                    21210734.703
        53.400          41.800
 114371546.078 7  89120686.85946  21764184.820                    21764185.660
        47.900          38.700
 107942756.224 8  84111273.04347  20540820.398                    20540825.738
        53.300          45.300
 117012289.855 8  91178451.02446  22266698.992                    22266705.297
        48.300          38.200
 113576912.373 7  88501521.79746  21612972.281                    21612978.883
        47.200          40.600
 120768501.131 7  94105337.50845  22981482.359                    22981485.520
        46.000          32.600
 121790967.305 7  94902070.45445  23176051.703                    23176053.535
        46.500          31.200
 127063552.791 6  99010569.61643  24179388.086                    24179390.785
        39.400          19.600
 18  2 21  8 18  0.0000000  0  8G07G02G09G30G06G05G23G16
 111413004.574 8  86815335.22346  21201186.086                    21201189.324
        53.100          41.400
 114365140.011 7  89115695.11346  21762965.758                    21762966.445
        47.200          39.200
 107988555.395 8  84146960.70947  20549535.617                    20549540.926
        53.800          45.300
 116918961.756 8  91105727.86846  22248939.234                    22248945.266
        48.500          37.900
 113651550.573 8  88559681.38346  21627175.539                    21627181.973
        48.600          40.200
 120675567.209 7  94032921.48445  22963797.445                    22963801.711
        46.300          32.700
 121873385.557 7  94966292.46145  23191735.258                    23191736.652
        46.400          31.000
 127059509.605 6  99007419.08343  24178618.180                    24178622.535
        39.100          21.500
 18  2 21  8 18 30.0000000  0  8G07G02G09G30G06G05G23G16
 111363327.812 8  86776626.06346  21191732.922                    21191736.449
        53.400          41.400
 114359290.505 7  89111137.04746  21761852.320                    21761853.461
        47.200          38.500
 108034686.380 8  84182906.92447  20558314.203                    20558319.289
        53.700          45.100
 116825946.853 8  91033248.74346  22231239.086                    22231245.875
        49.100          38.700
 113726634.670 8  88618188.38246  21641463.305                    21641470.434
        49.500          40.500
 120582798.688 7  93960634.35345  22946144.109                    22946147.672
        47.000          33.700
 121955937.038 7  95030618.26545  23207444.242                    23207446.039
        46.500          31.000
 127056075.638 6  99004743.25043  24177964.914                    24177969.238
        37.900          19.600
 18  2 21  8 19  0.0000000  0  8G07G02G09G30G06G05G23G16
 111314135.370 8  86738294.29846  21182371.758                    21182375.113
        52.100          41.000
 114353998.103 7  89107013.10546  21760845.273                    21760846.203
        47.200          39.000
 108081148.394 8  84219111.08347  20567155.633                    20567160.652
        53.700          45.500
 116733247.979 8  90961015.88846  22213598.852                    22213605.723
        48.800          38.900
 113802162.644 8  88677041.28746  21655836.055                    21655842.789
        49.300          39.900
 120490197.054 7  93888477.22745  22928522.430                    22928525.875
        46.300          32.700
 122038620.951 7  95095047.26445  23223178.398                    23223180.008
        45.700          30.000
 127053251.891 6  99002542.95243  24177427.492                    24177431.602
        36.000          19.900
 18  2 21  8 19 30.0000000  0  8G07G02G09G30G06G05G23G16
 111265428.237 8  86700340.69046  21173103.250                    21173106.484
        52.800          41.100
 114349262.825 7  89103323.26746  21759944.438                    21759945.141
        47.600          38.100
 108127939.858 8  84255571.95647  20576059.688                    20576065.148
        53.700          45.300
 116640867.244 8  90889030.93446  22196019.414                    22196026.270
        49.500          38.700
 113878131.783 8  88736237.97246  21670292.563                    21670299.238
        49.100          40.800
 120397764.065 7  93816451.54245  22910933.242                    22910937.008
        45.400          34.000
 122121436.131 7  95159578.55445  23238938.156                    23238939.586
        46.300          30.500
 127051038.647 6  99000818.33343  24177006.141                    24177010.289
        38.600          20.400
 18  2 21  8 20  0.0000000  0  8G07G02G09G30G06G05G23G16
 111217207.707 8  86662766.25946  21163927.078                    21163930.770
        52.100          40.300
 114345084.999 7  89100067.81746  21759149.266                    21759150.074
        47.000          38.900
 108175059.660 9  84292288.67547  20585026.273                    20585031.613
        54.100          45.900
 116548807.141 8  90817295.81246  22178500.727                    22178507.203
        48.800          39.300
 113954539.787 8  88795776.61746  21684832.836                    21684839.871
        50.200          40.600
 120305501.505 7  93744558.66045  22893376.266                    22893380.543
        45.800          32.800
 122204381.684 7  95224211.42745  23254721.797                    23254723.262
        46.900          30.200
 127049436.494 6  98999569.84843  24176701.219                    24176706.332
        40.600          22.000
 18  2 21  8 20 30.0000000  0  8G07G02G09G30G06G05G23G16
 111169475.099 8  86625572.02446  21154844.180                    21154847.434
        51.800          40.900
 114341464.878 8  89097246.93546  21758460.547                    21758460.988
        48.500          38.700
 108222506.577 9  84329260.29247  20594055.313                    20594060.246
        54.100          45.600
 116457069.936 8  90745812.30446  22161043.906                    22161050.727
        48.400          39.400
 114031384.116 8  88855655.26046  21699455.820                    21699462.223
        49.600          40.200
 120213411.149 7  93672799.95145  22875851.867                    22875856.027
        47.000          34.300
 122287456.341 7  95288944.88845  23270530.633                    23270532.512
        45.900          30.600
 127048445.569 6  98998797.72443  24176513.461                    24176516.855
        39.200          20.400
 18  2 21  8 21  0.0000000  0  8G07G02G09G30G06G05G23G16
 111122231.497 8  86588758.83946  21145853.633                    21145857.398
        51.400          40.400
 114338402.716 7  89094860.83446  21757877.992                    21757878.363
        47.800          38.800
 108270279.510 8  84366485.94947  20603145.914                    20603151.723
        53.400          45.600
 116365658.170 8  90674582.38146  22143649.180                    22143655.367
        48.300          38.500
 114108662.489 8  88915872.13646  21714161.133                    21714167.977
        49.300          40.300
 120121494.784 7  93601176.79845  22858361.484                    22858365.082
        45.700          33.100
 122370659.159 7  95353778.22945  23286362.969                    23286365.328
        46.700          31.100
 127048066.832 6  98998502.62443  24176441.133                    24176444.730
        38.000          20.400
 18  2 21  8 21 30.0000000  0  8G07G02G09G30G06G05G23G16
 111075478.229 8  86552327.72546  21136956.594                    21136960.320
        51.300          40.000
 114335898.416 8  89092909.42346  21757401.250                    21757401.969
        48.600          38.800
 108318377.009 9  84403964.50447  20612298.883                    20612304.508
        54.300          45.700
 116274573.987 8  90603607.71146  22126316.094                    22126322.703
        49.100          39.300
 114186372.225 8  88976425.12046  21728949.078                    21728955.719
        49.200          40.700
 120029753.699 7  93529690.27345  22840903.070                    22840906.953
        47.300          33.800
 122453989.234 7  95418710.74145  23302220.563                    23302222.195
        46.200          30.200
 127048300.404 6  98998684.55343  24176485.359                    24176490.254
        38.000          21.700
 18  2 21  8 22  0.0000000  0  8G07G02G09G30G06G05G23G16
 111029216.501 8  86516279.64146  21128152.977                    21128156.813
        52.300          41.200
 114333952.600 8  89091393.19846  21757030.758                    21757031.652
        48.800          38.700
 108366798.013 8  84441695.14747  20621512.727                    20621518.559
        53.800          46.100
 116183819.910 8  90532890.27746  22109046.406                    22109053.078
        49.500          38.800
 114264510.868 8  89037312.33246  21743818.258                    21743825.098
        48.600          40.100
 119938190.863 7  93458342.60945  22823479.469                    22823483.051
        47.500          34.300
 122537445.480 7  95483741.55845  23318102.531                    23318104.215
        47.500          31.900
 127049146.826 6  98999344.10143  24176646.313                    24176650.520
        38.900          21.500
 18  2 21  8 22 30.0000000  0  8G07G02G09G30G06G05G23G16
 110983448.128 8  86480615.95046  21119443.648                    21119447.633
        50.600          40.800
 114332565.991 8  89090312.71846  21756767.203                    21756768.137
        49.000          39.400
 108415541.814 8  84479677.32947  20630788.469                    20630794.438
        53.400          45.900
 116093398.819 8  90462432.32546  22091839.641                    22091846.227
        50.100          39.400
 114343076.778 8  89098532.51046  21758768.695                    21758775.332
        50.200          39.500
 119846807.676 7  93387134.94245  22806089.586                    22806093.223
        47.300          34.000
 122621027.761 7  95548870.56245  23334006.883                    23334009.086
        46.800          30.700
 127050606.891 6  99000481.80143  24176924.461                    24176927.637
        39.100          22.200
 18  2 21  8 23  0.0000000  0  8G07G02G09G30G06G05G23G16
 110938173.308 8  86445336.88346  21110828.148                    21110831.953
        51.800          40.200
 114331738.029 8  89089667.54146  21756609.641                    21756610.254
        49.000          39.200
 108464606.626 8  84517909.63847  20640125.008                    20640130.746
        53.200          45.600
 116003312.426 8  90392235.15046  22074696.750                    22074703.188
        49.600          40.200
 114422066.706 8  89160083.08846  21773800.438                    21773806.633
        48.300          38.800
 119755605.446 7  93316068.27945  22788734.641                    22788738.316
        47.600          34.200
 122704734.075 7  95614096.25144  23349935.664                    23349937.289
        46.200          29.900
 127052680.261 6  99002097.41443  24177318.133                    24177323.215
        38.600          22.600
 18  2 21  8 23 30.0000000  0  8G07G02G09G30G06G05G23G16
 110893393.283 8  86410443.36446  21102307.000                    21102310.629
        51.000          40.000
 114331468.332 7  89089457.38246  21756558.125                    21756559.078
        47.900          38.900
 108513990.882 8  84556390.86647  20649522.750                    20649528.902
        53.500          45.700
 115913562.810 8  90322300.41446  22057618.047                    22057624.629
        48.800          40.200
 114501477.814 8  89221961.86646  21788911.445                    21788917.844
        48.400          39.600
 119664586.139 7  93245144.15545  22771414.156                    22771417.383
        45.400          33.600
 122788563.218 7  95679417.63145  23365888.219                    23365890.574
        46.800          31.500
 127055367.027 6  99004190.98843  24177830.188                    24177834.871
        37.300          21.800
 18  2 21  8 24  0.0000000  0  8G07G02G09G30G06G05G23G16
 110849109.415 8  86375936.46446  21093880.320                    21093883.914
        51.100          40.400
 114331757.310 8  89089682.55446  21756613.156                    21756614.586
        49.200          38.400
 108563693.492 8  84595120.16047  20658980.750                    20658986.262
        52.800          45.700
 115824152.309 8  90252629.91546  22040604.328                    22040609.578
        50.800          39.600
 114581307.675 8  89284166.96446  21804103.102                    21804109.363
        48.300          39.000
 119573751.837 8  93174364.17645  22754128.961                    22754132.637
        48.100          34.300
 122872514.444 7  95744834.12144  23381862.867                    23381865.043
        43.800          29.100
 127058667.724 6  99006762.94843  24178458.094                    24178461.793
        39.200          21.500
 18  2 21  8 24 30.0000000  0  8G07G02G09G30G06G05G23G16
 110805322.412 8  86341816.72846  21085547.797                    21085551.559
        50.400          41.200
 114332605.284 7  89090343.30346  21756774.063                    21756775.590
        47.600          38.700
 108613713.352 8  84634096.67447  20668498.977                    20668504.641
        53.000          45.200
 115735083.489 8  90183225.66546  22023654.750                    22023660.375
        50.700          39.400
 114661553.921 8  89346696.50046  21819373.055                    21819379.465
        48.500          39.400
 119483103.762 7  93103729.31845  22736879.180                    22736882.590
        46.700          34.200
 122956587.169 7  95810345.33445  23397862.305                    23397862.871
        45.100          30.600
 127062582.970 6  99009813.77043  24179203.313                    24179207.789
        39.200          22.200
 18  2 21  8 25  0.0000000  0  8G07G02G09G30G06G05G23G16
 110762033.377 8  86308085.05146  21077310.055                    21077313.840
        51.000          40.500
 114334011.620 8  89091439.14846  21757041.992                    21757042.852
        49.300          38.300
 108664048.860 8  84673319.14147  20678077.359                    20678082.934
        53.200          45.300
 115646358.208 8  90114089.09846  22006770.617                    22006776.531
        48.200          39.700
 114742213.568 8  89409548.16446  21834721.969                    21834728.504
        49.700          38.900
 119392644.104 7  93033241.30345  22719665.156                    22719669.375
        45.900          35.000
 123040779.578 7  95875949.79244  23413882.898                    23413885.816
        43.900          29.500
 127067111.706 6  99013342.64144  24180065.313                    24180070.055
        40.500          24.300
 18  2 21  8 25 30.0000000  0  8G07G02G09G30G06G05G23G16
 110719244.070 8  86274742.73146  21069167.602                    21069171.277
        50.000          41.200
 114335976.849 7  89092970.48246  21757415.789                    21757417.023
        47.800          38.500
 108714699.374 8  84712787.06347  20687716.156                    20687721.453
        51.900          45.100
 115557979.372 8  90045222.49546  21989952.641                    21989958.633
        50.000          39.200
 114823284.652 8  89472720.40546  21850149.320                    21850156.004
        48.100          39.300
 119302374.623 7  92962901.44945  22702487.609                    22702491.168
        47.800          34.800
 123125091.669 7  95941647.45045  23429927.375                    23429929.648
        45.200          30.500
 127072255.492 6  99017350.76443  24181043.945                    24181048.781
        40.600          22.500
 18  2 21  8 26  0.0000000  0  8G07G02G09G30G06G05G23G16
 110676954.691 8  86241789.97346  21061120.258                    21061123.574
        50.500          41.100
 114338500.641 7  89094937.05946  21757896.281                    21757897.004
        46.500          38.400
 108765663.155 8  84752499.09847  20697414.133                    20697419.844
        51.200          44.800
 115469948.733 8  89976627.20746  21973200.633                    21973207.223
        49.500          39.500
 114904764.083 7  89536210.85246  21865654.438                    21865661.289
        47.500          39.400
 119212296.617 8  92892710.80645  22685346.422                    22685350.406
        48.600          35.000
 123209521.754 7  96007437.14444  23445994.000                    23445994.727
        45.100          29.700
 127078013.887 6  99021837.82643  24182139.875                    24182144.109
        39.200          22.800
 18  2 21  8 26 30.0000000  0  8G07G02G09G30G06G05G23G16
 110635166.492 8  86209227.75646  21053168.047                    21053171.844
        51.100          41.700
 114341583.205 7  89097339.05146  21758482.719                    21758484.246
        47.600          38.300
 108816939.020 8  84792454.30747  20707171.508                    20707177.414
        52.200          45.000
 115382268.604 8  89908305.04246  21956515.984                    21956522.344
        50.000          39.400
 114986649.411 8  89600017.56546  21881236.375                    21881243.172
        48.100          38.900
 119122413.121 7  92822671.72445  22668242.063                    22668245.566
        47.200          35.000
 123294068.997 7  96073318.06945  23462082.977                    23462085.418
        43.200          30.200
 127084386.602 6  99026803.55843  24183352.156                    24183357.133
        39.400          22.500
 18  2 21  8 27  0.0000000  0  8G07G02G09G30G06G05G23G16
 110593881.064 8  86177057.28946  21045311.945                    21045315.398
        50.900          41.600
 114345224.783 7  89100176.63046  21759175.477                    21759176.957
        46.900          37.900
 108868526.190 8  84832652.08347  20716988.656                    20716994.484
        50.200          44.700
 115294941.791 8  89840258.18546  21939897.734                    21939904.488
        48.600          39.500
 115068938.428 7  89664138.85746  21896895.711                    21896902.680
        46.600          38.500
 119032725.402 7  92752785.19245  22651175.141                    22651178.410
        47.600          34.900
 123378732.870 7  96139289.85644  23478194.063                    23478195.895
        46.900          29.700
 127091374.466 6  99032248.61543  24184682.125                    24184686.391
        39.500          21.700
 18  2 21  8 27 30.0000000  0  8G07G02G09G30G06G05G23G16
 110553098.869 8  86145278.94346  21037551.078                    21037554.789
        50.200          41.800
 114349424.976 7  89103449.49346  21759975.063                    21759976.098
        46.400          37.500
 108920423.019 8  84873091.15747  20726864.164                    20726870.242
        50.500          45.100
 115207970.011 8  89772487.97946  21923347.789                    21923354.570
        49.500          40.200
 115151628.066 7  89728572.32046  21912630.805                    21912637.828
        46.800          38.900
 118943234.963 8  92683052.39545  22634145.609                    22634149.902
        49.600          35.700
 123463511.810 7  96205351.40044  23494326.336                    23494327.469
        42.500          27.900
 127098977.063 6  99038172.73643  24186129.289                    24186132.918
        41.100          22.200
 18  2 21  8 28  0.0000000  0  8G07G02G09G30G06G05G23G16
 110512820.988 8  86113893.59747  21029886.430                    21029889.867
        50.100          42.100
 114354183.596 7  89107157.50046  21760880.297                    21760881.563
        46.500          37.600
 108972628.375 8  84913770.64947  20736798.289                    20736804.387
        49.900          45.700
 115121355.746 8  89704996.35446  21906865.633                    21906872.336
        48.600          39.400
 115234715.906 7  89793316.05346  21928442.133                    21928449.027
        46.500          38.700
 118853943.614 8  92613474.74045  22617153.898                    22617157.258
        49.300          34.600
 123548405.063 7  96271501.92945  23510481.570                    23510484.023
        45.500          31.100
 127107194.806 6  99044576.16243  24187693.555                    24187697.066
        41.400          22.300
 18  2 21  8 28 30.0000000  0  8G07G02G09G30G06G05G23G16
 110473048.482 8  86082902.03846  21022318.211                    21022321.297
        50.300          41.800
 114359500.651 7  89111300.64946  21761892.094                    21761893.223
        47.600          37.500
 109025141.097 8  84954689.64247  20746790.984                    20746796.590
        49.700          45.000
 115035101.239 8  89637785.07546  21890451.742                    21890458.520
        50.600          39.800
 115318199.277 7  89858368.02346  21944328.781                    21944335.277
        46.800          38.400
 118764853.733 8  92544054.03745  22600200.672                    22600203.887
        48.500          35.200
 123633412.013 7  96337741.06344  23526657.289                    23526660.055
        42.900          28.300
 127116027.576 6  99051458.80343  24189374.016                    24189377.988
        41.900          23.000
 18  2 21  8 29  0.0000000  0  8G07G02G09G30G06G05G23G16
 110433782.465 8  86052305.14247  21014846.125                    21014849.641
        50.800          42.800
 114365376.122 7  89115878.93046  21763010.133                    21763011.715
        46.700          37.400
 109077959.933 8  84995847.16247  20756842.391                    20756848.227
        49.200          45.000
 114949208.734 8  89570855.87146  21874107.102                    21874113.352
        49.500          39.700
 115402075.590 7  89923726.15446  21960289.711                    21960296.910
        47.200          38.200
 118675967.393 8  92474791.98345  22583286.109                    22583290.523
        49.800          35.400
 123718531.621 7  96404068.01244  23542855.570                    23542856.660
        42.900          28.500
 127125475.429 6  99058820.73043  24191172.734                    24191175.773
        39.400          21.300
 18  2 21  8 29 30.0000000  0  8G07G02G09G30G06G05G23G16
 110395023.401 8  86022103.28647  21007470.672                    21007474.063
        51.200          43.000
 114371809.750 7  89120892.13446  21764234.070                    21764235.895
        47.100          37.500
 109131083.452 8  85037242.09847  20766951.289                    20766957.695
        49.700          44.500
 114863680.267 7  89504210.34546  21857831.703                    21857838.168
        47.600          39.600
 115486342.038 7  89989388.28146  21976324.938                    21976331.297
        46.800          38.600
 118587285.843 7  92405689.48145  22566410.914                    22566413.602
        46.700          35.300
 123803762.604 7  96470481.72745  23559074.133                    23559077.117
        43.500          31.200
 127135538.356 6  99066662.00143  24193086.688                    24193090.191
        41.200          20.900
 18  2 21  8 30  0.0000000  0  8G07G02G09G30G06G05G23G16
 110356772.488 8  85992297.38547  21000191.461                    21000194.828
        51.000          43.600
 114378801.262 7  89126340.05046  21765565.188                    21765566.309
        45.800          37.100
 109184510.714 8  85078873.72447  20777118.258                    20777124.137
        51.200          44.900
 114778518.289 7  89437850.38546  21841625.578                    21841632.160
        47.700          40.400
 115570996.151 7  90055352.49046  21992434.109                    21992441.070
        46.800          38.800
 118498811.572 7  92336748.48645  22549574.305                    22549578.262
        46.200          34.800
 123889104.219 7  96536981.60744  23575314.055                    23575316.672
        42.200          28.200
 127146216.452 6  99074982.57443  24195118.625                    24195121.891
        39.300          20.600
 18  2 21  8 30 30.0000000  0  8G07G02G09G30G06G05G23G16
 110319030.508 8  85962888.06647  20993009.445                    20993013.246
        51.500          43.200
 114386350.576 7  89132222.62146  21767001.703                    21767002.980
        46.300          37.300
 109238240.462 8  85120741.05147  20787342.773                    20787348.379
        50.200          44.900
 114693724.967 8  89371777.69346  21825490.016                    21825496.531
        50.100          40.100
 115656035.250 7  90121616.69146  22008616.977                    22008623.520
        45.800          38.200
 118410545.584 8  92267969.81646  22532778.258                    22532783.039
        49.400          36.000
 123974555.631 7  96603567.14344  23591575.188                    23591576.457
        43.400          29.000
 127157509.293 6  99083782.22043  24197266.867                    24197271.668
        40.500          22.000
 18  2 21  8 31  0.0000000  0  8G07G02G09G30G06G05G23G16
 110281798.670 8  85933876.25547  20985924.211                    20985928.027
        51.200          43.100
 114394457.684 7  89138539.83546  21768544.750                    21768545.672
        45.900          38.300
 109292271.636 8  85162843.24747  20797624.547                    20797630.246
        50.500          44.800
 114609302.731 8  89305994.14246  21809425.133                    21809431.598
        48.400          40.000
 115741456.838 7  90188178.92946  22024872.320                    22024879.070
        47.300          38.100
 118322490.708 7  92199355.63645  22516021.898                    22516025.191
        47.400          35.900
 124060116.099 7  96670237.59644  23607857.055                    23607859.754
        42.700          29.300
 127169416.780 6  99093060.74443  24199533.688                    24199537.684
        39.900          21.800
 18  2 21  8 31 30.0000000  0  8G07G02G09G30G06G05G23G16
 110245077.535 8  85905262.38647  20978936.555                    20978940.219
        50.900          43.700
 114403122.034 7  89145291.26546  21770193.039                    21770194.891
        46.000          37.300
 109346602.730 8  85205179.15947  20807963.375                    20807969.723
        51.500          44.500
 114525253.471 8  89240501.24146  21793431.320                    21793437.621
        50.500          40.600
 115827257.987 7  90255036.91746  22041199.414                    22041206.141
        46.600          38.100
 118234648.181 8  92130906.89946  22499305.922                    22499309.859
        49.600          36.900
 124145784.506 7  96736992.12844  23624159.633                    23624160.977
        44.300          29.100
 127181939.118 6  99102818.42943  24201915.891                    24201920.582
        38.800          20.100
 18  2 21  8 32  0.0000000  0  8G07G02G09G30G06G05G23G16
 110208868.035 8  85877047.20247  20972046.273                    20972050.098
        50.900          43.100
 114412343.149 7  89152476.53846  21771947.992                    21771949.500
        47.500          37.900
 109401232.510 8  85247747.81447  20818359.164                    20818365.180
        49.800          44.600
 114441579.352 8  89175300.65446  21777508.414                    21777514.445
        51.300          40.100
 115913435.985 7  90322188.54946  22057598.602                    22057605.664
        46.500          37.900
 118147020.270 8  92062625.43646  22482630.945                    22482635.586
        48.400          36.600
 124231559.843 7  96803830.06944  23640481.547                    23640483.109
        42.800          28.800
 127195075.603 6  99113054.59343  24204416.336                    24204420.227
        40.900          19.900
 18  2 21  8 32 30.0000000  0  8G07G02G09G30G06G05G23G16
 110173171.164 8  85849231.47147  20965253.469                    20965256.977
        52.400          43.600
 114422120.998 7  89160095.62146  21773808.727                    21773809.723
        47.200          37.100
 109456159.807 8  85290548.30047  20828811.555                    20828817.598
        52.300          44.600
 114358282.588 8  89110394.11046  21761658.094                    21761664.129
        50.000          40.300
 115999988.171 7  90389631.76946  22074069.133                    22074075.637
        45.700          37.900
 118059609.004 8  91994512.78945  22465997.508                    22466000.297
        48.700          35.700
 124317441.079 7  96870750.45844  23656824.852                    23656827.125
        43.100          29.800
 127208826.276 6  99123769.42643  24207032.359                    24207036.133
        40.200          19.900
 18  2 21  8 33  0.0000000  0  8G07G02G09G30G06G05G23G16
 110137987.639 8  85821815.74647  20958558.383                    20958562.148
        52.700          43.500
 114432455.409 7  89168148.40646  21775775.242                    21775776.508
        47.100          37.400
 109511383.526 8  85333579.75247  20839320.164                    20839325.973
        52.500          45.300
 114275365.492 8  89045783.41846  21745879.055                    21745885.043
        49.600          40.600
 116086911.920 7  90457364.51946  22090610.102                    22090616.586
        46.000          38.500
 117972415.593 8  91926569.81446  22449405.180                    22449408.188
        48.500          36.300
 124403427.536 7  96937752.85244  23673186.867                    23673189.094
        44.600          28.400
 127223191.050 6  99134962.78843  24209765.945                    24209769.500
        41.300          21.700
 18  2 21  8 33 30.0000000  0  8G07G02G09G30G06G05G23G16
 110103317.613 8  85794800.14647  20951960.742                    20951964.285
        52.900          43.100
 114443345.709 7  89176634.34146  21777847.695                    21777848.391
        47.800          37.100
 109566902.031 8  85376840.91247  20849884.945                    20849891.285
        52.600          45.000
 114192829.782 8  88981469.90346  21730173.070                    21730179.340
        51.400          40.400
 116174204.170 7  90525384.43646  22107221.297                    22107227.977
        45.800          37.900
 117885442.341 8  91858798.49246  22432854.016                    22432859.145
        49.300          36.400
 124489518.041 7  97004836.35844  23689569.695                    23689571.082
        44.900          27.900
 127238169.245 6  99146634.09543  24212617.094                    24212620.234
        40.600          20.900
 18  2 21  8 34  0.0000000  0  8G07G02G09G30G06G05G23G16
 110069162.476 8  85768185.76247  20945461.234                    20945464.648
        52.700          43.100
 114454791.798 7  89185553.36146  21780025.961                    21780027.125
        46.600          37.300
 109622714.469 8  85420331.11847  20860505.734                    20860511.953
        51.800          44.500
 114110677.944 8  88917455.51346  21714540.141                    21714546.219
        50.500          40.800
 116261862.492 7  90593689.57946  22123902.367                    22123909.004
        46.000          37.900
 117798691.510 8  91791200.46346  22416346.148                    22416349.910
        49.100          36.700
 124575712.090 7  97072000.50345  23705972.344                    23705974.469
        43.800          30.200
 127253761.035 6  99158783.49543  24215584.070                    24215587.652
        41.300          22.000
 18  2 21  8 34 30.0000000  0  8G07G02G09G30G06G05G23G16
 110035522.855 8  85741973.07747  20939059.625                    20939063.168
        52.400          43.100
 114466793.101 8  89194905.02646  21782309.609                    21782310.832
        48.400          37.700
 109678819.569 8  85464049.35847  20871182.273                    20871188.480
        51.600          44.700
 114028912.070 8  88853741.88146  21698980.367                    21698986.445
        51.600          40.600
 116349884.108 7  90662277.80646  22140651.789                    22140658.996
        45.700          37.300
 117712164.357 8  91723776.69546  22399880.727                    22399883.848
        49.200          36.200
 124662008.510 7  97139244.40344  23722393.258                    23722396.059
        44.400          28.900
 127269966.145 6  99171410.85643  24218668.219                    24218671.594
        40.200          20.600
 18  2 21  8 35  0.0000000  0  8G07G02G09G30G06G05G23G16
 110002399.319 8  85716162.54547  20932756.625                    20932759.953
        51.200          43.200
 114479349.076 7  89204688.89046  21784698.641                    21784700.090
        47.900          37.000
 109735215.879 8  85507994.52847  20881914.242                    20881920.246
        51.900          44.700
 113947534.102 8  88790330.50946  21683494.531                    21683500.848
        51.000          40.900
 116438266.130 7  90731146.86946  22157470.695                    22157477.816
        46.400          37.500
 117625863.243 8  91656529.10546  22383457.883                    22383462.406
        50.500          37.300
 124748406.397 7  97206567.40344  23738834.242                    23738836.375
        45.100          27.300
 127286783.557 6  99184515.33843  24221867.695                    24221870.652
        41.400          20.400
 18  2 21  8 35 30.0000000  0  8G07G02G09G30G06G05G23G16
 109969792.817 8  85690754.88947  20926551.570                    20926555.289
        50.500          42.900
 114492459.536 8  89214904.81946  21787194.055                    21787195.156
        48.600          38.100
 109791902.486 8  85552165.89847  20892701.273                    20892707.223
        51.700          44.700
 113866546.395 8  88727223.24446  21668083.148                    21668089.355
        51.600          40.100
 116527006.012 7  90800294.77746  22174357.141                    22174364.652
        46.300          37.900
 117539790.323 8  91589459.29645  22367078.719                    22367081.992
        49.800          35.900
 124834904.824 7  97273968.76444  23755295.109                    23755296.672
        44.100          28.100
 127304213.585 6  99198097.11943  24225184.609                    24225187.957
        41.100          20.400
 18  2 21  8 36  0.0000000  0  8G07G02G09G30G06G05G23G16
 109937703.919 8  85665750.56647  20920445.555                    20920448.855
        50.300          42.700
 114506123.908 8  89225552.37046  21789793.898                    21789794.918
        48.500          38.100
 109848878.061 8  85596562.43247  20903543.516                    20903549.656
        50.100          44.600
 113785950.929 8  88664421.62046  21652746.148                    21652752.605
        51.700          40.900
 116616100.876 7  90869719.28746  22191311.742                    22191318.406
        45.400          37.700
 117453946.765 8  91522568.22746  22350743.063                    22350746.949
        51.200          36.100
 124921503.129 7  97341447.87344  23771773.969                    23771776.609
        43.300          29.800
 127322256.026 6  99212156.12043  24228618.195                    24228621.289
        41.300          21.700
 18  2 21  8 36 30.0000000  0  8G07G02G09G30G06G05G23G16
 109906133.492 8  85641150.24547  20914437.453                    20914441.273
        50.300          42.500
 114520341.985 8  89236631.37246  21792499.625                    21792500.727
        48.400          37.600
 109906141.467 8  85641183.25447  20914440.422                    20914446.238
        51.000          44.500
 113705749.950 8  88601927.38046  21637484.453                    21637490.613
        52.700          40.600
 116705548.063 7  90939418.36046  22208333.125                    22208340.184
        45.400          37.700
 117368335.215 8  91455857.91746  22334452.086                    22334456.422
        50.700          37.300
 125008200.406 7  97409004.15944  23788271.180                    23788273.020
        43.400          27.900
 127340909.727 6  99226691.45843  24232168.695                    24232170.898
        40.200          19.900
 18  2 21  8 37  0.0000000  0  8G07G02G09G30G06G05G23G16
 109875082.017 8  85616954.29747  20908528.656                    20908532.426
        49.600          42.500
 114535113.036 8  89248141.26546  21795310.313                    21795311.703
        48.200          37.800
 109963691.386 8  85686027.33947  20925391.773                    20925397.477
        51.200          44.900
 113625945.343 8  88539741.99746  21622298.438                    21622304.566
        52.300          40.900
 116795344.729 7  91009389.74746  22225420.688                    22225427.598
        46.000          36.900
 117282957.286 8  91389329.69845  22318205.203                    22318208.961
        50.700          35.900
 125094995.500 7  97476636.69044  23804787.773                    23804790.285
        43.500          28.200
 127360174.307 6  99241702.79243  24235833.938                    24235836.570
        40.700          20.600
 18  2 21  8 37 30.0000000  0  8G07G02G09G30G06G05G23G16
 109844550.235 8  85593163.31747  20902718.453                    20902722.324
        50.300          42.600
 114550436.440 8  89260081.56846  21798226.297                    21798227.434
        49.200          38.000
 110021526.663 8  85731093.77947  20936397.508                    20936403.023
        51.100          44.900
 113546539.264 8  88477867.16846  21607188.094                    21607193.629
        53.000          40.900
 116885488.063 7  91079631.28946  22242573.984                    22242581.227
        45.600          37.000
 117197814.918 8  91322984.98046  22302002.852                    22302006.285
        51.000          36.700
 125181887.809 7  97544344.92444  23821323.352                    23821325.754
        43.800          29.000
 127380049.773 6  99257190.16743  24239615.141                    24239619.133
        40.200          19.000
 18  2 21  8 38  0.0000000  0  8G07G02G09G30G06G05G23G16
 109814538.609 8  85569777.64247  20897007.781                    20897011.109
        49.100          42.400
 114566311.872 8  89272452.01746  21801247.078                    21801248.277
        49.200          38.000
 110079646.098 8  85776381.64147  20947457.625                    20947462.656
        50.600          44.400
 113467533.833 8  88416304.52746  21592153.484                    21592159.461
        52.500          41.400
 116975975.392 7  91150140.86446  22259793.133                    22259800.434
        46.100          36.900
 117112909.993 8  91256825.29746  22285846.148                    22285850.113
        49.900          36.800
 125268876.309 7  97612128.15044  23837876.070                    23837879.090
        42.400          25.900
 127400535.381 6  99273152.94443  24243514.219                    24243517.395
        40.600          19.300
 18  2 21  8 38 30.0000000  0  8G07G02G09G30G06G05G23G16
 109785048.137 8  85546798.06846  20891395.898                    20891399.293
        49.800          41.900
 114582738.828 8  89285252.23746  21804373.516                    21804374.531
        48.800          37.700
 110138048.558 8  85821890.04147  20958571.281                    20958577.246
        51.400          44.600
 113388931.135 8  88355055.71746  21577195.820                    21577201.473
        52.100          41.000
 117066803.906 7  91220916.30846  22277077.789                    22277084.152
        45.600          36.200
 117028244.865 8  91190852.50946  22269734.852                    22269738.957
        51.700          37.100
 125355960.319 7  97679985.77144  23854448.133                    23854450.055
        42.300          27.900
 127421630.833 6  99289590.93443  24247529.086                    24247531.191
        41.600          19.600
 18  2 21  8 39  0.0000000  0  8G07G02G09G30G06G05G23G16
 109756078.704 8  85524224.51847  20885883.383                    20885886.660
        50.000          42.300
 114599716.233 8  89298481.37546  21807603.898                    21807604.984
        49.000          37.300
 110196732.579 8  85867617.84147  20969738.328                    20969743.691
        52.100          44.800
 113310732.935 8  88294122.09746  21562315.242                    21562321.371
        52.600          41.800
 117157970.553 7  91291955.21746  22294425.758                    22294432.980
        46.400          36.000
 116943821.096 8  91125067.71646  22253670.109                    22253672.957
        50.900          36.700
 125443138.768 7  97747916.97944  23871037.789                    23871039.633
        42.200          28.400
 127443335.211 6  99306503.40043  24251659.227                    24251661.930
        41.100          21.100
 18  2 21  8 39 30.0000000  0  8G07G02G09G30G06G05G23G16
 109727631.427 8  85502057.82047  20880469.625                    20880473.078
        49.000          42.100
 114617243.953 8  89312139.32246  21810939.359                    21810940.633
        49.100          37.700
 110255697.201 8  85913564.29347  20980959.195                    20980964.531
        50.400          45.200
 113232941.526 8  88233505.44446  21547511.906                    21547518.504
        51.900          40.900
 117249472.789 7  91363255.62046  22311838.367                    22311845.238
        45.800          36.400
 116859641.008 8  91059472.85446  22237650.188                    22237653.895
        50.500          36.400
 125530410.962 6  97815921.25644  23887644.625                    23887647.305
        41.400          27.300
 127465648.414 6  99323890.29643  24255904.805                    24255907.867
        40.500          20.400
 18  2 21  8 40  0.0000000  0  8G07G02G09G30G06G05G23G16
 109699706.876 8  85480298.43547  20875155.734                    20875159.559
        48.800          42.000
 114635321.236 8  89326225.50546  21814379.219                    21814380.516
        48.800          37.600
 110314941.146 8  85959728.37947  20992232.859                    20992238.637
        51.300          44.600
 113155558.829 8  88173207.29446  21532786.602                    21532792.613
        52.500          41.500
 117341307.676 7  91434815.23446  22329313.828                    22329320.758
        45.900          36.900
 116775706.309 8  90994069.19646  22221678.328                    22221682.063
        50.900          36.900
 125617775.756 7  97883997.67344  23904269.773                    23904272.430
        42.900          26.800
 127488569.429 6  99341750.80843  24260266.461                    24260270.191
        41.500          19.900
 18  2 21  8 40 30.0000000  0  8G07G02G09G30G06G05G23G16
 109672304.972 8  85458946.31446  20869941.516                    20869945.191
        48.900          41.700
 114653947.249 8  89340739.27646  21817923.617                    21817924.973
        48.700          37.800
 110374462.991 8  86006109.03047  21003559.375                    21003564.676
        51.600          44.900
 113078586.610 8  88113228.97446  21518139.086                    21518145.363
        51.700          41.400
 117433472.234 7  91506631.74146  22346852.484                    22346859.520
        45.800          36.400
 116692018.610 8  90928858.00546  22205753.133                    22205756.223
        48.700          36.400
 125705232.364 6  97952145.64544  23920912.414                    23920915.270
        41.800          27.900
 127512097.674 6  99360084.45543  24264744.445                    24264746.891
        41.600          20.400
 18  2 21  8 41  0.0000000  0  8G07G02G09G30G06G05G23G16
 109645426.936 8  85438002.39946  20864826.430                    20864830.098
        48.900          41.400
 114673121.684 8  89355680.36946  21821572.305                    21821574.133
        48.000          37.600
 110434262.038 8  86052705.68547  21014938.664                    21014944.223
        51.900          45.100
 113002027.413 8  88053572.50846  21503570.211                    21503576.512
        52.100          41.800
 117525964.049 7  91578703.25046  22364453.289                    22364460.023
        46.000          37.000
 116608581.063 8  90863841.72946  22189875.500                    22189880.086
        50.500          38.100
 125792780.509 6  98020364.90044  23937572.336                    23937574.891
        41.400          27.100
 127536232.417 7  99378890.74843  24269337.117                    24269339.652
        42.400          21.100
 18  2 21  8 41 30.0000000  0  8G07G02G09G30G06G05G23G16
 109619072.950 8  85417466.84046  20859811.734                    20859815.152
        48.500          41.800
 114692843.335 8  89371047.88046  21825325.727                    21825327.051
        48.000          37.300
 110494336.739 8  86099517.12147  21026371.031                    21026375.938
        52.300          45.000
 112925882.850 8  87994239.13446  21489080.414                    21489087.063
        52.600          41.700
 117618780.011 7  91651027.33446  22382115.313                    22382122.777
        45.100          36.900
 116525394.104 7  90799020.75746  22174045.570                    22174050.055
        47.900          37.700
 125880418.849 6  98088654.50744  23954249.641                    23954250.973
        41.800          25.300
 127560973.230 6  99398169.28743  24274044.570                    24274047.750
        40.800          21.100
 18  2 21  8 42  0.0000000  0  8G07G02G09G30G06G05G23G16
 109593243.398 8  85397339.92146  20854896.609                    20854900.051
        49.300          41.700
 114713111.696 8  89386841.38746  21829182.633                    21829183.773
        48.500          37.400
 110554685.840 8  86146542.38747  21037854.633                    21037860.461
        52.600          45.100
 112850154.814 8  87935230.30547  21474670.078                    21474676.109
        51.700          42.300
 117711917.201 7  91723601.73346  22399838.977                    22399846.117
        45.000          36.100
 116442460.475 8  90734397.14746  22158263.586                    22158266.469
        49.500          36.200
 125968146.559 6  98157013.72444  23970943.656                    23970945.426
        41.100          27.900
 127586319.499 6  99417919.58443  24278867.953                    24278871.070
        39.900          20.100
 18  2 21  8 42 30.0000000  0  8G07G02G09G30G06G05G23G16
 109567938.724 8  85377622.00046  20850081.070                    20850084.777
        49.600          41.700
 114733926.080 8  89403060.38246  21833143.258                    21833144.723
        48.200          37.500
 110615308.168 8  86193780.55847  21049390.734                    21049396.160
        52.500          44.300
 112774845.284 8  87876547.58046  21460339.078                    21460344.734
        51.500          41.800
 117805372.754 7  91796424.20246  22417622.891                    22417630.207
        45.500          36.700
 116359782.707 8  90669972.88646  22142531.031                    22142534.855
        48.100          37.100
 126055962.670 7  98225441.79444  23987654.391                    23987657.324
        42.100          28.100
 127612269.741 6  99438140.54243  24283806.094                    24283809.313
        41.500          22.000
 18  2 21  8 43  0.0000000  0  8G07G02G09G30G06G05G23G16
 109543159.819 8  85358313.77446  20845366.242                    20845369.348
        50.500          41.500
 114755285.859 7  89419704.36146  21837208.109                    21837209.109
        47.600          37.600
 110676202.892 8  86241230.98447  21060978.680                    21060984.258
        52.500          44.600
 112699956.598 8  87818192.80947  21446087.805                    21446093.809
        52.700          42.000
 117899144.232 7  91869492.83145  22435466.945                    22435474.453
        45.300          35.900
 116277362.004 8  90605748.98546  22126846.797                    22126850.195
        49.000          36.800
 126143866.817 7  98293938.48544  24004382.500                    24004384.215
        42.300          26.200
 127638824.371 6  99458832.45343  24288859.086                    24288862.965
        38.900          20.900
 18  2 21  8 43 30.0000000  0  8G07G02G09G30G06G05G23G16
 109518906.976 8  85339415.46246  20840750.781                    20840754.273
        50.000          41.900
 114777190.265 8  89436772.72246  21841376.227                    21841377.391
        48.100          38.000
 110737368.591 8  86288892.55647  21072618.117                    21072623.457
        53.000          43.800
 112625490.417 8  87760167.24047  21431917.695                    21431923.672
        52.600          42.600
 117993228.475 7  91942805.17346  22453370.445                    22453377.703
        45.000          36.000
 116195200.895 8  90541727.34546  22111212.063                    22111215.418
        49.200          37.300
 126231857.982 7  98362502.99244  24021126.336                    24021128.945
        43.400          25.400
 127665981.470 6  99479993.83343  24294027.336                    24294030.543
        40.400          21.300
 18  2 21  8 44  0.0000000  0  8G07G02G09G30G06G05G23G16
 109495180.249 8  85320927.11047  20836235.758                    20836239.379
        49.500          42.000
 114799638.100 7  89454264.53446  21845647.773                    21845649.020
        47.500          37.700
 110798804.025 8  86336764.32247  21084308.688                    21084313.809
        52.600          44.400
 112551448.674 8  87702472.39347  21417828.211                    21417833.965
        52.100          42.200
 118087622.704 7  92016359.08346  22471332.891                    22471340.469
        45.000          36.200
 116113300.955 7  90477909.20846  22095627.008                    22095630.625
        47.800          37.700
 126319935.212 7  98431134.53344  24037887.531                    24037889.293
        44.600          28.600
 127693740.850 6  99501624.49843  24299308.469                    24299312.551
        39.500          19.900
 18  2 21  8 44 30.0000000  0  8G07G02G09G30G06G05G23G16
 109471979.919 8  85302848.94146  20831820.781                    20831824.336
        50.500          41.800
 114822628.657 8  89472179.23446  21850022.922                    21850024.578
        48.200          38.200
 110860507.944 8  86384845.29247  21096050.594                    21096055.637
        51.800          43.300
 112477833.132 8  87645109.65647  21403819.258                    21403825.176
        51.900          42.900
 118182323.853 7  92090152.14145  22489354.438                    22489361.414
        44.900          35.100
 116031664.152 8  90414296.12546  22080092.047                    22080096.199
        49.700          38.500
 126408097.506 7  98499832.39843  24054663.586                    24054665.004
        42.500          22.600
 127722101.301 6  99523723.54943  24304706.109                    24304710.383
        40.200          22.000
 18  2 21  8 45  0.0000000  0  8G07G02G09G30G06G05G23G16
 109449306.913 8  85285181.67047  20827506.156                    20827509.719
        50.400          42.300
 114846161.493 8  89490516.49946  21854501.000                    21854502.418
        48.000          38.100
 110922479.451 8  86433134.77147  21107843.242                    21107848.457
        52.800          43.700
 112404646.025 8  87588080.75647  21389892.367                    21389898.633
        52.300          42.100
 118277329.363 7  92164182.39045  22507433.453                    22507440.566
        45.300          35.900
 115950292.852 8  90350889.92146  22064607.531                    22064610.441
        49.300          36.900
 126496344.490 7  98568596.24043  24071456.414                    24071458.391
        42.300          23.800
 127751062.537 6  99546290.70443  24310216.539                    24310221.262
        39.000          21.700
 18  2 21  8 45 30.0000000  0  8G07G02G09G30G06G05G23G16
 109427161.695 8  85267925.66047  20823292.172                    20823295.813
        50.800          42.300
 114870235.623 8  89509275.54046  21859082.398                    21859083.902
        48.300          38.300
 110984717.536 8  86481631.97647  21119686.813                    21119691.938
        52.500          43.600
 112331889.379 8  87531387.28547  21376047.273                    21376053.824
        52.500          42.400
 118372636.562 7  92238447.71345  22525569.578                    22525576.652
        45.100          35.800
 115869189.174 8  90287692.24846  22049173.727                    22049177.875
        49.300          38.300
 126584675.585 7  98637425.59044  24088265.227                    24088268.000
        42.300          26.000
 127780623.504 6  99569325.22143  24315842.406                    24315846.980
        38.000          20.600
 18  2 21  8 46  0.0000000  0  8G07G02G09G30G06G05G23G16
 109405543.766 8  85251080.51947  20819178.453                    20819181.863
        51.300          42.400
 114894849.839 7  89528455.43646  21863765.969                    21863767.871
        47.300          38.000
 111047220.607 8  86530335.65947  21131580.727                    21131585.957
        52.400          43.900
 112259564.690 8  87475030.39247  21362283.969                    21362290.512
        52.100          42.600
 118468242.149 7  92312945.54245  22543762.211                    22543769.938
        45.500          34.200
 115788354.831 8  90224704.47246  22033791.875                    22033795.352
        50.300          38.000
 126673089.654 7  98706319.62644  24105090.117                    24105092.242
        42.300          24.600
 127810782.949 6  99592826.05943  24321582.148                    24321585.754
        36.700          19.900
 18  2 21  8 46 30.0000000  0  8G07G02G09G30G06G05G23G16
 109384453.638 8  85234646.66147  20815165.141                    20815168.582
        52.100          43.000
 114920003.258 7  89548055.47746  21868552.922                    21868554.160
        47.600          38.100
 111109987.367 8  86579244.81547  21143524.922                    21143530.340
        53.000          43.200
 112187673.718 8  87419011.46447  21348603.359                    21348610.031
        52.900          42.200
 118564143.064 7  92387673.48445  22562012.313                    22562019.188
        44.500          35.400
 115707791.407 8  90161927.77446  22018461.039                    22018464.074
        50.300          38.200
 126761585.893 7  98775277.71644  24121930.375                    24121932.207
        43.400          24.900
 127841539.995 6  99616792.58043  24327434.305                    24327438.434
        38.200          20.100
 18  2 21  8 47  0.0000000  0  8G07G02G09G30G06G05G23G16
 109363891.810 8  85218624.46347  20811252.586                    20811255.965
        51.500          42.100
 114945694.892 7  89568074.91846  21873441.891                    21873443.258
        47.700          37.900
 111173016.859 8  86628358.69947  21155518.969                    21155524.336
        53.000          43.500
 112116218.511 8  87363332.09547  21335006.039                    21335012.441
        52.100          42.700
 118660336.651 7  92462629.47745  22580317.063                    22580324.094
        45.300          35.100
 115627500.751 8  90099363.62046  22003182.203                    22003185.668
        49.800          38.700
 126850162.833 7  98844298.64944  24138785.750                    24138787.766
        43.000          24.500
 127872893.779 6  99641224.07243  24333401.242                    24333404.484
        39.800          21.500
 18  2 21  8 47 30.0000000  0  8G07G02G09G30G06G05G23G16
 109343858.442 8  85203014.02947  20807440.414                    20807443.605
        52.000          42.700
 114971923.795 8  89588513.01546  21878433.039                    21878434.715
        48.100          37.500
 111236307.806 8  86677676.31947  21167562.438                    21167568.012
        53.100          43.500
 112045200.784 8  87307993.61347  21321492.047                    21321498.418
        53.100          42.700
 118756819.936 7  92537811.22845  22598677.266                    22598684.906
        44.800          34.700
 115547486.398 8  90037014.78546  21987955.766                    21987959.168
        50.700          38.200
 126938820.308 7  98913382.33544  24155657.352                    24155659.340
        43.100          24.400
 127904843.744 6  99666120.16043  24339481.414                    24339484.543
        38.800          20.900
 18  2 21  8 48  0.0000000  0  8G07G02G09G30G06G05G23G16
 109324353.992 8  85187815.76047  20803728.695                    20803732.102
        52.800          42.800
 114998689.050 7  89609369.04346  21883526.297                    21883527.594
        47.500          37.600
 111299859.125 8  86727196.82447  21179656.195                    21179661.344
        52.200          43.300
 111974622.478 8  87252997.53747  21308061.328                    21308067.773
        52.900          42.700
 118853590.081 7  92613216.49845  22617092.023                    22617099.105
        44.600          35.200
 115467749.430 8  89974882.08546  21972782.406                    21972785.863
        51.300          38.800
 127027557.601 7  98982528.25543  24172543.586                    24172545.160
        42.000          23.600
 127937387.877 6  99691479.19343  24345674.320                    24345677.594
        40.300          22.300
 18  2 21  8 48 30.0000000  0  8G07G02G09G30G06G05G23G16
 109305378.433 8  85173029.61747  20800117.664                    20800120.852
        52.200          42.700
 115025989.662 7  89630642.24146  21888721.672                    21888722.758
        47.400          37.900
 111363669.536 8  86776919.20847  21191798.773                    21191803.750
        52.000          42.100
 111904485.268 8  87198345.17747  21294714.813                    21294720.672
        52.500          42.900
 118950644.132 7  92688843.00645  22635561.109                    22635568.453
        45.000          35.000
 115388291.177 8  89912966.56646  21957662.188                    21957666.043
        50.500          38.200
 127116373.581 7  99051735.46344  24189444.398                    24189446.262
        42.700          24.800
 127970525.377 6  99717300.60043  24351980.578                    24351983.266
        39.700          22.200
 18  2 21  8 49  0.0000000  0  8G07G02G09G30G06G05G23G16
 109286931.840 8  85158655.65047  20796607.391                    20796610.594
        52.200          42.600
 115053824.559 8  89652331.76246  21894018.469                    21894019.598
        48.400          38.100
 111427737.839 8  86826842.56347  21203990.406                    21203995.859
        51.800          42.000
 111834790.939 8  87144037.91347  21281452.477                    21281458.746
        52.700          42.500
 119047979.058 7  92764688.36445  22654083.375                    22654090.477
        45.000          35.600
 115309114.659 8  89851270.58246  21942595.406                    21942599.012
        50.800          38.400
 127205267.830 7  99121003.63944  24206360.672                    24206363.156
        43.500          26.400
 128004255.371 6  99743583.68643  24358398.102                    24358402.320
        40.100          21.500
 18  2 21  8 49 30.0000000  0  8G07G02G09G30G06G05G23G16
 109269014.628 8  85144694.19047  20793197.977                    20793201.629
        51.900          43.100
 115082192.646 7  89674436.74546  21899416.383                    21899418.059
        47.600          38.400
 111492062.926 8  86876965.99447  21216230.820                    21216236.277
        51.700          42.200
 111765541.277 8  87090077.14547  21268274.664                    21268280.938
        52.100          42.600
 119145592.021 7  92840750.38945  22672658.531                    22672665.809
        46.000          35.100
 115230220.839 8  89789794.87746  21927582.242                    21927585.109
        50.000          38.400
 127294239.432 7  99190332.12744  24223291.633                    24223293.969
        44.600          26.000
 128038576.721 6  99770327.60143  24364929.531                    24364933.695
        40.100          21.500
 18  2 21  8 50  0.0000000  0  8G07G02G09G30G06G05G23G16
 109251627.140 8  85131145.49847  20789889.234                    20789892.426
        53.000          43.000
 115111093.034 8  89696956.50546  21904916.039                    21904917.527
        48.300          38.300
 111556643.945 8  86927288.85647  21228520.539                    21228525.941
        52.500          42.700
 111696738.423 8  87036464.53547  21255182.023                    21255187.926
        52.800          43.200
 119243480.368 7  92917027.00345  22691285.828                    22691293.457
        45.400          35.100
 115151613.370 8  89728542.30346  21912623.844                    21912626.547
        50.200          37.700
 127383287.195 7  99259719.95344  24240236.188                    24240238.816
        43.200          25.000
 128073489.009 6  99797531.95843  24371573.805                    24371576.641
        40.100          21.700
 18  2 21  8 50 30.0000000  0  8G07G02G09G30G06G05G23G16
 109234768.945 8  85118009.27047  20786681.266                    20786684.359
        51.700          42.800
 115140524.092 8  89719889.78746  21910516.734                    21910517.992
        48.600          38.300
 111621479.126 8  86977809.77246  21240858.289                    21240863.336
        52.200          41.600
 111628383.495 8  86983200.95347  21242174.461                    21242180.172
        53.000          43.300
 119341640.693 7  92993515.53045  22709965.094                    22709972.945
        45.000          35.400
 115073293.071 8  89667513.48946  21897719.969                    21897723.570
        48.400          38.800
 127472410.679 7  99329166.74644  24257195.695                    24257199.176
        42.800          24.400
 128108989.908 6  99825194.99843  24378328.141                    24378332.551
        38.700          21.100
 18  2 21  8 51  0.0000000  0  9G07G02G09G30G06G05G23G16G13
 109218440.981 8  85105286.18147  20783574.211                    20783577.578
        52.400          43.000
 115170485.535 8  89743236.36146  21916218.242                    21916219.285
        48.400          37.700
 111686567.966 8  87028528.32947  21253244.180                    21253249.656
        51.800          42.100
 111560478.890 8  86930288.27747  21229252.477                    21229258.297
        53.100          42.900
 119440070.637 7  93070214.15145  22728695.633                    22728703.328
        46.200          34.700
 114995262.397 8  89606710.38246  21882871.328                    21882875.094
        50.800          38.800
 127561609.482 7  99398672.26644  24274169.883                    24274172.531
        44.300          25.600
 128145079.029 6  99853316.33643  24385196.805                    24385199.926
        39.700          21.100
 130837360.991 6 101951203.84543  24897520.891                    24897525.418
        37.500          19.300
 18  2 21  8 51 30.0000000  0  9G07G02G09G30G06G05G23G16G13
 109202642.735 8  85092975.85947  20780567.914                    20780571.449
        51.400          43.400
 115200975.407 7  89766994.70646  21922019.953                    21922021.613
        47.600          37.400
 111751908.766 8  87079443.22747  21265678.469                    21265683.813
        51.300          42.200
 111493025.802 8  86877727.43847  21216416.820                    21216423.066
        53.200          43.300
 119538766.744 7  93147120.17945  22747477.602                    22747484.879
        45.800          35.100
 114917523.020 8  89546134.24046  21868077.883                    21868081.570
        49.100          38.100
 127650882.279 7  99468235.42844  24291158.352                    24291160.609
        42.700          24.800
 128181755.287 6  99881895.20743  24392175.578                    24392179.793
        38.700          21.100
 130737141.760 6 101873111.07342  24878449.680                    24878454.430
        39.900          17.400
 18  2 21  8 52  0.0000000  0  9G07G02G09G30G06G05G23G16G13
 109187374.779 8  85081078.75747  20777662.391                    20777665.629
        52.000          42.700
 115231993.346 7  89791164.52946  21927922.930                    21927924.395
        46.600          37.300
 111817500.904 8  87130553.97447  21278159.875                    21278165.719
        52.000          42.100
 111426026.480 8  86825520.16847  21203667.016                    21203672.906
        52.800          42.700
 119637726.611 7  93224231.71145  22766309.102                    22766316.629
        45.700          34.700
 114840077.250 8  89485786.89246  21853340.469                    21853344.324
        50.300          38.900
 127740228.840 7  99537856.06544  24308161.070                    24308163.738
        43.000          26.000
 128219017.488 6  99910930.69943  24399265.992                    24399270.477
        38.600          22.300
 130637000.431 6 101795078.73743  24859394.156                    24859397.738
        39.200          19.000
 18  2 21  8 52 30.0000000  0  9G07G02G09G30G06G05G23G16G13
 109172636.660 8  85069594.51547  20774857.867                    20774861.086
        51.800          42.900
 115263537.512 7  89815744.40146  21933925.188                    21933926.848
        46.500          37.100
 111883342.783 8  87181859.32247  21290689.172                    21290694.992
        51.800          42.100
 111359482.161 9  86773667.45147  21191004.320                    21191010.219
        54.100          43.100
 119736946.839 7  93301546.14545  22785190.070                    22785196.844
        45.600          34.500
 114762926.827 8  89425669.66446  21838659.492                    21838663.051
        50.300          39.000
 127829647.867 7  99607533.17144  24325176.500                    24325178.773
        42.500          24.300
 128256863.366 6  99940420.95343  24406468.531                    24406472.266
        39.900          22.200
 130536937.561 6 101717107.81443  24840350.813                    24840357.133
        37.500          19.300
 18  2 21  8 53  0.0000000  0  9G07G02G09G30G06G05G23G16G13
 109158428.958 8  85058523.57447  20772154.297                    20772157.410
        51.900          43.300
 115295607.191 7  89840733.75046  21940027.805                    21940029.141
        45.800          37.600
 111949433.639 8  87233358.66446  21303265.828                    21303271.727
        50.300          41.800
 111293394.901 8  86722170.88947  21178428.430                    21178434.613
        53.100          43.000
 119836424.853 7  93379061.44145  22804119.844                    22804127.082
        45.200          34.900
 114686074.584 8  89365784.81546  21824034.844                    21824038.434
        49.300          39.100
 127919138.997 7  99677266.45343  24342205.891                    24342208.230
        43.300          23.800
 128295292.622 6  99970365.82543  24413780.805                    24413785.449
        38.700          21.100
 130436954.178 6 101639198.66843  24821326.234                    24821331.156
        40.400          19.300
 18  2 21  8 53 30.0000000  0  9G07G02G09G30G06G05G23G16G13
 109144751.477 8  85047865.79847  20769551.305                    20769554.754
        51.600          42.900
 115328200.745 7  89866131.31246  21946230.180                    21946231.910
        46.500          37.300
 112015772.121 8  87285050.96747  21315889.906                    21315895.453
        50.600          42.200
 111227766.181 8  86671031.63647  21165939.508                    21165945.875
        53.000          42.800
 119936157.561 7  93456775.20845  22823098.516                    22823105.555
        44.900          34.500
 114609522.258 8  89306133.66146  21809467.148                    21809470.402
        50.700          38.900
 128008701.311 7  99747055.20844  24359249.094                    24359252.223
        43.000          24.800
 128334303.485 6 100000763.85743  24421205.063                    24421208.477
        39.600          22.200
 130337050.732 6 101561351.83242  24802313.781                    24802319.047
        37.300          16.900
 18  2 21  8 54  0.0000000  0  9G07G02G09G30G06G05G23G16G13
 109131604.575 8  85037621.46247  20767049.781                    20767053.070
        52.100          43.100
 115361317.409 7  89891936.49346  21952531.891                    21952533.648
        45.600          36.600
 112082357.278 8  87336935.48847  21328560.633                    21328566.109
        51.100          42.300
 111162597.869 8  86620251.14347  21153538.258                    21153544.508
        52.700          42.800
 120036142.217 7  93534685.29745  22842125.063                    22842131.789
        44.500          34.100
 114533271.583 8  89246717.53446  21794957.313                    21794960.859
        49.200          39.100
 128098334.334 7  99816899.04543  24376305.875                    24376308.664
        42.800          22.500
 128373895.439 6 100031614.67943  24428739.313                    24428743.195
        37.700          22.800
 130237228.627 6 101483568.39243  24783319.992                    24783324.637
        39.900          22.500
 18  2 21  8 54 30.0000000  0  9G07G02G09G30G06G05G23G16G13
 109118987.680 8  85027790.11847  20764648.586                    20764652.234
        52.100          43.200
 115394955.621 7  89918148.06646  21958933.492                    21958935.480
        45.800          36.600
 112149187.520 8  87389010.99047  21341278.203                    21341283.793
        51.600          42.400
 111097891.185 8  86569830.35647  21141225.102                    21141231.094
        52.900          43.300
 120136375.372 7  93612789.00745  22861198.492                    22861205.879
        46.300          33.500
 114457324.198 8  89187537.76346  21780505.344                    21780509.078
        50.600          39.700
 128188036.796 7  99886797.05344  24393375.648                    24393378.234
        42.900          24.400
 128414066.597 6 100062916.86343  24436383.867                    24436387.148
        37.900          21.700
 130137487.652 6 101405848.16743  24764338.828                    24764344.188
        36.600          19.600
 18  2 21  8 55  0.0000000  0  9G07G02G09G30G06G05G23G16G13
 109106900.904 8  85018371.84847  20762348.430                    20762352.129
        52.600          43.200
 115429114.009 7  89944764.97146  21965433.617                    21965435.523
        45.300          36.800
 112216261.983 8  87441276.79947  21354042.008                    21354047.859
        51.700          42.300
 111033647.982 8  86519770.72147  21129000.188                    21129006.336
        52.600          43.100
 120236854.422 7  93691084.34445  22880318.859                    22880325.832
        45.000          33.300
 114381682.591 8  89128596.23846  21766110.852                    21766114.469
        50.400          39.400
 128277808.178 7  99956748.68943  24410459.023                    24410461.734
        42.100          22.600
 128454815.224 6 100094669.00843  24444137.797                    24444142.152
        39.000          23.500
 130037829.310 6 101328192.28643  24745374.836                    24745378.965
        40.200          19.300
 18  2 21  8 55 30.0000000  0  9G07G02G09G30G06G05G23G16G13
 109095344.411 8  85009366.79347  20760149.758                    20760153.219
        52.600          43.300
 115463791.631 7  89971786.48446  21972032.664                    21972033.902
        45.200          36.400
 112283579.636 8  87493732.09047  21366851.789                    21366857.469
        50.800          42.300
 110969869.944 8  86470073.55447  21116863.469                    21116869.586
        52.300          43.100
 120337576.416 7  93769568.98045  22899485.461                    22899493.445
        44.600          32.700
 114306349.038 8  89069894.78346  21751774.961                    21751779.535
        50.700          39.800
 128367647.931 6 100026753.65743  24427554.336                    24427557.031
        41.100          23.000
 128496140.521 6 100126870.49843  24452002.180                    24452006.113
        39.000          22.600
 129938254.288 6 101250601.30743  24726427.383                    24726431.551
        39.500          21.100
 18  2 21  8 56  0.0000000  0  9G07G02G09G30G06G05G23G16G13
 109084317.908 8  85000774.71747  20758051.281                    20758054.930
        52.800          43.300
 115498986.726 7  89999211.21846  21978729.688                    21978731.074
        46.300          37.000
 112351139.172 8  87546375.87247  21379708.266                    21379714.078
        51.200          42.500
 110906558.567 8  86420740.02247  21104815.555                    21104821.875
        51.700          42.800
 120438538.313 7  93848240.54945  22918698.398                    22918705.523
        43.300          33.000
 114231325.681 8  89011435.04046  21737498.586                    21737502.801
        50.200          39.500
 128457554.885 6 100096810.92144  24444663.781                    24444666.605
        41.700          26.600
 128538040.416 6 100159519.75343  24459974.875                    24459979.148
        38.400          21.100
 129838763.299 6 101173075.96442  24707493.734                    24707498.770
        37.000          16.900
 18  2 21  8 56 30.0000000  0  9G07G02G09G30G06G05G23G16G13
 109073821.931 8  84992596.03547  20756054.180                    20756057.441
        52.100          42.800
 115534698.182 7  90027038.33046  21985525.227                    21985526.949
        45.600          36.500
 112418939.666 8  87599207.40547  21392610.625                    21392615.957
        51.600          42.800
 110843715.622 8  86371771.49047  21092857.148                    21092863.199
        51.900          43.500
 120539737.347 7  93927096.90345  22937955.734                    22937963.090
        44.600          32.500
 114156614.535 8  88953218.57146  21723281.766                    21723285.191
        50.700          38.900
 128547528.717 7 100166920.33444  24461785.336                    24461787.859
        42.400          25.200
 128580514.257 6 100192616.19243  24468058.352                    24468061.551
        38.900          21.800
 129739357.681 7 101095616.96643  24688578.836                    24688581.426
        42.400          21.500
 18  2 21  8 57  0.0000000  0  9G07G02G09G30G06G05G23G16G13
 109063855.893 8  84984830.29147  20754157.539                    20754161.059
        52.800          43.400
 115570924.603 7  90055266.69346  21992419.570                    21992420.609
        46.100          36.500
 112486979.907 8  87652225.75447  21405558.039                    21405564.047
        52.000          43.200
 110781342.566 8  86323169.11747  21080987.617                    21080994.047
        51.900          43.200
 120641170.409 7  94006135.61645  22957257.953                    22957265.488
        44.800          33.400
 114082217.421 8  88895246.79346  21709124.516                    21709127.816
        50.600          38.700
 128637568.647 6 100237081.28543  24478918.906                    24478921.398
        40.100          22.000
 128623560.382 6 100226158.62643  24476249.109                    24476253.168
        38.500          22.200
 129640037.438 6 101018224.62542  24669677.703                    24669682.082
        37.400          16.900
 18  2 21  8 57 30.0000000  0  9G07G02G09G30G06G05G23G16G13
 109054419.553 8  84977477.29747  20752362.047                    20752365.230
        53.200          43.200
 115607664.276 7  90083894.99846  21999410.203                    21999411.664
        47.000          36.400
 112555258.676 8  87705429.97547  21418551.047                    21418556.645
        52.500          43.100
 110719440.906 8  86274934.06247  21069208.086                    21069214.641
        51.600          43.100
 120742834.524 7  94085354.36545  22976604.383                    22976610.516
        44.900          33.000
 114008136.356 8  88837521.27446  21695027.250                    21695030.770
        51.800          40.000
 128727673.713 6 100307292.94144  24496066.000                    24496068.520
        41.300          25.800
 128667177.056 6 100260145.63843  24484548.836                    24484552.820
        36.600          21.300
 129540803.799 6 100940899.71642  24650794.867                    24650797.680
        41.000          17.800
 18  2 21  8 58  0.0000000  0  9G07G02G09G30G06G05G23G16G13
 109045512.851 8  84970537.00947  20750666.992                    20750670.457
        53.200          43.500
 115644916.207 7  90112922.47046  22006499.203                    22006500.586
        46.500          36.500
 112623774.841 8  87758819.17947  21431589.289                    21431594.934
        51.500          42.200
 110658012.127 8  86227067.49047  21057518.992                    21057525.043
        51.500          43.000
 120844726.656 7  94164750.79645  22995993.508                    22996001.086
        45.300          32.400
 113934372.933 8  88780043.27546  21680990.898                    21680994.637
        51.500          39.600
 128817843.276 6 100377554.88343  24513223.227                    24513226.930
        40.900          22.600
 128711362.616 6 100294575.89643  24492957.203                    24492961.320
        38.800          19.600
 129441657.391 6 100863642.72643  24631927.172                    24631930.977
        38.800          20.100
 18  2 21  8 58 30.0000000  0  9G07G02G09G30G06G05G23G16G13
 109037135.867 8  84964009.49647  20749072.797                    20749076.191
        53.000          42.700
 115682678.947 7  90142347.95946  22013685.688                    22013686.758
        46.600          36.700
 112692527.292 8  87812392.50247  21444672.516                    21444678.047
        52.000          43.000
 110597057.791 8  86179570.60947  21045919.742                    21045925.941
        51.900          43.200
 120946843.937 7  94244322.64945  23015425.750                    23015432.977
        45.100          32.200
 113860929.166 8  88722814.36846  21667014.367                    21667018.777
        51.100          39.700
 128908076.550 6 100447866.48843  24530394.805                    24530398.004
        41.800          22.500
 128756116.215 6 100329448.80743  24501474.031                    24501476.785
        38.900          19.900
 129342599.017 6 100786454.55643  24613076.758                    24613081.539
        38.900          21.100
 18  2 21  8 59  0.0000000  0  9G07G02G09G30G06G05G23G16G13
 109029288.477 8  84957894.64947  20747579.203                    20747582.844
        52.500          42.700
 115720951.034 7  90172170.34645  22020968.586                    22020969.449
        47.600          35.600
 112761515.043 8  87866149.18447  21457800.422                    21457805.801
        52.600          42.800
 110536579.546 8  86132444.69447  21034410.648                    21034417.227
        51.900          43.500
 121049183.484 7  94324067.72245  23034900.063                    23034907.512
        45.700          32.700
 113787807.918 8  88665836.78446  21653099.852                    21653104.113
        50.300          39.400
 128998373.146 6 100518227.34343  24547577.016                    24547581.227
        40.900          22.000
 128801436.056 6 100364762.95343  24510097.203                    24510101.273
        38.700          19.600
 129243629.688 6 100709335.56442  24594243.016                    24594247.215
        37.300          16.300
 18  2 21  8 59 30.0000000  0  9G07G02G09G30G06G05G23G16G13
 109021970.287 8  84952192.16847  20746186.609                    20746190.555
        52.900          42.700
 115759730.880 7  90202388.39746  22028348.016                    22028348.965
        47.100          36.500
 112830736.996 8  87920088.35047  21470973.086                    21470978.848
        52.100          43.000
 110476578.848 8  86085690.90547  21022993.227                    21022999.434
        52.700          43.900
 121151742.320 7  94403983.63945  23054416.867                    23054424.793
        45.400          32.800
 113715011.584 8  88609112.38746  21639247.375                    21639251.293
        52.300          39.800
 129088732.269 7 100588637.02743  24564772.625                    24564775.188
        43.000          23.800
 128847320.492 6 100400517.08743  24518829.094                    24518832.855
        39.300          20.100
 129144750.133 6 100632286.55743  24575427.570                    24575431.734
        39.500          20.900
                            4  1
RINEX FILE SPLICE; other post-header comments skipped       COMMENT
 18  2 21  9  0  0.0000000  0  9G07G02G09G30G06G05G23G16G13
 109015181.160 8  84946901.93747  20744894.852                    20744898.078
        52.500          43.000
 115799017.078 7  90233001.00546  22035823.977                    22035825.332
        47.800          36.800
 112900191.979 8  87974209.08947  21484190.008                    21484195.758
        51.600          43.200
 110417057.211 8  86039310.42147  21011666.414                    21011672.711
        52.800          43.900
 121254517.450 7  94484068.10945  23073974.281                    23073981.348
        45.000          32.700
 113642541.724 8  88552642.35946  21625456.758                    21625460.406
        52.200          40.300
 129179152.936 6 100659094.65143  24581978.609                    24581982.074
        40.500          21.800
 128893767.702 6 100436709.68343  24527667.688                    24527671.645
        40.900          20.900
 129045961.267 6 100555308.27343  24556628.445                    24556633.906
        38.700          22.000
 18  2 21  9  0 30.0000000  0  9G07G02G09G30G06G05G23G16G13
 109008920.889 8  84942023.80347  20743703.859                    20743707.195
        52.900          43.100
 115838808.180 7  90264007.05246  22043396.109                    22043396.883
        47.300          36.800
 112969878.738 8  88028510.44347  21497450.539                    21497456.844
        51.500          42.200
 110358015.890 8  85993304.19347  21000431.398                    21000437.766
        52.300          43.900
 121357505.744 7  94564318.68445  23093572.711                    23093579.953
        43.500          33.300
 113570399.463 8  88496427.61746  21611728.867                    21611732.430
        52.100          39.600
 129269634.584 6 100729599.72543  24599197.844                    24599200.020
        41.400          22.300
 128940776.313 6 100473339.73443  24536613.406                    24536617.102
        39.700          21.300
 128947263.638 6 100478401.07242  24537846.281                    24537850.254
        38.500          17.400
 18  2 21  9  1  0.0000000  0  9G07G02G09G30G06G05G23G16G13
 109003189.180 8  84937557.54047  20742612.859                    20742616.188
        52.300          42.800
 115879102.480 7  90295405.19246  22051063.805                    22051064.609
        46.800          36.500
 113039796.359 8  88082991.68546  21510755.758                    21510761.133
        51.500          41.900
 110299456.522 8  85947673.52847  20989287.766                    20989293.891
        52.400          44.000
 121460704.421 7  94644733.17245  23113210.648                    23113218.398
        44.800          33.700
 113498587.844 8  88440470.50546  21598063.555                    21598066.813
        51.600          39.500
 129360176.633 6 100800151.93443  24616426.813                    24616429.941
        40.400          21.700
 128988345.165 6 100510406.33143  24545664.820                    24545669.336
        39.600          20.100
 128848658.122 6 100401565.57543  24519083.875                    24519087.734
        40.200          21.800
 18  2 21  9  1 30.0000000  0  9G07G02G09G30G06G05G23G16G13
 108997986.161 8  84933503.23747  20741622.820                    20741626.199
        52.800          42.700
 115919898.557 7  90327194.33446  22058827.227                    22058828.176
        47.200          36.600
 113109943.800 8  88137652.02047  21524104.047                    21524110.438
        51.900          42.600
 110241380.617 8  85902419.57047  20978236.438                    20978242.715
        51.500          44.200
 121564110.593 7  94725309.36845  23132888.016                    23132895.500
        45.200          32.700
 113427108.730 8  88384772.49046  21584461.320                    21584464.746
        51.700          39.600
 129450778.526 6 100870750.73343  24633668.453                    24633670.805
        39.900          22.300
 129036471.770 6 100547907.52543  24554823.172                    24554827.141
        40.000          20.100
 128750145.594 5 100324802.74643  24500334.828                    24500342.340
        35.100          19.300
 18  2 21  9  2  0.0000000  0  9G07G02G09G30G06G05G23G16G13
 108993310.910 8  84929860.18847  20740732.961                    20740736.605
        51.900          43.000
 115961194.927 7  90359373.30446  22066685.133                    22066686.387
        46.400          36.300
 113180319.759 8  88192490.40546  21537495.977                    21537502.262
        50.800          41.200
 110183789.389 8  85857543.28547  20967277.164                    20967283.344
        52.100          45.000
 121667721.070 7  94806044.75645  23152604.328                    23152612.430
        44.900          34.000
 113355964.377 8  88329335.32946  21570923.023                    21570926.566
        51.400          39.200
 129541439.013 6 100941395.19743  24650920.609                    24650922.609
        40.000          22.600
 129085154.598 6 100585842.18243  24564087.484                    24564091.355
        39.800          20.100
 128651726.819 7 100248112.75043  24481608.891                    24481611.188
        42.300          20.400
 18  2 21  9  2 30.0000000  0  9G07G02G09G30G06G05G23G16G13
 108989163.601 8  84926628.52247  20739943.891                    20739947.461
        52.000          43.200
 116002990.022 7  90391940.88046  22074639.070                    22074639.930
        45.600          36.500
 113250923.297 8  88247506.12146  21550931.570                    21550937.129
        50.100          41.400
 110126684.356 8  85813045.86347  20956410.430                    20956416.715
        53.000          44.300
 121771533.002 7  94886937.11645  23172359.375                    23172366.672
        45.700          31.700
 113285156.807 8  88274160.61646  21557448.523                    21557452.320
        51.700          40.200
 129632157.799 6 101012085.11443  24668183.508                    24668186.215
        40.800          21.800
 129134392.521 6 100624209.39443  24573457.000                    24573461.020
        40.600          20.100
 128553402.595 5 100171496.44443  24462896.836                    24462901.871
        35.600          19.300
 18  2 21  9  3  0.0000000  0  9G07G02G09G30G06G05G23G16G13
 108985543.867 8  84923807.94447  20739255.211                    20739258.742
        51.900          42.900
 116045282.178 7  90424895.78946  22082686.852                    22082688.098
        47.200          36.700
 113321753.263 8  88302698.29647  21564410.461                    21564415.949
        51.700          42.800
 110070066.934 8  85768928.39247  20945636.859                    20945642.504
        53.000          44.600
 121875543.464 7  94967984.18745  23192152.109                    23192159.027
        44.700          31.300
 113214687.925 8  88219249.78946  21544039.039                    21544042.805
        52.100          40.300
 129722933.718 6 101082819.52944  24685458.016                    24685461.414
        40.200          25.000
 129184183.188 6 100663007.25143  24582931.992                    24582935.867
        40.600          21.100
 128455173.583 7 100094954.57043  24444205.922                    24444210.715
        42.400          23.800
 18  2 21  9  3 30.0000000  0  9G07G02G09G30G06G05G23G16G13
 108982451.197 8  84921398.07447  20738666.570                    20738670.102
        52.700          42.800
 116088069.663 7  90458236.64946  22090829.117                    22090830.348
        46.500          36.400
 113392808.508 8  88358066.00347  21577931.391                    21577937.887
        51.000          42.100
 110013938.377 8  85725191.85747  20934955.719                    20934961.793
        53.600          44.500
 121979749.360 7  95049183.54545  23211981.336                    23211988.934
        43.500          30.200
 113144559.575 8  88164604.33246  21530694.156                    21530698.168
        52.100          40.400
 129813766.405 6 101153598.11943  24702742.523                    24702746.066
        38.800          21.100
 129234525.282 6 100702234.83343  24592512.289                    24592515.199
        40.100          19.600
 128357040.753 6 100018487.33343  24425531.820                    24425534.121
        39.800          18.600
 18  2 21  9  4  0.0000000  0  9G07G02G09G30G06G05G23G16G13
 108979885.651 8  84919398.94947  20738178.094                    20738181.617
        51.000          42.300
 116131350.863 7  90491962.24346  22099065.406                    22099066.746
        47.200          36.700
 113464088.122 8  88413608.52547  21591495.938                    21591501.633
        50.700          42.100
 109958300.185 8  85681837.42847  20924367.906                    20924374.238
        53.500          44.700
 122084147.861 7  95130532.97144  23231847.859                    23231855.293
        42.500          29.700
 113074773.776 8  88110225.78046  21517414.188                    21517417.777
        52.500          40.500
 129904655.468 7 101224420.72943  24720038.891                    24720040.824
        42.600          22.300
 129285417.175 6 100741890.85243  24602196.500                    24602199.852
        39.900          20.100
 128259004.515 6  99942095.50243  24406874.484                    24406879.602
        38.600          22.600
 18  2 21  9  4 30.0000000  0  9G07G02G09G30G06G05G23G16G13
 108977846.085 8  84917809.68147  20737790.188                    20737793.879
        51.500          42.600
 116175124.055 7  90526071.20846  22107395.227                    22107396.461
        46.500          37.300
 113535590.812 8  88469324.89846  21605102.227                    21605107.820
        50.800          41.300
 109903153.536 9  85638866.01247  20913873.961                    20913880.207
        54.200          44.800
 122188735.854 7  95212030.08145  23251749.914                    23251757.180
        43.600          30.000
 113005332.439 8  88056115.64446  21504200.297                    21504203.848
        51.800          40.000
 129995600.049 6 101295286.60243  24737344.188                    24737347.902
        39.000          21.800
 129336856.486 6 100781973.38343  24611985.047                    24611989.020
        40.900          19.000
 128161065.874 6  99865779.75543  24388238.852                    24388243.309
        40.400          22.600
 18  2 21  9  5  0.0000000  0  9G07G02G09G30G06G05G23G16G13
 108976332.865 8  84916630.55047  20737502.484                    20737505.930
        51.800          42.200
 116219387.667 7  90560562.30446  22115817.977                    22115819.648
        47.600          36.900
 113607315.670 8  88525214.39646  21618750.531                    21618756.609
        50.600          41.400
 109848499.914 8  85596278.77547  20903473.789                    20903479.668
        53.900          45.000
 122293510.531 7  95293672.63545  23271688.297                    23271695.375
        43.000          30.300
 112936238.061 8  88002275.86346  21491051.977                    21491055.523
        50.900          40.300
 130086599.505 6 101366195.12143  24754661.445                    24754664.918
        40.900          20.900
 129388841.929 6 100822481.46643  24621877.141                    24621881.332
        39.000          19.900
 128063226.010 6  99789540.90742  24369618.883                    24369623.500
        37.700          16.900
 18  2 21  9  5 30.0000000  0  9G07G02G09G30G06G05G23G16G13
 108975345.253 8  84915860.98547  20737314.156                    20737318.188
        51.900          42.800
 116264139.869 7  90595434.13046  22124333.781                    22124335.578
        45.900          36.900
 113679261.483 8  88581276.03446  21632441.766                    21632447.375
        51.400          41.000
 109794340.461 8  85554076.60847  20893167.328                    20893173.406
        53.800          44.700
 122398468.712 7  95375458.19145  23291661.453                    23291668.836
        44.100          30.600
 112867492.929 8  87948708.24746  21477969.797                    21477973.426
        51.300          39.500
 130177652.906 6 101437145.84943  24771988.359                    24771989.938
        39.200          19.600
 129441371.664 6 100863413.66643  24631874.539                    24631877.336
        38.700          19.900
 127965485.372 7  99713379.44044  24351020.250                    24351024.750
        42.000          24.200
 18  2 21  9  6  0.0000000  0  9G07G02G09G30G06G05G23G16G13
 108974883.015 8  84915500.79047  20737226.320                    20737230.063
        52.000          42.400
 116309379.322 7  90630685.63146  22132942.641                    22132944.383
        47.200          36.700
 113751427.350 8  88637509.16746  21646174.656                    21646179.988
        51.200          41.000
 109740676.674 8  85512260.67647  20882955.734                    20882961.922
        53.700          45.100
 122503607.641 7  95457384.59844  23311668.125                    23311675.840
        43.100          29.900
 112799098.906 8  87895414.19746  21464954.547                    21464958.480
        51.200          39.900
 130268759.987 6 101508138.24843  24789325.266                    24789328.656
        39.400          23.600
 129494443.782 6 100904768.57143  24641973.117                    24641976.918
        40.000          19.600
 127867844.853 6  99637295.98243  24332439.961                    24332444.645
        40.200          21.800
 18  2 21  9  6 30.0000000  0  9G07G02G09G30G06G05G23G16G13
 108974945.756 8  84915549.66147  20737238.148                    20737241.770
        51.300          42.400
 116355104.162 7  90666315.35646  22141643.969                    22141645.527
        45.800          36.200
 113823812.031 8  88693912.81346  21659948.992                    21659954.406
        50.900          41.300
 109687509.668 8  85470831.83847  20872838.555                    20872844.332
        53.800          44.900
 122608924.269 7  95539449.43345  23331709.852                    23331717.645
        43.600          31.200
 112731057.988 8  87842395.30546  21452007.133                    21452011.078
        51.900          39.900
 130359919.478 7 101579171.48143  24806673.328                    24806676.426
        43.000          23.900
 129548056.082 6 100946544.32743  24652175.289                    24652178.941
        37.900          19.000
 127770305.036 6  99561290.97543  24313878.656                    24313882.637
        41.300          21.700
 18  2 21  9  7  0.0000000  0  9G07G02G09G30G06G05G23G16G13
 108975532.933 8  84916007.19647  20737349.883                    20737353.703
        51.000          42.600
 116401312.532 7  90702321.85046  22150437.289                    22150438.645
        46.200          37.000
 113896414.613 8  88750486.23946  21673764.820                    21673770.813
        51.500          41.500
 109634840.849 8  85429791.19947  20862815.961                    20862821.859
        53.700          44.500
 122714415.685 7  95621650.50945  23351783.539                    23351791.535
        43.200          30.700
 112663371.790 8  87789652.80846  21439127.211                    21439131.465
        52.100          40.600
 130451131.178 6 101650245.60342  24824029.250                    24824031.363
        37.900          16.300
 129602207.186 6 100988739.97043  24662479.867                    24662483.480
        37.600          19.300
 127672867.201 6  99485365.35843  24295337.148                    24295341.164
        41.300          21.700
 18  2 21  9  7 30.0000000  0  9G07G02G09G30G06G05G23G16G13
 108976644.088 8  84916873.03447  20737561.516                    20737565.152
        51.900          42.500
 116448002.772 7  90738703.83046  22159322.039                    22159323.617
        46.100          36.800
 113969234.098 8  88807228.66846  21687621.914                    21687627.766
        50.200          41.200
 109582671.481 8  85389139.75347  20852888.359                    20852894.504
        52.500          44.800
 122820079.004 7  95703985.52345  23371891.344                    23371899.691
        44.100          32.200
 112596042.167 8  87737188.17546  21426314.570                    21426318.828
        52.200          41.200
 130542394.418 7 101721359.68444  24841397.258                    24841398.680
        43.000          24.400
 129656895.362 6 101031354.08243  24672887.000                    24672889.746
        38.500          18.600
 127575531.866 6  99409519.69443  24276814.195                    24276819.461
        40.800          21.500
 18  2 21  9  8  0.0000000  0  9G07G02G09G30G06G05G23G16G13
 108978279.186 8  84918147.13747  20737872.508                    20737876.121
        51.600          42.000
 116495173.190 7  90775459.96345  22168298.508                    22168299.559
        47.300          35.600
 114042269.334 8  88864139.21846  21701520.148                    21701525.168
        50.400          40.900
 109531002.745 8  85348878.39947  20843056.172                    20843062.168
        52.900          43.900
 122925911.165 7  95786452.08245  23392030.539                    23392038.664
        42.700          31.800
 112529072.547 8  87685004.05146  21413570.969                    21413574.617
        51.900          41.200
 130633708.388 6 101792513.33643  24858772.984                    24858776.016
        41.300          21.800
 129712118.148 6 101074384.78243  24683394.852                    24683398.785
        37.100          18.600
 127478299.944 6  99333754.62643  24258311.195                    24258316.891
        40.900          20.100
 18  2 21  9  8 30.0000000  0  8G07G02G09G30G06G05G16G13
 108980437.090 8  84919828.61647  20738282.977                    20738286.824
        50.500          42.500
 116542822.048 7  90812588.90945  22177365.531                    22177366.500
        47.300          35.800
 114115519.278 8  88921217.09446  21715458.867                    21715464.863
        49.500          40.600
 109479835.842 8  85309008.08347  20833319.633                    20833325.426
        53.100          44.900
 123031909.234 7  95869047.93745  23412201.711                    23412209.359
        42.200          31.600
 112462464.376 8  87633101.57746  21400895.922                    21400899.625
        51.800          40.600
 129767873.978 6 101117830.82643  24694004.750                    24694008.406
        37.300          18.300
 127381172.119 6  99258070.57043  24239829.563                    24239832.590
        40.800          21.300
 18  2 21  9  9  0.0000000  0  8G07G02G09G30G06G05G16G13
 108983117.655 8  84921917.37747  20738793.031                    20738797.063
        51.200          42.900
 116590947.407 7  90850089.14946  22186523.766                    22186525.012
        45.900          36.300
 114188983.027 8  88978461.54046  21729439.125                    21729445.012
        51.200          41.100
 109429172.087 8  85269529.84347  20823678.313                    20823684.703
        53.000          44.500
 123138070.349 7  95951770.85245  23432403.273                    23432411.449
        42.900          32.400
 112396219.514 8  87581482.20546  21388289.867                    21388293.566
        51.900          40.800
 129824161.050 6 101161690.85143  24704716.055                    24704720.113
        37.900          19.900
 127284149.188 6  99182468.32043  24221366.211                    24221370.539
        40.900          21.700
 18  2 21  9  9 30.0000000  0  8G07G02G09G30G06G05G16G13
 108986319.790 8  84924412.53947  20739402.523                    20739406.453
        51.400          42.700
 116639546.814 7  90887958.76946  22195771.875                    22195772.875
        47.300          36.300
 114262658.869 8  89035871.27746  21743458.938                    21743464.145
        50.500          41.600
 109379012.058 8  85230444.10947  20814133.125                    20814139.488
        51.000          44.000
 123244390.938 7  96034618.01145  23452635.461                    23452643.117
        44.900          32.300
 112330339.311 8  87530146.98746  21375753.070                    21375756.664
        51.900          39.500
 129880976.787 6 101205962.77243  24715528.172                    24715531.512
        37.400          20.400
 127187231.508 6  99106948.05943  24202923.438                    24202927.176
        41.500          20.900
 18  2 21  9 10  0.0000000  0  8G07G02G09G30G06G05G16G13
 108990043.654 8  84927314.25347  20740111.203                    20740114.926
        51.300          42.400
 116688619.358 7  90926197.08545  22205109.523                    22205111.297
        47.300          35.400
 114336546.430 8  89093445.99746  21757519.203                    21757524.855
        49.600          40.800
 109329357.531 8  85191752.27647  20804683.781                    20804690.227
        51.500          43.500
 123350868.712 7  96117587.68445  23472897.055                    23472905.148
        42.600          30.900
 112264826.359 8  87479097.93346  21363286.195                    21363290.008
        52.000          40.200
 129938319.665 6 101250645.49443  24726439.836                    24726443.613
        36.400          19.300
 127090420.196 6  99031510.71643  24184500.242                    24184504.574
        39.500          22.000
 18  2 21  9 10 30.0000000  0  8G07G02G09G30G06G05G16G13
 108994287.851 8  84930621.41347  20740919.117                    20740922.801
        51.600          42.800
 116738162.176 7  90964801.82945  22214537.594                    22214539.457
        47.200          35.800
 114410644.139 8  89151184.44246  21771619.609                    21771625.656
        50.000          41.700
 109280209.168 8  85153454.85647  20795331.320                    20795337.398
        51.500          43.700
 123457500.220 7  96200677.11245  23493188.328                    23493196.699
        43.600          31.600
 112199682.418 8  87428336.42146  21350890.023                    21350893.371
        51.300          39.800
 129996186.940 6 101295736.85143  24737451.484                    24737455.863
        36.900          18.300
 126993715.952 6  98956156.84043  24166098.609                    24166103.215
        40.300          22.300
 18  2 21  9 11  0.0000000  0  8G07G02G09G30G06G05G16G13
 108999052.187 8  84934333.89047  20741825.734                    20741829.230
        51.600          42.200
 116788174.143 7  91003772.16045  22224054.336                    22224055.641
        44.700          35.800
 114484951.323 8  89209086.11246  21785759.734                    21785765.883
        49.400          41.200
 109231568.426 8  85115552.97747  20786075.586                    20786081.660
        52.000          43.400
 123564282.725 7  96283884.20145  23513508.961                    23513516.859
        43.500          31.400
 112134910.258 8  87377864.59846  21338564.203                    21338567.449
        52.200          40.300
 130054577.291 6 101341235.80243  24748563.992                    24748566.980
        37.400          19.600
 126897119.877 6  98880887.24843  24147716.617                    24147721.703
        37.900          20.400
 18  2 21  9 11 30.0000000  0  8G07G02G09G30G06G05G16G13
 109004335.969 8  84938451.14347  20742831.172                    20742834.613
        52.500          42.600
 116838652.981 7  91043106.29445  22233660.453                    22233662.086
        46.400          35.400
 114559466.681 8  89267150.00546  21799939.648                    21799945.172
        49.100          41.300
 109183436.135 8  85078047.29947  20776916.211                    20776922.707
        51.300          43.300
 123671213.110 7  96367206.55144  23533856.758                    23533864.547
        42.900          28.800
 112070511.279 8  87327683.56746  21326309.664                    21326312.891
        51.800          40.500
 130113488.537 6 101387140.63543  24759774.227                    24759777.363
        38.600          19.300
 126800632.517 6  98805702.38643  24129355.469                    24129359.570
        40.500          20.900
 18  2 21  9 12  0.0000000  0  8G07G02G09G30G06G05G16G13
 109010138.816 8  84942972.84047  20743935.016                    20743939.035
        52.600          42.600
 116889596.955 7  91082802.85345  22243354.508                    22243356.027
        47.200          35.200
 114634189.476 8  89325375.54246  21814158.906                    21814165.023
        50.500          40.700
 109135813.715 8  85040938.92147  20767853.914                    20767859.879
        51.800          43.600
 123778288.669 7  96450642.01345  23554232.539                    23554240.535
        42.500          30.600
 112006487.649 8  87277795.02046  21314126.453                    21314129.477
        52.000          40.400
 130172918.800 6 101433449.91043  24771082.539                    24771085.988
        38.300          18.300
 126704254.858 6  98730602.97043  24111015.711                    24111020.059
        40.100          22.500
 18  2 21  9 12 30.0000000  0  8G07G02G09G30G06G05G16G13
 109016460.560 8  84947898.87247  20745137.805                    20745141.750
        52.800          43.200
 116941003.987 7  91122860.23245  22253137.297                    22253138.172
        47.600          35.400
 114709118.540 8  89383761.81046  21828417.430                    21828422.996
        49.100          41.100
 109088702.123 8  85004228.59947  20758888.430                    20758894.969
        51.100          42.700
 123885506.424 6  96534188.23844  23574635.055                    23574643.211
        41.800          29.100
 111942841.623 8  87228200.71346  21302014.867                    21302018.699
        51.800          40.800
 130232865.773 6 101480161.79043  24782490.633                    24782493.930
        39.200          19.600
 126607987.444 6  98655589.47043  24092696.359                    24092700.809
        40.800          22.000
 18  2 21  9 13  0.0000000  0  8G07G02G09G30G06G05G16G13
 109023299.688 8  84953228.06447  20746439.672                    20746443.203
        52.200          43.000
 116992872.258 7  91163277.00745  22263007.125                    22263008.852
        46.800          35.500
 114784252.938 8  89442308.07446  21842714.945                    21842720.824
        48.500          40.100
 109042102.432 8  84967917.15947  20750021.141                    20750027.254
        51.300          43.400
 123992863.330 6  96617842.95144  23595064.961                    23595072.102
        41.900          28.700
 111879574.902 8  87178901.97846  21289975.633                    21289979.492
        51.600          40.600
 130293327.337 6 101527274.67543  24793995.711                    24793999.465
        38.900          19.600
 126511830.987 6  98580662.43243  24074399.039                    24074402.852
        40.000          22.500
 18  2 21  9 13 30.0000000  0  7G07G02G09G30G06G05G13
 109030655.581 8  84958959.93147  20747839.477                    20747843.055
        51.800          42.800
 117045199.654 7  91204051.51045  22272965.375                    22272966.910
        46.400          34.800
 114859591.427 8  89501013.36846  21857051.586                    21857057.215
        50.000          40.200
 108996015.529 8  84932005.27947  20741251.203                    20741257.113
        51.900          43.400
 124100356.339 6  96701603.65345  23615519.695                    23615528.871
        41.300          30.200
 111816689.098 8  87129900.06046  21278008.672                    21278011.980
        50.900          40.200
 126415786.065 6  98505822.29143  24056121.555                    24056125.770
        40.900          22.000
 18  2 21  9 14  0.0000000  0  7G07G02G09G30G06G05G13
 109038528.280 8  84965094.49847  20749337.648                    20749341.188
        52.900          42.800
 117097984.982 7  91245182.87645  22283009.563                    22283011.332
        47.100          35.200
 114935133.513 8  89559877.32046  21871426.266                    21871432.512
        50.100          40.000
 108950442.935 8  84896494.18047  20732579.125                    20732585.227
        52.300          43.900
 124207983.015 6  96785468.53044  23636001.328                    23636007.383
        41.400          27.200
 111754187.428 8  87081197.46646  21266114.945                    21266118.934
        51.300          40.900
 126319854.660 6  98431070.66444  24037866.969                    24037870.730
        41.800          24.200
 18  2 21  9 14 30.0000000  0  7G07G02G09G30G06G05G13
 109046916.548 8  84971630.81147  20750934.008                    20750937.422
        52.500          43.100
 117151225.333 7  91286668.82145  22293141.141                    22293143.012
        46.600          35.800
 115010877.794 8  89618898.81246  21885840.258                    21885846.090
        51.400          40.600
 108905385.293 8  84861384.32647  20724004.906                    20724010.969
        52.300          44.100
 124315739.975 7  96869434.99944  23656506.453                    23656514.324
        42.400          29.400
 111692071.218 8  87032795.23846  21254294.430                    21254298.383
        51.100          41.300
 126224036.727 6  98356407.42443  24019632.242                    24019637.406
        41.100          22.200
 18  2 21  9 15  0.0000000  0  7G07G02G09G30G06G05G13
 109055819.662 8  84978568.30147  20752628.039                    20752631.664
        52.700          42.800
 117204918.832 7  91328507.84945  22303358.969                    22303360.922
        46.200          34.800
 115086823.038 8  89678076.91346  21900292.000                    21900297.977
        51.300          40.300
 108860843.325 8  84826676.30647  20715528.922                    20715535.027
        52.900          44.100
 124423624.154 6  96953500.46844  23677036.305                    23677044.551
        41.400          28.600
 111630342.249 8  86984694.74646  21242547.938                    21242551.594
        51.400          40.300
 126128332.751 6  98281832.96843  24001420.477                    24001425.219
        40.900          22.600
 18  2 21  9 15 30.0000000  0  7G07G02G09G30G06G05G13
 109065236.895 8  84985906.40147  20754420.047                    20754423.871
        52.500          42.300
 117259063.778 7  91370698.65245  22313662.195                    22313663.914
        46.700          33.900
 115162968.517 8  89737411.03046  21914781.844                    21914787.727
        51.300          40.700
 108816818.336 8  84792371.12447  20707151.305                    20707156.770
        53.000          44.700
 124531632.769 6  97037663.04244  23697589.547                    23697595.602
        40.700          27.200
 111569003.108 8  86936898.00746  21230875.773                    21230878.750
        51.600          40.100
 126032744.095 6  98207348.40743  23983231.141                    23983235.270
        41.800          23.000
 18  2 21  9 16  0.0000000  0  7G07G02G09G30G06G05G13
 109075167.800 8  84993644.76847  20756309.781                    20756313.656
        53.100          42.900
 117313657.654 7  91413239.29345  22324050.680                    22324052.777
        46.000          34.700
 115239313.217 8  89796900.38746  21929309.680                    21929315.883
        49.300          40.100
 108773311.216 8  84758469.46647  20698872.203                    20698877.762
        53.200          45.000
 124639762.985 6  97121920.28645  23718166.172                    23718174.473
        41.500          30.200
 111508055.644 8  86889406.47146  21219277.641                    21219281.172
        51.900          40.700
 125937270.828 6  98132953.68743  23965063.523                    23965066.805
        41.800          23.000
 18  2 21  9 16 30.0000000  0  7G07G02G09G30G06G05G13
 109085611.583 8  85001782.78147  20758297.375                    20758300.805
        52.900          42.800
 117368698.428 7  91456128.13645  22334525.094                    22334527.051
        47.200          34.400
 115315855.932 8  89856544.04246  21943875.555                    21943881.973
        49.200          40.100
 108730322.771 8  84724971.97647  20690691.695                    20690697.418
        53.600          44.100
 124748011.612 7  97206269.78344  23738765.172                    23738773.465
        42.300          28.900
 111447501.275 8  86842221.24946  21207754.656                    21207757.887
        51.500          39.800
 125841914.297 6  98058649.99243  23946916.945                    23946921.293
        41.400          22.200
 18  2 21  9 17  0.0000000  0  7G07G02G09G30G06G05G13
 109096566.952 8  85010319.43247  20760381.945                    20760385.293
        53.000          43.100
 117424184.164 7  91499363.69745  22345083.852                    22345085.188
        46.500          34.700
 115392595.820 8  89916341.31446  21958478.938                    21958484.930
        49.400          40.400
 108687853.982 9  84691879.41347  20682610.164                    20682616.164
        54.000          44.800
 124856375.889 6  97290709.48944  23759386.930                    23759392.195
        41.800          26.900
 111387342.623 8  86795344.37946  21196306.898                    21196310.035
        51.400          40.300
 125746675.294 6  97984437.82143  23928793.672                    23928798.070
        41.600          22.600
 18  2 21  9 17 30.0000000  0  7G07G02G09G30G06G05G13
 109108033.482 8  85019254.38547  20762563.969                    20762567.430
        52.900          42.400
 117480113.007 7  91542944.56145  22355726.648                    22355728.598
        46.800          34.400
 115469531.830 8  89976291.42746  21973118.813                    21973124.863
        48.400          38.900
 108645905.763 8  84659192.49147  20674627.547                    20674633.605
        53.700          45.600
 124964852.761 7  97375236.83945  23780029.016                    23780037.949
        43.200          30.900
 111327581.359 8  86748777.16446  21184934.352                    21184937.762
        50.800          40.700
 125651554.489 7  97910317.80243  23910692.563                    23910697.152
        42.300          22.500
 18  2 21  9 18  0.0000000  0  7G07G02G09G30G06G05G13
 109120010.077 8  85028586.79147  20764843.070                    20764846.480
        53.000          43.000
 117536482.237 7  91586868.59145  22366453.563                    22366455.254
        45.900          34.700
 115546662.656 8  90036393.35646  21987796.938                    21987802.543
        48.400          39.400
 108604478.704 8  84626911.66647  20666744.422                    20666750.613
        53.600          45.100
 125073439.148 7  97459849.52844  23800692.148                    23800699.121
        42.800          26.700
 111268219.291 8  86702521.01346  21173638.289                    21173641.797
        50.800          40.300
 125556552.379 6  97836290.24243  23892614.398                    23892618.738
        41.700          22.600
 18  2 21  9 18 30.0000000  0  7G07G02G09G30G06G05G13
 109132495.999 8  85038316.07847  20767219.273                    20767222.352
        52.700          42.600
 117593290.142 7  91631134.43845  22377263.977                    22377265.102
        46.000          34.400
 115623987.509 8  90096646.46046  22002511.219                    22002517.488
        49.900          39.900
 108563573.826 8  84595037.73547  20658960.328                    20658966.715
        53.500          45.800
 125182132.129 7  97544545.37344  23821376.094                    23821384.172
        42.700          29.500
 111209258.487 8  86656577.53046  21162418.016                    21162422.262
        51.800          40.100
 125461669.758 6  97762355.80743  23874558.344                    23874562.676
        41.800          22.500
 18  2 21  9 19  0.0000000  0  7G07G02G09G30G06G05G13
 109145490.510 8  85048441.67047  20769692.000                    20769695.570
        52.700          42.500
 117650534.622 7  91675740.47545  22388157.359                    22388158.793
        45.800          34.400
 115701505.623 8  90157050.15246  22017262.641                    22017268.469
        48.300          39.700
 108523192.162 8  84563571.50247  20651276.148                    20651282.387
        52.700          45.600
 125290929.115 6  97629322.09944  23842079.039                    23842088.867
        41.700          29.100
 111150701.284 8  86610948.54546  21151275.070                    21151279.055
        50.800          40.100
 125366907.606 6  97688515.19744  23856525.945                    23856530.219
        41.100          24.300
 18  2 21  9 19 30.0000000  0  7G07G02G09G30G06G05G13
 109158992.787 8  85058962.92047  20772261.344                    20772264.988
        52.200          42.800
 117708213.231 7  91720684.81245  22399133.203                    22399134.563
        46.600          34.600
 115779215.672 8  90217603.42046  22032050.484                    22032055.445
        48.800          39.600
 108483334.298 8  84532513.43047  20643691.523                    20643697.465
        53.900          45.700
 125399826.872 7  97714177.47944  23862802.031                    23862808.539
        42.600          26.400
 111092549.426 8  86565635.41546  21140209.125                    21140212.742
        51.000          40.300
 125272266.801 7  97614769.17344  23838516.766                    23838520.383
        42.200          24.100
 18  2 21  9 20  0.0000000  0  7G07G02G09G30G06G05G13
 109173002.302 8  85069879.43047  20774927.156                    20774930.965
        52.700          42.400
 117766323.983 7  91765965.88345  22410191.008                    22410192.496
        45.500          33.700
 115857117.027 8  90278305.77146  22046873.914                    22046880.051
        49.400          39.000
 108444001.294 8  84501864.33447  20636206.570                    20636212.629
        53.700          45.500
 125508822.778 6  97799109.31344  23883542.828                    23883551.887
        39.100          28.800
 111034804.715 8  86520639.53046  21129220.883                    21129224.527
        51.100          40.200
 125177748.420 7  97541118.53743  23820530.484                    23820534.184
        42.200          23.800
 18  2 21  9 20 30.0000000  0  7G07G02G09G30G06G05G13
 109187517.456 8  85081189.93847  20777689.219                    20777692.941
        52.300          42.500
 117824864.845 7  91811582.12345  22421331.086                    22421332.961
        46.600          35.100
 115935208.552 7  90339156.27646  22061735.008                    22061740.914
        47.800          38.900
 108405193.800 8  84471624.72747  20628822.023                    20628827.777
        53.500          46.600
 125617913.699 6  97884115.11544  23904303.078                    23904311.563
        41.400          28.400
 110977469.168 8  86475962.47646  21118310.430                    21118314.012
        50.800          39.700
 125083352.832 7  97467563.59343  23802567.734                    23802571.449
        42.000          23.600
 18  2 21  9 21  0.0000000  0  7G07G02G09G30G06G05G13
 109202537.519 8  85092893.88047  20780547.695                    20780551.617
        51.200          42.200
 117883833.363 7  91857531.62445  22432552.242                    22432554.016
        46.600          33.500
 116013489.196 8  90400154.14546  22076631.359                    22076636.918
        48.800          38.700
 108366912.561 9  84441795.19847  20621536.953                    20621543.125
        54.100          46.200
 125727096.745 6  97969192.83344  23925078.867                    23925086.574
        39.000          26.000
 110920545.320 8  86431606.23246  21107478.031                    21107481.969
        51.800          40.800
 124989080.706 6  97394104.82744  23784627.742                    23784632.016
        41.600          24.700
 18  2 21  9 21 30.0000000  0  7G07G02G09G30G06G05G13
 109218061.972 8  85104990.85747  20783501.930                    20783505.293
        50.900          42.400
 117943227.698 7  91903812.91945  22443854.945                    22443856.504
        46.800          34.500
 116091958.110 7  90461298.75046  22091563.023                    22091568.500
        47.900          38.000
 108329158.445 8  84412376.40847  20614352.883                    20614358.496
        53.600          45.800
 125836369.127 6  98054340.05145  23945873.141                    23945882.008
        41.000          30.900
 110864034.596 8  86387571.90546  21096724.398                    21096727.789
        51.900          40.100
 124894933.197 6  97320743.16843  23766712.883                    23766716.137
        41.500          23.400
 18  2 21  9 22  0.0000000  0  7G07G02G09G30G06G05G13
 109234089.422 8  85117479.78047  20786551.563                    20786554.977
        51.700          42.100
 118003045.130 7  91950423.91045  22455237.820                    22455239.094
        46.500          34.300
 116170614.150 8  90522589.15346  22106531.023                    22106536.691
        48.800          39.100
 108291931.914 8  84383368.72047  20607268.734                    20607274.793
        53.700          46.000
 125945727.683 6  98139554.42344  23966682.820                    23966691.563
        39.900          25.900
 110807938.765 8  86343860.86446  21086049.828                    21086053.480
        51.600          40.400
 124800910.649 6  97247478.86543  23748820.016                    23748823.891
        41.700          23.300
 18  2 21  9 22 30.0000000  0  7G07G02G09G30G06G05G13
 109250619.280 8  85130360.18447  20789697.258                    20789700.902
        51.700          42.900
 118063283.749 7  91997363.09045  22466700.836                    22466702.500
        46.700          34.200
 116249456.553 8  90584024.74646  22121534.148                    22121540.344
        48.800          39.200
 108255234.017 8  84354772.95847  20600285.516                    20600291.344
        53.700          46.200
 126055169.801 6  98224834.00744  23987510.047                    23987516.887
        40.300          27.500
 110752260.257 8  86300475.01146  21075454.352                    21075457.863
        51.300          39.800
 124707014.304 6  97174312.89444  23730952.227                    23730956.371
        41.100          24.100
 18  2 21  9 23  0.0000000  0  7G07G02G09G30G06G05G13
 109267650.379 8  85143631.16347  20792938.406                    20792941.813
        50.200          42.500
 118123941.146 7  92044628.58745  22478243.055                    22478244.855
        46.500          33.700
 116328484.173 8  90645604.69946  22136572.797                    22136577.617
        48.400          39.300
 108219065.220 8  84326589.48947  20593402.633                    20593408.621
        53.800          46.000
 126164692.343 6  98310176.13444  24008350.625                    24008360.121
        40.300          27.100
 110697000.849 8  86257415.73946  21064938.945                    21064942.668
        51.200          40.200
 124613244.543 6  97101245.57544  23713109.063                    23713111.922
        41.300          24.100
 18  2 21  9 23 30.0000000  0  7G07G02G09G30G06G05G13
 109285181.740 8  85157291.96147  20796274.383                    20796277.918
        49.900          42.100
 118185015.042 7  92092218.61245  22489865.664                    22489867.395
        44.800          34.200
 116407696.119 8  90707328.29046  22151646.188                    22151652.074
        48.100          38.400
 108183426.285 9  84298818.88547  20586620.781                    20586626.871
        54.100          46.000
 126274292.559 6  98395578.85744  24029207.648                    24029214.391
        40.800          26.400
 110642162.033 8  86214684.19446  21054503.563                    21054507.047
        50.800          40.800
 124519602.576 6  97028277.84344  23695289.391                    23695292.906
        40.800          26.400
 18  2 21  9 24  0.0000000  0  7G07G02G09G30G06G05G13
 109303212.099 8  85171341.59647  20799705.336                    20799709.348
        51.400          42.700
 118246503.021 7  92140131.29945  22501565.953                    22501567.496
        47.000          33.900
 116487091.263 8  90769194.59546  22166754.859                    22166760.871
        50.000          39.100
 108148317.672 8  84271461.53347  20579939.625                    20579945.801
        53.500          45.900
 126383967.245 6  98481039.62744  24050077.297                    24050086.563
        40.200          28.100
 110587746.034 8  86172282.11946  21044148.344                    21044151.563
        51.200          40.100
 124426088.340 6  96955409.63844  23677493.898                    23677498.043
        40.500          24.600
 18  2 21  9 24 30.0000000  0  7G07G02G09G30G06G05G13
 109321740.931 8  85185779.61947  20803231.414                    20803235.250
        51.900          42.800
 118308403.162 7  92188365.14245  22513345.609                    22513347.301
        46.700          34.400
 116566668.862 8  90831203.11346  22181897.453                    22181902.797
        50.500          38.100
 108113740.285 8  84244518.11847  20573359.953                    20573365.930
        53.200          45.800
 126493713.873 7  98566556.34844  24070962.898                    24070971.016
        43.600          28.600
 110533754.993 8  86130211.19146  21033874.219                    21033877.809
        51.200          40.200
 124332703.669 6  96882642.40843  23659723.219                    23659727.566
        41.200          23.800
 18  2 21  9 25  0.0000000  0  7G07G02G09G30G06G05G13
 109340767.086 8  85200605.18347  20806852.039                    20806855.355
        52.400          43.000
 118370712.727 7  92236918.02745  22525202.516                    22525204.055
        46.000          34.000
 116646427.913 8  90893352.99946  22197075.461                    22197081.098
        49.400          38.500
 108079694.652 8  84217989.06147  20566881.125                    20566887.375
        53.400          45.500
 126603529.370 6  98652126.86643  24091858.328                    24091866.211
        41.400          23.600
 110480190.638 8  86088472.73846  21023681.477                    21023684.816
        51.800          40.900
 124239449.043 7  96809976.46144  23641977.273                    23641981.289
        42.000          24.400
 18  2 21  9 25 30.0000000  0  7G07G02G09G30G06G05G13
 109360289.968 8  85215817.81247  20810566.906                    20810570.262
        52.300          42.400
 118433429.996 7  92285788.58745  22537137.133                    22537139.328
        47.100          33.800
 116726367.827 8  90955643.83346  22212287.430                    22212294.094
        50.000          39.200
 108046181.738 8  84191875.10347  20560503.820                    20560509.934
        53.100          45.000
 126713411.325 7  98737749.09644  24112769.891                    24112777.180
        42.900          27.400
 110427055.685 8  86047068.87446  21013569.961                    21013573.691
        51.800          40.300
 124146325.378 7  96737412.61143  23624256.930                    23624260.352
        43.000          23.600
 18  2 21  9 26  0.0000000  0  7G07G02G09G30G06G05G13
 109380307.888 8  85231416.18647  20814376.141                    20814379.520
        52.300          42.600
 118496552.163 7  92334974.66645  22549148.734                    22549150.656
        46.200          33.600
 116806487.132 8  91018074.40446  22227533.211                    22227539.781
        50.200          38.600
 108013201.661 8  84166176.34347  20554227.906                    20554234.039
        52.300          45.300
 126823356.308 6  98823420.40744  24133690.281                    24133699.531
        41.700          24.000
 110374351.019 8  86006000.30046  21003540.680                    21003544.398
        51.900          41.100
 124053333.183 7  96664951.18444  23606560.414                    23606564.934
        42.700          25.100
 18  2 21  9 26 30.0000000  0  7G07G02G09G30G06G05G13
 109400819.762 8  85247399.45747  20818279.672                    20818283.008
        52.200          42.100
 118560077.107 7  92384474.60045  22561237.719                    22561239.012
        46.600          34.500
 116886785.049 8  91080644.19246  22242814.125                    22242819.242
        48.800          37.300
 107980755.056 8  84140893.28347  20548053.680                    20548059.566
        51.800          45.800
 126933361.571 6  98909138.80244  24154625.094                    24154631.855
        41.800          26.200
 110322078.684 8  85965268.60646  20993593.680                    20993597.004
        52.100          41.300
 123960473.310 7  96592592.86644  23588890.203                    23588894.184
        42.300          25.100
 18  2 21  9 27  0.0000000  0  7G07G02G09G30G06G05G13
 109421824.654 8  85263766.90847  20822276.477                    20822280.195
        52.800          42.600
 118624001.912 7  92434286.09645  22573402.148                    22573403.770
        46.000          33.600
 116967260.423 8  91143352.26346  22258128.180                    22258133.637
        49.300          38.200
 107948842.344 8  84116026.23847  20541980.859                    20541987.234
        52.500          44.500
 127043424.009 6  98994901.63944  24175568.109                    24175577.137
        41.100          26.500
 110270240.269 8  85924875.03246  20983729.195                    20983733.344
        52.200          41.400
 123867746.252 7  96520338.03644  23571244.320                    23571248.988
        42.500          25.100
 18  2 21  9 27 30.0000000  0  7G07G02G09G30G06G05G13
 109443321.589 8  85280517.76047  20826367.328                    20826370.559
        52.100          42.400
 118688324.707 7  92484407.70045  22585642.164                    22585643.953
        44.700          33.800
 117047912.652 8  91206198.10746  22273475.508                    22273481.711
        48.400          38.100
 107917464.307 8  84091575.82447  20536009.695                    20536015.852
        52.500          44.700
 127153541.205 6  99080707.17743  24196523.828                    24196530.668
        40.400          22.500
 110218838.130 8  85884821.43046  20973947.906                    20973951.242
        52.000          41.100
 123775153.095 6  96448187.55544  23553624.844                    23553629.238
        41.800          24.000
 18  2 21  9 28  0.0000000  0  7G07G02G09G30G06G05G13
 109465309.289 8  85297651.03347  20830551.789                    20830555.172
        51.400          42.400
 118753042.586 7  92534837.16445  22597957.914                    22597959.207
        45.500          33.300
 117128740.390 7  91269180.76146  22288856.250                    22288861.754
        47.600          37.600
 107886621.130 8  84067542.18747  20530140.641                    20530146.426
        51.800          45.200
 127263709.727 6  99166552.75944  24217487.891                    24217496.098
        40.400          27.100
 110167873.523 8  85845108.74346  20964249.688                    20964253.195
        52.700          41.700
 123682694.580 6  96376141.97344  23536030.547                    23536034.621
        40.900          24.800
 18  2 21  9 28 30.0000000  0  7G07G02G09G30G06G05G13
 109487786.466 8  85315165.71547  20834828.844                    20834832.465
        52.300          42.600
 118818153.766 7  92585573.10945  22610347.719                    22610350.113
        46.400          33.900
 117209742.957 8  91332299.61846  22304270.945                    22304277.133
        48.300          38.200
 107856313.458 8  84043925.82847  20524373.102                    20524379.250
        52.100          44.900
 127373927.053 6  99252436.25244  24238461.828                    24238469.734
        40.800          25.000
 110117349.092 8  85805739.05046  20954635.016                    20954638.977
        52.700          41.700
 123590371.253 6  96304201.74244  23518462.125                    23518465.953
        41.000          24.700
 18  2 21  9 29  0.0000000  0  7G07G02G09G30G06G05G13
 109510752.277 8  85333061.16247  20839199.141                    20839202.520
        51.900          42.600
 118883655.813 7  92636613.60845  22622812.930                    22622814.875
        45.900          33.000
 117290919.641 8  91395554.13146  22319718.508                    22319724.281
        48.100          38.400
 107826542.076 8  84020727.35147  20518707.563                    20518713.688
        51.500          44.600
 127484190.493 6  99338355.87044  24259443.195                    24259451.586
        40.100          25.600
 110067266.984 8  85766714.03246  20945104.906                    20945108.684
        52.900          41.700
 123498184.271 7  96232367.75144  23500919.211                    23500923.836
        42.600          26.800
 18  2 21  9 29 30.0000000  0  7G07G02G09G30G06G05G13
 109534205.844 8  85351336.66047  20843662.063                    20843665.684
        51.700          42.600
 118949545.973 7  92687956.55245  22635350.977                    22635353.477
        44.600          34.100
 117372269.321 7  91458943.47446  22335198.844                    22335204.074
        47.200          37.200
 107797307.235 8  83997946.96247  20513144.320                    20513150.461
        52.000          44.700
 127594497.172 6  99424308.99444  24280434.813                    24280443.391
        40.200          27.500
 110017628.606 8  85728034.77746  20935659.141                    20935662.410
        51.900          41.700
 123406134.428 7  96160640.62244  23483402.859                    23483407.219
        42.300          26.000
 18  2 21  9 30  0.0000000  0  7G07G02G09G30G06G05G13
 109558145.545 8  85369990.98047  20848217.547                    20848221.344
        51.700          42.200
 119015821.695 7  92739599.90645  22647962.914                    22647964.840
        46.500          33.800
 117453790.923 8  91522466.78146  22350711.766                    22350718.121
        48.300          38.000
 107768609.159 8  83975584.82347  20507683.203                    20507689.164
        52.100          44.500
 127704843.815 6  99510293.32944  24301433.336                    24301441.676
        41.500          24.700
 109968435.341 8  85689702.36746  20926297.898                    20926301.711
        52.900          41.700
 123314222.333 6  96089020.83544  23465912.453                    23465916.664
        40.900          25.700
 18  2 21  9 30 30.0000000  0  8G07G02G09G30G06G05G28G13
 109582570.572 8  85389023.45247  20852865.844                    20852869.277
        51.500          42.400
 119082481.223 7  92791542.35645  22660647.523                    22660650.176
        44.900          33.000
 117535483.938 8  91586123.64146  22366257.219                    22366263.930
        49.200          37.800
 107740448.775 8  83953641.67247  20502324.625                    20502330.875
        52.700          44.000
 127815228.280 6  99596307.17644  24322438.500                    24322446.391
        40.900          24.900
 109919689.887 8  85651718.88846  20917021.898                    20917026.008
        52.600          41.600
 128643304.061 6 100241559.96043  24480006.977                    24480012.055
        37.100          19.600
 123222448.774 7  96017508.99344  23448448.016                    23448452.523
        42.000          24.600
 18  2 21  9 31  0.0000000  0  8G07G02G09G30G06G05G28G13
 109607479.355 8  85408432.89047  20857605.438                    20857608.734
        52.300          42.400
 119149521.683 7  92843781.63345  22673405.586                    22673407.699
        45.400          33.500
 117617347.065 7  91649913.04946  22381835.227                    22381841.238
        46.700          36.800
 107712825.921 8  83932117.37047  20497067.875                    20497073.891
        52.000          44.300
 127925647.085 6  99682347.69644  24343450.711                    24343459.789
        41.000          28.300
 109871393.098 8  85614085.03247  20907831.141                    20907835.020
        52.500          42.100
 128546377.461 6 100166032.76243  24461562.547                    24461567.359
        38.400          21.100
 123130814.714 6  95946105.81744  23431010.938                    23431015.121
        41.500          26.400
 18  2 21  9 31 30.0000000  0  8G07G02G09G30G06G05G28G13
 109632870.851 8  85428218.46847  20862437.383                    20862441.051
        52.500          43.100
 119216940.340 7  92896315.61045  22686234.508                    22686236.742
        45.400          33.800
 117699379.448 8  91713834.35846  22397445.758                    22397451.738
        49.000          38.100
 107685741.199 8  83911012.39647  20491914.273                    20491919.859
        53.300          44.900
 128036097.605 6  99768413.00443  24364468.289                    24364476.047
        40.100          21.700
 109823547.449 8  85576802.70047  20898726.445                    20898730.613
        51.600          42.000
 128449485.318 6 100090532.48343  24443123.648                    24443130.383
        37.500          22.500
 123039321.104 7  95874812.11844  23413600.320                    23413604.746
        42.200          27.200
 18  2 21  9 32  0.0000000  0  8G07G02G09G30G06G05G28G13
 109658743.812 8  85448379.20447  20867361.031                    20867364.430
        52.300          42.100
 119284735.095 7  92949142.63145  22699135.523                    22699137.520
        44.900          33.200
 117781580.219 7  91777886.88046  22413087.367                    22413094.063
        47.800          38.100
 107659194.989 8  83890327.03447  20486862.805                    20486868.500
        52.900          44.900
 128146577.060 7  99854500.83544  24385492.875                    24385500.512
        42.500          28.600
 109776154.706 8  85539873.29546  20889707.813                    20889711.844
        52.300          41.800
 128352630.296 6 100015061.07843  24424693.750                    24424698.969
        38.000          19.300
 122947968.310 6  95803628.13744  23396216.852                    23396221.082
        41.000          27.100
 18  2 21  9 32 30.0000000  0  8G07G02G09G30G06G05G28G13
 109685097.184 8  85468914.29547  20872375.828                    20872379.273
        51.900          42.200
 119352902.993 7  93002260.41745  22712107.367                    22712109.570
        44.400          33.400
 117863948.368 8  91842069.81146  22428762.281                    22428767.305
        48.800          37.500
 107633187.434 8  83870061.41547  20481913.727                    20481919.926
        53.200          45.000
 128257082.443 6  99940608.80644  24406520.070                    24406529.109
        39.800          24.100
 109729215.970 8  85503297.65146  20880775.453                    20880779.570
        52.500          41.400
 128255815.091 6  99939620.67943  24406270.219                    24406275.699
        39.400          21.100
 122856757.158 6  95732554.53344  23378860.422                    23378864.223
        41.700          25.900
 18  2 21  9 33  0.0000000  0  8G07G02G09G30G06G05G28G13
 109711929.428 8  85489822.50747  20877481.711                    20877485.637
        51.900          42.100
 119421442.100 7  93055667.45845  22725150.117                    22725151.953
        45.300          32.900
 117946483.089 8  91906382.57846  22444468.492                    22444473.984
        49.100          36.900
 107607719.055 8  83850215.92447  20477067.320                    20477072.871
        53.300          45.100
 128367611.119 7 100026735.06644  24427554.172                    24427561.184
        42.500          24.400
 109682733.963 8  85467077.90446  20871930.344                    20871934.102
        52.300          41.100
 128159042.812 6  99864213.79243  24387854.328                    24387860.230
        38.000          19.900
 122765688.648 6  95661592.07044  23361530.359                    23361533.742
        41.700          26.500
 18  2 21  9 33 30.0000000  0  8G07G02G09G30G06G05G28G13
 109739239.536 8  85511103.10247  20882678.977                    20882682.195
        52.100          42.500
 119490349.631 7  93109361.60945  22738262.609                    22738264.594
        45.100          33.000
 118029183.391 8  91970824.32546  22460205.273                    22460212.293
        48.800          38.000
 107582789.995 8  83830790.67847  20472323.164                    20472329.328
        53.100          44.600
 128478160.080 6 100112877.03344  24448588.984                    24448599.316
        39.800          25.700
 109636709.966 8  85431215.04946  20863172.336                    20863175.930
        52.200          41.700
 128062316.330 6  99788842.51843  24369448.289                    24369453.035
        39.600          19.300
 122674763.414 7  95590741.25244  23344228.172                    23344231.703
        43.500          27.800
 18  2 21  9 34  0.0000000  0  8G07G02G09G30G06G05G28G13
 109767025.388 8  85532754.41647  20887966.211                    20887969.711
        51.400          42.600
 119559622.493 7  93163340.41545  22751445.211                    22751446.813
        44.900          31.900
 118112047.838 8  92035393.96846  22475973.836                    22475979.664
        49.000          37.600
 107558400.075 8  83811785.54847  20467682.305                    20467687.680
        53.600          45.200
 128588726.106 7 100199032.25544  24469631.313                    24469639.473
        42.600          24.500
 109591145.284 8  85395710.09846  20854501.516                    20854505.773
        52.500          41.400
 127965638.109 6  99713508.89543  24351050.820                    24351056.035
        39.200          21.100
 122583981.586 7  95520002.17644  23326952.438                    23326956.328
        43.900          26.800
 18  2 21  9 34 30.0000000  0  8G07G02G09G30G06G05G28G13
 109795286.825 8  85554776.30547  20893343.945                    20893347.719
        51.500          43.000
 119629258.581 7  93217602.27245  22764696.297                    22764698.594
        44.600          32.300
 118195076.176 8  92100091.38146  22491773.852                    22491779.035
        49.800          36.700
 107534550.158 9  83793201.19747  20463143.797                    20463149.750
        54.100          45.400
 128699306.908 6 100285199.18444  24490673.531                    24490681.371
        40.300          24.000
 109546042.673 8  85360565.20546  20845918.859                    20845922.598
        52.000          41.100
 127869011.527 6  99638215.51143  24332663.898                    24332668.934
        40.100          21.300
 122493344.665 7  95449376.02544  23309705.266                    23309708.355
        44.400          28.200
 18  2 21  9 35  0.0000000  0  8G07G02G09G30G06G05G28G13
 109824021.940 8  85577167.30047  20898812.297                    20898815.660
        51.900          42.200
 119699255.581 7  93272145.36245  22778016.711                    22778018.094
        44.500          33.100
 118278267.492 8  92164915.75046  22507604.711                    22507609.934
        48.700          36.700
 107511240.449 8  83775037.77947  20458708.117                    20458714.023
        53.700          44.800
 128809899.805 7 100371375.28144  24511719.414                    24511728.375
        42.000          28.600
 109501403.273 8  85325781.26646  20837424.500                    20837428.074
        53.000          41.600
 127772439.684 6  99562964.72043  24314286.844                    24314291.465
        39.200          21.300
 122402853.824 7  95378863.68444  23292484.625                    23292488.828
        44.500          27.900
 18  2 21  9 35 30.0000000  0  8G07G02G09G30G06G05G28G13
 109853229.845 8  85599926.69447  20904370.453                    20904373.730
        53.200          42.300
 119769610.705 7  93326967.50145  22791404.883                    22791406.223
        43.900          31.700
 118361620.795 8  92229866.33546  22523466.766                    22523472.684
        50.000          37.800
 107488471.142 8  83757295.45847  20454375.086                    20454381.035
        53.200          45.400
 128920501.699 6 100457558.54543  24532765.172                    24532773.867
        39.700          20.600
 109457229.242 8  85291359.93846  20829018.586                    20829021.938
        52.400          41.600
 127675925.210 6  99487758.68243  24295921.086                    24295925.531
        41.600          23.900
 122312509.291 7  95308465.35644  23275293.641                    23275296.957
        44.700          28.000
 18  2 21  9 36  0.0000000  0  8G07G02G09G30G06G05G28G13
 109882908.864 8  85623053.18547  20910018.164                    20910021.270
        52.700          42.200
 119840321.476 7  93382066.76545  22804860.398                    22804862.723
        44.600          32.200
 118445135.206 8  92294942.47546  22539358.555                    22539364.219
        49.200          36.900
 107466242.411 9  83739974.37747  20450145.094                    20450151.215
        54.200          45.600
 129031110.089 6 100543746.87944  24553813.992                    24553822.008
        41.900          25.000
 109413522.168 8  85257302.46646  20820701.305                    20820704.836
        52.700          41.700
 127579470.932 6  99412599.59443  24277565.680                    24277570.996
        39.600          19.300
 122222311.732 7  95238181.55244  23258129.195                    23258133.117
        44.700          26.900
 18  2 21  9 36 30.0000000  0  8G07G02G09G30G06G05G28G13
 109913057.912 8  85646545.94247  20915755.500                    20915758.742
        53.500          43.000
 119911385.492 7  93437441.28445  22818383.602                    22818385.465
        43.100          32.400
 118528809.866 8  92360143.48346  22555281.227                    22555287.914
        49.800          37.400
 107444554.489 8  83723074.69647  20446018.148                    20446024.090
        53.700          45.400
 129141721.924 6 100629937.83243  24574861.844                    24574871.512
        37.500          22.000
 109370283.782 8  85223610.21746  20812473.273                    20812476.781
        52.800          41.400
 127483079.797 6  99337489.59643  24259223.461                    24259227.090
        41.600          20.400
 122132262.419 7  95168013.27244  23240993.117                    23240997.246
        43.800          27.500
 18  2 21  9 37  0.0000000  0  8G07G02G09G30G06G05G28G13
 109943675.700 8  85670403.95247  20921581.813                    20921585.430
        52.300          42.200
 119982799.896 7  93493088.84045  22831973.406                    22831975.160
        43.700          31.800
 118612643.975 8  92425468.71146  22571234.086                    22571240.926
        49.300          36.700
 107423407.618 8  83706596.61247  20441994.070                    20441999.734
        53.200          45.600
 129252334.833 6 100716129.63143  24595911.961                    24595919.176
        37.700          18.600
 109327515.904 8  85190284.60146  20804334.719                    20804337.816
        52.500          41.900
 127386754.569 6  99262431.01443  24240892.563                    24240898.129
        39.400          21.700
 122042362.126 7  95097961.11944  23223885.523                    23223889.938
        44.500          28.900
 18  2 21  9 37 30.0000000  0  8G07G02G09G30G06G05G28G13
 109974760.666 8  85694626.00347  20927497.008                    20927500.598
        51.600          42.300
 120054562.016 7  93549007.34145  22845629.016                    22845631.250
        44.200          33.000
 118696636.431 8  92490917.34046  22587217.859                    22587222.934
        49.300          37.200
 107402801.700 8  83690540.04847  20438072.469                    20438078.609
        53.300          45.300
 129362945.447 6 100802319.73344  24616960.195                    24616968.789
        37.800          26.700
 109285219.511 8  85157326.37046  20796286.016                    20796289.262
        52.300          41.400
 127290498.106 6  99187426.09342  24222575.680                    24222580.395
        40.300          17.800
 121952611.223 7  95028025.39144  23206806.625                    23206810.566
        44.400          28.800
 18  2 21  9 38  0.0000000  0  8G07G02G09G30G06G05G28G13
 110006311.805 8  85719211.30247  20933500.922                    20933504.656
        51.500          42.900
 120126669.678 7  93605195.09745  22859350.414                    22859353.000
        43.700          32.300
 118780786.627 8  92556488.91546  22603230.961                    22603236.336
        49.600          36.700
 107382737.221 8  83674905.38747  20434254.516                    20434260.570
        53.300          45.400
 129473551.607 6 100888506.17043  24638007.219                    24638016.445
        36.800          22.200
 109243397.375 8  85124737.67746  20788327.734                    20788330.945
        52.900          41.600
 127194314.031 6  99112477.35943  24204272.844                    24204278.133
        40.200          21.700
 121863010.965 7  94958207.00744  23189756.125                    23189759.746
        43.700          28.900
 18  2 21  9 38 30.0000000  0  8G07G02G09G30G06G05G28G13
 110038327.682 8  85744158.74946  20939593.313                    20939597.008
        50.500          41.900
 120199120.167 7  93661649.97745  22873137.688                    22873139.492
        43.600          31.400
 118865093.575 8  92622182.60646  22619274.031                    22619280.387
        49.000          36.300
 107363214.089 8  83659692.55047  20430539.445                    20430545.301
        53.800          45.500
 129584150.235 6 100974686.97943  24659054.250                    24659061.164
        37.000          20.600
 109202051.027 8  85092519.75346  20780459.594                    20780463.156
        51.500          41.400
 127098204.487 6  99037587.01143  24185983.391                    24185989.969
        39.000          21.700
 121773561.882 7  94888506.44744  23172734.680                    23172738.266
        43.700          28.900
 18  2 21  9 39  0.0000000  0  8G07G02G09G30G06G05G28G13
 110070806.444 8  85769466.87046  20945773.875                    20945777.199
        51.300          41.800
 120271910.505 7  93718369.68345  22886989.109                    22886991.699
        45.000          32.100
 118949556.363 8  92687997.71046  22635346.734                    22635353.227
        48.400          37.100
 107344232.279 9  83644901.53747  20426927.352                    20426933.512
        54.400          45.400
 129694738.461 6 101060859.52243  24680098.086                    24680106.672
        37.100          23.800
 109161181.615 8  85060673.45647  20772682.398                    20772685.934
        52.500          42.000
 127002172.555 6  98962756.89043  24167710.047                    24167714.438
        41.400          18.300
 121684264.768 7  94818924.29944  23155742.141                    23155746.211
        44.100          29.100
 18  2 21  9 39 30.0000000  0  8G07G02G09G30G06G05G28G13
 110103747.056 8  85795134.87846  20952042.070                    20952045.500
        51.100          41.300
 120345038.125 7  93775352.21745  22900905.547                    22900907.223
        44.600          31.200
 119034173.820 8  92753933.36246  22651449.188                    22651454.754
        49.100          36.900
 107325791.865 8  83630532.37647  20423418.352                    20423424.301
        53.400          46.200
 129805313.509 6 101147021.76943  24701140.836                    24701148.766
        41.100          23.600
 109120790.716 8  85029200.01846  20764996.359                    20764999.781
        52.500          41.600
 126906221.197 6  98887989.69043  24149450.039                    24149456.348
        39.200          21.500
 121595120.490 7  94749461.23244  23138778.258                    23138782.555
        43.400          29.300
 18  2 21  9 40  0.0000000  0  8G07G02G09G30G06G05G28G13
 110137148.636 8  85821162.07247  20958398.273                    20958401.551
        51.500          42.100
 120418500.438 7  93832595.56145  22914884.461                    22914886.668
        44.500          31.700
 119118945.554 8  92819989.22146  22667580.352                    22667586.496
        49.100          36.300
 107307893.153 8  83616585.33047  20420012.305                    20420018.094
        53.700          45.900
 129915872.957 5 101233172.03043  24722177.547                    24722186.328
        34.800          19.600
 109080880.737 8  84998101.33746  20757401.766                    20757404.875
        52.100          41.700
 126810353.722 6  98813287.82143  24131209.141                    24131213.480
        41.000          23.300
 121506130.050 7  94680118.07844  23121844.078                    23121847.863
        44.400          29.600
 18  2 21  9 40 30.0000000  0  8G07G02G09G30G06G05G28G13
 110171009.064 8  85847546.81547  20964841.703                    20964845.043
        52.600          42.000
 120492295.078 7  93890097.84245  22928927.680                    22928929.395
        44.100          32.000
 119203870.552 8  92886164.50946  22683741.305                    22683747.344
        49.300          36.500
 107290536.118 9  83603060.37147  20416709.195                    20416715.328
        54.500          45.800
 130026413.942 7 101319307.75544  24743215.305                    24743222.820
        42.000          27.800
 109041453.031 8  84967378.44646  20749898.891                    20749902.438
        52.100          41.900
 126714572.585 6  98738653.19742  24112980.031                    24112985.234
        36.400          17.800
 121417293.798 7  94610895.03644  23104939.180                    23104942.938
        43.600          28.600
 18  2 21  9 41  0.0000000  0  8G07G02G09G30G06G05G28G13
 110205326.700 8  85874287.81647  20971372.109                    20971375.789
        51.400          42.000
 120566419.046 7  93947856.72545  22943032.406                    22943034.941
        44.300          30.000
 119288947.785 8  92952458.42646  22699931.063                    22699936.973
        48.900          36.500
 107273720.579 9  83589957.34547  20413509.414                    20413515.402
        54.100          46.100
 130136933.476 5 101405426.78542  24764243.750                    24764253.336
        33.800          16.900
 109002508.618 8  84937032.15447  20742488.172                    20742491.512
        52.000          42.300
 126618880.522 6  98664087.99344  24094772.469                    24094776.910
        41.100          25.800
 121328612.902 7  94541793.05144  23088063.648                    23088067.211
        43.700          29.100
 18  2 21  9 41 30.0000000  0  7G07G02G09G30G05G28G13
 110240100.447 8  85901384.24046  20977989.375                    20977992.941
        52.100          41.400
 120640869.832 7  94005870.28745  22957199.938                    22957201.676
        44.900          31.100
 119374176.553 7  93018870.41846  22716149.719                    22716155.574
        47.300          37.000
 107257446.723 8  83577276.41147  20410412.484                    20410418.410
        53.900          46.300
 108964049.837 8  84907064.26947  20735169.398                    20735172.918
        52.400          42.900
 126523280.458 6  98589594.57342  24076577.570                    24076585.090
        36.500          17.800
 121240088.231 7  94472812.79244  23071217.859                    23071220.988
        43.000          28.900
 18  2 21  9 42  0.0000000  0  7G07G02G09G30G05G28G13
 110275329.264 8  85928835.25446  20984693.250                    20984696.664
        51.500          41.400
 120715644.957 7  94064136.58445  22971429.406                    22971431.504
        44.400          31.400
 119459556.078 7  93085399.86146  22732396.641                    22732403.355
        47.800          36.800
 107241714.549 8  83565017.57747  20407418.867                    20407425.355
        53.700          45.800
 108926078.290 8  84877476.05347  20727943.688                    20727947.379
        51.900          42.500
 126427775.699 6  98515175.22843  24058405.883                    24058409.859
        39.900          22.000
 121151720.212 7  94403954.62344  23054401.609                    23054405.527
        43.600          29.500
 18  2 21  9 42 30.0000000  0  7G07G02G09G30G05G28G13
 110311011.132 8  85956639.29946  20991483.492                    20991486.605
        52.500          41.600
 120790741.547 7  94122653.37244  22985720.234                    22985721.289
        44.700          29.800
 119545085.381 7  93152046.05745  22748672.398                    22748678.320
        47.400          35.700
 107226523.977 9  83553180.77647  20404528.289                    20404534.488
        54.100          46.400
 108888595.275 8  84848268.50447  20720810.906                    20720814.488
        52.100          42.000
 126332369.119 6  98440832.58143  24040249.586                    24040255.605
        37.100          20.900
 121063510.173 7  94335219.56344  23037616.281                    23037619.961
        45.100          29.800
 18  2 21  9 43  0.0000000  0  7G07G02G09G30G05G28G13
 110347144.937 8  85984795.50847  20998359.281                    20998363.266
        52.100          42.200
 120866156.876 7  94181418.53445  23000070.516                    23000072.551
        45.900          30.500
 119630763.695 7  93218808.35045  22764976.352                    22764982.219
        45.700          35.500
 107211874.966 9  83541765.96447  20401740.852                    20401747.082
        54.200          46.000
 108851602.694 8  84819443.12347  20713771.594                    20713774.988
        51.800          42.300
 126237063.538 6  98366568.50343  24022114.133                    24022117.504
        39.600          19.900
 120975458.656 7  94266608.00044  23020860.898                    23020864.348
        45.000          29.600
 18  2 21  9 43 30.0000000  0  7G07G02G09G30G05G28G13
 110383729.520 8  86013302.97546  21005321.047                    21005324.586
        52.300          41.400
 120941888.581 7  94240430.21344  23014481.898                    23014483.906
        45.300          29.700
 119716590.468 8  93285686.31146  22781309.141                    22781316.039
        48.000          36.700
 107197767.832 9  83530773.38747  20399056.258                    20399062.469
        54.400          46.000
 108815102.274 8  84791001.23147  20706825.664                    20706829.168
        51.900          42.600
 126141862.148 6  98292385.56643  24003997.867                    24004002.383
        38.700          22.300
 120887566.753 7  94198120.83644  23004135.492                    23004139.277
        45.300          29.400
 18  2 21  9 44  0.0000000  0  7G07G02G09G30G05G28G13
 110420763.090 8  86042160.28446  21012368.414                    21012372.168
        53.100          41.700
 121017933.559 7  94299686.00544  23028953.656                    23028954.855
        43.900          29.900
 119802564.485 7  93352678.99745  22797668.805                    22797675.547
        45.800          35.800
 107184202.034 9  83520202.62447  20396474.664                    20396480.465
        54.300          45.800
 108779095.297 8  84762943.85047  20699973.898                    20699977.375
        52.100          42.100
 126046767.757 6  98218286.17943  23985901.086                    23985907.406
        40.400          22.900
 120799835.034 7  94129758.47844  22987440.352                    22987444.012
        45.300          29.000
 18  2 21  9 44 30.0000000  0  7G07G02G09G30G05G28G13
 110458243.899 8  86071366.07846  21019501.055                    21019504.254
        53.000          41.900
 121094289.195 7  94359183.87145  23043483.172                    23043484.391
        44.500          31.200
 119888684.861 7  93419785.75446  22814057.766                    22814062.965
        47.900          36.600
 107171177.414 9  83510053.57747  20393996.086                    20394002.168
        54.300          46.000
 108743583.312 8  84735272.16947  20693216.125                    20693219.527
        52.700          42.300
 125951782.861 6  98144271.96543  23967826.234                    23967831.102
        40.500          20.600
 120712263.730 7  94061521.12244  22970776.039                    22970780.141
        44.900          29.100
 18  2 21  9 45  0.0000000  0  7G07G02G09G30G05G28G13
 110496170.414 8  86100919.20247  21026718.133                    21026721.773
        53.100          42.400
 121170952.495 7  94418921.46944  23058071.508                    23058073.555
        43.600          29.700
 119974950.694 8  93487005.84845  22830473.227                    22830479.570
        48.000          35.600
 107158693.852 8  83500326.12847  20391620.281                    20391626.797
        53.600          45.900
 108708567.593 8  84707987.18847  20686552.859                    20686556.707
        52.200          42.900
 125856910.717 6  98070345.68143  23949772.250                    23949777.797
        39.600          22.500
 120624854.367 7  93993409.95645  22954142.570                    22954146.492
        45.000          30.400
 18  2 21  9 45 30.0000000  0  8G07G02G20G09G30G05G28G13
 110534541.294 8  86130818.57746  21034019.406                    21034023.180
        53.000          41.900
 121247921.134 7  94478896.98145  23072718.328                    23072720.660
        44.300          30.600
 129593800.043 6 100982196.26443  24660882.695                    24660884.516
        39.200          19.600
 120061361.169 7  93554338.63045  22846917.516                    22846923.047
        47.800          35.700
 107146751.171 8  83491020.13847  20389348.148                    20389354.430
        53.200          46.500
 108674050.152 8  84681090.48147  20679984.313                    20679988.078
        51.900          42.500
 125762154.018 6  97996509.36443  23931741.430                    23931747.035
        40.300          22.900
 120537607.704 7  93925425.57645  22937540.305                    22937544.480
        45.800          30.300
 18  2 21  9 46  0.0000000  0  8G07G02G20G09G30G05G28G13
 110573354.511 8  86161062.62847  21041405.492                    21041409.242
        53.200          42.000
 121325191.735 6  94539107.79445  23087422.953                    23087424.527
        41.800          30.100
 129485782.581 5 100898026.89843  24640325.742                    24640330.375
        34.500          19.900
 120147915.201 7  93621783.31345  22863387.063                    22863392.945
        47.900          35.400
 107135348.988 8  83482135.31947  20387178.234                    20387184.543
        53.800          46.600
 108640031.954 8  84654582.79547  20673510.805                    20673514.281
        51.900          42.600
 125667515.363 6  97922765.02643  23913731.648                    23913737.375
        40.600          21.800
 120450523.920 7  93857568.08244  22920968.000                    22920972.059
        45.400          28.900
 18  2 21  9 46 30.0000000  0  8G07G02G20G09G30G05G28G13
 110612609.137 8  86191650.63846  21048875.516                    21048879.344
        52.300          41.300
 121402762.043 7  94599552.16045  23102184.242                    23102185.418
        42.600          31.000
 129377873.054 6 100813941.63343  24619792.281                    24619796.535
        38.800          19.600
 120234612.301 7  93689339.45846  22879885.359                    22879891.914
        47.900          36.600
 107124487.457 8  83473671.79447  20385111.352                    20385117.500
        53.500          46.400
 108606514.878 8  84628465.59047  20667132.844                    20667136.270
        52.100          42.000
 125572998.411 7  97849115.43543  23895746.461                    23895750.848
        42.100          22.600
 120363604.244 7  93789838.47644  22904428.266                    22904432.082
        46.300          29.900
 18  2 21  9 47  0.0000000  0  8G07G02G20G09G30G05G28G13
 110652303.405 8  86222581.23046  21056428.781                    21056432.645
        52.100          41.600
 121480629.074 7  94660227.71345  23117001.727                    23117003.609
        43.100          31.700
 129270072.971 5 100729941.47442  24599276.492                    24599281.977
        32.800          14.800
 120321451.368 8  93757006.20046  22896410.250                    22896416.988
        48.700          37.100
 107114166.098 8  83465629.17647  20383146.898                    20383153.078
        52.900          46.500
 108573500.102 8  84602739.78547  20660850.461                    20660853.965
        51.000          42.000
 125478605.700 6  97775562.78943  23877783.852                    23877789.086
        41.200          23.300
 120276849.339 7  93722237.27945  22887919.258                    22887923.383
        45.900          30.100
 18  2 21  9 47 30.0000000  0  8G07G02G20G09G30G05G28G13
 110692435.662 8  86253853.11046  21064065.875                    21064069.703
        52.400          41.700
 121558790.086 7  94721132.35145  23131874.813                    23131876.859
        44.300          30.900
 129162384.311 6 100646028.32043  24578785.828                    24578790.906
        38.400          23.300
 120408431.720 7  93824783.08445  22912961.578                    22912967.535
        47.300          34.600
 107104384.847 8  83458007.42347  20381285.664                    20381291.902
        53.100          46.000
 108540989.038 8  84577406.48947  20654663.461                    20654667.172
        50.800          42.600
 125384340.222 6  97702109.09743  23859845.914                    23859849.398
        41.100          20.400
 120190260.120 7  93654765.17145  22871441.516                    22871445.391
        46.100          30.400
 18  2 21  9 48  0.0000000  0  8G07G02G20G09G30G05G28G13
 110733004.611 8  86285465.26146  21071785.781                    21071789.836
        53.100          40.900
 121637242.564 7  94782264.09645  23146804.016                    23146806.117
        43.200          31.800
 129054809.753 6 100562204.06843  24558314.922                    24558319.477
        36.300          18.300
 120495552.642 7  93892669.48045  22929540.398                    22929546.566
        46.500          35.200
 107095143.517 8  83450806.38647  20379527.242                    20379533.285
        53.800          45.800
 108508983.570 8  84552467.15547  20648573.125                    20648576.832
        51.000          42.700
 125290204.881 6  97628756.96844  23841932.570                    23841937.871
        39.900          24.300
 120103837.233 7  93587422.68044  22854996.328                    22855000.414
        46.400          29.000
 18  2 21  9 48 30.0000000  0  8G07G02G20G09G30G05G28G13
 110774008.811 8  86317416.58446  21079588.547                    21079592.488
        52.500          41.800
 121715984.044 7  94843621.04745  23161788.250                    23161790.715
        42.300          31.200
 128947351.632 6 100478470.34643  24537867.609                    24537869.297
        41.000          20.100
 120582813.433 7  93960664.86045  22946145.813                    22946152.871
        46.800          34.900
 107086442.097 8  83444026.06247  20377871.617                    20377877.520
        53.000          45.800
 108477485.528 8  84527923.22447  20642578.961                    20642582.516
        51.100          42.900
 125196202.842 6  97555508.67443  23824044.484                    23824048.820
        38.100          21.700
 120017582.257 7  93520211.00845  22838582.344                    22838586.426
        46.400          30.200
 18  2 21  9 49  0.0000000  0  8G07G02G20G09G30G05G28G13
 110815446.546 8  86349705.72546  21087473.836                    21087478.098
        52.900          41.600
 121795011.179 7  94905200.58145  23176826.383                    23176828.539
        43.900          30.200
 128840012.205 6 100394829.27143  24517441.313                    24517444.902
        38.100          22.200
 120670212.998 7  94028768.34745  22962777.375                    22962783.914
        45.400          34.800
 107078279.928 8  83437665.92047  20376318.469                    20376324.668
        53.100          45.900
 108446495.817 8  84503775.40247  20636681.922                    20636685.711
        51.600          42.600
 125102336.883 6  97482366.39743  23806182.125                    23806186.547
        38.400          22.600
 119931495.419 7  93453130.36544  22822200.445                    22822204.215
        45.500          29.700
 18  2 21  9 49 30.0000000  0  8G07G02G20G09G30G05G28G13
 110857315.881 8  86382331.16346  21095441.750                    21095445.711
        52.100          40.500
 121874321.273 7  94967000.61445  23191918.844                    23191921.035
        43.200          31.200
 128732793.262 6 100311282.18942  24497037.508                    24497041.238
        38.900          17.800
 120757750.607 7  94096979.45445  22979435.875                    22979441.438
        47.000          35.800
 107070656.848 8  83431725.86547  20374867.813                    20374873.859
        53.800          46.100
 108416015.976 8  84480024.87747  20630881.750                    20630885.309
        51.500          42.600
 125008609.762 6  97409332.32644  23788346.930                    23788351.246
        39.300          24.100
 119845577.590 7  93386181.42045  22805850.938                    22805854.496
        45.400          30.400
 18  2 21  9 50  0.0000000  0  8G07G02G20G09G30G05G28G13
 110899615.459 8  86415291.86146  21103491.063                    21103494.789
        52.300          41.200
 121953911.479 7  95029018.89145  23207063.727                    23207066.633
        43.100          31.100
 128625697.316 7 100227830.62743  24476657.992                    24476660.164
        42.200          21.300
 120845425.269 7  94165297.34245  22996119.031                    22996125.926
        46.300          35.500
 107063572.450 8  83426205.55547  20373519.539                    20373525.863
        53.400          45.800
 108386047.381 8  84456672.71347  20625179.211                    20625183.035
        50.700          42.400
 124915024.424 6  97336408.72943  23770537.258                    23770541.777
        40.100          22.800
 119759829.503 7  93319364.73945  22789534.078                    22789537.637
        46.300          30.900
 18  2 21  9 50 30.0000000  0  8G07G02G20G09G30G05G28G13
 110942343.786 8  86448586.65646  21111621.703                    21111625.746
        52.700          41.200
 122033779.313 7  95091253.53845  23222262.430                    23222264.863
        43.800          30.300
 128518726.524 6 100144476.83843  24456301.523                    24456306.000
        39.700          22.200
 120933236.305 7  94233721.45645  23012829.023                    23012835.375
        44.900          34.400
 107057026.381 8  83421104.72447  20372274.023                    20372279.621
        52.900          45.800
 108356591.398 8  84433720.00147  20619574.148                    20619577.598
        51.100          42.800
 124821584.192 6  97263598.19643  23752756.719                    23752760.391
        40.600          21.700
 119674251.804 7  93252680.81445  22773249.469                    22773252.363
        45.900          30.500
 18  2 21  9 51  0.0000000  0  8G07G02G20G09G30G05G28G13
 110985499.177 8  86482214.23346  21119834.016                    21119837.801
        52.300          41.400
 122113921.831 7  95153702.22044  23237513.391                    23237515.590
        43.700          29.700
 128411883.168 7 100061222.29243  24435970.680                    24435974.160
        42.600          21.100
 121021182.810 7  94302251.17645  23029564.914                    23029571.434
        45.600          34.800
 107051018.317 8  83416423.11747  20371130.758                    20371136.488
        53.000          46.000
 108327649.518 8  84411167.88047  20614066.594                    20614070.578
        51.700          42.600
 124728291.480 6  97190902.62343  23735003.047                    23735008.387
        38.700          22.800
 119588845.497 7  93186130.44545  22756996.453                    22757000.199
        44.900          30.500
 18  2 21  9 51 30.0000000  0  8G07G02G20G09G30G05G28G13
 111029079.837 8  86516173.18046  21128127.125                    21128131.008
        52.400          41.400
 122194335.864 7  95216362.45844  23252815.211                    23252817.820
        43.300          29.300
 128305169.212 6  99978068.51243  24415664.156                    24415667.047
        40.800          20.100
 121109263.917 7  94370885.74045  23046326.023                    23046333.699
        46.200          35.600
 107045547.854 8  83412160.41047  20370089.594                    20370095.590
        52.100          46.000
 108299222.658 8  84389017.06847  20608657.156                    20608661.113
        51.000          43.000
 124635149.290 6  97118324.36743  23717278.828                    23717283.484
        38.900          20.900
 119503611.299 7  93119714.21845  22740776.969                    22740780.660
        44.600          30.000
 18  2 21  9 52  0.0000000  0  8G07G02G20G09G30G05G28G13
 111073084.506 8  86550462.51946  21136500.914                    21136505.340
        52.300          40.900
 122275018.963 7  95279232.35944  23268168.813                    23268171.035
        44.700          29.800
 128198587.742 6  99895018.09243  24395381.164                    24395385.348
        39.700          22.000
 121197479.006 7  94439624.74145  23063112.367                    23063118.730
        45.400          33.000
 107040614.757 8  83408316.43847  20369150.789                    20369157.113
        52.500          46.400
 108271312.613 8  84367268.98047  20603346.133                    20603349.602
        51.500          43.400
 124542160.678 6  97045865.75243  23699583.406                    23699588.289
        38.700          22.800
 119418550.441 7  93053433.02845  22724590.391                    22724594.156
        46.000          30.800
 18  2 21  9 52 30.0000000  0  8G07G02G20G09G30G05G28G13
 111117511.088 8  86585080.62546  21144955.133                    21144959.063
        52.700          41.600
 122355967.982 7  95342309.47344  23283572.945                    23283575.211
        44.300          29.700
 128092140.336 6  99812072.03043  24375125.750                    24375129.105
        39.800          20.100
 121285827.157 7  94508467.41245  23079925.211                    23079931.008
        44.700          33.400
 107036218.451 8  83404890.74347  20368314.164                    20368320.270
        51.800          45.800
 108243920.564 8  84345924.52147  20598133.352                    20598136.801
        50.700          42.400
 124449328.803 6  96973529.31743  23681918.250                    23681923.406
        38.400          22.000
 119333663.339 7  92987287.22645  22708436.766                    22708440.543
        44.900          30.200
 18  2 21  9 53  0.0000000  0  8G07G02G20G09G30G05G28G13
 111162358.472 8  86620026.62846  21153489.617                    21153493.336
        52.500          41.100
 122437180.510 7  95405591.90445  23299027.828                    23299030.145
        44.600          31.000
 127985829.683 6  99729232.54043  24354894.898                    24354898.133
        38.400          20.900
 121374307.656 7  94577413.21346  23096763.258                    23096770.246
        47.300          36.400
 107032358.722 8  83401883.16447  20367579.461                    20367585.969
        53.000          45.900
 108217048.253 8  84324985.06746  20593019.656                    20593023.340
        51.200          41.800
 124356656.396 6  96901317.09644  23664283.617                    23664288.008
        39.900          25.900
 119248951.047 7  92921277.67745  22692316.547                    22692320.535
        44.600          30.200
 18  2 21  9 53 30.0000000  0  8G07G02G20G09G30G05G28G13
 111207624.753 8  86655299.05946  21162103.461                    21162107.414
        51.900          41.400
 122518653.580 7  95469077.36445  23314531.023                    23314533.574
        44.500          30.000
 127879657.865 6  99646501.30544  24334691.789                    24334695.684
        38.900          24.300
 121462919.527 7  94646461.37745  23113624.117                    23113631.344
        44.100          34.200
 107029034.939 8  83399293.20247  20366947.000                    20366953.805
        50.900          45.800
 108190696.562 8  84304451.27047  20588005.531                    20588008.922
        51.600          43.200
 124264146.259 6  96829231.35344  23646679.305                    23646684.113
        41.600          24.400
 119164414.221 7  92855404.84545  22676229.992                    22676234.074
        45.200          30.600
 18  2 21  9 54  0.0000000  0  8G07G02G20G09G30G05G28G13
 111253308.318 8  86690896.64546  21170796.508                    21170800.328
        53.500          41.700
 122600384.444 7  95532763.71244  23330084.172                    23330087.199
        45.300          29.500
 127773627.370 6  99563880.19843  24314514.680                    24314518.723
        36.800          21.700
 121551662.212 7  94715611.48345  23130511.703                    23130516.965
        46.500          33.300
 107026246.771 8  83397120.61147  20366416.977                    20366422.855
        53.000          45.400
 108164867.307 8  84284324.56347  20583090.078                    20583093.918
        51.700          42.800
 124171801.760 6  96757274.66944  23629106.430                    23629111.063
        41.600          24.200
 119080053.829 7  92789669.47745  22660176.938                    22660180.242
        44.900          30.600
 18  2 21  9 54 30.0000000  0  8G07G02G20G09G30G05G28G13
 111299407.385 8  86726817.98847  21179569.008                    21179573.426
        52.300          42.100
 122682370.311 7  95596648.75744  23345685.445                    23345687.969
        43.600          29.300
 127667740.460 6  99481370.86943  24294364.398                    24294367.828
        38.100          21.100
 121640534.810 7  94784862.83945  23147423.969                    23147430.621
        46.800          34.700
 107023993.799 8  83395365.04447  20365988.070                    20365994.219
        52.200          46.000
 108139561.572 8  84264605.81247  20578274.430                    20578278.148
        52.800          43.000
 124079625.191 6  96685448.80243  23611566.953                    23611570.898
        41.100          22.300
 118995870.752 7  92724072.27845  22644157.281                    22644160.477
        45.200          30.000
 18  2 21  9 55  0.0000000  0  8G07G02G20G09G30G05G28G13
 111345920.281 8  86763061.78947  21188420.258                    21188424.473
        52.900          42.300
 122764608.130 7  95660730.12444  23361335.016                    23361337.414
        44.600          29.200
 127561999.297 6  99398975.22943  24274242.156                    24274246.941
        37.400          23.000
 121729536.391 7  94854214.66345  23164360.328                    23164367.492
        47.300          33.800
 107022275.342 8  83394025.99147  20365661.000                    20365666.871
        53.700          45.600
 108114780.198 8  84245295.64147  20573559.070                    20573562.688
        52.000          43.200
 123987619.654 7  96613756.25144  23594058.008                    23594062.648
        42.200          24.700
 118911865.541 7  92658613.68745  22628171.766                    22628174.676
        46.400          31.300
 18  2 21  9 55 30.0000000  0  8G07G02G20G09G30G05G28G13
 111392845.603 8  86799626.96447  21197349.656                    21197353.680
        52.800          42.100
 122847095.055 7  95725005.61544  23377031.391                    23377034.586
        44.600          29.300
 127456406.395 6  99316695.10243  24254148.164                    24254153.281
        37.100          21.300
 121818666.357 7  94923666.54045  23181320.930                    23181327.367
        47.500          33.200
 107021091.081 8  83393103.18847  20365435.625                    20365441.680
        53.900          45.600
 108090524.720 8  84226395.26847  20568943.461                    20568947.246
        52.300          42.900
 123895788.413 6  96542199.49443  23576582.508                    23576587.602
        39.300          22.900
 118828039.468 7  92593294.68545  22612220.188                    22612223.695
        47.500          31.400
 18  2 21  9 56  0.0000000  0  8G07G02G20G09G30G05G28G13
 111440181.578 8  86836512.13246  21206357.555                    21206361.527
        53.000          41.600
 122929828.087 7  95789472.86144  23392775.445                    23392777.719
        44.600          28.200
 127350964.239 6  99234532.35343  24234084.047                    24234087.668
        39.200          21.300
 121907923.950 7  94993217.85245  23198306.281                    23198312.961
        46.500          33.600
 107020440.492 8  83392596.23747  20365311.641                    20365318.066
        53.000          45.700
 108066796.641 8  84207905.85347  20564427.828                    20564431.441
        52.300          43.000
 123804134.203 6  96470780.68244  23559142.039                    23559146.496
        40.500          25.300
 118744393.230 7  92528115.82545  22596302.242                    22596306.449
        46.800          31.300
 18  2 21  9 56 30.0000000  0  8G07G02G20G09G30G05G28G13
 111487926.383 8  86873715.86846  21215443.070                    21215447.285
        53.200          41.800
 123012805.036 7  95854130.18545  23408565.586                    23408568.430
        44.300          30.200
 127245674.875 6  99152488.68043  24214048.094                    24214051.449
        38.600          20.400
 121997308.282 7  95062867.93945  23215316.078                    23215322.148
        47.800          34.900
 107020323.017 8  83392504.69847  20365289.445                    20365295.699
        53.000          46.200
 108043597.013 8  84189828.22247  20560012.992                    20560016.848
        52.300          43.200
 123712659.650 6  96399501.85944  23541734.555                    23541738.895
        40.300          25.200
 118660927.655 7  92463077.72445  22580419.453                    22580422.801
        47.200          30.400
 18  2 21  9 57  0.0000000  0  8G07G02G20G09G30G05G28G13
 111536078.399 8  86911236.89546  21224606.102                    21224610.680
        52.100          41.600
 123096022.537 7  95918974.94944  23424401.422                    23424403.543
        43.900          29.000
 127140540.371 6  99070565.73943  24194040.922                    24194045.371
        37.900          22.300
 122086818.520 7  95132616.15545  23232348.633                    23232355.570
        45.900          33.600
 107020738.011 8  83392828.07547  20365368.586                    20365374.621
        52.300          46.000
 108020927.298 8  84172163.50147  20555698.992                    20555702.926
        52.100          43.600
 123621368.283 6  96328365.77544  23524361.398                    23524367.109
        38.800          25.400
 118577643.266 7  92398180.78845  22564571.719                    22564574.609
        46.400          31.800
 18  2 21  9 57 30.0000000  0  8G07G02G20G09G30G05G28G13
 111584635.894 8  86949073.88347  21233846.391                    21233850.797
        53.000          42.400
 123179477.663 7  95984004.89244  23440282.359                    23440284.582
        43.200          28.300
 127035563.875 6  98988765.86043  24174065.469                    24174069.168
        39.700          21.800
 122176453.921 7  95202461.85545  23249406.148                    23249412.895
        45.400          33.200
 107021684.928 8  83393565.93847  20365548.656                    20365554.773
        53.400          45.700
 107998788.106 8  84154912.17447  20551486.328                    20551490.031
        52.100          43.500
 123530263.004 6  96257374.70743  23507024.914                    23507029.477
        40.400          22.300
 118494541.182 7  92333425.93345  22548757.477                    22548761.465
        46.700          31.700
 18  2 21  9 58  0.0000000  0  8G07G02G20G09G30G05G28G13
 111633596.921 8  86987225.32747  21243163.367                    21243166.883
        52.800          42.300
 123263167.571 7  96049217.72544  23456207.844                    23456210.723
        43.200          28.000
 126930747.111 6  98907090.46743  24154119.344                    24154122.988
        39.900          22.000
 122266213.540 7  95272404.37445  23266487.148                    23266493.953
        45.900          34.000
 107023163.066 8  83394717.73347  20365829.938                    20365835.809
        51.900          45.600
 107977180.812 8  84138075.32047  20547374.656                    20547378.574
        52.200          43.200
 123439346.290 6  96186530.56243  23489724.695                    23489728.668
        39.000          22.300
 118411621.918 7  92268813.54245  22532977.742                    22532982.250
        45.500          31.700
 18  2 21  9 58 30.0000000  0  8G07G02G20G09G30G05G28G13
 111682960.166 8  87025690.21046  21252556.938                    21252560.477
        52.700          41.600
 123347089.403 7  96114611.32444  23472177.938                    23472180.176
        44.000          27.500
 126826092.597 6  98825541.54143  24134204.625                    24134207.957
        40.600          22.600
 122356096.786 7  95342443.23845  23283590.852                    23283597.219
        43.700          32.400
 107025171.952 8  83396283.09447  20366212.250                    20366218.102
        52.000          45.100
 107956106.839 8  84121654.03847  20543364.547                    20543368.297
        51.300          43.000
 123348620.957 6  96115835.55744  23472459.828                    23472464.578
        39.000          24.100
 118328886.767 7  92204344.62945  22517233.672                    22517238.211
        45.600          31.900
 18  2 21  9 59  0.0000000  0  8G07G02G20G09G30G05G28G13
 111732724.141 8  87064467.31746  21262026.891                    21262030.457
        53.400          41.700
 123431240.524 7  96180183.60044  23488191.016                    23488193.449
        42.100          28.100
 126721602.347 6  98744120.54943  24114320.125                    24114323.496
        40.700          21.100
 122446102.779 7  95412577.73045  23300718.672                    23300724.977
        44.600          32.900
 107027710.896 8  83398261.49247  20366695.211                    20366701.227
        52.200          45.100
 107935567.110 8  84105649.05047  20539455.859                    20539459.746
        52.400          43.500
 123258090.084 6  96045292.06143  23455232.391                    23455236.891
        41.100          23.400
 118246336.522 7  92140019.75045  22501525.359                    22501528.949
        45.200          31.400
 18  2 21  9 59 30.0000000  0  8G07G02G20G09G30G05G28G13
 111782886.494 8  87103554.84646  21271572.102                    21271576.086
        53.500          41.600
 123515617.893 7  96245932.13944  23504248.211                    23504250.852
        43.000          29.100
 126617279.638 6  98662830.12743  24094468.453                    24094471.629
        40.400          21.800
 122536230.805 7  95482807.29445  23317870.008                    23317876.617
        45.100          33.500
 107030779.304 8  83400652.45547  20367279.375                    20367285.371
        52.500          45.800
 107915562.947 8  84090061.38647  20535649.250                    20535653.273
        51.900          43.600
 123167756.655 6  95974902.38444  23438042.398                    23438046.598
        40.800          24.000
 118163971.770 7  92075839.42645  22485851.797                    22485855.723
        43.900          31.600
                            4  1
RINEX FILE SPLICE; other post-header comments skipped       COMMENT
 18  2 21 10  0  0.0000000  0  8G07G02G20G09G30G05G28G13
 111833445.718 8  87142951.64046  21281193.656                    21281196.660
        53.200          41.400
 123600218.708 6  96311854.75644  23520346.109                    23520348.773
        41.500          24.700
 126513126.191 6  98581671.61743  24074648.594                    24074651.617
        40.800          21.800
 122626480.025 7  95553131.32545  23335043.242                    23335049.727
        46.300          32.800
 107034376.474 8  83403455.44947  20367963.914                    20367969.719
        52.700          46.000
 107896095.198 8  84074891.70047  20531944.500                    20531948.668
        51.900          43.600
 123077623.578 6  95904668.85843  23420891.070                    23420895.367
        41.200          22.800
 118081793.318 7  92011804.29945  22470213.859                    22470218.109
        44.500          31.900
 18  2 21 10  0 30.0000000  0  8G07G02G20G09G30G05G28G13
 111884400.160 8  87182656.39746  21290889.828                    21290892.621
        52.300          41.600
 123685039.982 7  96377949.23344  23536487.852                    23536489.480
        43.100          27.300
 126409144.535 6  98500646.94343  24054862.016                    24054863.883
        41.300          21.700
 122716849.650 7  95623549.18045  23352240.156                    23352247.016
        45.500          32.400
 107038501.726 8  83406669.93647  20368748.555                    20368754.875
        53.200          45.600
 107877165.352 8  84060141.16647  20528342.188                    20528346.004
        52.700          43.000
 122987693.567 6  95834593.56344  23403776.836                    23403782.273
        40.300          25.400
 117999802.393 7  91947915.28345  22454611.219                    22454615.520
        44.900          31.300
 18  2 21 10  1  0.0000000  0  8G07G02G20G09G30G05G28G13
 111935747.962 8  87222667.66046  21300660.914                    21300663.973
        53.600          41.700
 123770078.801 6  96444213.17444  23552669.039                    23552673.004
        38.900          27.200
 126305337.023 6  98419758.00543  24035107.703                    24035110.848
        40.900          22.600
 122807339.038 7  95694060.30045  23369459.922                    23369466.645
        46.300          33.600
 107043154.459 8  83410295.43447  20369634.172                    20369640.227
        52.900          45.300
 107858774.372 8  84045810.52447  20524842.500                    20524846.445
        53.000          43.600
 122897969.891 6  95764679.04243  23386704.023                    23386707.816
        41.300          22.300
 117917999.375 7  91884172.66545  22439045.000                    22439048.500
        44.400          30.900
 18  2 21 10  1 30.0000000  0  8G07G02G20G09G30G05G28G13
 111987487.413 8  87262984.11046  21310506.430                    21310509.613
        52.500          40.800
 123855332.344 7  96510644.41044  23568893.078                    23568895.910
        42.200          25.600
 126201706.064 6  98339006.64243  24015387.414                    24015391.160
        39.600          22.200
 122897947.250 8  95764664.06645  23386702.242                    23386708.742
        48.400          33.200
 107048333.836 8  83414331.31147  20370619.688                    20370625.648
        53.700          45.200
 107840923.082 8  84031900.42647  20521445.703                    20521449.422
        52.500          43.300
 122808455.028 7  95694927.27044  23369670.859                    23369674.250
        43.000          25.000
 117836385.444 7  91820577.42545  22423513.711                    22423517.750
        44.700          32.100
 18  2 21 10  2  0.0000000  0  8G07G02G20G09G30G05G28G13
 112039616.694 8  87303604.32546  21320426.414                    21320429.828
        52.500          40.700
 123940797.780 7  96577240.88944  23585156.727                    23585158.711
        42.200          26.500
 126098254.052 6  98258394.66643  23995701.172                    23995703.695
        40.600          20.600
 122988673.608 7  95835359.90345  23403966.625                    23403973.160
        46.800          32.700
 107054039.235 8  83418777.07647  20371705.203                    20371711.523
        52.700          45.400
 107823612.827 8  84018411.91047  20518151.578                    20518155.438
        51.500          43.700
 122719151.977 7  95625340.48744  23352675.742                    23352680.059
        43.700          26.400
 117754961.562 7  91757130.25245  22408019.898                    22408023.691
        45.800          33.000
 18  2 21 10  2 30.0000000  0  8G07G02G20G09G30G05G28G13
 112092134.312 8  87344527.13046  21330420.203                    21330423.641
        52.300          40.300
 124026472.290 7  96644000.12444  23601460.305                    23601464.000
        42.000          29.100
 125994983.320 6  98177923.96243  23976049.828                    23976052.309
        39.800          22.500
 123079517.350 7  95906147.17445  23421253.594                    23421260.273
        45.100          32.300
 107060269.836 8  83423632.09047  20372891.023                    20372896.902
        53.000          45.100
 107806844.300 8  84005345.51447  20514960.734                    20514964.781
        52.600          43.800
 122630063.760 7  95555921.11643  23335723.047                    23335727.469
        42.200          23.800
 117673728.222 7  91693831.54745  22392561.656                    22392565.727
        44.500          33.000
 18  2 21 10  3  0.0000000  0  8G07G02G20G09G30G05G28G13
 112145038.296 8  87385751.01646  21340487.297                    21340490.129
        52.900          40.600
 124112352.625 7  96710919.79244  23617802.977                    23617804.531
        43.200          25.500
 125891896.509 6  98097596.64943  23956432.422                    23956436.426
        41.000          23.000
 123170477.630 7  95977025.25745  23438563.359                    23438569.426
        47.900          32.800
 107067024.894 8  83428895.77347  20374176.164                    20374182.691
        53.200          45.300
 107790618.938 8  83992702.36747  20511873.203                    20511876.934
        52.300          43.800
 122541193.295 7  95486671.43344  23318811.828                    23318815.957
        42.700          25.000
 117592686.402 7  91630682.10245  22377139.563                    22377143.340
        45.100          31.800
 18  2 21 10  3 30.0000000  0  8G07G02G20G09G30G05G28G13
 112198326.841 8  87427274.55046  21350627.477                    21350630.660
        52.900          40.200
 124198435.838 6  96777997.65344  23634183.992                    23634185.742
        40.200          26.000
 125788995.902 6  98017414.34243  23936850.703                    23936853.730
        39.000          21.700
 123261553.590 7  96047993.49845  23455894.492                    23455900.730
        47.300          33.500
 107074303.526 9  83434567.43547  20375561.461                    20375567.793
        54.100          45.700
 107774937.379 8  83980482.96547  20508889.203                    20508893.184
        51.600          43.900
 122452543.347 7  95417593.58944  23301941.492                    23301945.371
        42.600          25.100
 117511837.012 7  91567682.57045  22361754.781                    22361757.969
        46.400          33.100
 18  2 21 10  4  0.0000000  0  8G07G02G20G09G30G05G28G13
 112251998.448 8  87469096.56446  21360841.570                    21360844.680
        51.500          40.200
 124284719.350 7  96845231.43844  23650603.820                    23650607.531
        42.300          28.900
 125686283.802 6  97937378.93643  23917305.867                    23917309.148
        39.200          22.500
 123352744.745 7  96119051.48845  23473246.547                    23473253.980
        45.900          31.500
 107082105.202 8  83440646.66547  20377046.133                    20377052.555
        53.800          45.100
 107759800.881 8  83968688.28747  20506008.563                    20506012.730
        52.800          43.800
 122364116.949 7  95348689.96244  23285114.875                    23285119.410
        43.200          26.000
 117431181.037 7  91504833.76545  22346406.555                    22346410.844
        47.000          34.600
 18  2 21 10  4 30.0000000  0  8G07G02G20G09G30G05G28G13
 112306051.053 8  87511215.47546  21371126.891                    21371129.637
        52.500          39.900
 124371200.162 6  96912619.03744  23667059.180                    23667061.852
        40.500          24.800
 125583762.788 6  97857492.47243  23897796.617                    23897800.469
        39.200          22.000
 123444050.158 7  96190198.49945  23490622.406                    23490628.316
        46.200          31.700
 107090428.930 9  83447132.68447  20378630.258                    20378636.566
        54.000          45.600
 107745210.314 8  83957319.00647  20503232.047                    20503236.277
        51.900          43.600
 122275916.695 7  95279962.52944  23268330.945                    23268335.840
        42.400          25.300
 117350719.064 7  91442136.14545  22331095.563                    22331099.086
        46.700          34.600
 18  2 21 10  5  0.0000000  0  8G07G02G20G09G30G05G28G13
 112360482.943 8  87553629.92946  21381484.945                    21381487.844
        52.000          40.200
 124457875.633 6  96980158.34144  23683554.172                    23683555.793
        41.700          27.300
 125481435.271 6  97777756.75443  23878324.203                    23878328.098
        41.000          22.600
 123535469.133 7  96261434.02245  23508018.922                    23508025.277
        46.200          33.100
 107099273.996 8  83454024.94047  20380313.281                    20380319.563
        53.500          46.100
 107731166.991 8  83946376.15247  20500559.539                    20500563.742
        52.300          44.000
 122187945.975 7  95211413.94144  23251590.133                    23251595.160
        42.200          25.800
 117270452.186 7  91379590.55745  22315820.438                    22315824.746
        47.000          32.800
 18  2 21 10  5 30.0000000  0  8G07G02G20G09G30G05G28G13
 112415292.286 8  87596338.49846  21391915.000                    21391918.520
        51.300          40.400
 124544742.471 7  97047846.69044  23700083.703                    23700088.430
        42.000          29.900
 125379303.728 6  97698173.74744  23858889.539                    23858892.938
        40.000          24.200
 123627000.784 7  96332757.33845  23525436.578                    23525442.594
        45.700          31.200
 107108639.446 8  83461322.69047  20382095.563                    20382101.152
        52.900          45.800
 107717671.375 8  83935860.08547  20497991.406                    20497995.637
        51.600          43.200
 122100207.161 7  95143046.07244  23234894.844                    23234899.391
        42.400          27.200
 117190381.266 7  91317197.62145  22300583.672                    22300587.754
        47.400          33.300
 18  2 21 10  6  0.0000000  0  8G07G02G20G09G30G05G28G13
 112470477.392 8  87639339.85546  21402416.531                    21402420.367
        52.000          40.500
 124631798.122 6  97115682.14644  23716650.313                    23716653.031
        41.200          25.400
 125277370.640 6  97618745.39043  23839491.922                    23839495.848
        41.100          22.200
 123718644.465 7  96404167.94445  23542875.852                    23542882.324
        45.500          32.100
 107118524.427 9  83469025.26547  20383976.672                    20383982.777
        54.000          45.900
 107704724.599 8  83925771.67247  20495527.930                    20495531.875
        52.100          43.500
 122012703.365 7  95074861.33544  23218243.211                    23218247.102
        42.700          27.400
 117110506.767 7  91254957.76245  22285384.148                    22285387.949
        47.600          34.900
 18  2 21 10  6 30.0000000  0  8G07G02G20G09G30G05G28G13
 112526036.523 8  87682632.67246  21412988.820                    21412992.313
        52.700          40.500
 124719039.371 7  97183662.35944  23733252.070                    23733253.902
        42.100          27.200
 125175638.307 6  97539473.43943  23820133.195                    23820135.980
        41.300          23.500
 123810399.447 7  96475665.28545  23560335.836                    23560343.188
        46.000          32.300
 107128928.206 8  83477132.10647  20385956.406                    20385962.422
        53.500          45.700
 107692327.603 8  83916111.68147  20493168.773                    20493172.801
        52.600          43.400
 121925437.509 7  95006862.00844  23201637.672                    23201641.191
        44.100          28.300
 117030829.720 7  91192871.77045  22270221.742                    22270226.668
        46.500          34.800
 18  2 21 10  7  0.0000000  0  8G07G02G20G09G30G05G28G13
 112581967.706 8  87726215.40646  21423632.000                    21423635.484
        51.800          40.200
 124806463.027 6  97251784.59444  23749887.672                    23749891.344
        39.600          27.400
 125074109.285 6  97460359.92243  23800812.156                    23800816.215
        40.200          23.300
 123902264.855 7  96547248.65045  23577817.930                    23577824.281
        45.400          31.700
 107139849.718 8  83485642.36947  20388034.859                    20388040.391
        53.700          45.600
 107680480.652 8  83906880.28147  20490914.648                    20490918.414
        51.900          43.500
 121838412.263 7  94939050.15044  23185076.992                    23185081.441
        43.600          27.900
 116951351.295 8  91130940.57445  22255097.891                    22255102.102
        48.000          34.400
 18  2 21 10  7 30.0000000  0  8G07G02G20G09G30G05G28G13
 112638269.138 8  87770086.63746  21434346.133                    21434349.473
        52.300          39.800
 124894066.666 7  97320047.05944  23766559.063                    23766561.301
        42.400          26.300
 124972785.849 7  97381406.63644  23781531.930                    23781535.652
        42.700          24.200
 123994239.971 7  96618917.54845  23595319.984                    23595326.813
        45.200          31.800
 107151288.172 8  83494555.44947  20390211.523                    20390217.867
        53.800          46.000
 107669185.290 8  83898078.70447  20488765.078                    20488768.914
        52.300          43.400
 121751630.477 7  94871428.03244  23168563.031                    23168566.957
        44.800          28.400
 116872072.244 7  91069164.68045  22240011.664                    22240015.168
        46.200          33.600
 18  2 21 10  8  0.0000000  0  8G07G02G20G09G30G05G28G13
 112694939.225 8  87814245.14246  21445130.070                    21445134.082
        52.000          40.400
 124981847.190 6  97388447.50244  23783262.141                    23783264.039
        41.200          26.100
 124871670.441 7  97302615.41343  23762289.273                    23762293.457
        42.000          22.600
 124086324.059 7  96690671.30445  23612843.219                    23612850.059
        45.500          32.100
 107163242.589 9  83503870.58047  20392486.266                    20392492.336
        54.400          45.800
 107658442.293 8  83889707.53147  20486720.633                    20486724.434
        52.100          43.400
 121665095.142 7  94803997.93944  23152095.680                    23152100.098
        43.700          28.100
 116792993.466 7  91007544.87245  22224962.719                    22224967.230
        46.000          33.600
 18  2 21 10  8 30.0000000  0  8G07G02G20G09G30G05G28G13
 112751975.903 8  87858689.28846  21455983.602                    21455987.328
        51.600          40.300
 125069802.046 7  97456983.66144  23799999.703                    23800002.930
        42.400          28.800
 124770765.893 6  97223988.50244  23743088.352                    23743091.711
        41.800          24.300
 124178516.345 7  96762509.39645  23630387.242                    23630393.703
        45.800          31.600
 107175712.078 8  83513587.05947  20394859.031                    20394865.188
        53.700          45.500
 107648252.271 8  83881767.24747  20484781.648                    20484785.387
        52.900          43.300
 121578808.882 7  94736761.95244  23135676.000                    23135679.367
        43.700          28.700
 116714115.407 7  90946081.46745  22209953.000                    22209957.699
        47.500          35.100
 18  2 21 10  9  0.0000000  0  8G07G02G20G09G30G05G28G13
 112809377.355 8  87903417.68746  21466907.156                    21466910.223
        52.000          40.000
 125157927.682 6  97525652.87944  23816769.781                    23816772.426
        41.500          24.700
 124670074.552 7  97145527.73543  23723927.555                    23723931.094
        42.500          23.400
 124270816.052 7  96834431.19645  23647950.508                    23647957.008
        45.400          30.600
 107188695.653 8  83523704.12747  20397329.867                    20397335.645
        53.600          45.700
 107638615.888 8  83874258.38147  20482947.781                    20482951.785
        52.300          43.300
 121492774.656 7  94669722.34044  23119303.414                    23119307.781
        44.300          27.200
 116635439.277 7  90884775.39645  22194981.500                    22194985.734
        45.600          34.800
 18  2 21 10  9 30.0000000  0  8G07G02G20G09G30G05G28G13
 112867142.296 8  87948429.32646  21477899.563                    21477903.055
        52.500          40.500
 125246221.471 7  97594453.23344  23833572.039                    23833573.199
        42.600          24.700
 124569598.910 6  97067234.99843  23704807.586                    23704810.629
        40.300          22.800
 124363222.574 7  96906436.23445  23665536.102                    23665541.250
        45.500          31.600
 107202192.451 9  83534221.10247  20399897.938                    20399904.191
        54.000          45.700
 107629534.439 8  83867181.91547  20481219.719                    20481223.348
        51.600          43.300
 121406995.392 7  94602881.38844  23102980.070                    23102985.113
        44.200          28.400
 116556966.156 7  90823627.52645  22180048.453                    22180052.406
        46.400          33.600
 18  2 21 10 10  0.0000000  0  8G07G02G20G09G30G05G28G13
 112925268.287 8  87993722.29046  21488960.508                    21488964.605
        52.300          40.500
 125334680.571 7  97663382.30944  23850404.969                    23850408.375
        42.500          27.500
 124469341.038 7  96989111.99344  23685728.797                    23685732.523
        42.100          24.800
 124455734.939 7  96978523.73445  23683139.961                    23683146.875
        45.100          31.700
 107216201.335 8  83545137.11447  20402563.867                    20402569.551
        53.700          45.600
 107621008.325 8  83860538.18647  20479596.938                    20479600.621
        52.200          42.900
 121321473.761 7  94536241.17644  23086706.563                    23086710.008
        44.300          28.300
 116478696.424 7  90762638.13245  22165154.219                    22165158.313
        45.800          33.900
 18  2 21 10 10 30.0000000  0  8G07G02G20G09G30G05G28G13
 112983753.578 8  88039295.23246  21500089.961                    21500093.801
        52.200          40.500
 125423302.039 6  97732437.88944  23867268.492                    23867271.910
        41.700          24.900
 124369303.710 6  96911160.87044  23666692.695                    23666695.891
        41.600          24.100
 124548352.637 7  97050693.28445  23700764.195                    23700771.848
        44.900          31.800
 107230721.514 8  83556451.53247  20405327.141                    20405333.066
        53.700          45.700
 107613038.368 8  83854327.82047  20478080.547                    20478084.234
        51.800          43.400
 121236212.953 7  94469804.22244  23070481.594                    23070485.688
        44.300          28.400
 116400631.425 7  90701808.26945  22150299.227                    22150303.590
        47.200          34.600
 18  2 21 10 11  0.0000000  0  8G07G02G20G09G30G05G28G13
 113042596.270 8  88085146.66846  21511287.430                    21511290.559
        53.200          40.600
 125512082.706 6  97801617.57844  23884163.734                    23884165.418
        41.300          25.100
 124269489.417 7  96833383.47444  23647698.883                    23647701.082
        42.300          25.000
 124641074.777 7  97122944.24544  23718408.859                    23718415.082
        43.100          29.100
 107245751.806 8  83568163.44247  20408187.320                    20408193.047
        53.500          45.400
 107605625.291 8  83848551.38847  20476669.898                    20476673.148
        51.900          43.200
 121151215.707 7  94403572.63544  23054306.617                    23054311.461
        44.000          28.700
 116322771.870 7  90641138.50445  22135482.609                    22135487.598
        47.200          35.200
 18  2 21 10 11 30.0000000  0  8G07G02G20G09G30G05G28G13
 113101794.929 8  88131275.49446  21522552.469                    21522556.371
        52.800          41.400
 125601019.970 6  97870919.27544  23901086.727                    23901090.980
        41.300          25.800
 124169900.973 6  96755782.12244  23628747.672                    23628751.371
        41.000          26.400
 124733900.820 7  97195276.19445  23736072.969                    23736080.234
        43.300          31.400
 107261291.496 8  83580272.28147  20411144.406                    20411150.496
        53.800          45.500
 107598770.249 8  83843209.79347  20475365.258                    20475369.230
        52.000          43.500
 121066484.674 7  94337548.50044  23038183.094                    23038187.391
        43.900          28.600
 116245118.868 7  90580629.69145  22120705.867                    22120710.117
        47.300          34.700
 18  2 21 10 12  0.0000000  0  8G07G02G20G09G30G05G28G13
 113161347.980 8  88177680.44646  21533884.875                    21533889.102
        52.100          40.700
 125690110.755 6  97940340.59643  23918041.336                    23918043.672
        41.200          22.000
 124070540.440 6  96678358.33443  23609839.750                    23609842.371
        40.600          22.900
 124826830.031 7  97267688.46945  23753757.086                    23753763.672
        43.200          30.300
 107277339.441 9  83592777.17247  20414198.219                    20414204.383
        54.100          45.800
 107592473.874 8  83838303.51647  20474167.398                    20474170.680
        52.300          43.900
 120982022.595 7  94271733.91944  23022110.688                    23022114.762
        45.000          28.200
 116167673.044 7  90520282.28745  22105968.781                    22105972.621
        47.300          35.100
 18  2 21 10 12 30.0000000  0  8G07G02G20G09G30G05G28G13
 113221253.151 8  88224359.78946  21545284.727                    21545288.570
        52.900          40.900
 125779352.071 6  98009879.26343  23935022.766                    23935025.754
        39.700          22.900
 123971410.336 6  96601114.09044  23590975.750                    23590978.566
        41.100          24.700
 124919861.235 7  97340180.33045  23771460.219                    23771466.621
        45.000          31.500
 107293894.323 9  83605677.07147  20417348.656                    20417354.480
        54.200          45.500
 107586736.075 8  83833832.50347  20473075.406                    20473079.105
        51.700          42.600
 120897832.336 7  94206131.12644  23006089.875                    23006094.094
        44.800          28.900
 116090435.260 8  90460097.00145  22091270.922                    22091274.832
        48.700          35.000
 18  2 21 10 13  0.0000000  0  8G07G02G20G09G30G05G28G13
 113281508.451 8  88271311.96746  21556750.844                    21556754.602
        52.700          41.800
 125868741.485 6  98079533.21844  23952032.844                    23952037.203
        40.400          24.800
 123872513.489 6  96524051.62544  23572156.672                    23572159.938
        41.400          24.900
 125012994.142 7  97412751.32745  23789183.133                    23789190.664
        42.400          31.900
 107310955.295 9  83618971.33847  20420595.078                    20420601.383
        54.000          45.600
 107581558.095 8  83829797.70047  20472090.227                    20472094.090
        51.300          43.600
 120813916.793 7  94140742.41544  22990121.313                    22990125.328
        44.700          28.400
 116013406.338 8  90400074.47745  22076612.633                    22076617.082
        48.000          35.300
 18  2 21 10 13 30.0000000  0  8G07G02G20G09G30G05G28G13
 113342112.056 8  88318535.54846  21568283.203                    21568287.320
        51.800          40.500
 125958275.406 6  98149299.86443  23969071.445                    23969073.680
        39.900          22.900
 123773852.187 6  96447172.68944  23553381.836                    23553384.512
        41.100          25.100
 125106227.845 7  97485400.89245  23806925.000                    23806931.543
        43.000          30.100
 107328521.309 9  83632659.13347  20423937.953                    20423943.672
        54.400          45.100
 107576940.684 8  83826199.70447  20471211.492                    20471215.344
        52.400          43.400
 120730278.725 7  94075569.93044  22974205.156                    22974209.867
        45.300          28.800
 115936587.223 8  90340215.45445  22061994.484                    22061998.457
        48.700          35.100
 18  2 21 10 14  0.0000000  0  8G07G02G20G09G30G05G28G13
 113403062.152 8  88366029.09746  21579881.633                    21579885.508
        52.600          40.700
 126047951.265 6  98219177.11543  23986135.688                    23986138.301
        37.300          22.800
 123675428.686 6  96370479.09044  23534652.375                    23534655.793
        41.800          25.100
 125199561.475 6  97558128.35944  23824685.383                    23824691.820
        41.800          29.300
 107346591.075 9  83646739.46947  20427376.352                    20427382.418
        54.300          45.400
 107572883.927 8  83823038.59147  20470439.664                    20470443.352
        51.700          43.700
 120646920.753 7  94010615.68344  22958343.047                    22958347.234
        45.000          29.400
 115859978.888 8  90280520.64345  22047416.664                    22047420.320
        49.200          35.400
 18  2 21 10 14 30.0000000  0  8G07G02G20G09G30G05G28G13
 113464356.971 8  88413791.28946  21591545.445                    21591549.570
        52.300          40.400
 126137766.039 6  98289162.50444  24003227.305                    24003230.566
        39.400          25.800
 123577245.781 6  96293972.95844  23515968.805                    23515972.723
        40.900          25.900
 125292994.494 7  97630933.24745  23842465.711                    23842472.660
        44.200          30.900
 107365163.666 9  83661211.61547  20430910.492                    20430916.805
        54.300          45.800
 107569388.921 8  83820315.19647  20469774.461                    20469778.297
        51.600          43.100
 120563845.819 7  93945881.99744  22942534.609                    22942537.992
        45.800          28.900
 115783582.541 8  90220991.00845  22032879.063                    22032882.535
        49.100          34.300
 18  2 21 10 15  0.0000000  0  9G07G02G20G09G30G05G28G13G15
 113525995.176 8  88461821.01746  21603274.641                    21603278.719
        51.100          40.400
 126227716.752 6  98359253.90743  24020344.883                    24020346.801
        38.800          20.400
 123479306.158 6  96217656.35944  23497331.672                    23497334.695
        40.700          26.400
 125386526.110 7  97703814.97045  23860263.938                    23860271.309
        43.200          30.700
 107384237.997 9  83676074.72547  20434540.531                    20434546.434
        54.500          45.600
 107566456.185 8  83818029.95147  20469216.641                    20469220.129
        50.800          43.400
 120481056.926 7  93881371.18644  22926780.227                    22926784.488
        45.600          29.100
 115707398.682 8  90161626.98545  22018381.250                    22018385.508
        48.900          35.600
 129883488.828 7 101207940.63843  24716008.531                    24716012.543
        44.100          23.200
 18  2 21 10 15 30.0000000  0  9G07G02G20G09G30G05G28G13G15
 113587974.267 8  88510116.39946  21615069.219                    21615072.785
        52.600          40.600
 126317801.031 6  98429449.45244  24037487.250                    24037489.871
        39.000          24.700
 123381612.417 6  96141531.38344  23478740.953                    23478744.414
        41.600          25.500
 125480155.850 7  97776773.13444  23878080.891                    23878087.773
        44.000          29.800
 107403813.072 9  83691328.01747  20438265.531                    20438271.199
        54.100          45.100
 107564086.471 8  83816183.40647  20468765.836                    20468769.168
        52.300          43.900
 120398556.468 7  93817085.14744  22911080.469                    22911084.719
        44.800          28.200
 115631428.258 8  90102429.26145  22003924.719                    22003928.773
        50.000          35.100
 129782449.837 6 101129209.02944  24696780.258                    24696786.117
        41.600          24.600
 18  2 21 10 16  0.0000000  0  9G07G02G20G09G30G05G28G13G15
 113650292.692 8  88558676.19746  21626928.258                    21626932.113
        51.600          40.400
 126408015.375 6  98499746.23043  24054654.359                    24054657.500
        38.100          23.300
 123284166.713 6  96065599.67844  23460197.445                    23460200.344
        40.200          25.900
 125573882.700 7  97849807.01745  23895916.742                    23895923.988
        44.300          30.000
 107423887.514 9  83706970.43947  20442085.344                    20442091.383
        54.100          45.500
 107562280.065 8  83814775.80647  20468422.070                    20468425.414
        50.500          44.200
 120316347.575 7  93753026.30644  22895436.453                    22895440.789
        44.600          29.200
 115555672.265 8  90043398.62745  21989508.867                    21989512.715
        49.700          34.800
 129681463.740 7 101050518.58943  24677563.984                    24677567.945
        43.800          21.500
 18  2 21 10 16 30.0000000  0  9G07G02G20G09G30G05G28G13G15
 113712948.465 8  88607498.85046  21638850.578                    21638854.883
        52.700          39.900
 126498356.777 6  98570142.09543  24071845.969                    24071847.473
        38.800          21.100
 123186971.542 7  95989863.19144  23441702.641                    23441706.066
        42.700          25.800
 125667705.868 7  97922915.88145  23913770.313                    23913777.938
        42.800          30.300
 107444460.140 8  83723001.06147  20446000.086                    20446006.449
        53.700          45.900
 107561037.388 8  83813807.48747  20468185.125                    20468188.813
        51.500          43.900
 120234432.664 7  93689196.54744  22879849.016                    22879853.629
        45.800          29.600
 115480131.690 8  89984535.84945  21975133.750                    21975137.422
        48.500          34.300
 129580531.301 6 100971869.87543  24658356.148                    24658360.930
        38.600          21.700
 18  2 21 10 17  0.0000000  0  9G07G02G20G09G30G05G28G13G15
 113775939.627 8  88656582.86446  21650837.719                    21650841.051
        51.200          39.600
 126588822.568 6  98640634.91043  24089060.633                    24089063.184
        39.500          23.000
 123090029.372 6  95914323.84044  23423254.906                    23423257.824
        40.800          26.500
 125761624.669 7  97996099.30244  23931643.023                    23931649.855
        44.100          29.700
 107465529.841 8  83739419.00847  20450009.672                    20450015.590
        53.100          44.700
 107560358.961 8  83813278.82847  20468056.109                    20468059.988
        51.300          44.100
 120152814.677 7  93625598.14844  22864317.477                    22864322.203
        45.200          29.300
 115404807.053 8  89925841.32545  21960800.531                    21960803.852
        48.400          35.000
 129479653.817 7 100893264.14544  24639161.336                    24639165.984
        43.500          28.500
 18  2 21 10 17 30.0000000  0  9G07G02G20G09G30G05G28G13G15
 113839264.455 8  88705926.87946  21662887.883                    21662891.680
        50.700          39.700
 126679409.945 6  98711222.33543  24106299.242                    24106301.656
        39.400          22.600
 122993342.970 7  95838983.79444  23404856.219                    23404859.113
        42.200          26.500
 125855638.415 7  98069356.70845  23949532.984                    23949540.621
        44.300          31.100
 107487095.458 9  83756223.38547  20454113.320                    20454119.656
        54.000          45.200
 107560245.120 8  83813190.11547  20468034.406                    20468038.293
        50.800          43.700
 120071496.325 7  93562233.23844  22848843.125                    22848847.551
        45.700          28.500
 115329699.599 8  89867316.04845  21946507.477                    21946511.609
        49.400          35.400
 129378831.862 6 100814701.49543  24619974.406                    24619978.305
        36.800          18.300
 18  2 21 10 18  0.0000000  0  9G07G02G20G09G30G05G28G13G15
 113902921.226 8  88755529.54146  21675001.445                    21675005.387
        50.300          39.600
 126770115.576 6  98781902.03443  24123558.992                    24123561.953
        40.400          22.200
 122896914.979 6  95763845.11044  23386506.492                    23386509.543
        41.400          26.000
 125949746.350 7  98142687.48344  23967441.500                    23967448.176
        43.700          29.400
 107509155.716 9  83773413.19547  20458311.297                    20458317.352
        54.300          45.200
 107560696.620 8  83813541.92447  20468120.578                    20468124.145
        50.600          43.900
 119990480.096 7  93499103.76144  22833426.016                    22833430.055
        45.200          29.300
 115254809.869 8  89808960.42645  21932256.047                    21932260.293
        48.300          35.100
 129278066.817 7 100736183.30644  24600800.117                    24600804.508
        43.700          25.600
 18  2 21 10 18 30.0000000  0  9G07G02G20G09G30G05G28G13G15
 113966907.951 8  88805389.32046  21687177.930                    21687181.520
        50.200          39.500
 126860936.896 6  98852671.83944  24140841.906                    24140845.949
        38.000          25.300
 122800747.778 6  95688909.65544  23368206.383                    23368209.645
        41.800          26.900
 126043947.805 7  98216091.14844  23985367.242                    23985374.387
        42.300          29.300
 107531709.477 8  83790987.54447  20462603.266                    20462609.332
        53.500          45.400
 107561713.880 8  83814334.58547  20468314.172                    20468317.715
        50.000          43.400
 119909769.121 7  93436212.14945  22818066.891                    22818071.453
        45.700          30.400
 115180139.086 8  89750775.41845  21918047.086                    21918050.324
        49.200          34.800
 129177359.680 6 100657710.27043  24581635.430                    24581641.758
        39.200          22.900
 18  2 21 10 19  0.0000000  0  9G07G02G20G09G30G05G28G13G15
 114031222.785 8  88855504.77746  21699416.375                    21699419.684
        49.900          38.500
 126951870.760 6  98923529.26843  24158147.250                    24158150.230
        39.000          23.800
 122704843.970 7  95614179.41044  23349956.742                    23349959.609
        42.400          26.900
 126138242.034 7  98289567.10644  24003310.625                    24003318.148
        42.000          28.400
 107554755.543 9  83808945.52047  20466988.680                    20466994.871
        54.400          45.100
 107563297.622 8  83815568.66847  20468615.492                    20468619.324
        50.300          43.800
 119829365.967 7  93373560.39445  22802767.375                    22802770.980
        46.000          30.300
 115105688.049 8  89692761.62045  21903879.719                    21903883.027
        49.300          34.800
 129076711.011 7 100579282.83242  24562482.961                    24562486.441
        45.100          16.300
 18  2 21 10 19 30.0000000  0  9G07G02G20G09G30G05G28G13G15
 114095863.855 8  88905874.42746  21711717.195                    21711721.414
        49.200          38.900
 127042914.302 6  98994472.33143  24175471.219                    24175474.172
        38.000          21.300
 122609206.174 7  95539656.46344  23331757.180                    23331760.738
        42.800          26.400
 126232628.420 7  98363114.89544  24021272.133                    24021278.230
        43.200          27.900
 107578292.739 9  83827286.18847  20471467.844                    20471473.473
        54.700          45.500
 107565448.095 8  83817244.35447  20469024.719                    20469028.434
        50.400          43.300
 119749273.346 7  93311150.60745  22787525.914                    22787529.902
        46.200          30.200
 115031458.034 8  89634920.05745  21889754.297                    21889757.727
        49.400          35.700
 128976122.462 7 100500901.97444  24543342.422                    24543347.602
        43.200          25.800
 18  2 21 10 20  0.0000000  0  9G07G02G20G09G30G05G28G13G15
 114160829.056 8  88956496.62846  21724079.953                    21724083.582
        50.500          39.000
 127134064.627 6  99065498.44544  24192818.633                    24192821.352
        38.700          27.700
 122513836.392 7  95465342.37444  23313608.867                    23313612.047
        42.400          27.000
 126327105.916 7  98436733.66745  24039250.680                    24039258.316
        43.300          30.400
 107602319.585 9  83846008.40247  20476039.602                    20476045.578
        54.600          45.100
 107568165.162 8  83819361.53347  20469541.773                    20469545.910
        50.000          43.800
 119669494.018 7  93248984.94745  22772344.258                    22772348.648
        45.700          30.000
 114957449.288 8  89577250.92045  21875670.602                    21875674.504
        48.900          34.600
 128875594.357 6 100422568.63343  24524210.609                    24524216.906
        41.000          22.900
 18  2 21 10 20 30.0000000  0  9G07G02G20G09G30G05G28G13G15
 114226116.789 8  89007370.18846  21736503.906                    21736506.797
        50.600          38.500
 127225318.999 6  99136605.65443  24210181.852                    24210186.355
        36.600          22.500
 122418737.630 7  95391239.45344  23295511.422                    23295515.777
        43.500          27.700
 126421674.002 7  98510422.97644  24057246.469                    24057253.383
        42.500          28.600
 107626834.878 8  83865111.22447  20480705.219                    20480710.988
        53.600          45.100
 107571449.561 8  83821920.79647  20470166.961                    20470170.672
        50.500          43.800
 119590030.379 7  93187065.30144  22757222.797                    22757226.785
        45.600          29.000
 114883663.112 8  89519755.21045  21861629.430                    21861633.086
        48.800          34.900
 128775128.010 7 100344282.96442  24505094.750                    24505095.523
        45.700          17.400
 18  2 21 10 21  0.0000000  0  9G07G02G20G09G30G05G28G13G15
 114291725.275 8  89058493.67746  21748988.594                    21748992.035
        50.300          38.900
 127316674.462 6  99207791.73443  24227566.945                    24227569.023
        37.300          20.400
 122323912.426 7  95317349.71444  23277467.195                    23277470.719
        44.000          27.200
 126516332.113 7  98584182.52744  24075259.383                    24075265.906
        43.200          29.600
 107651837.629 9  83884593.87647  20485462.672                    20485468.680
        54.500          44.700
 107575301.960 8  83824922.65947  20470899.945                    20470903.465
        51.200          43.600
 119510885.629 7  93125394.12145  22742162.156                    22742165.813
        46.100          30.300
 114810100.468 8  89462433.65845  21847630.969                    21847634.328
        49.200          34.800
 128674724.168 6 100266046.30643  24485986.258                    24485991.785
        40.600          22.600
 18  2 21 10 21 30.0000000  0  9G07G02G20G09G30G05G28G13G15
 114357652.673 8  89109865.64646  21761534.422                    21761538.234
        50.500          39.800
 127408127.925 6  99279054.14644  24244970.016                    24244974.641
        39.500          26.600
 122229363.514 7  95243675.23744  23259475.234                    23259478.664
        43.000          26.400
 126611079.308 7  98658011.43045  24093289.273                    24093297.145
        44.800          30.300
 107677326.329 8  83904455.20147  20490313.180                    20490318.875
        53.400          45.000
 107579722.266 8  83828367.05047  20471740.859                    20471744.598
        50.700          43.600
 119432062.073 7  93063973.21344  22727163.227                    22727166.102
        46.200          29.700
 114736762.175 8  89405286.93945  21833675.344                    21833678.504
        49.300          35.200
 128574384.176 7 100187859.38743  24466894.141                    24466898.016
        45.700          22.800
 18  2 21 10 22  0.0000000  0  9G07G02G20G09G30G05G28G13G15
 114423896.858 8  89161484.47146  21774140.180                    21774143.656
        50.200          39.600
 127499676.627 6  99350390.62243  24262390.398                    24262394.988
        36.500          21.700
 122135093.250 7  95170217.90944  23241535.922                    23241539.793
        43.900          26.200
 126705914.980 6  98731909.27344  24111335.570                    24111343.113
        41.800          26.800
 107703299.691 8  83924694.17547  20495255.766                    20495261.750
        53.400          45.100
 107584710.754 8  83832254.18347  20472690.078                    20472694.184
        51.600          43.800
 119353562.459 7  93002804.74145  22712224.031                    22712228.754
        46.200          30.800
 114663649.131 8  89348315.75046  21819762.586                    21819765.855
        49.000          36.000
 128474108.512 6 100109722.35942  24447810.297                    24447813.242
        40.600          17.800
 18  2 21 10 22 30.0000000  0  9G07G02G20G09G30G05G28G13G15
 114490455.952 8  89213348.69946  21786805.891                    21786808.922
        50.200          38.700
 127591317.596 6  99421799.22043  24279831.031                    24279831.871
        41.100          22.600
 122041103.789 7  95096979.38744  23223650.406                    23223653.773
        42.200          26.000
 126800838.248 7  98805875.38544  24129399.852                    24129406.512
        43.400          29.200
 107729756.384 8  83945309.78347  20500290.320                    20500296.688
        53.500          45.400
 107590267.890 8  83836584.40947  20473747.703                    20473751.016
        51.400          43.900
 119275389.418 7  92941890.74645  22697348.680                    22697352.461
        46.200          31.200
 114590762.253 8  89291520.78145  21805892.586                    21805895.863
        49.300          35.700
 128373898.596 7 100031636.80944  24428742.039                    24428747.453
        45.200          26.600
 18  2 21 10 23  0.0000000  0  9G07G02G20G09G30G05G28G13G15
 114557328.087 8  89265456.83146  21799531.656                    21799535.168
        52.700          39.600
 127683047.877 6  99493277.29743  24297283.563                    24297289.117
        37.200          22.200
 121947398.161 7  95023962.01544  23205818.961                    23205822.273
        42.800          26.400
 126895848.431 7  98879909.23544  24147478.758                    24147486.094
        42.900          28.100
 107756695.071 9  83966300.95847  20505416.633                    20505422.898
        54.200          45.100
 107596393.961 8  83841357.96647  20474913.227                    20474917.195
        51.900          43.600
 119197545.660 7  92881233.32145  22682535.648                    22682539.230
        46.700          32.300
 114518102.300 8  89234902.63045  21792065.492                    21792068.758
        49.000          34.900
 128273755.616 7  99953603.41544  24409685.742                    24409690.797
        43.200          24.800
 18  2 21 10 23 30.0000000  0  9G07G02G20G09G30G05G28G13G15
 114624511.627 8  89317807.63846  21812315.930                    21812319.352
        52.500          39.000
 127774864.672 6  99564822.70843  24314758.367                    24314761.672
        41.100          23.500
 121853978.586 7  94951167.56744  23188041.133                    23188045.305
        42.500          26.000
 126990944.998 7  98954010.38445  24165576.039                    24165582.918
        42.100          30.400
 107784114.510 9  83987666.75847  20510634.383                    20510640.551
        54.100          45.400
 107603089.067 8  83846574.91947  20476187.406                    20476191.297
        51.800          43.800
 119120034.038 7  92820834.69545  22667785.477                    22667789.477
        46.300          30.400
 114445670.492 8  89178462.26445  21778282.719                    21778285.598
        49.700          35.800
 128173680.166 6  99875622.52643  24390641.531                    24390645.555
        41.800          20.400
 18  2 21 10 24  0.0000000  0  9G07G02G20G09G30G05G28G13G15
 114692004.714 8  89370399.62546  21825159.523                    21825162.109
        50.700          39.200
 127866765.031 6  99636433.46143  24332244.727                    24332247.574
        39.000          20.900
 121760847.709 7  94878598.08044  23170319.617                    23170323.180
        42.200          28.300
 127086127.129 7  99028178.19545  24183688.945                    24183695.797
        42.600          31.100
 107812013.473 8  84009406.20347  20515943.359                    20515949.820
        53.100          44.900
 107610353.900 8  83852235.82747  20477570.008                    20477573.965
        50.800          44.000
 119042857.222 7  92760696.93845  22653099.211                    22653102.824
        46.900          31.800
 114373467.769 8  89122200.40046  21764542.969                    21764546.500
        50.100          36.400
 128073673.444 7  99797695.17444  24371612.094                    24371615.145
        45.300          24.600
 18  2 21 10 24 30.0000000  0  9G07G02G20G09G30G05G28G13G15
 114759805.360 8  89423231.29646  21838061.680                    21838065.203
        52.000          39.600
 127958746.359 6  99708107.08744  24349748.992                    24349752.508
        37.600          25.100
 121668008.630 7  94806255.93544  23152652.742                    23152656.211
        42.000          28.000
 127181394.299 6  99102412.30644  24201816.781                    24201823.957
        40.000          27.900
 107840390.573 8  84031518.22947  20521343.352                    20521349.590
        53.200          45.000
 107618188.581 8  83858340.76647  20479060.992                    20479064.707
        51.400          44.100
 118966017.814 7  92700822.12245  22638476.711                    22638481.012
        46.300          31.500
 114301495.111 8  89066117.82846  21750846.734                    21750850.520
        49.300          36.000
 127973736.742 6  99719822.47743  24352592.836                    24352598.070
        40.800          21.700
 18  2 21 10 25  0.0000000  0  9G07G02G20G09G30G05G28G13G15
 114827911.643 8  89476301.11146  21851021.500                    21851026.035
        50.700          40.600
 128050805.178 6  99779841.11944  24367267.570                    24367271.668
        40.800          24.100
 121575463.523 6  94734142.90044  23135042.039                    23135046.035
        41.000          27.100
 127276745.520 7  99176711.85945  24219962.125                    24219970.406
        43.600          30.900
 107869244.316 8  84054001.66347  20526834.078                    20526840.160
        53.400          45.000
 107626592.642 8  83864889.37947  20480660.219                    20480663.391
        50.700          43.400
 118889518.041 7  92641211.96445  22623919.859                    22623923.707
        47.600          32.000
 114229753.410 8  89010215.20746  21737194.531                    21737198.313
        49.300          36.100
 127873870.758 7  99642004.82643  24333590.227                    24333593.207
        44.700          23.800
 18  2 21 10 25 30.0000000  0  9G07G02G20G09G30G05G28G13G15
 114896321.871 8  89529607.73846  21864039.969                    21864043.336
        50.800          39.600
 128142938.945 6  99851633.66143  24384799.750                    24384802.211
        37.600          19.300
 121483214.590 7  94662260.62044  23117487.969                    23117490.824
        42.300          25.700
 127372180.110 7  99251076.34044  24238122.727                    24238130.348
        42.000          27.900
 107898573.344 8  84076855.43947  20532415.281                    20532421.145
        53.700          44.600
 107635566.677 8  83871882.12247  20482367.719                    20482371.473
        51.300          44.200
 118813360.853 7  92581868.76045  22609427.547                    22609431.609
        46.800          32.000
 114158243.410 8  88954493.12846  21723586.859                    21723590.477
        49.600          36.400
 127774076.552 7  99564243.09244  24314599.242                    24314605.391
        42.600          25.600
 18  2 21 10 26  0.0000000  0  9G07G02G20G09G30G05G28G13G15
 114965034.028 8  89583149.68346  21877115.164                    21877118.277
        51.500          39.000
 128235144.557 6  99923482.12744  24402346.727                    24402350.023
        40.000          28.300
 121391264.636 6  94590611.30944  23099990.148                    23099994.051
        40.300          28.100
 127467697.314 7  99325505.40444  24256298.375                    24256304.625
        43.300          26.800
 107928376.225 8  84100078.46447  20538086.289                    20538091.699
        53.800          44.400
 107645110.568 8  83879318.91247  20484184.039                    20484187.934
        51.100          43.900
 118737548.669 7  92522794.36245  22595001.023                    22595004.832
        47.800          31.900
 114086966.047 8  88898952.33146  21710023.469                    21710027.109
        49.900          36.300
 127674354.955 7  99486538.09544  24295622.758                    24295628.883
        42.400          26.800
 18  2 21 10 26 30.0000000  0  9G07G02G20G09G30G05G28G13G15
 115034046.315 8  89636925.47946  21890247.602                    21890251.789
        49.000          39.400
 128327419.412 6  99995384.41443  24419905.203                    24419909.563
        37.200          21.800
 121299616.393 6  94519197.12744  23082549.930                    23082553.820
        40.800          27.700
 127563296.664 7  99399998.26145  24274491.055                    24274498.809
        44.500          30.900
 107958651.718 8  84123669.75347  20543847.891                    20543853.410
        53.700          45.000
 107655224.897 8  83887200.20847  20486108.594                    20486112.625
        50.500          43.800
 118662084.191 7  92463990.89045  22580640.828                    22580644.227
        46.400          32.300
 114015922.303 8  88843593.57846  21696504.219                    21696507.809
        49.100          36.200
 127574707.391 7  99408890.64443  24276661.000                    24276665.262
        44.500          23.800
 18  2 21 10 27  0.0000000  0  9G07G02G20G09G30G05G28G13G15
 115103356.937 8  89690933.71446  21903437.508                    21903441.480
        51.100          39.400
 128419760.543 6 100067338.63343  24437478.352                    24437479.969
        41.800          22.600
 121208272.454 7  94448020.04444  23065168.008                    23065171.309
        42.100          28.300
 127658977.264 7  99474554.52044  24292698.992                    24292705.305
        44.000          28.100
 107989398.414 8  84147628.20447  20549699.148                    20549704.445
        53.700          44.700
 107665909.892 8  83895526.16047  20488141.773                    20488145.609
        51.000          43.000
 118586970.094 7  92405460.46345  22566346.789                    22566350.699
        46.600          32.700
 113945113.146 8  88788417.60946  21683029.609                    21683032.480
        49.300          36.300
 127475134.691 6  99331301.48944  24257711.727                    24257717.230
        41.600          25.000
 18  2 21 10 27 30.0000000  0  9G07G02G20G09G30G05G28G13G15
 115172963.724 8  89745172.76846  21916682.820                    21916686.648
        51.000          39.000
 128512164.945 6 100139341.99743  24455060.234                    24455066.008
        37.200          23.000
 121117235.361 7  94377082.05644  23047844.133                    23047848.160
        42.300          28.900
 127754738.403 6  99549173.53944  24310921.078                    24310927.777
        41.800          25.500
 108020614.697 8  84171952.57647  20555638.727                    20555644.574
        53.400          45.000
 107677164.880 8  83904296.27147  20490283.695                    20490287.352
        51.100          42.800
 118512208.774 7  92347204.93745  22552119.852                    22552124.051
        46.900          33.200
 113874539.486 8  88733425.15446  21669599.531                    21669603.270
        49.600          36.900
 127375638.148 7  99253771.77844  24238779.391                    24238784.180
        45.600          27.600
 18  2 21 10 28  0.0000000  0  9G07G02G20G09G30G05G28G13G15
 115242865.502 8  89799641.66946  21929984.828                    21929988.508
        49.400          39.000
 128604630.286 6 100211392.69743  24472658.188                    24472661.016
        40.300          21.700
 121026507.864 6  94306385.33244  23030579.203                    23030582.613
        40.900          27.400
 127850579.568 7  99623854.89444  24329159.906                    24329166.793
        44.500          29.800
 108052299.502 8  84196642.02647  20561668.125                    20561674.203
        53.700          45.000
 107688990.873 8  83913511.32447  20492534.008                    20492537.895
        49.800          43.800
 118437803.171 7  92289226.58045  22537960.961                    22537965.316
        46.800          33.200
 113804202.465 8  88678617.08946  21656215.078                    21656218.840
        49.900          37.200
 127276218.869 7  99176302.20544  24219860.219                    24219864.980
        43.500          26.400
 18  2 21 10 28 30.0000000  0  9G07G02G20G09G30G05G28G13G15
 115313059.470 8  89854338.24646  21943342.172                    21943346.484
        50.900          39.400
 128697152.814 6 100283488.34043  24490263.398                    24490266.102
        40.200          22.000
 120936091.962 7  94235931.36544  23013373.680                    23013377.047
        43.100          28.000
 127946499.536 6  99698597.61844  24347411.055                    24347420.004
        40.400          25.900
 108084450.826 8  84221695.01547  20567786.445                    20567792.656
        53.800          44.600
 107701386.969 8  83923170.61247  20494892.953                    20494896.789
        51.100          43.200
 118363755.280 7  92231526.94445  22523870.391                    22523873.973
        45.900          31.700
 113734102.611 8  88623993.83546  21642875.844                    21642878.625
        50.500          36.400
 127176877.269 7  99098893.17744  24200955.523                    24200961.551
        44.100          27.100
 18  2 21 10 29  0.0000000  0  9G07G02G20G09G30G05G28G13G15
 115383544.280 8  89909261.45546  21956755.141                    21956759.688
        49.100          39.200
 128789730.702 6 100355626.72144  24507881.813                    24507884.758
        40.900          25.400
 120845990.777 7  94165722.66144  22996227.969                    22996231.770
        42.200          28.600
 128042498.402 7  99773401.85544  24365681.063                    24365686.852
        43.100          26.700
 108117067.901 8  84247110.90647  20573993.406                    20573999.633
        53.200          44.800
 107714353.849 8  83933274.66947  20497360.492                    20497364.398
        49.900          43.400
 118290068.273 7  92174108.52045  22509847.867                    22509852.105
        45.900          32.300
 113664241.506 8  88569556.61646  21629580.969                    21629584.477
        49.700          36.200
 127077615.229 7  99021546.18344  24182067.672                    24182073.152
        45.500          28.400
 18  2 21 10 29 30.0000000  0  9G07G02G20G09G30G05G28G13G15
 115454317.971 8  89964409.76746  21970222.836                    21970226.191
        50.000          38.300
 128882359.923 6 100427805.36743  24525507.898                    24525510.367
        40.100          20.100
 120756206.246 7  94095760.71944  22979142.141                    22979146.461
        42.100          29.600
 128138574.678 7  99848266.45344  24383962.695                    24383970.234
        42.300          27.700
 108150148.730 8  84272888.17947  20580288.328                    20580294.039
        53.400          45.600
 107727891.220 8  83943823.25847  20499936.578                    20499940.652
        50.800          43.900
 118216744.094 7  92116972.84145  22495894.477                    22495898.352
        44.700          32.600
 113594619.460 8  88515305.67546  21616332.984                    21616336.070
        49.700          36.100
 126978433.265 7  98944261.60444  24163193.336                    24163198.570
        44.200          25.300
 18  2 21 10 30  0.0000000  0  9G07G02G20G09G30G05G28G13G15
 115525379.108 8  90019782.07346  21983745.172                    21983749.285
        51.800          38.300
 128975038.420 6 100500022.34743  24543143.570                    24543146.398
        36.700          20.900
 120666741.414 7  94026047.88044  22962117.984                    22962121.164
        43.000          29.600
 128234728.190 6  99923191.15044  24402260.422                    24402267.262
        41.500          27.300
 108183692.190 8  84299025.94047  20586671.430                    20586677.723
        53.300          44.900
 107741999.860 8  83954816.98947  20502621.305                    20502625.379
        50.900          42.900
 118143785.815 7  92060122.25545  22482010.742                    22482015.262
        45.200          32.700
 113525237.966 8  88461242.18246  21603129.664                    21603133.016
        49.600          36.100
 126879333.005 7  98867040.56944  24144335.727                    24144339.637
        46.800          27.100
 18  2 21 10 30 30.0000000  0  9G07G02G20G09G30G05G28G13G15
 115596725.470 8  90075376.60946  21997321.875                    21997326.492
        50.500          38.100
 129067762.889 6 100572275.08444  24560789.273                    24560792.488
        41.100          26.500
 120577598.661 7  93956585.99445  22945153.906                    22945158.848
        43.300          30.500
 128330957.900 7  99998175.27944  24420572.766                    24420579.383
        42.800          27.900
 108217696.618 9  84325522.89447  20593142.344                    20593148.590
        54.500          45.300
 107756678.521 8  83966254.89347  20505414.430                    20505418.328
        50.800          43.000
 118071195.805 7  92003558.66045  22468197.430                    22468201.988
        45.400          32.100
 113456097.895 8  88407366.81346  21589972.742                    21589976.266
        49.800          36.000
 126780314.586 7  98789883.39944  24125492.945                    24125498.199
        45.400          29.100
 18  2 21 10 31  0.0000000  0  8G07G20G09G30G05G28G13G15
 115668355.072 8  90131191.85646  22010952.727                    22010956.219
        51.500          38.100
 120488780.814 7  93887377.30944  22928253.188                    22928256.898
        42.800          29.700
 128427263.310 6 100073218.41844  24438897.828                    24438905.043
        39.900          25.900
 108252160.626 9  84352377.95647  20599700.883                    20599706.563
        55.000          45.700
 107771927.410 8  83978137.13247  20508316.336                    20508320.598
        51.800          43.500
 117998976.424 7  91947283.86745  22454454.789                    22454458.906
        43.900          31.900
 113387199.854 8  88353680.03446  21576862.148                    21576865.063
        49.100          36.300
 126681379.794 7  98712791.40844  24106665.727                    24106671.145
        45.800          27.600
 18  2 21 10 31 30.0000000  0  8G07G20G09G30G05G28G13G15
 115740266.479 8  90187226.71946  22024636.922                    22024640.355
        51.200          37.600
 120400290.751 7  93818424.04244  22911413.445                    22911417.867
        42.300          29.400
 128523644.138 6 100148320.25644  24457238.828                    24457246.629
        41.500          26.200
 108287083.168 9  84379590.32147  20606345.992                    20606351.957
        54.600          44.900
 107787747.078 8  83990464.14247  20511326.898                    20511330.582
        51.700          43.500
 117927130.692 7  91891300.20145  22440782.875                    22440786.961
        45.600          33.200
 113318545.399 8  88300183.05446  21563797.484                    21563800.789
        50.200          36.900
 126582530.179 7  98635765.75144  24087855.875                    24087860.012
        46.000          28.100
 18  2 21 10 32  0.0000000  0  8G07G20G09G30G05G28G13G15
 115812457.568 8  90243479.49346  22038374.586                    22038378.504
        51.400          38.200
 120312130.155 7  93749727.47044  22894637.641                    22894641.262
        42.900          29.200
 128620099.000 7 100223479.77744  24475594.344                    24475601.668
        43.300          27.700
 108322462.061 8  84407158.27647  20613078.766                    20613084.207
        53.900          45.100
 107804136.964 8  84003235.46647  20514445.750                    20514449.391
        51.600          43.000
 117855660.632 7  91835609.27245  22427182.188                    22427186.891
        44.300          32.600
 113250134.804 8  88246876.10746  21550779.148                    21550782.559
        48.700          36.400
 126483766.220 7  98558806.83444  24069061.586                    24069066.316
        45.000          27.700
 18  2 21 10 32 30.0000000  0  8G07G20G09G30G05G28G13G15
 115884926.349 8  90299948.64746  22052164.953                    22052168.230
        51.900          37.900
 120224301.655 6  93681289.69744  22877924.188                    22877927.914
        41.200          29.800
 128716627.214 6 100298696.52244  24493962.273                    24493969.238
        41.400          24.800
 108358295.842 9  84435080.69347  20619897.500                    20619903.355
        54.500          44.700
 107821096.811 8  84016450.92747  20517673.219                    20517676.762
        51.700          43.000
 117784568.504 7  91780212.83845  22413654.570                    22413658.398
        43.800          33.200
 113181969.193 8  88193760.05946  21537807.906                    21537811.254
        49.000          36.000
 126385088.831 7  98481915.37644  24050283.758                    24050288.320
        45.000          28.600
 18  2 21 10 33  0.0000000  0  8G07G20G09G30G05G28G13G15
 115957670.863 8  90356632.68646  22066007.586                    22066011.184
        52.100          37.600
 120136808.196 7  93613112.98544  22861275.094                    22861278.383
        42.800          29.900
 128813228.294 7 100373970.01444  24512346.031                    24512353.906
        44.200          27.900
 108394583.133 9  84463356.50747  20626802.773                    20626808.074
        54.100          45.200
 107838627.063 8  84030110.85347  20521009.188                    20521013.309
        51.300          43.500
 117713856.980 7  91725112.99045  22400198.508                    22400201.828
        46.000          33.600
 113114049.736 8  88140835.80546  21524883.266                    21524886.637
        49.200          36.300
 126286499.365 7  98405092.40944  24031522.703                    24031526.984
        45.400          28.400
 18  2 21 10 33 30.0000000  0  9G07G21G20G09G30G05G28G13G15
 116030689.379 8  90413530.20346  22079903.172                    22079906.309
        52.000          38.100
 135150456.837 6 105312056.98343  25718277.242                    25718280.863
        38.300          18.600
 120049652.016 7  93545199.08444  22844690.141                    22844693.223
        42.900          29.400
 128909901.336 7 100449299.56544  24530742.008                    24530750.246
        44.600          29.300
 108431322.376 9  84491984.48647  20633793.930                    20633800.082
        54.600          44.600
 107856726.970 8  84044214.66047  20524453.383                    20524457.348
        51.200          43.400
 117643528.526 7  91670311.64645  22386815.133                    22386819.145
        43.900          33.200
 113046377.191 8  88088103.96246  21512005.727                    21512009.664
        49.600          37.500
 126187998.689 7  98328338.64944  24012778.633                    24012783.797
        45.000          29.300
 18  2 21 10 34  0.0000000  0  9G07G21G20G09G30G05G28G13G15
 116103980.078 8  90470639.82846  22093849.570                    22093853.223
        52.400          38.900
 135105389.386 6 105276939.56243  25709699.164                    25709705.223
        36.000          20.100
 119962836.013 7  93477550.28145  22828169.109                    22828172.574
        43.000          30.400
 129006645.678 6 100524684.64543  24549151.203                    24549159.742
        40.600          23.600
 108468511.879 9  84520963.31147  20640870.844                    20640876.895
        54.300          44.500
 107875396.317 8  84058762.19347  20528006.063                    20528010.164
        51.100          43.200
 117573585.338 7  91615810.49845  22373505.617                    22373509.703
        45.000          33.600
 112978952.550 8  88035565.28146  21499175.172                    21499178.152
        48.400          36.200
 126089587.964 7  98251654.99444  23994052.109                    23994056.773
        43.200          28.300
 18  2 21 10 34 30.0000000  0  9G07G21G20G09G30G05G28G13G15
 116177541.129 8  90527960.11946  22107848.102                    22107850.824
        52.100          38.000
 135060717.198 6 105242130.11843  25701199.719                    25701204.637
        37.200          20.100
 119876362.640 7  93410168.42745  22811713.359                    22811717.699
        42.700          30.400
 129103460.717 7 100600124.89844  24567575.867                    24567582.508
        43.500          27.200
 108506150.324 8  84550291.97447  20648033.344                    20648039.293
        53.600          44.700
 107894635.358 8  84073753.64447  20531667.195                    20531671.031
        51.300          43.600
 117504030.314 7  91561611.81345  22360269.406                    22360273.613
        43.600          33.500
 112911777.054 7  87983220.74446  21486392.172                    21486394.922
        46.700          36.800
 125991268.566 7  98175042.48844  23975342.133                    23975346.484
        43.200          27.200
 18  2 21 10 35  0.0000000  0  9G07G21G20G09G30G05G28G13G15
 116251370.722 8  90585489.65346  22121896.758                    22121900.449
        51.800          37.400
 135016441.922 6 105207629.96443  25692774.883                    25692779.059
        39.800          19.900
 119790234.348 7  93343055.50944  22795323.836                    22795328.449
        43.600          29.800
 129200345.688 6 100675619.58644  24586012.094                    24586019.969
        40.800          27.500
 108544236.043 9  84579969.15747  20655280.742                    20655287.145
        54.900          45.100
 107914443.555 8  84089188.58547  20535436.633                    20535440.512
        49.700          43.600
 117434865.407 7  91507717.11245  22347108.023                    22347112.270
        44.200          34.000
 112844851.266 7  87931070.77446  21473656.391                    21473659.930
        47.300          37.500
 125893041.325 7  98098501.80744  23956650.234                    23956654.559
        42.700          28.600
 18  2 21 10 35 30.0000000  0  9G07G21G20G09G30G05G28G13G15
 116325467.003 8  90643226.99446  22135997.109                    22136001.391
        52.500          38.200
 134972564.311 6 105173439.57943  25684425.617                    25684428.613
        40.800          19.000
 119704453.950 7  93276213.66344  22779000.422                    22779004.367
        43.900          29.400
 129297300.167 6 100751168.38943  24604461.766                    24604469.250
        39.400          23.600
 108582767.682 9  84609993.80847  20662612.820                    20662619.031
        54.600          44.800
 107934821.064 8  84105067.16047  20539314.414                    20539317.688
        52.200          43.900
 117366093.498 7  91454128.64745  22334020.898                    22334025.148
        46.400          34.300
 112778176.755 8  87879116.61746  21460969.109                    21460972.191
        48.400          38.200
 125794907.752 7  98022034.10244  23937976.508                    23937980.797
        44.000          28.800
 18  2 21 10 36  0.0000000  0  9G07G21G20G09G30G05G28G13G15
 116399828.084 8  90701170.68046  22150147.492                    22150151.379
        51.500          37.300
 134929085.622 6 105139559.96242  25676151.633                    25676152.910
        39.900          16.300
 119619023.355 7  93209644.36445  22762743.758                    22762746.906
        44.200          30.400
 129394322.824 6 100826770.46744  24622924.727                    24622931.953
        40.300          24.700
 108621743.203 9  84640364.33947  20670029.789                    20670035.977
        55.400          45.100
 107955766.937 8  84121388.60747  20543300.156                    20543303.930
        52.100          43.700
 117297716.339 7  91400847.77845  22321009.094                    22321013.055
        46.700          33.800
 112711753.584 7  87827358.30746  21448329.070                    21448331.758
        47.900          37.400
 125696868.535 7  97945639.95144  23919319.328                    23919324.172
        43.000          28.800
