     2.11           OBSERVATION DATA    G (GPS)             RINEX VERSION / TYPE
teqc  2016Nov7                          20180328 12:56:15UTCPGM / RUN BY / DATE
Linux 2.4.21-27.ELsmp|Opteron|gcc|Linux x86_64|=+           COMMENT
teqc  2016Nov7                          20180328 12:56:14UTCCOMMENT
     2.11           OBSERVATION DATA    M (MIXED)           COMMENT
teqc  2016Nov7                          20180328 12:56:13UTCCOMMENT
teqc  2016Nov7      IGN-RGP             20180221 09:20:12UTCCOMMENT
teqc  2015Jun23     IGN-RGP             20180221 09:08:12UTCCOMMENT
Linux2.4.20-8|i386|gcc|Win32-MinGW32|=                      COMMENT
   0.000      (antenna height)                              COMMENT
 +48.65337222 (latitude)                                    COMMENT
  +2.23874669 (longitude)                                   COMMENT
0208.465      (elevation)                                   COMMENT
BIT 2 OF LLI FLAGS DATA COLLECTED UNDER A/S CONDITION       COMMENT
18695M001 (COGO code)                                       COMMENT
SXJ9                                                        MARKER NAME
18695M001                                                   MARKER NUMBER
Automatic           GIE COOP&TECH                           OBSERVER / AGENCY
4951K64806          TRIMBLE NETR5       4.70                REC # / TYPE / VERS
99999               TRM57971.00     NONE                    ANT # / TYPE
  4218365.7150   164910.2500  4765338.1510                  APPROX POSITION XYZ
        1.0800        0.0000        0.0000                  ANTENNA: DELTA H/E/N
     1     1                                                WAVELENGTH FACT L1/2
     7    L1    L2    C1    P1    P2    S1    S2            # / TYPES OF OBSERV
    30.0000                                                 INTERVAL
    18                                                      LEAP SECONDS
 SNR is mapped to RINEX snr flag value [0-9]                COMMENT
  L1 & L2: min(max(int(snr_dBHz/6), 0), 9)                  COMMENT
teqc_2016 edited: GLONASS # 25 - 30 excluded                COMMENT
Forced Modulo Decimation to 30 seconds                      COMMENT
teqc_2016 edited: all GLONASS satellites excluded           COMMENT
teqc_2016 edited: all SBAS satellites excluded              COMMENT
teqc_2016 edited: all Galileo satellites excluded           COMMENT
  2018     2    21     8     0    0.0000000     GPS         TIME OF FIRST OBS
                                                            END OF HEADER
 18  2 21  8  0  0.0000000  0  8G16G05G23G06G30G09G02G07
 126773780.045 6  98784778.19043  24124248.016                    24124250.148
        38.000          18.600
 123464956.580 7  96206459.35044  23494600.133                    23494602.805
        46.000          27.800
 118192904.866 8  92098389.99345  22491363.555                    22491363.270
        49.300          33.500
 110570955.741 8  86159204.05447  21040956.070                    21040961.102
        50.900          42.200
 119725746.263 7  93292813.39045  22783048.734                    22783054.676
        47.700          33.600
 105801215.105 8  82442531.63847  20133298.641                    20133302.363
        52.300          46.300
 114279227.445 7  89048742.52446  21746615.805                    21746615.410
        47.000          37.600
 112756213.540 8  87862003.76846  21456791.406                    21456793.879
        50.800          38.100
 18  2 21  8  0 30.0000000  0  8G16G05G23G06G30G09G02G07
 126764770.483 6  98777757.69243  24122534.094                    24122534.613
        39.000          19.300
 123382737.469 7  96142392.52844  23478954.531                    23478956.180
        44.700          27.500
 118285342.970 8  92170419.66945  22508954.109                    22508954.250
        48.000          34.200
 110644119.266 8  86216214.58446  21054878.547                    21054883.324
        49.900          41.400
 119638540.620 7  93224860.96445  22766454.156                    22766459.410
        47.800          33.900
 105849864.154 8  82480439.97847  20142556.297                    20142560.121
        53.400          46.300
 114269309.898 7  89041014.56246  21744728.211                    21744728.398
        46.600          37.700
 112705636.256 8  87822592.91646  21447166.797                    21447169.324
        50.700          38.700
 18  2 21  8  1  0.0000000  0  8G16G05G23G06G30G09G02G07
 126756340.565 6  98771188.94043  24120930.336                    24120931.352
        39.400          21.100
 123300630.190 7  96078412.81944  23463329.906                    23463331.949
        44.100          27.000
 118377958.729 8  92242587.76645  22526578.086                    22526577.875
        48.500          33.400
 110717809.038 8  86273635.17846  21068901.266                    21068906.203
        49.600          41.100
 119551566.741 7  93157089.13545  22749903.281                    22749908.699
        47.400          33.900
 105898892.490 8  82518643.86847  20151886.070                    20151889.816
        52.500          45.800
 114259930.147 7  89033705.66446  21742943.633                    21742942.957
        46.300          37.700
 112655491.567 8  87783519.13846  21437624.578                    21437626.672
        50.400          38.600
 18  2 21  8  1 30.0000000  0  8G16G05G23G06G30G09G02G07
 126748489.922 6  98765071.57443  24119436.375                    24119437.598
        39.500          20.900
 123218634.128 7  96014519.77844  23447726.109                    23447728.102
        44.300          27.700
 118470748.886 8  92314891.76445  22544235.344                    22544235.336
        48.000          33.300
 110792021.051 8  86331462.70846  21083023.063                    21083027.516
        50.200          41.500
 119464825.112 7  93089498.28445  22733397.414                    22733402.688
        47.700          34.100
 105948296.865 8  82557140.78347  20161287.547                    20161290.707
        52.700          46.000
 114251086.982 7  89026814.88546  21741260.859                    21741260.004
        46.500          37.900
 112605779.134 8  87744782.18646  21428164.773                    21428167.121
        50.300          38.300
 18  2 21  8  2  0.0000000  0  8G16G05G23G06G30G09G02G07
 126741220.503 6  98759407.11443  24118052.234                    24118054.422
        40.100          19.600
 123136752.669 7  95950716.04944  23432145.602                    23432147.414
        45.700          28.100
 118563713.608 8  92387331.78445  22561925.656                    22561926.059
        48.000          32.900
 110866754.589 8  86389696.63747  21097244.859                    21097249.238
        50.100          42.000
 119378319.431 8  93022091.29845  22716935.156                    22716940.500
        48.200          33.300
 105998077.290 8  82595930.72147  20170760.484                    20170763.441
        52.500          45.800
 114242782.732 7  89020344.03746  21739680.211                    21739679.953
        46.800          37.700
 112556502.170 8  87706384.53946  21418787.938                    21418790.047
        51.600          39.200
 18  2 21  8  2 30.0000000  0  8G16G05G23G06G30G09G02G07
 126734536.105 6  98754198.52143  24116780.148                    24116782.281
        38.800          19.900
 123054988.159 7  95887003.45144  23416585.813                    23416587.684
        45.700          27.800
 118656853.883 8  92459908.61345  22579650.203                    22579649.770
        48.800          32.400
 110942009.831 8  86448337.09046  21111565.289                    21111569.910
        50.900          41.700
 119292054.231 8  92954871.71345  22700520.234                    22700525.297
        49.100          33.400
 106048234.642 8  82635014.36647  20180304.938                    20180308.277
        53.000          46.200
 114235020.443 7  89014295.49446  21738203.375                    21738202.746
        46.500          37.900
 112507664.091 8  87668328.90646  21409494.219                    21409496.344
        50.900          39.000
 18  2 21  8  3  0.0000000  0  8G16G05G23G06G30G09G02G07
 126728436.989 6  98749445.94543  24115619.758                    24115621.355
        40.700          20.400
 122973342.092 7  95823383.13244  23401049.094                    23401051.207
        46.700          29.000
 118750167.004 8  92532620.14545  22597407.141                    22597407.414
        48.800          33.600
 111017783.632 8  86507381.60346  21125984.703                    21125989.070
        49.900          41.200
 119206030.885 8  92887840.56945  22684150.258                    22684155.148
        48.500          33.600
 106098766.554 8  82674389.87447  20189921.031                    20189924.625
        51.900          46.000
 114227799.946 7  89008669.13946  21736829.000                    21736828.578
        46.300          36.600
 112459265.642 8  87630615.83446  21400283.938                    21400286.547
        50.300          38.700
 18  2 21  8  3 30.0000000  0  8G16G05G23G06G30G09G02G07
 126722922.502 6  98745148.98043  24114571.258                    24114572.379
        41.400          21.100
 122891813.605 7  95759854.46044  23385534.719                    23385536.977
        44.900          27.600
 118843649.938 7  92605463.95145  22615196.172                    22615197.242
        47.700          32.500
 111094072.021 8  86566827.09147  21140501.594                    21140506.211
        50.200          42.100
 119120249.793 8  92820998.20545  22667826.336                    22667831.227
        48.100          33.300
 106149669.767 8  82714054.70947  20199607.172                    20199611.250
        52.400          46.100
 114221120.056 7  89003464.02346  21735558.531                    21735557.621
        46.600          37.800
 112411306.621 8  87593245.17146  21391157.914                    21391160.410
        50.700          38.800
 18  2 21  8  4  0.0000000  0  8G16G05G23G06G30G09G02G07
 126717993.396 6  98741308.11643  24113631.961                    24113634.172
        39.800          22.600
 122810402.794 7  95696417.45544  23370042.602                    23370044.363
        45.800          27.900
 118937301.200 7  92678438.91745  22633017.117                    22633018.215
        47.900          32.600
 111170872.497 8  86626671.60946  21155116.500                    21155121.379
        49.800          41.700
 119034713.018 8  92754346.22345  22651549.898                    22651554.480
        48.100          33.800
 106200942.617 8  82754007.56947  20209364.148                    20209368.344
        53.000          46.000
 114214981.220 8  88998680.50946  21734389.961                    21734389.719
        48.900          37.500
 112363788.331 8  87556217.93446  21382115.352                    21382117.648
        50.800          39.400
 18  2 21  8  4 30.0000000  0  8G16G05G23G06G30G09G02G07
 126713651.304 6  98737924.69843  24112807.195                    24112808.176
        39.600          22.500
 122729112.362 7  95633074.26244  23354573.500                    23354575.512
        45.800          28.700
 119031120.050 7  92751544.49945  22650870.227                    22650870.602
        47.800          32.100
 111248183.679 8  86686914.08446  21169828.359                    21169833.039
        50.300          41.300
 118949423.628 7  92687887.02545  22635319.914                    22635324.738
        47.600          34.000
 106252584.501 8  82794247.99147  20219191.117                    20219195.453
        52.200          46.300
 114209384.673 7  88994319.55346  21733325.266                    21733324.336
        47.500          37.700
 112316713.009 8  87519535.86846  21373157.328                    21373159.289
        51.300          39.000
 18  2 21  8  5  0.0000000  0  8G16G05G23G06G30G09G02G07
 126709898.423 6  98735000.35343  24112091.563                    24112093.832
        39.400          21.800
 122647945.349 7  95569827.24444  23339127.609                    23339130.043
        46.200          28.300
 119125105.959 8  92824780.25945  22668756.188                    22668755.645
        49.300          33.300
 111326004.308 8  86747553.52647  21184637.133                    21184641.469
        49.600          42.000
 118864384.856 8  92621623.07745  22619137.117                    22619141.520
        48.000          33.100
 106304594.966 8  82834775.61147  20229088.539                    20229093.008
        53.200          45.900
 114204331.834 8  88990382.26746  21732363.328                    21732362.723
        48.600          37.100
 112270082.845 8  87483200.67846  21364283.898                    21364284.934
        50.900          38.700
 18  2 21  8  5 30.0000000  0  8G16G05G23G06G30G09G02G07
 126706728.276 6  98732530.09543  24111488.414                    24111490.398
        39.300          22.200
 122566895.872 7  95506671.82044  23323704.336                    23323706.609
        47.200          28.500
 119219250.126 8  92898139.35645  22686671.008                    22686670.762
        49.100          32.400
 111404324.655 8  86808582.35047  21199540.805                    21199545.504
        49.900          42.100
 118779591.501 7  92555550.36745  22603001.320                    22603006.129
        46.900          33.400
 106356965.090 8  82875583.49047  20239054.406                    20239058.742
        53.300          46.000
 114199816.458 8  88986863.78646  21731504.438                    21731503.836
        48.200          37.500
 112223892.079 8  87447207.86746  21355493.875                    21355495.793
        50.900          39.800
 18  2 21  8  6  0.0000000  0  8G16G05G23G06G30G09G02G07
 126704131.365 6  98730506.51743  24110993.969                    24110997.133
        40.500          22.600
 122485953.956 7  95443600.20344  23308301.961                    23308304.219
        46.800          29.100
 119313540.696 7  92971612.51745  22704613.406                    22704613.871
        47.500          32.700
 111483131.936 8  86869990.59546  21214537.063                    21214542.285
        49.800          41.400
 118695035.356 7  92489662.48545  22586911.281                    22586915.922
        47.600          34.900
 106409682.948 8  82916662.33947  20249086.297                    20249090.324
        53.200          46.300
 114195828.479 7  88983756.26546  21730745.570                    21730745.109
        47.500          38.100
 112178131.622 8  87411550.37646  21346786.031                    21346788.445
        51.800          39.600
 18  2 21  8  6 30.0000000  0  8G16G05G23G06G30G09G02G07
 126702117.042 6  98728936.90043  24110611.352                    24110613.242
        40.500          22.200
 122405128.917 7  95380619.66444  23292921.180                    23292922.660
        47.600          28.000
 119407984.766 7  93045205.26645  22722585.641                    22722586.984
        46.900          32.900
 111562432.226 8  86931783.02146  21229627.867                    21229632.402
        50.300          41.100
 118610727.017 7  92423967.71445  22570867.477                    22570873.195
        47.400          34.500
 106462755.477 8  82958017.54547  20259185.461                    20259189.484
        53.200          45.600
 114192376.538 8  88981066.43146  21730088.570                    21730088.164
        48.300          37.600
 112132811.056 8  87376235.64346  21338162.016                    21338164.379
        51.700          39.900
 18  2 21  8  7  0.0000000  0  8G16G05G23G06G30G09G02G07
 126700688.018 6  98727823.36343  24110339.758                    24110341.551
        39.800          21.700
 122324424.557 7  95317733.14644  23277563.953                    23277565.395
        44.800          28.000
 119502582.850 7  93118918.01745  22740586.922                    22740587.840
        47.900          33.200
 111642225.275 8  86993959.41746  21244812.031                    21244816.320
        50.500          40.900
 118526670.691 7  92358469.31445  22554872.273                    22554877.629
        46.000          34.800
 106516183.254 8  82999649.56947  20269352.547                    20269356.723
        53.700          46.100
 114189463.773 8  88978796.73946  21729534.367                    21729533.434
        48.000          37.500
 112087933.985 8  87341266.50446  21329622.203                    21329624.363
        51.800          40.200
 18  2 21  8  7 30.0000000  0  8G16G05G23G06G30G09G02G07
 126699847.478 6  98727168.36243  24110179.836                    24110180.883
        40.600          21.100
 122243844.427 7  95254943.44644  23262230.195                    23262231.777
        46.900          29.400
 119597335.684 8  93192751.37945  22758618.148                    22758618.258
        48.700          31.900
 111722510.799 8  87056519.55746  21260089.945                    21260094.191
        50.200          40.800
 118442870.782 7  92293170.72345  22538925.578                    22538930.832
        47.900          34.800
 106569966.902 8  83041558.90447  20279587.391                    20279591.750
        53.500          46.200
 114187091.989 8  88976948.59046  21729082.852                    21729081.699
        49.100          37.600
 112043503.912 8  87306645.65746  21321167.344                    21321169.457
        51.800          39.600
 18  2 21  8  8  0.0000000  0  8G16G05G23G06G30G09G02G07
 126699600.219 6  98726975.72843  24110132.734                    24110134.273
        41.700          21.300
 122163393.975 7  95192254.78044  23246920.547                    23246922.586
        47.100          29.700
 119692245.539 7  93266707.11345  22776678.656                    22776678.152
        47.600          31.200
 111803290.229 8  87119464.54846  21275461.352                    21275466.230
        49.100          41.400
 118359333.276 8  92228076.59145  22523029.086                    22523034.441
        48.800          35.400
 106624108.735 8  83083747.33747  20289890.211                    20289894.430
        53.100          46.000
 114185266.241 8  88975525.92746  21728735.148                    21728734.371
        49.500          37.700
 111999525.962 8  87272377.13446  21312798.500                    21312801.453
        51.500          40.500
 18  2 21  8  8 30.0000000  0  8G16G05G23G06G30G09G02G07
 126699946.761 6  98727245.76343  24110198.664                    24110200.363
        41.600          21.700
 122083074.452 8  95129668.16244  23231636.477                    23231638.070
        48.300          28.900
 119787311.361 7  93340784.36245  22794769.125                    22794769.254
        47.300          31.100
 111884561.291 8  87182792.62446  21290926.852                    21290932.266
        50.300          41.000
 118276060.502 8  92163188.72145  22507182.789                    22507187.563
        48.500          35.400
 106678607.438 8  83126213.84947  20300261.234                    20300265.383
        53.800          45.700
 114183986.800 8  88974528.95246  21728492.305                    21728491.207
        49.700          37.900
 111956001.731 8  87238462.16446  21304516.172                    21304518.438
        52.100          40.300
 18  2 21  8  9  0.0000000  0  8G16G05G23G06G30G09G02G07
 126700887.739 6  98727979.00143  24110377.359                    24110379.418
        40.700          21.500
 122002886.839 8  95067184.33444  23216377.641                    23216379.066
        48.600          29.500
 119882531.184 7  93414981.61145  22812888.984                    22812889.211
        47.300          31.600
 111966321.075 8  87246501.50846  21306485.414                    21306490.078
        49.000          40.900
 118193054.154 8  92098508.48145  22491387.375                    22491392.641
        48.500          35.600
 106733461.023 8  83168956.89547  20310699.375                    20310702.969
        51.500          45.700
 114183253.663 8  88973957.66646  21728352.430                    21728351.727
        48.500          37.900
 111912931.808 8  87204901.19246  21296320.375                    21296322.160
        52.000          40.400
 18  2 21  8  9 30.0000000  0  8G16G05G23G06G30G09G02G07
 126702426.586 6  98729178.10543  24110669.992                    24110672.598
        40.300          21.100
 121922834.777 8  95004806.12045  23201143.969                    23201145.605
        48.400          30.200
 119977906.519 7  93489300.02845  22831037.883                    22831038.930
        47.000          32.100
 112048570.018 8  87310591.53946  21322136.781                    21322141.414
        49.000          40.900
 118110319.311 7  92034039.80045  22475642.734                    22475648.586
        47.300          35.800
 106788670.830 8  83211977.51347  20321205.414                    20321209.164
        53.100          45.800
 114183070.018 8  88973814.56046  21728317.375                    21728316.664
        49.400          37.700
 111870320.340 8  87171697.45546  21288211.547                    21288213.613
        52.100          39.900
 18  2 21  8 10  0.0000000  0  8G16G05G23G06G30G09G02G07
 126704561.068 6  98730841.31643  24111076.461                    24111078.379
        40.500          22.200
 121842916.731 7  94942532.32945  23185936.406                    23185937.457
        46.100          30.000
 120073432.489 7  93563735.80245  22849216.398                    22849217.117
        47.700          33.100
 112131302.487 8  87375058.37646  21337880.211                    21337884.688
        49.800          40.900
 118027854.946 7  91969781.87546  22459950.164                    22459956.055
        45.700          36.900
 106844232.191 9  83255272.07947  20331778.203                    20331782.477
        54.000          45.600
 114183433.108 8  88974097.48146  21728386.422                    21728386.176
        48.800          37.800
 111828165.570 8  87138849.57246  21280189.625                    21280192.031
        51.700          39.400
 18  2 21  8 10 30.0000000  0  8G16G05G23G06G30G09G02G07
 126707291.676 6  98732969.07643  24111596.344                    24111598.375
        41.100          22.300
 121763133.842 7  94880363.86345  23170753.742                    23170755.422
        45.400          30.900
 120169107.832 7  93638288.01045  22867422.930                    22867422.082
        46.000          31.800
 112214515.899 8  87439899.94746  21353715.156                    21353719.746
        50.600          40.300
 117945663.055 7  91905736.26546  22444309.477                    22444315.887
        46.400          36.300
 106900143.484 8  83298839.30947  20342418.125                    20342421.699
        53.800          45.600
 114184343.137 8  88974806.58546  21728559.563                    21728558.859
        49.800          37.600
 111786468.432 8  87106358.30546  21272255.219                    21272257.594
        51.800          40.100
 18  2 21  8 11  0.0000000  0  8G16G05G23G06G30G09G02G07
 126710621.188 7  98735563.49943  24112230.047                    24112232.133
        42.400          22.800
 121683490.379 7  94818304.05045  23155598.336                    23155599.906
        47.700          31.500
 120264933.755 7  93712957.53745  22885657.414                    22885657.762
        46.700          30.500
 112298210.215 8  87505116.23746  21369641.766                    21369646.875
        48.500          40.100
 117863748.339 8  91841906.64146  22428721.938                    22428728.566
        48.700          36.500
 106956405.661 8  83342679.96647  20353124.164                    20353128.012
        53.400          45.800
 114185803.044 8  88975944.16646  21728837.898                    21728837.133
        50.300          37.700
 111745232.700 8  87074226.57946  21264408.086                    21264410.938
        52.700          40.200
 18  2 21  8 11 30.0000000  0  8G16G05G23G06G30G09G02G07
 126714553.190 7  98738627.37143  24112977.820                    24112979.832
        42.100          22.300
 121603990.333 8  94756355.97445  23140470.227                    23140471.492
        48.000          30.700
 120360911.268 7  93787745.19145  22903921.703                    22903921.773
        46.600          31.500
 112382385.614 8  87570707.40846  21385659.906                    21385664.695
        49.500          40.900
 117782115.621 8  91778296.76146  22413187.703                    22413193.961
        48.300          36.100
 107013019.870 9  83386794.93147  20363897.789                    20363901.578
        54.200          45.500
 114187815.715 8  88977512.47746  21729220.531                    21729219.934
        49.100          38.000
 111704462.354 8  87042457.48946  21256649.961                    21256651.891
        52.300          40.100
 18  2 21  8 12  0.0000000  0  8G16G05G23G06G30G09G02G07
 126719086.033 6  98742159.45643  24113840.102                    24113842.141
        40.700          22.200
 121524632.306 7  94694518.56344  23125368.531                    23125370.594
        47.600          29.600
 120457037.115 7  93862648.43645  22922213.844                    22922214.121
        46.300          31.600
 112467037.314 8  87636669.71746  21401768.516                    21401773.414
        48.800          40.400
 117700764.729 8  91714906.49346  22397706.688                    22397712.430
        48.200          36.100
 107069982.363 8  83431181.28947  20374737.258                    20374741.238
        52.300          45.600
 114190378.994 8  88979509.83846  21729708.555                    21729708.102
        49.200          37.900
 111664156.284 8  87011050.17046  21248979.750                    21248982.047
        52.300          40.200
 18  2 21  8 12 30.0000000  0  8G16G05G23G06G30G09G02G07
 126724219.543 6  98746159.58843  24114816.656                    24114819.051
        40.600          21.800
 121445417.613 7  94632792.83045  23110294.656                    23110296.238
        47.400          30.500
 120553308.919 7  93937665.40845  22940533.289                    22940533.363
        45.700          31.000
 112552162.133 8  87703000.70946  21417967.484                    21417971.496
        49.600          40.600
 117619697.219 8  91651737.02546  22382280.930                    22382285.852
        48.900          37.200
 107127290.929 9  83475837.30747  20385642.688                    20385646.621
        54.100          45.800
 114193492.607 8  88981936.02646  21730300.938                    21730300.512
        49.400          37.800
 111624315.153 8  86980005.13546  21241398.289                    21241400.426
        52.600          40.800
 18  2 21  8 13  0.0000000  0  8G16G05G23G06G30G09G02G07
 126729955.391 6  98750629.12843  24115909.016                    24115909.992
        39.900          20.900
 121366348.425 7  94571180.47245  23095247.961                    23095249.961
        47.200          30.300
 120649726.406 7  94012795.89045  22958881.000                    22958881.789
        44.200          30.900
 112637758.690 8  87769699.33446  21434255.828                    21434260.559
        49.300          40.200
 117538916.336 8  91588790.90846  22366908.281                    22366914.016
        48.700          37.600
 107184945.192 8  83520762.70047  20396614.047                    20396618.504
        53.600          45.700
 114197158.123 8  88984792.26146  21730998.586                    21730997.730
        48.600          37.700
 111584940.749 8  86949323.80046  21233905.602                    21233907.367
        53.000          40.100
 18  2 21  8 13 30.0000000  0  8G16G05G23G06G30G09G02G07
 126736296.025 6  98755569.86543  24117115.211                    24117117.039
        40.200          20.600
 121287426.418 7  94509682.81345  23080229.344                    23080231.836
        47.200          30.400
 120746289.789 7  94088040.05745  22977256.648                    22977257.371
        45.100          31.200
 112723825.849 8  87836764.65346  21450634.117                    21450638.629
        48.400          40.300
 117458425.680 8  91526070.96146  22351591.938                    22351597.512
        48.900          37.500
 107242945.147 8  83565957.46147  20407650.906                    20407655.188
        52.700          45.300
 114201377.023 8  88988079.69846  21731801.586                    21731800.773
        49.700          37.700
 111546036.395 8  86919008.71446  21226502.625                    21226504.121
        52.300          40.500
 18  2 21  8 14  0.0000000  0  8G16G05G23G06G30G09G02G07
 126743242.527 6  98760982.74043  24118437.820                    24118439.023
        40.600          22.000
 121208655.827 7  94448303.12745  23065239.789                    23065241.996
        47.900          31.700
 120842998.744 7  94163397.66945  22995660.172                    22995660.355
        44.000          30.200
 112810362.000 8  87904195.39546  21467101.375                    21467106.301
        49.000          40.600
 117378228.464 8  91463579.65146  22336330.633                    22336335.563
        49.300          37.300
 107301290.281 8  83611421.19547  20418753.539                    20418758.031
        53.200          45.200
 114206150.634 8  88991799.39546  21732709.516                    21732709.480
        49.600          37.900
 111507603.946 8  86889061.35946  21219189.117                    21219191.098
        52.700          40.400
 18  2 21  8 14 30.0000000  0  8G16G05G23G06G30G09G02G07
 126750794.256 6  98766867.21643  24119873.719                    24119876.332
        40.100          21.500
 121130036.955 7  94387041.67945  23050278.773                    23050281.504
        46.800          31.500
 120939850.612 7  94238866.66544  23014090.078                    23014089.844
        44.900          28.900
 112897363.453 8  87971988.71846  21483657.008                    21483661.820
        49.300          40.000
 117298325.656 8  91401317.73846  22321125.688                    22321129.816
        49.800          36.900
 107359977.946 8  83657151.83847  20429921.211                    20429925.645
        52.900          45.400
 114211478.231 8  88995950.75546  21733723.648                    21733723.059
        49.500          38.100
 111469643.282 8  86859481.63046  21211965.188                    21211967.691
        52.300          40.400
 18  2 21  8 15  0.0000000  0  8G16G05G23G06G30G09G02G07
 126758951.396 6  98773223.43643  24121426.219                    24121428.141
        40.700          21.100
 121051570.241 7  94325898.79345  23035347.273                    23035349.953
        45.700          32.100
 121036843.528 7  94314445.53444  23032546.852                    23032547.383
        45.100          29.600
 112984827.012 8  88040142.09646  21500300.875                    21500305.785
        48.600          39.900
 117218718.754 7  91339286.40446  22305977.203                    22305981.789
        47.900          37.100
 107419006.066 8  83703147.76747  20441154.055                    20441158.262
        52.600          45.900
 114217359.155 8  89000533.29646  21734842.633                    21734842.078
        49.100          38.000
 111432154.927 8  86830269.93246  21204831.422                    21204833.629
        52.300          40.800
 18  2 21  8 15 30.0000000  0  8G16G05G23G06G30G09G02G07
 126767713.590 6  98780051.12543  24123093.320                    24123096.699
        38.800          21.100
 120973256.725 7  94264875.28745  23020445.133                    23020447.359
        47.200          31.400
 121133976.130 7  94390133.24445  23051031.063                    23051031.402
        44.900          30.600
 113072749.884 8  88108653.37146  21517032.117                    21517037.211
        49.700          41.300
 117139409.759 8  91277487.21946  22290884.852                    22290889.797
        48.800          37.500
 107478372.940 8  83749407.66147  20452451.344                    20452455.223
        53.500          45.400
 114223793.618 8  89005547.15046  21736067.367                    21736066.762
        49.100          37.700
 111395140.020 8  86801427.15746  21197787.844                    21197790.109
        53.500          41.300
 18  2 21  8 16  0.0000000  0  8G16G05G23G06G30G09G02G07
 126777080.471 6  98787349.97443  24124876.055                    24124878.641
        39.200          21.500
 120895095.823 7  94203970.70045  23005571.297                    23005573.707
        47.600          31.800
 121231245.974 7  94465927.90645  23069540.906                    23069541.297
        44.800          30.200
 113161128.329 8  88177519.65846  21533850.336                    21533854.629
        50.000          40.800
 117060399.634 8  91215920.91346  22275849.664                    22275854.738
        50.300          38.300
 107538075.910 8  83795929.44347  20463812.219                    20463816.160
        53.000          45.000
 114230780.484 8  89010991.45646  21737396.383                    21737396.484
        48.300          38.100
 111358598.671 8  86772953.38546  21190834.594                    21190836.680
        53.400          41.300
 18  2 21  8 16 30.0000000  0  8G16G05G23G06G30G09G02G07
 126787057.828 6  98795124.57543  24126774.820                    24126775.156
        40.500          20.400
 120817095.243 8  94143191.05245  22990728.383                    22990730.859
        48.200          31.900
 121328656.798 7  94541832.41045  23088077.914                    23088078.000
        45.700          30.400
 113249965.088 8  88246743.03446  21550754.961                    21550759.621
        49.800          39.900
 116981695.945 8  91154593.39346  22260873.039                    22260877.930
        49.800          37.500
 107598118.879 9  83842716.17547  20475237.992                    20475242.359
        54.300          44.800
 114238325.210 8  89016870.45846  21738832.148                    21738832.000
        48.200          38.100
 111322536.857 8  86744853.27746  21183972.273                    21183973.402
        52.800          40.900
 18  2 21  8 17  0.0000000  0  8G16G05G23G06G30G09G02G07
 126797644.841 6  98803374.22943  24128790.094                    24128790.461
        40.000          19.900
 120739255.556 8  94082536.76145  22975916.250                    22975918.152
        48.700          32.400
 121426206.333 7  94617845.04445  23106640.961                    23106640.250
        46.300          30.000
 113339256.437 8  88316320.64446  21567746.594                    21567751.625
        49.000          39.600
 116903299.738 8  91093505.45046  22245954.453                    22245958.605
        49.200          37.600
 107658499.262 8  83889765.81447  20486727.906                    20486731.766
        53.400          45.000
 114246426.986 8  89023183.51446  21740373.617                    21740374.172
        48.900          37.700
 111286954.890 8  86717127.06046  21177200.813                    21177202.543
        53.000          40.600
 18  2 21  8 17 30.0000000  0  8G16G05G23G06G30G09G02G07
 126808837.448 6  98812095.72743  24130920.156                    24130921.063
        40.400          22.300
 120661573.921 8  94022005.64245  22961133.938                    22961135.945
        48.200          33.200
 121523888.485 7  94693960.97244  23125228.961                    23125229.816
        45.900          29.600
 113428995.192 8  88386246.90846  21584823.492                    21584828.227
        49.100          40.100
 116825208.458 8  91032655.14046  22231094.266                    22231099.637
        48.400          37.500
 107719210.965 8  83937073.61747  20498281.250                    20498284.879
        53.200          45.200
 114255080.897 7  89029926.80746  21742020.547                    21742020.672
        47.800          38.700
 111251849.156 8  86689771.94946  21170520.609                    21170522.258
        53.100          40.900
 18  2 21  8 18  0.0000000  0  8G16G05G23G06G30G09G02G07
 126820641.843 6  98821293.92843  24133166.039                    24133168.531
        41.300          22.000
 120584056.819 8  93961602.72845  22946382.719                    22946384.648
        48.100          33.300
 121621708.242 7  94770184.12145  23143843.227                    23143844.844
        45.600          30.900
 113519184.528 8  88456524.24246  21601986.180                    21601991.262
        50.200          40.000
 116747430.211 8  90972048.76546  22216294.094                    22216299.348
        49.100          38.700
 107780258.449 8  83984643.06847  20509898.141                    20509902.293
        53.900          45.000
 114264293.227 8  89037105.24946  21743774.148                    21743773.770
        48.000          38.600
 111217226.669 8  86662793.39346  21163931.805                    21163933.801
        52.900          40.700
 18  2 21  8 18 30.0000000  0  8G16G05G23G06G30G09G02G07
 126833055.555 6  98830966.95543  24135528.078                    24135529.805
        40.200          22.200
 120506704.020 7  93901327.83845  22931663.063                    22931664.816
        47.300          32.000
 121719661.602 7  94846511.39645  23162483.500                    23162484.363
        44.200          30.800
 113609819.222 8  88527148.60446  21619233.500                    21619238.133
        48.600          39.600
 116669964.488 8  90911685.88646  22201552.016                    22201557.906
        48.900          38.700
 107841637.574 8  84032470.95847  20521578.164                    20521581.969
        52.500          45.300
 114274061.659 7  89044717.00646  21745632.750                    21745632.285
        47.000          38.000
 111183085.787 8  86636190.11446  21157435.102                    21157437.371
        52.700          40.900
 18  2 21  8 19  0.0000000  0  8G16G05G23G06G30G09G02G07
 126846080.225 6  98841116.01543  24138006.570                    24138008.484
        37.600          21.100
 120429517.690 7  93841182.65745  22916975.125                    22916977.156
        47.800          32.800
 121817748.530 7  94922942.74644  23181149.352                    23181149.789
        46.100          29.800
 113700897.924 8  88598118.98146  21636565.313                    21636570.016
        49.100          39.600
 116592814.663 8  90851569.17346  22186870.961                    22186875.961
        48.900          37.600
 107903348.204 8  84080557.15147  20533321.656                    20533325.793
        53.700          45.500
 114284387.284 7  89052762.94046  21747597.742                    21747597.871
        47.000          38.900
 111149428.939 8  86609964.02046  21151030.203                    21151032.941
        52.300          40.600
 18  2 21  8 19 30.0000000  0  8G16G05G23G06G30G09G02G07
 126859716.387 6  98851741.56943  24140601.063                    24140603.246
        37.600          19.300
 120352499.759 7  93781168.69945  22902319.008                    22902320.789
        47.200          33.000
 121915968.023 7  94999477.39545  23199839.781                    23199840.070
        47.600          31.200
 113792418.073 8  88669433.33346  21653980.734                    21653985.656
        50.500          39.500
 116515983.022 8  90791700.37446  22172250.820                    22172255.090
        48.400          37.200
 107965388.924 9  84128900.56147  20545127.484                    20545131.184
        54.800          45.200
 114295270.296 7  89061243.20246  21749668.961                    21749667.770
        47.300          38.400
 111116257.304 8  86584115.99146  21144718.023                    21144720.359
        53.200          41.100
 18  2 21  8 20  0.0000000  0  8G16G05G23G06G30G09G02G07
 126873964.981 5  98862844.39343  24143312.234                    24143314.344
        35.500          18.300
 120275652.518 7  93721287.75245  22887695.039                    22887697.512
        47.000          33.000
 122014319.706 7  95076115.04144  23218554.109                    23218554.980
        45.400          27.400
 113884377.753 8  88741090.14846  21671480.258                    21671484.996
        50.300          39.700
 116439472.598 8  90732081.88146  22157690.898                    22157696.039
        49.000          37.800
 108027759.131 8  84177500.71747  20556996.453                    20556999.926
        53.900          45.100
 114306711.558 8  89070158.45746  21751846.219                    21751845.367
        48.600          38.700
 111083572.639 8  86558647.42246  21138498.484                    21138500.715
        52.700          41.500
 18  2 21  8 20 30.0000000  0  8G16G05G23G06G30G09G02G07
 126888827.660 5  98874425.68843  24146140.742                    24146142.777
        35.700          19.000
 120198979.161 7  93661542.29145  22873105.250                    22873107.105
        47.500          32.600
 122112803.717 7  95152855.80444  23237295.555                    23237295.887
        45.000          28.800
 113976775.997 8  88813088.72946  21689063.109                    21689068.629
        50.400          40.000
 116363287.021 8  90672716.52346  22143193.266                    22143198.066
        49.300          38.100
 108090459.056 9  84226357.79147  20568927.766                    20568931.125
        54.400          45.400
 114318712.720 8  89079510.00846  21754129.984                    21754128.996
        48.400          37.400
 111051377.723 8  86533560.47946  21132372.023                    21132374.004
        52.600          41.200
 18  2 21  8 21  0.0000000  0  8G16G05G23G06G30G09G02G07
 126904301.707 6  98886483.31643  24149085.438                    24149087.922
        36.900          19.900
 120122477.818 7  93601930.87345  22858547.391                    22858549.395
        46.800          33.300
 122211415.471 7  95229696.09444  23256061.344                    23256061.988
        46.600          29.100
 114069606.837 8  88885424.39746  21706728.008                    21706733.242
        49.800          39.800
 116287425.229 8  90613603.47146  22128757.094                    22128762.680
        48.600          38.300
 108153483.951 8  84275468.09547  20580921.000                    20580924.121
        53.900          45.100
 114331270.374 7  89089295.19746  21756519.047                    21756518.211
        47.200          38.200
 111019669.947 8  86508853.13546  21126337.914                    21126339.922
        53.000          41.300
 18  2 21  8 21 30.0000000  0  8G16G05G23G06G30G09G02G07
 126920384.009 6  98899014.94843  24152146.023                    24152148.148
        37.000          20.400
 120046146.733 7  93542452.11145  22844021.703                    22844023.781
        47.000          33.100
 122310150.904 7  95306632.78645  23274849.922                    23274850.340
        47.300          30.400
 114162864.430 8  88958092.62846  21724475.094                    21724479.570
        49.300          38.500
 116211886.166 8  90554741.88246  22114382.773                    22114387.730
        48.100          37.400
 108216829.236 8  84324828.05247  20592974.938                    20592978.332
        53.400          45.000
 114344381.286 8  89099511.47946  21759014.281                    21759013.359
        48.900          38.200
 110988447.543 8  86484523.99046  21120396.484                    21120398.848
        52.300          41.300
 18  2 21  8 22  0.0000000  0  8G16G05G23G06G30G09G02G07
 126937064.843 6  98912012.99443  24155320.000                    24155322.055
        39.000          20.400
 119969978.505 7  93483100.25245  22829527.398                    22829529.145
        45.500          32.800
 122408998.714 7  95383657.01945  23293660.273                    23293660.867
        46.800          30.100
 114256536.037 8  89031083.45646  21742299.609                    21742303.770
        48.000          39.200
 116136662.097 8  90496125.74346  22100068.156                    22100072.754
        48.400          38.100
 108280483.602 8  84374428.85047  20605087.852                    20605091.094
        52.700          44.700
 114358035.819 8  89110151.36546  21761612.711                    21761612.129
        49.500          38.100
 110957701.394 8  86460565.96146  21114545.758                    21114547.840
        52.700          40.700
 18  2 21  8 22 30.0000000  0  8G16G05G23G06G30G09G02G07
 126954346.441 6  98925479.12643  24158608.875                    24158609.941
        38.800          21.500
 119893975.970 7  93423877.49545  22815064.398                    22815066.391
        45.700          33.500
 122507960.135 7  95460769.76944  23312491.344                    23312492.277
        45.700          27.900
 114350621.359 8  89104396.67646  21760203.336                    21760208.543
        48.500          39.400
 116061757.313 8  90437758.38646  22085813.984                    22085818.895
        49.000          38.200
 108344447.761 8  84424271.04547  20617259.742                    20617263.613
        51.900          44.400
 114372236.036 8  89121216.46946  21764315.211                    21764314.387
        48.200          37.600
 110927434.734 8  86436981.53246  21108786.320                    21108788.457
        51.700          41.300
 18  2 21  8 23  0.0000000  0  8G16G05G23G06G30G09G02G07
 126972233.979 6  98939417.48043  24162013.039                    24162014.262
        40.900          21.800
 119818145.958 7  93364789.18145  22800634.141                    22800636.598
        47.200          33.800
 122607038.686 7  95537973.79544  23331344.820                    23331345.684
        45.500          27.000
 114445122.707 8  89178034.07646  21778186.602                    21778191.773
        50.000          39.300
 115987179.031 8  90379645.46046  22071622.367                    22071628.039
        49.800          38.500
 108408725.336 8  84474357.45647  20629491.188                    20629495.660
        52.700          44.200
 114386986.919 8  89132710.64546  21767122.125                    21767121.406
        48.800          37.900
 110897653.227 8  86413775.18446  21103119.508                    21103121.277
        51.900          41.500
 18  2 21  8 23 30.0000000  0  8G16G05G23G06G30G09G02G07
 126990729.643 6  98953829.67543  24165533.148                    24165534.871
        39.900          22.500
 119742492.598 7  93305838.51445  22786238.000                    22786240.074
        47.000          33.700
 122706235.286 7  95615269.85744  23350222.875                    23350223.473
        47.100          29.800
 114540039.399 8  89251995.11646  21796249.133                    21796253.652
        48.800          38.800
 115912931.396 8  90321790.19646  22057493.461                    22057499.203
        49.600          38.800
 108473317.087 8  84524688.67047  20641782.586                    20641787.223
        52.300          44.700
 114402290.202 8  89144635.27746  21770033.789                    21770033.203
        48.500          37.500
 110868360.336 8  86390949.55346  21097545.078                    21097546.977
        52.200          41.300
 18  2 21  8 24  0.0000000  0  8G16G05G23G06G30G09G02G07
 127009835.255 6  98968717.16943  24169168.539                    24169170.629
        41.700          22.000
 119667019.271 7  93247028.13045  22771875.906                    22771878.184
        47.200          34.800
 122805550.511 7  95692658.30844  23369121.961                    23369123.008
        45.800          29.400
 114635370.279 8  89326278.91546  21814389.227                    21814394.379
        48.800          37.900
 115839018.157 8  90264195.49946  22043428.859                    22043433.074
        51.100          38.900
 108538223.103 8  84575264.77647  20654133.836                    20654138.148
        52.700          45.400
 114418147.644 8  89156991.72146  21773051.789                    21773051.828
        48.900          37.900
 110839558.670 8  86368506.70246  21092063.828                    21092066.117
        52.100          40.900
 18  2 21  8 24 30.0000000  0  8G16G05G23G06G30G09G02G07
 127029552.898 6  98984081.54843  24172920.055                    24172922.129
        41.100          22.000
 119591728.609 7  93188360.09945  22757548.547                    22757551.113
        47.300          34.400
 122904985.270 7  95770139.89644  23388043.211                    23388043.621
        43.700          27.200
 114731114.410 8  89400884.72146  21832608.641                    21832613.457
        48.600          38.600
 115765443.207 8  90206864.39046  22029427.633                    22029431.813
        50.500          38.400
 108603443.771 8  84626086.06647  20666545.313                    20666549.840
        52.500          44.800
 114434560.964 8  89169781.31146  21776174.438                    21776174.727
        48.500          38.100
 110811250.337 8  86346448.27246  21086677.000                    21086679.324
        51.700          41.600
 18  2 21  8 25  0.0000000  0  8G16G05G23G06G30G09G02G07
 127049882.019 6  98999922.42943  24176789.453                    24176790.234
        41.400          21.700
 119516623.327 8  93129836.51045  22743256.688                    22743259.359
        48.200          34.800
 123004538.205 7  95847713.59144  23406987.438                    23406987.355
        45.900          27.300
 114827269.300 8  89475810.59446  21850906.852                    21850912.234
        48.900          39.000
 115692209.006 8  90149798.78246  22015491.648                    22015495.543
        51.100          37.900
 108668978.033 8  84677151.72147  20679015.734                    20679019.848
        51.500          44.400
 114451530.033 8  89183003.94646  21779403.930                    21779403.816
        49.800          38.400
 110783437.005 8  86324775.58246  21081384.289                    21081386.426
        50.800          41.900
 18  2 21  8 25 30.0000000  0  8G16G05G23G06G30G09G02G07
 127070822.861 7  99016239.92243  24180773.938                    24180775.309
        42.600          21.300
 119441703.947 8  93071457.78045  22729000.094                    22729002.648
        48.700          35.100
 123104208.058 7  95925378.36344  23425954.109                    23425954.121
        43.300          27.400
 114923831.757 7  89551054.06346  21869282.273                    21869287.457
        47.900          39.600
 115619317.101 8  90092999.91246  22001619.828                    22001624.930
        49.400          38.100
 108734823.961 8  84728460.22647  20691546.008                    20691550.266
        52.100          43.900
 114469054.086 8  89196659.04346  21782738.609                    21782738.867
        48.800          38.400
 110756119.108 8  86303488.90646  21076185.914                    21076187.527
        51.200          41.300
 18  2 21  8 26  0.0000000  0  8G16G05G23G06G30G09G02G07
 127092374.263 7  99033033.22843  24184874.672                    24184877.066
        42.300          22.000
 119366971.077 8  93013224.38945  22714778.875                    22714781.215
        49.100          35.900
 123203992.490 7  96003132.46944  23444943.047                    23444942.043
        43.400          26.200
 115020797.982 8  89626612.13946  21887733.805                    21887739.375
        48.000          38.700
 115546768.556 8  90036468.59546  21987814.844                    21987819.719
        49.800          39.000
 108800979.140 8  84780009.70547  20704135.023                    20704138.555
        52.100          44.700
 114487132.075 8  89210745.78046  21786178.523                    21786178.406
        48.400          38.600
 110729296.160 8  86282587.91746  21071081.469                    21071083.707
        51.100          41.700
 18  2 21  8 26 30.0000000  0  8G16G05G23G06G30G09G02G07
 127114536.396 6  99050302.40043  24189091.953                    24189094.133
        40.200          21.500
 119292428.228 7  92955139.06245  22700593.836                    22700595.926
        47.400          35.500
 123303891.038 7  96080975.47444  23463953.008                    23463952.844
        43.500          28.200
 115118165.938 8  89702483.24346  21906262.664                    21906267.363
        48.700          38.600
 115474566.229 7  89980207.06746  21974075.133                    21974080.234
        47.600          39.000
 108867442.891 8  84831799.63647  20716782.398                    20716786.539
        51.700          44.700
 114505764.756 7  89225264.74946  21789724.688                    21789724.516
        47.500          37.700
 110702969.958 8  86262074.00146  21066072.023                    21066073.523
        50.900          41.200
 18  2 21  8 27  0.0000000  0  8G16G05G23G06G30G09G02G07
 127137312.155 7  99068049.73443  24193426.516                    24193429.035
        42.700          22.500
 119218078.721 8  92897204.39546  22686445.617                    22686447.676
        49.200          36.000
 123403905.364 7  96158908.66544  23482985.563                    23482986.043
        43.300          27.900
 115215935.471 7  89778667.27346  21924867.180                    21924872.125
        47.700          38.700
 115402714.908 8  89924219.03446  21960402.375                    21960407.316
        48.300          39.200
 108934216.444 8  84883830.96647  20729489.273                    20729493.266
        50.900          44.400
 114524954.354 8  89240217.66046  21793376.188                    21793376.230
        48.400          38.000
 110677144.025 8  86241949.90746  21061157.391                    21061159.453
        49.900          40.800
 18  2 21  8 27 30.0000000  0  8G16G05G23G06G30G09G02G07
 127160702.986 7  99086276.33843  24197878.156                    24197879.320
        43.900          21.800
 119143925.914 8  92839422.99146  22672335.156                    22672337.137
        50.200          36.100
 123504035.737 7  96236932.29444  23502039.195                    23502039.305
        42.500          27.500
 115314105.483 7  89855163.36846  21943548.438                    21943552.844
        47.000          37.600
 115331218.165 8  89868507.30546  21946797.281                    21946801.547
        50.100          38.800
 109001300.083 8  84936103.92547  20742254.953                    20742258.816
        51.500          44.900
 114544702.393 7  89255605.72546  21797133.992                    21797133.805
        47.300          37.900
 110651820.776 8  86222217.49046  21056338.602                    21056340.516
        49.900          41.600
 18  2 21  8 28  0.0000000  0  8G16G05G23G06G30G09G02G07
 127184706.730 7  99104980.56843  24202445.586                    24202448.129
        44.100          23.000
 119069969.118 8  92781794.34045  22658261.797                    22658263.477
        49.900          35.600
 123604278.800 7  96315043.75444  23521114.578                    23521115.012
        43.700          27.900
 115412670.874 7  89931967.54946  21962305.164                    21962309.664
        47.000          38.000
 115260075.975 8  89813071.83046  21933259.234                    21933263.773
        49.200          38.700
 109068690.111 8  84988615.63047  20755079.164                    20755083.367
        51.300          45.100
 114565006.040 8  89271426.74046  21800997.680                    21800997.473
        48.200          38.300
 110626998.690 8  86202875.61046  21051615.211                    21051617.086
        50.800          41.600
 18  2 21  8 28 30.0000000  0  8G16G05G23G06G30G09G02G07
 127209322.596 7  99124161.76343  24207130.313                    24207131.926
        44.000          23.000
 118996210.017 8  92724319.71545  22644225.375                    22644227.109
        49.700          34.800
 123704633.386 7  96393242.06944  23540211.945                    23540212.082
        44.300          28.300
 115511628.414 7  90009077.30446  21981136.102                    21981141.086
        47.600          38.100
 115189289.888 8  89757913.84746  21919788.820                    21919794.000
        49.600          39.000
 109136384.712 8  85041364.65847  20767960.719                    20767965.082
        51.200          45.100
 114585864.735 8  89287680.25446  21804967.188                    21804966.965
        48.700          38.100
 110602678.229 8  86183924.61846  21046987.461                    21046989.336
        50.000          41.300
 18  2 21  8 29  0.0000000  0  8G16G05G23G06G30G09G02G07
 127234559.583 7  99143826.95743  24211932.750                    24211934.301
        43.900          22.000
 118922659.729 8  92667007.80945  22630229.359                    22630230.945
        49.600          35.800
 123805107.334 7  96471533.43144  23559331.383                    23559331.574
        43.200          27.600
 115610984.452 7  90086497.58046  22000042.906                    22000048.320
        46.700          37.800
 115118871.098 8  89703042.09346  21906388.117                    21906393.313
        48.600          38.900
 109204391.670 8  85094357.08247  20780901.844                    20780906.238
        51.500          45.000
 114607287.375 8  89304373.20946  21809043.531                    21809043.555
        48.200          38.200
 110578869.400 8  86165372.28446  21042456.461                    21042458.648
        50.800          41.600
 18  2 21  8 29 30.0000000  0  8G16G05G23G06G30G09G02G07
 127260419.127 7  99163977.22543  24216852.977                    24216855.160
        43.600          22.000
 118849320.804 8  92609860.60045  22616273.070                    22616275.160
        48.800          35.700
 123905700.777 7  96549917.92544  23578473.328                    23578473.703
        43.300          28.300
 115710737.468 7  90164227.14246  22019025.625                    22019031.277
        46.700          38.100
 115048823.042 8  89648459.22646  21893058.641                    21893063.895
        49.300          38.300
 109272710.911 8  85147592.85547  20793902.469                    20793906.594
        50.800          44.300
 114629275.085 8  89321506.48746  21813227.773                    21813227.742
        49.000          38.900
 110555574.081 8  86147220.10546  21038023.445                    21038025.527
        49.800          41.100
 18  2 21  8 30  0.0000000  0  8G16G05G23G06G30G09G02G07
 127286887.839 6  99184602.17243  24221890.211                    24221892.371
        41.800          22.300
 118776182.336 7  92552869.58545  22602354.977                    22602357.254
        47.100          34.900
 124006399.531 7  96628384.44944  23597635.336                    23597636.145
        42.500          28.000
 115810871.649 7  90242253.72146  22038080.023                    22038085.387
        47.100          37.100
 114979134.682 8  89594156.63146  21879797.914                    21879802.727
        48.300          38.900
 109341328.049 8  85201060.74547  20806960.102                    20806964.750
        51.200          44.600
 114651814.161 8  89339069.39046  21817516.875                    21817516.363
        48.000          38.300
 110532780.029 8  86129458.51046  21033685.953                    21033688.234
        50.000          41.700
 18  2 21  8 30 30.0000000  0  8G16G05G23G06G30G09G02G07
 127313965.265 6  99205701.45843  24227042.031                    24227044.984
        41.800          22.300
 118703245.340 8  92496035.58445  22588475.984                    22588477.926
        49.100          35.200
 124107202.798 7  96706932.41944  23616818.523                    23616818.668
        42.800          28.300
 115911384.250 7  90320575.19746  22057206.836                    22057211.992
        47.100          38.200
 114909808.238 8  89540136.02546  21866605.609                    21866610.297
        50.500          39.200
 109410241.845 8  85254759.79647  20820073.883                    20820078.172
        52.000          43.600
 114674904.498 8  89357061.85446  21821910.938                    21821910.152
        48.300          37.600
 110510488.021 8  86112088.13046  21029443.898                    21029446.465
        51.000          41.600
 18  2 21  8 31  0.0000000  0  8G16G05G23G06G30G09G02G07
 127341653.874 7  99227276.96343  24232311.250                    24232313.531
        42.600          21.300
 118630515.222 8  92439362.77445  22574635.859                    22574637.629
        49.300          35.300
 124208112.422 7  96785563.26644  23636020.375                    23636021.090
        42.200          26.200
 116012275.454 7  90399191.68446  22076406.297                    22076411.477
        46.200          37.900
 114840848.691 8  89486401.32746  21853482.484                    21853487.813
        50.100          39.400
 109479453.821 8  85308691.19247  20833244.320                    20833248.137
        52.400          44.600
 114698548.649 7  89375485.86246  21826410.375                    21826409.633
        47.300          37.700
 110488701.846 8  86095111.89946  21025298.344                    21025300.559
        51.200          41.700
 18  2 21  8 31 30.0000000  0  8G16G05G23G06G30G09G02G07
 127369955.346 7  99249330.06043  24237696.914                    24237699.582
        42.500          21.800
 118557994.735 8  92382853.31045  22560835.383                    22560837.000
        48.700          35.500
 124309128.748 6  96864277.24944  23655242.586                    23655244.066
        41.800          27.300
 116113543.707 7  90478101.97346  22095676.883                    22095681.828
        46.100          37.200
 114772259.400 8  89432955.15346  21840430.367                    21840435.906
        49.800          40.200
 109548964.014 8  85362854.97947  20846472.156                    20846475.359
        52.200          44.200
 114722747.570 8  89394342.15546  21831015.086                    21831014.871
        48.400          37.900
 110467423.504 8  86078531.37847  21021249.172                    21021251.555
        51.100          42.200
 18  2 21  8 32  0.0000000  0  8G16G05G23G06G30G09G02G07
 127398868.121 6  99271859.49243  24243198.711                    24243201.305
        41.200          21.700
 118485685.268 8  92326508.27845  22547075.313                    22547077.609
        49.400          35.500
 124410249.945 7  96943072.95844  23674486.117                    23674486.652
        42.900          28.300
 116215185.468 7  90557303.27646  22115018.563                    22115023.789
        46.300          37.100
 114704041.671 8  89379798.52346  21827449.289                    21827454.340
        50.800          40.000
 109618770.307 8  85417249.48147  20859755.617                    20859759.211
        52.400          44.100
 114747499.938 8  89413629.70046  21835725.383                    21835724.793
        48.400          38.300
 110446653.113 8  86062346.66846  21017296.422                    21017298.746
        51.700          41.800
 18  2 21  8 32 30.0000000  0  8G16G05G23G06G30G09G02G07
 127428392.994 7  99294865.88543  24248817.867                    24248819.492
        42.400          22.000
 118413589.625 8  92270329.85845  22533356.359                    22533358.582
        49.100          35.200
 124511475.704 6  97021950.14344  23693748.313                    23693749.332
        41.200          25.500
 116317198.808 7  90636794.16746  22134431.039                    22134435.895
        46.300          36.500
 114636198.498 8  89326933.73346  21814539.172                    21814544.004
        49.400          40.100
 109688872.269 8  85471874.38447  20873095.461                    20873099.594
        53.500          43.700
 114772806.432 8  89433349.03646  21840541.203                    21840540.570
        48.200          38.100
 110426392.445 8  86046559.14146  21013440.766                    21013442.875
        51.700          41.500
 18  2 21  8 33  0.0000000  0  8G16G05G23G06G30G09G02G07
 127458530.706 6  99318349.82143  24254552.742                    24254554.375
        41.800          21.500
 118341709.851 7  92214319.65946  22519677.727                    22519680.000
        47.900          36.100
 124612806.195 6  97100908.94844  23713030.641                    23713031.766
        41.400          25.200
 116419582.047 7  90716573.28346  22153913.969                    22153919.309
        45.900          37.300
 114568733.019 8  89274363.27246  21801700.375                    21801705.227
        49.400          39.900
 109759269.742 8  85526729.54747  20886491.945                    20886495.633
        52.500          43.900
 114798667.750 8  89453500.70146  21845462.352                    21845461.813
        49.000          38.100
 110406643.030 8  86031169.99746  21009682.289                    21009684.305
        51.700          41.200
 18  2 21  8 33 30.0000000  0  8G16G05G23G06G30G09G02G07
 127489278.883 6  99342309.40843  24260403.414                    24260405.117
        40.600          19.600
 118270046.712 8  92158478.25746  22506040.836                    22506042.949
        48.800          36.200
 124714238.681 7  97179947.20344  23732332.875                    23732333.918
        43.400          25.800
 116522330.363 7  90796636.86146  22173466.617                    22173471.742
        46.000          37.600
 114501645.318 8  89222087.16846  21788934.328                    21788939.383
        49.700          39.900
 109829959.404 8  85581812.39247  20899943.570                    20899947.773
        53.200          44.300
 114825081.580 8  89474082.89746  21850488.633                    21850487.750
        49.400          38.000
 110387403.346 8  86016178.04446  21006021.414                    21006023.574
        51.600          41.100
 18  2 21  8 34  0.0000000  0  8G16G05G23G06G30G09G02G07
 127520634.278 6  99366742.19643  24266369.625                    24266371.641
        41.700          20.100
 118198598.838 8  92102804.59445  22492444.766                    22492446.813
        49.800          35.800
 124815769.145 7  97259061.80844  23751654.273                    23751655.102
        45.500          28.300
 116625437.917 7  90876980.36546  22193086.758                    22193092.527
        45.900          36.600
 114434934.383 8  89170104.66446  21776239.844                    21776244.680
        51.400          40.000
 109900936.942 9  85637119.55247  20913450.336                    20913454.148
        54.000          43.900
 114852044.315 8  89495092.80146  21855619.641                    21855619.098
        49.200          37.800
 110368671.382 8  86001581.72446  21002456.805                    21002458.500
        51.800          41.600
 18  2 21  8 34 30.0000000  0  8G16G05G23G06G30G09G02G07
 127552602.605 6  99391652.57143  24272452.898                    24272455.531
        39.900          19.000
 118127373.520 8  92047304.35546  22478891.070                    22478893.645
        50.500          36.100
 124917402.333 7  97338256.45644  23770995.000                    23770994.227
        46.100          27.300
 116728907.786 7  90957606.18946  22212776.695                    22212781.902
        45.900          36.700
 114368608.215 8  89118421.96246  21763618.320                    21763622.898
        51.000          39.900
 109972207.011 8  85692654.66047  20927012.148                    20927015.945
        52.300          44.300
 114879561.307 8  89516534.60546  21860855.734                    21860855.703
        49.700          37.900
 110350453.612 8  85987386.06646  20998990.352                    20998992.410
        51.900          41.600
 18  2 21  8 35  0.0000000  0  8G16G05G23G06G30G09G02G07
 127585182.291 6  99417039.28443  24278653.047                    24278654.879
        39.300          19.300
 118056372.721 8  91991979.06546  22465380.266                    22465382.207
        50.500          36.200
 125019136.924 7  97417530.13044  23790353.641                    23790352.930
        45.000          25.600
 116832736.687 7  91038511.77446  22232535.352                    22232540.316
        45.900          36.000
 114302668.369 8  89067040.30146  21751069.945                    21751075.105
        50.800          40.200
 110043767.816 8  85748416.31947  20940629.898                    20940633.906
        52.600          44.300
 114907631.603 8  89538407.55646  21866197.711                    21866197.578
        49.900          38.100
 110332750.217 8  85973591.22146  20995621.742                    20995623.723
        51.100          41.900
 18  2 21  8 35 30.0000000  0  8G16G05G23G06G30G09G02G07
 127618372.214 6  99442901.56143  24284968.938                    24284971.266
        41.300          20.400
 117985597.172 8  91936829.30446  22451912.172                    22451914.332
        50.500          36.500
 125120970.700 7  97496881.06644  23809732.383                    23809732.234
        43.700          26.700
 116936920.697 7  91119694.07246  22252360.375                    22252365.793
        45.800          37.100
 114237115.767 8  89015960.39646  21738596.133                    21738600.430
        51.500          40.600
 110115617.004 8  85804402.68847  20954302.492                    20954306.223
        52.500          44.200
 114936253.655 8  89560710.43946  21871643.906                    21871643.680
        48.500          38.000
 110315560.800 8  85960196.88146  20992350.695                    20992352.758
        50.900          41.900
 18  2 21  8 36  0.0000000  0  8G16G05G23G06G30G09G02G07
 127652174.753 6  99469241.23143  24291402.469                    24291402.543
        41.500          21.100
 117915050.641 8  91881857.98546  22438487.484                    22438489.988
        50.800          36.300
 125222905.392 7  97576310.66544  23829129.281                    23829130.328
        43.000          25.600
 117041459.471 7  91201152.81546  22272253.625                    22272258.914
        46.400          37.500
 114171954.975 8  88965185.80046  21726196.789                    21726200.574
        51.900          40.400
 110187755.787 8  85860614.72647  20968030.023                    20968034.078
        51.900          43.700
 114965429.376 8  89583444.76346  21877196.156                    21877195.699
        48.600          37.000
 110298888.385 8  85947205.39446  20989177.930                    20989179.918
        50.800          41.400
 18  2 21  8 36 30.0000000  0  8G16G05G23G06G30G09G02G07
 127686586.211 6  99496055.36243  24297950.055                    24297951.074
        40.500          19.900
 117844733.167 8  91827065.15546  22425106.906                    22425108.727
        50.200          36.600
 125324937.714 6  97655816.33144  23848545.102                    23848545.527
        41.500          25.000
 117146347.937 7  91282884.04446  22292212.984                    22292218.316
        46.300          36.700
 114107185.721 8  88914716.29246  21713871.289                    21713875.637
        52.500          39.900
 110260180.606 8  85917049.63447  20981812.094                    20981816.207
        50.900          44.300
 114995156.081 8  89606608.41946  21882853.000                    21882852.309
        49.800          37.900
 110282731.402 8  85934615.53846  20986102.805                    20986105.445
        49.800          41.700
 18  2 21  8 37  0.0000000  0  8G16G05G23G06G30G09G02G07
 127721605.469 6  99523343.03643  24304613.281                    24304616.531
        40.000          19.600
 117774645.585 8  91772451.45646  22411769.172                    22411771.754
        50.500          36.200
 125427065.517 6  97735396.40244  23867979.461                    23867980.965
        41.100          24.300
 117251582.185 7  91364884.72946  22312238.602                    22312244.016
        45.400          37.300
 114042808.924 8  88864552.58446  21701620.695                    21701625.102
        52.400          40.200
 110332889.194 8  85973705.66647  20995648.133                    20995652.184
        51.100          44.000
 115025432.113 8  89630200.12846  21888614.023                    21888613.441
        49.700          37.900
 110267089.382 8  85922426.96447  20983126.539                    20983128.734
        49.600          42.100
 18  2 21  8 37 30.0000000  0  8G16G05G23G06G30G09G02G07
 127757234.145 6  99551105.63243  24311393.727                    24311396.027
        40.600          20.100
 117704791.569 8  91718019.76245  22398476.258                    22398478.879
        50.300          35.700
 125529290.030 6  97815051.85444  23887433.039                    23887433.121
        40.000          24.000
 117357161.308 7  91447154.13846  22332329.492                    22332334.848
        46.700          36.800
 113978828.560 8  88814697.77946  21689445.625                    21689450.336
        52.900          40.800
 110405882.171 8  86030583.29447  21009538.000                    21009541.656
        51.700          43.800
 115056258.590 8  89654220.73346  21894480.258                    21894479.715
        48.100          37.600
 110251964.893 8  85910641.64546  20980248.461                    20980250.496
        50.200          41.800
 18  2 21  8 38  0.0000000  0  8G16G05G23G06G30G09G02G07
 127793470.953 6  99579342.09243  24318290.188                    24318290.594
        41.100          20.100
 117635172.523 8  91663771.16245  22385228.258                    22385230.883
        49.800          35.400
 125631609.800 6  97894781.47743  23906903.617                    23906903.777
        40.500          22.600
 117463081.984 7  91529689.70046  22352485.391                    22352491.254
        45.900          36.600
 113915246.229 8  88765153.15746  21677346.148                    21677351.500
        52.000          40.600
 110479157.903 8  86087681.25747  21023482.117                    21023485.754
        52.400          43.600
 115087634.736 8  89678669.66046  21900450.609                    21900450.129
        49.400          37.700
 110237357.825 8  85899259.53647  20977468.820                    20977471.188
        50.900          42.400
 18  2 21  8 38 30.0000000  0  8G16G05G23G06G30G09G02G07
 127830314.611 6  99608051.39643  24325300.609                    24325300.883
        40.800          19.900
 117565789.773 8  91609706.68445  22372025.523                    22372027.910
        50.300          35.800
 125734022.966 7  97974583.92844  23926393.008                    23926391.969
        43.200          25.800
 117569340.472 7  91612488.47946  22372706.234                    22372711.289
        45.600          36.900
 113852062.987 8  88715919.49246  21665322.578                    21665327.895
        52.100          41.100
 110552714.165 8  86144997.82047  21037479.109                    21037482.855
        50.900          42.600
 115119558.983 8  89703545.67546  21906525.844                    21906525.574
        50.200          37.600
 110223268.155 8  85888280.58647  20974787.883                    20974790.160
        50.700          42.300
 18  2 21  8 39  0.0000000  0  8G16G05G23G06G30G09G02G07
 127867768.017 6  99637235.84543  24332427.797                    24332429.289
        41.300          21.500
 117496648.631 8  91555830.47145  22358868.156                    22358870.281
        49.900          35.300
 125836532.412 7  98054461.37744  23945900.875                    23945899.559
        45.200          27.800
 117675937.513 7  91695551.07946  22392991.180                    22392995.930
        46.400          36.100
 113789284.425 8  88667001.18346  21653376.664                    21653381.301
        53.000          40.900
 110626553.378 8  86202534.86047  21051530.148                    21051534.023
        50.800          43.800
 115152034.057 8  89728850.91746  21912706.258                    21912705.941
        50.200          37.700
 110209699.639 8  85877707.75246  20972205.688                    20972207.949
        50.300          41.700
 18  2 21  8 39 30.0000000  0  8G16G05G23G06G30G09G02G07
 127905827.127 6  99666892.27643  24339670.023                    24339672.242
        39.900          19.600
 117427747.678 8  91502141.42645  22345757.008                    22345759.371
        49.100          35.200
 125939133.500 7  98134410.23244  23965424.992                    23965424.258
        45.200          27.300
 117782866.617 7  91778872.43845  22413338.883                    22413344.113
        45.300          35.400
 113726908.871 8  88618396.89146  21641506.680                    21641511.117
        52.300          40.800
 110700670.652 8  86260288.57047  21065634.336                    21065638.105
        50.800          43.000
 115185055.938 8  89754582.22946  21918989.820                    21918989.180
        50.100          37.900
 110196649.444 8  85867538.77647  20969722.305                    20969724.426
        49.900          42.100
 18  2 21  8 40  0.0000000  0  8G16G05G23G06G30G09G02G07
 127944491.799 6  99697020.56443  24347027.289                    24347029.930
        39.800          19.000
 117359089.334 8  91448641.41845  22332691.297                    22332694.117
        49.600          35.400
 126041825.936 7  98214430.24744  23984966.297                    23984966.195
        42.800          25.900
 117890125.785 7  91862450.95746  22433749.289                    22433755.035
        46.200          36.400
 113664939.101 8  88570108.76746  21629714.109                    21629718.348
        53.100          41.300
 110775065.596 8  86318258.63947  21079791.281                    21079794.996
        51.100          43.600
 115218624.727 8  89780739.72046  21925377.695                    21925377.453
        50.300          37.200
 110184119.004 8  85857774.80847  20967338.063                    20967339.898
        50.600          42.800
 18  2 21  8 40 30.0000000  0  8G16G05G23G06G30G09G02G07
 127983760.407 6  99727619.42543  24354500.148                    24354501.418
        40.000          20.100
 117290674.271 8  91395330.98745  22319672.438                    22319675.152
        49.000          34.400
 126144607.950 7  98294520.03144  24004525.141                    24004524.980
        43.400          26.000
 117997710.894 7  91946283.47446  22454222.461                    22454228.453
        45.900          36.800
 113603375.974 8  88522137.52946  21617999.227                    21618003.434
        52.300          41.000
 110849735.785 8  86376443.19347  21094000.680                    21094004.500
        52.100          43.600
 115252738.594 8  89807321.93846  21931869.117                    21931868.598
        49.900          37.100
 110172107.227 8  85848414.98846  20965052.141                    20965053.973
        50.500          41.700
 18  2 21  8 41  0.0000000  0  8G16G05G23G06G30G09G02G07
 128023632.022 6  99758688.19043  24362087.406                    24362089.516
        40.500          19.600
 117222505.434 8  91342212.40945  22306700.555                    22306702.867
        48.700          35.700
 126247478.979 7  98374679.23744  24024100.117                    24024100.238
        44.300          25.600
 118105619.450 7  92030368.00046  22474756.484                    22474761.945
        45.000          36.100
 113542221.743 8  88474484.93846  21606361.609                    21606366.262
        52.300          41.100
 110924680.281 8  86434841.49747  21108262.313                    21108266.477
        51.900          43.900
 115287396.933 8  89834328.41746  21938464.898                    21938464.129
        48.700          37.400
 110160615.083 8  85839460.07847  20962865.227                    20962867.219
        50.900          42.300
 18  2 21  8 41 30.0000000  0  8G16G05G23G06G30G09G02G07
 128064107.847 6  99790227.78843  24369790.602                    24369792.496
        39.900          21.300
 117154584.927 8  91289287.34045  22293775.602                    22293777.816
        48.200          34.800
 126350439.431 7  98454908.14244  24043692.680                    24043692.371
        43.900          26.000
 118213849.922 7  92114703.39045  22495351.984                    22495357.617
        45.500          35.900
 113481479.657 8  88427153.49146  21594802.547                    21594807.516
        52.400          41.000
 110999899.251 8  86493453.67047  21122576.031                    21122580.375
        52.900          43.500
 115322600.308 8  89861759.59546  21945163.523                    21945162.500
        49.000          37.300
 110149644.488 8  85830911.57547  20960777.273                    20960779.148
        49.800          42.000
 18  2 21  8 42  0.0000000  0  8G16G05G23G06G30G09G02G07
 128105186.694 6  99822237.26543  24377607.523                    24377609.680
        40.200          21.100
 117086914.932 7  91236557.47645  22280898.258                    22280900.133
        47.300          35.400
 126453487.911 6  98535205.62444  24063301.844                    24063302.262
        41.700          24.500
 118322398.834 7  92199286.92846  22516008.695                    22516014.324
        46.000          36.200
 113421151.070 8  88380144.24346  21583322.234                    21583326.789
        52.100          41.200
 111075390.856 8  86552278.28847  21136941.633                    21136945.371
        52.800          43.200
 115358347.540 8  89889614.57846  21951966.039                    21951965.156
        48.600          37.000
 110139195.203 8  85822769.28547  20958788.961                    20958791.008
        50.000          42.000
 18  2 21  8 42 30.0000000  0  8G16G05G23G06G30G09G02G07
 128146867.329 6  99854715.66243  24385539.234                    24385540.660
        41.300          20.900
 117019498.239 8  91184024.99145  22268069.461                    22268071.742
        48.700          35.500
 126556623.703 7  98615571.12544  24082928.492                    24082928.586
        42.200          24.500
 118431263.660 7  92284116.63146  22536724.594                    22536730.328
        46.000          36.800
 113361238.220 8  88333458.93946  21571921.445                    21571926.270
        52.000          41.100
 111151154.247 8  86611314.69647  21151358.938                    21151362.570
        51.900          43.000
 115394638.226 8  89917893.02546  21958871.828                    21958871.348
        49.000          36.800
 110129267.965 8  85815033.78947  20956899.992                    20956901.660
        50.800          42.100
 18  2 21  8 43  0.0000000  0  8G16G05G23G06G30G09G02G07
 128189149.872 6  99887663.07943  24393583.969                    24393586.785
        37.200          20.100
 116952335.796 8  91131690.63246  22255289.047                    22255291.148
        49.100          36.100
 126659846.172 7  98696004.17844  24102570.742                    24102571.016
        42.000          25.600
 118540441.588 7  92369190.31445  22557500.828                    22557506.199
        46.000          35.500
 113301743.100 8  88287099.12246  21560600.086                    21560604.414
        51.900          41.700
 111227188.314 8  86670561.99247  21165827.297                    21165831.613
        51.700          43.400
 115431471.532 8  89946594.28946  21965880.953                    21965880.461
        48.900          37.100
 110119863.334 8  85807705.51447  20955110.539                    20955112.195
        50.100          42.100
 18  2 21  8 43 30.0000000  0  8G16G05G23G06G30G09G02G07
 128232032.846 6  99921078.32043  24401744.352                    24401746.609
        39.300          19.600
 116885430.559 8  91079556.68146  22242557.547                    22242559.293
        49.400          36.300
 126763154.699 7  98776504.25644  24122229.555                    24122230.246
        42.300          26.500
 118649929.894 7  92454505.83545  22578335.414                    22578341.363
        45.800          35.500
 113242667.837 8  88241066.47747  21549358.523                    21549363.727
        53.300          42.000
 111303491.959 8  86730019.37947  21180347.648                    21180351.375
        52.200          42.600
 115468847.008 8  89975718.03246  21972993.359                    21972993.125
        49.200          37.400
 110110982.053 8  85800785.03647  20953420.547                    20953422.355
        51.400          42.400
 18  2 21  8 44  0.0000000  0  8G16G05G23G06G30G09G02G07
 128275516.110 6  99954961.37143  24410019.523                    24410022.363
        38.700          20.900
 116818784.174 8  91027624.44345  22229875.000                    22229876.867
        49.200          35.900
 126866548.489 7  98857070.77844  24141905.211                    24141905.676
        42.700          24.800
 118759725.848 7  92540061.09346  22599229.211                    22599234.438
        46.100          36.000
 113184014.500 8  88195362.61046  21538196.852                    21538202.148
        52.800          41.700
 111380064.189 8  86789686.04747  21194919.039                    21194922.781
        52.900          42.900
 115506763.633 8  90005263.45746  21980208.391                    21980208.270
        48.500          36.900
 110102624.324 8  85794272.51746  20951829.789                    20951832.227
        50.700          41.800
 18  2 21  8 44 30.0000000  0  8G16G05G23G06G30G09G02G07
 128319600.063 6  99989312.47943  24418408.406                    24418410.520
        37.300          20.600
 116752400.223 8  90975896.69746  22217242.719                    22217244.504
        49.300          36.600
 126970028.066 7  98937704.17744  24161596.898                    24161597.738
        43.600          27.200
 118869827.981 7  92625854.91646  22620181.148                    22620186.867
        45.500          36.300
 113125786.351 8  88149990.04647  21527116.484                    21527121.281
        53.000          42.200
 111456905.251 8  86849562.20147  21209541.672                    21209545.742
        52.100          43.500
 115545222.214 8  90035231.18946  21987527.008                    21987526.492
        48.800          37.400
 110094791.929 8  85788169.36146  20950339.391                    20950341.770
        51.000          41.800
 18  2 21  8 45  0.0000000  0  8G16G05G23G06G30G09G02G07
 128364290.372 6 100024136.07643  24426912.813                    24426914.688
        38.100          21.100
 116686287.118 8  90924379.99246  22204661.422                    22204663.586
        49.500          36.900
 127073599.058 7  99018408.81044  24181305.531                    24181305.926
        43.500          25.500
 118980239.781 7  92711890.01245  22641191.523                    22641196.719
        45.400          35.100
 113067991.643 8  88104955.22047  21516118.516                    21516123.375
        51.500          42.000
 111534020.292 8  86909651.83547  21224215.992                    21224219.832
        52.500          43.200
 115584228.327 8  90065625.55446  21994949.781                    21994949.395
        48.200          37.600
 110087491.803 8  85782480.96546  20948950.203                    20948952.426
        50.800          41.500
 18  2 21  8 45 30.0000000  0  8G16G05G23G06G30G09G02G07
 128409594.925 6 100059438.30443  24435533.445                    24435535.762
        38.500          20.400
 116620455.826 8  90873082.88146  22192134.492                    22192136.340
        49.100          37.300
 127177269.838 7  99099191.20044  24201033.609                    24201033.430
        42.500          24.900
 119090967.446 7  92798171.28045  22662262.758                    22662266.730
        46.700          35.100
 113010641.345 8  88060266.70346  21505205.242                    21505209.070
        52.800          41.600
 111611417.226 8  86969961.12147  21238943.875                    21238948.031
        52.900          42.300
 115623789.877 8  90096452.71646  22002477.891                    22002478.055
        49.000          37.300
 110080733.335 8  85777214.63747  20947664.109                    20947666.230
        51.200          42.300
 18  2 21  8 46  0.0000000  0  8G16G05G23G06G30G09G02G07
 128455505.604 6 100095212.83043  24444270.391                    24444272.629
        38.300          20.900
 116554901.353 8  90822001.47946  22179659.766                    22179662.195
        50.400          37.100
 127281032.532 7  99180045.18844  24220778.477                    24220778.707
        42.500          24.000
 119202000.918 7  92884690.84545  22683391.695                    22683396.191
        46.100          34.800
 112953730.185 8  88015920.34647  21494375.617                    21494379.758
        53.000          42.000
 111689087.722 8  87030483.57447  21253723.719                    21253727.973
        51.300          42.400
 115663898.913 8  90127706.49146  22010110.570                    22010110.367
        49.300          37.100
 110074509.281 8  85772364.72947  20946479.555                    20946481.527
        51.000          42.100
 18  2 21  8 46 30.0000000  0  8G16G05G23G06G30G09G02G07
 128502018.815 6 100131456.90543  24453121.211                    24453124.070
        38.100          21.700
 116489622.435 8  90771134.78746  22167237.492                    22167239.680
        49.900          38.400
 127384883.379 7  99260967.89843  24240540.766                    24240541.648
        42.600          23.600
 119313334.326 7  92971444.11145  22704577.156                    22704582.441
        44.500          34.800
 112897257.016 8  87971915.27947  21483628.922                    21483633.520
        52.100          42.000
 111767027.623 8  87091215.94747  21268555.602                    21268559.398
        52.100          42.800
 115704551.651 8  90159383.92846  22017846.328                    22017846.379
        48.500          37.500
 110068817.297 8  85767929.42347  20945396.375                    20945398.426
        50.700          42.000
 18  2 21  8 47  0.0000000  0  8G16G05G23G06G30G09G02G07
 128549130.280 6 100168167.10443  24462086.492                    24462089.285
        38.600          22.000
 116424617.576 8  90720481.65846  22154867.516                    22154869.848
        50.500          38.100
 127488817.729 7  99341955.65044  24260320.227                    24260319.004
        42.200          24.600
 119424961.674 7  93058426.40846  22725819.297                    22725825.695
        45.300          36.200
 112841220.578 8  87928250.53446  21472965.281                    21472970.000
        52.300          41.800
 111845232.631 8  87152154.91147  21283437.430                    21283441.523
        52.200          42.300
 115745743.812 8  90191481.69746  22025685.156                    22025685.172
        49.200          36.100
 110063654.549 8  85763906.50846  20944414.016                    20944415.824
        51.700          41.800
 18  2 21  8 47 30.0000000  0  8G16G05G23G06G30G09G02G07
 128596838.100 6 100205342.00143  24471164.500                    24471168.070
        40.000          22.000
 116359889.023 8  90670043.82246  22142550.125                    22142552.598
        50.500          38.300
 127592834.043 6  99423007.27444  24280112.938                    24280113.480
        41.900          24.600
 119536878.640 7  93145634.40445  22747116.820                    22747122.297
        45.500          34.800
 112785621.296 8  87884926.42846  21462385.242                    21462389.453
        52.200          41.600
 111923700.264 8  87213298.50447  21298369.234                    21298372.727
        52.100          42.300
 115787473.148 8  90223998.05446  22033625.875                    22033625.590
        49.200          37.100
 110059019.929 8  85760295.08847  20943532.289                    20943534.625
        52.600          42.400
 18  2 21  8 48  0.0000000  0  8G16G05G23G06G30G09G02G07
 128645143.158 6 100242982.29043  24480357.516                    24480359.996
        40.900          22.800
 116295440.730 8  90619824.38346  22130285.758                    22130288.254
        49.700          37.900
 127696934.434 6  99504124.42343  24299922.063                    24299923.484
        40.400          22.800
 119649085.246 7  93233068.09945  22768468.977                    22768474.492
        45.700          35.100
 112730463.938 8  87841946.67346  21451889.070                    21451893.680
        51.900          41.600
 112002432.160 8  87274648.03847  21313351.758                    21313355.336
        53.200          42.600
 115829741.551 8  90256934.46846  22041669.703                    22041669.172
        48.700          36.900
 110054916.631 8  85757097.73347  20942750.938                    20942752.961
        51.000          42.500
 18  2 21  8 48 30.0000000  0  8G16G05G23G06G30G09G02G07
 128694043.108 6 100281086.14043  24489662.625                    24489664.945
        40.800          22.500
 116231272.536 8  90569823.19746  22118075.094                    22118077.473
        50.900          38.300
 127801116.377 6  99585305.07143  24319746.906                    24319748.504
        40.400          22.600
 119761577.023 7  93320724.00845  22789875.063                    22789881.355
        45.000          34.600
 112675748.683 8  87799311.42647  21441477.234                    21441481.539
        52.600          42.000
 112081425.656 8  87336201.41347  21328383.688                    21328387.430
        53.100          42.700
 115872546.566 8  90290289.00746  22049814.516                    22049814.527
        48.400          36.200
 110051343.227 8  85754313.26146  20942071.359                    20942073.074
        52.100          41.500
 18  2 21  8 49  0.0000000  0  8G16G05G23G06G30G09G02G07
 127168117.575 6  99092053.21343  24199288.867                    24199291.664
        40.800          22.600
 114591964.163 8  89292440.04446  21806125.023                    21806127.012
        51.000          37.700
 126329961.589 6  98438950.65043  24039794.945                    24039796.652
        40.200          20.900
 118298933.518 7  92181001.76045  22511543.164                    22511550.211
        45.600          34.900
 111046054.340 8  86529419.73847  21131356.883                    21131360.777
        52.300          42.100
 110585261.009 8  86170358.80547  21043672.523                    21043677.105
        52.400          42.700
 114340467.377 7  89096461.05546  21758269.945                    21758269.773
        47.000          36.200
 108472878.505 8  84524340.75647  20641698.992                    20641700.918
        51.700          42.100
 18  2 21  8 49 30.0000000  0  8G16G05G23G06G30G09G02G07
 127218204.482 6  99131081.94743  24208820.234                    24208823.680
        40.600          22.300
 114528363.146 8  89242880.81846  21794022.102                    21794024.348
        49.600          38.600
 126434304.664 6  98520256.93943  24059651.141                    24059651.832
        40.400          21.700
 118411986.751 7  92269095.15945  22533057.000                    22533062.387
        45.800          34.100
 110992228.588 8  86487477.60346  21121113.844                    21121118.336
        51.900          41.400
 110664774.129 8  86232317.06447  21058803.930                    21058807.578
        52.900          42.500
 114384342.351 8  89130649.34346  21766618.688                    21766618.484
        48.400          36.100
 108470365.365 8  84522382.47747  20641221.063                    20641223.203
        52.100          42.500
 18  2 21  8 50  0.0000000  0  8G16G05G23G06G30G09G02G07
 127268881.807 6  99170570.75143  24218463.430                    24218466.375
        39.900          22.200
 114465047.912 8  89193544.26046  21781973.781                    21781976.301
        49.500          38.800
 126538724.812 6  98601623.26843  24079520.773                    24079523.242
        39.600          19.900
 118525314.679 7  92357402.61045  22554622.711                    22554628.777
        45.800          33.600
 110938848.680 8  86445882.87146  21110956.063                    21110960.508
        52.400          41.700
 110744543.698 8  86294475.17147  21073983.758                    21073987.250
        53.000          42.200
 114428748.810 8  89165251.76346  21775069.430                    21775068.402
        49.300          36.400
 108468380.979 8  84520836.20046  20640843.547                    20640845.773
        51.900          41.700
 18  2 21  8 50 30.0000000  0  8G16G05G23G06G30G09G02G07
 127320148.478 6  99210518.77743  24228219.297                    24228221.668
        40.400          22.300
 114402020.583 8  89144432.06346  21769979.781                    21769982.281
        49.900          38.100
 126643222.745 6  98683050.16043  24099406.625                    24099408.125
        39.400          20.900
 118638915.124 7  92445922.40745  22576240.234                    22576246.188
        45.400          33.900
 110885917.021 8  86404637.42547  21100883.742                    21100888.266
        53.000          42.100
 110824569.284 8  86356832.75946  21089211.961                    21089215.922
        52.400          41.800
 114473686.503 8  89200268.13046  21783620.641                    21783619.984
        48.400          36.400
 108466926.165 8  84519702.60446  20640566.594                    20640568.949
        51.200          41.800
 18  2 21  8 51  0.0000000  0  8G16G05G23G06G30G09G02G07
 127372002.362 6  99250924.38943  24238087.227                    24238089.742
        40.900          21.700
 114339281.681 8  89095544.61046  21758041.227                    21758043.305
        50.100          39.400
 126747796.218 6  98764535.93643  24119307.047                    24119308.484
        40.200          21.800
 118752783.903 7  92534651.26745  22597908.125                    22597914.004
        44.600          32.700
 110833434.051 8  86363741.61047  21090896.508                    21090901.211
        53.200          42.600
 110904848.465 8  86419387.94447  21104488.672                    21104492.184
        52.500          42.100
 114519153.159 8  89235696.67345  21792272.977                    21792272.473
        48.400          35.900
 108465999.954 8  84518980.88347  20640390.430                    20640392.539
        51.000          42.100
 18  2 21  8 51 30.0000000  0  9G13G16G05G23G06G30G09G02G07
 130126216.923 6 101397071.24443  24762197.070                    24762201.090
        36.200          18.600
 127424436.686 6  99291782.28143  24248064.781                    24248067.180
        40.400          23.000
 114276827.328 8  89046878.87846  21746156.422                    21746158.656
        48.800          39.000
 126852438.322 6  98846075.19343  24139219.867                    24139220.898
        39.200          21.700
 118866911.895 7  92623582.15845  22619626.672                    22619631.566
        45.600          32.700
 110781395.457 8  86323192.06447  21080993.875                    21080998.105
        53.500          42.500
 110985373.971 8  86482135.08746  21119811.414                    21119814.840
        51.300          41.100
 114565141.334 7  89271531.60546  21801023.797                    21801023.590
        47.700          36.000
 108465596.261 8  84518666.32147  20640314.047                    20640315.727
        50.200          42.100
 18  2 21  8 52  0.0000000  0  9G13G16G05G23G06G30G09G02G07
 130041565.185 5 101331109.00442  24746087.680                    24746092.121
        34.400          15.600
 127477440.736 6  99333084.13243  24258150.805                    24258153.668
        41.200          22.600
 114214650.304 8  88998429.25046  21734324.570                    21734326.543
        51.000          39.200
 126957139.374 6  98927660.34443  24159143.734                    24159145.563
        40.400          22.300
 118981287.243 7  92712705.77645  22641390.992                    22641397.227
        45.500          33.200
 110729793.841 8  86282983.02447  21071174.172                    21071178.707
        52.800          42.200
 111066135.657 8  86545066.25746  21135179.938                    21135183.973
        51.000          41.200
 114611641.051 7  89307765.16146  21809872.695                    21809872.223
        46.400          36.300
 108465706.144 8  84518751.94647  20640334.648                    20640336.383
        51.300          42.200
 18  2 21  8 52 30.0000000  0  9G13G16G05G23G06G30G09G02G07
 129956981.318 6 101265199.43442  24729993.023                    24729995.730
        39.800          17.400
 127531018.743 6  99374833.20143  24268346.406                    24268348.852
        40.600          21.800
 114152758.923 8  88950202.19946  21722546.977                    21722549.164
        49.600          39.400
 127061904.541 6  99009295.48443  24179080.625                    24179082.012
        40.400          21.300
 119095913.044 7  92802024.53945  22663203.820                    22663209.965
        45.300          33.600
 110678637.105 8  86243120.63846  21061439.391                    21061443.297
        51.800          41.100
 111147138.497 8  86608185.33147  21150594.023                    21150598.563
        52.500          42.300
 114658657.104 8  89344401.05145  21818819.328                    21818819.145
        48.500          35.800
 108466335.688 8  84519242.50246  20640454.414                    20640456.340
        50.200          41.900
 18  2 21  8 53  0.0000000  0  9G13G16G05G23G06G30G09G02G07
 129872466.483 7 101199343.66743  24713911.000                    24713912.508
        42.500          20.400
 127585170.887 6  99417029.63543  24278651.703                    24278653.059
        40.700          20.900
 114091156.518 8  88902200.32446  21710824.563                    21710826.480
        51.000          39.200
 127166734.019 6  99090980.71243  24199028.773                    24199029.617
        40.600          21.300
 119210787.231 7  92891536.85745  22685063.766                    22685069.621
        44.600          32.500
 110627927.703 8  86203606.81946  21051789.359                    21051793.793
        52.000          41.800
 111228382.154 8  86671492.07047  21166055.078                    21166058.859
        52.700          42.000
 114706189.163 7  89381439.01346  21827864.609                    21827864.590
        46.000          36.100
 108467485.947 8  84520138.81547  20640672.969                    20640675.121
        51.900          42.500
 18  2 21  8 53 30.0000000  0  9G13G16G05G23G06G30G09G02G07
 129788024.536 6 101133544.76243  24697841.109                    24697844.551
        38.500          19.600
 127639898.764 6  99459674.73543  24289065.805                    24289068.215
        40.100          21.300
 114029848.122 8  88854427.54846  21699158.000                    21699159.723
        50.800          40.100
 127271630.102 6  99172717.89344  24218990.242                    24218991.078
        41.800          24.000
 119325910.013 7  92981242.87945  22706970.406                    22706976.336
        45.600          32.400
 110577670.470 8  86164445.34747  21042225.836                    21042230.250
        52.200          42.100
 111309868.670 8  86734988.04747  21181561.367                    21181565.273
        52.400          42.000
 114754238.926 7  89418880.38046  21837007.930                    21837007.777
        45.800          37.100
 108469160.020 8  84521443.29547  20640991.922                    20640993.625
        50.800          42.000
 18  2 21  8 54  0.0000000  0  9G13G16G05G23G06G30G09G02G07
 129703656.830 6 101067803.79143  24681787.234                    24681789.684
        36.800          19.000
 127695202.018 6  99502768.16343  24299589.945                    24299592.441
        40.900          20.400
 113968835.677 8  88806885.38246  21687547.695                    21687549.574
        50.500          39.200
 127376592.560 6  99254506.76443  24238963.969                    24238964.688
        40.900          21.800
 119441278.799 7  93071140.60945  22728925.539                    22728930.121
        45.500          33.200
 110527867.462 8  86125637.82047  21032748.844                    21032753.152
        52.500          42.400
 111391597.286 8  86798672.67247  21197113.914                    21197118.031
        51.300          42.200
 114802805.861 7  89456724.73046  21846249.867                    21846249.965
        45.700          36.300
 108471358.538 8  84523156.43247  20641410.234                    20641412.184
        50.900          42.200
 18  2 21  8 54 30.0000000  0  9G13G16G05G23G06G30G09G02G07
 129619362.937 6 101002120.25043  24665746.258                    24665748.762
        38.900          20.100
 127751078.219 6  99546308.04743  24310222.414                    24310224.168
        40.100          19.900
 113908120.332 8  88759574.72846  21675993.961                    21675995.988
        51.300          39.200
 127481619.690 6  99336346.03643  24258950.250                    24258950.637
        41.100          21.500
 119556889.728 7  93161227.02445  22750925.211                    22750930.758
        45.400          32.400
 110478519.372 8  86087184.77247  21023358.305                    21023362.988
        52.800          42.700
 111473565.935 8  86862544.33446  21212711.719                    21212715.574
        50.900          41.100
 114851887.865 7  89494970.42746  21855590.188                    21855589.773
        47.000          36.800
 108474080.370 8  84525277.33846  20641928.352                    20641929.977
        51.400          41.800
 18  2 21  8 55  0.0000000  0  9G13G16G05G23G06G30G09G02G07
 129535146.843 6 100936497.26543  24649720.289                    24649722.957
        37.900          18.600
 127807528.160 6  99590294.98443  24320964.781                    24320967.160
        39.800          19.300
 113847706.976 8  88712499.38746  21664497.508                    21664499.758
        50.200          39.700
 127586713.360 6  99418237.12143  24278948.547                    24278949.375
        39.700          20.400
 119672742.542 7  93251501.89145  22772970.992                    22772976.348
        45.700          32.500
 110429630.491 8  86049089.54646  21014054.875                    21014059.539
        52.500          41.800
 111555776.192 8  86926604.25146  21228355.273                    21228359.234
        49.500          40.900
 114901485.947 7  89533618.27946  21865028.563                    21865027.781
        46.000          36.500
 108477328.027 8  84527807.98247  20642546.055                    20642548.195
        50.800          42.500
 18  2 21  8 55 30.0000000  0  9G13G16G05G23G06G30G09G02G07
 129451008.219 6 100870934.65943  24633709.008                    24633712.070
        37.700          19.000
 127864550.101 6  99634727.60043  24331815.547                    24331818.695
        38.400          18.300
 113787597.258 8  88665660.65146  21653059.266                    21653061.234
        51.400          40.500
 127691872.333 6  99500179.06543  24298959.656                    24298960.473
        40.000          22.500
 119788833.568 7  93341962.39745  22795063.086                    22795068.188
        45.800          33.000
 110381201.796 8  86011352.89447  21004839.273                    21004843.504
        51.800          42.500
 111638226.245 8  86990851.03546  21244045.391                    21244049.676
        51.400          41.600
 114951598.511 7  89572667.00846  21874564.531                    21874564.281
        46.900          36.700
 108481101.024 8  84530747.98347  20643264.344                    20643266.551
        52.400          42.400
 18  2 21  8 56  0.0000000  0  9G13G16G05G23G06G30G09G02G07
 129366946.879 6 100805432.34643  24617712.953                    24617716.340
        38.900          19.600
 127922140.965 6  99679603.60443  24342775.086                    24342776.836
        39.200          18.600
 113727792.067 8  88619059.20446  21641678.688                    21641680.738
        51.400          39.600
 127797094.167 6  99582170.06043  24318982.664                    24318983.816
        41.000          22.300
 119905158.645 7  93432605.28945  22817198.469                    22817203.910
        44.900          31.900
 110333233.563 8  85973975.05447  20995711.320                    20995715.934
        52.800          42.700
 111720913.667 8  87055282.78846  21259780.656                    21259784.961
        51.500          41.800
 115002222.620 7  89612114.36046  21884197.508                    21884198.121
        45.300          36.400
 108485397.827 8  84534096.14247  20644081.906                    20644084.059
        52.000          42.700
 18  2 21  8 56 30.0000000  0  9G13G16G05G23G06G30G09G02G07
 129282965.677 6 100739992.44643  24601731.531                    24601735.250
        38.800          19.900
 127980301.821 6  99724923.74643  24353842.703                    24353845.348
        38.100          19.000
 113668295.281 8  88572698.07546  21630356.930                    21630358.602
        51.700          40.100
 127902380.429 6  99664211.26943  24339018.281                    24339019.332
        41.700          22.900
 120021716.771 7  93523429.76645  22839378.828                    22839384.430
        45.600          31.800
 110285729.381 8  85936958.81347  20986671.547                    20986676.113
        52.200          43.100
 111803839.363 8  87119900.20147  21275560.813                    21275565.645
        52.300          42.800
 115053358.926 7  89651960.82545  21893928.406                    21893929.504
        46.400          35.900
 108490220.828 8  84537854.32147  20644999.555                    20645002.109
        52.700          42.600
 18  2 21  8 57  0.0000000  0  9G13G16G05G23G06G30G09G02G07
 129199064.681 6 100674615.05443  24585766.594                    24585769.547
        41.100          20.400
 128039030.857 6  99770686.60542  24365018.133                    24365019.742
        37.300          15.600
 113609108.492 8  88526578.50346  21619093.781                    21619095.504
        52.500          39.700
 128007730.108 6  99746301.87443  24359065.406                    24359066.383
        40.200          22.000
 120138504.641 7  93614433.25345  22861602.813                    22861608.527
        44.500          32.100
 110238690.519 8  85900305.15647  20977720.148                    20977724.680
        51.600          42.900
 111887001.907 8  87184702.15746  21291386.039                    21291390.996
        51.600          41.800
 115105005.838 7  89692205.16346  21903756.734                    21903757.023
        46.300          36.600
 108495569.190 8  84542021.87247  20646017.273                    20646019.438
        53.000          42.800
 18  2 21  8 57 30.0000000  0  9G13G16G05G23G06G30G09G02G07
 129115242.576 6 100609299.16643  24569815.281                    24569818.398
        41.300          19.900
 128098323.843 6  99816888.92642  24376301.688                    24376303.387
        38.300          17.400
 113550231.376 8  88480700.22946  21607889.680                    21607891.715
        52.300          39.000
 128113139.915 6  99828439.30343  24379123.023                    24379125.371
        38.200          19.000
 120255516.875 7  93705611.57445  22883869.188                    22883875.793
        45.200          32.400
 110192116.081 8  85864013.38947  20968857.523                    20968862.047
        51.400          42.300
 111970397.722 8  87249685.88646  21307255.883                    21307260.098
        51.400          41.600
 115157159.275 7  89732844.19245  21913681.070                    21913681.770
        47.300          35.900
 108501440.346 8  84546596.80647  20647134.578                    20647136.590
        52.300          42.000
 18  2 21  8 58  0.0000000  0  9G13G16G05G23G06G30G09G02G07
 129031502.920 6 100544047.43243  24553879.734                    24553881.934
        40.200          18.300
 128158182.117 6  99863531.70343  24387692.305                    24387694.582
        39.000          19.000
 113491668.379 8  88435066.73246  21596745.906                    21596748.184
        51.700          40.100
 128218612.121 6  99910625.37443  24399194.242                    24399196.984
        39.200          21.700
 120372753.349 7  93796964.60945  22906179.133                    22906184.816
        45.700          32.700
 110146010.441 8  85828086.91747  20960083.602                    20960088.543
        52.100          42.400
 112054028.557 8  87314852.74246  21323169.922                    21323174.465
        52.000          40.800
 115209821.104 7  89773879.37746  21923702.664                    21923702.273
        47.900          36.700
 108507837.050 8  84551581.25447  20648352.008                    20648354.023
        53.100          42.700
 18  2 21  8 58 30.0000000  0  9G13G16G05G23G06G30G09G02G07
 128947849.820 6 100478863.30543  24537960.930                    24537963.574
        40.400          19.600
 128218607.960 6  99910616.75942  24399190.086                    24399192.922
        38.300          17.800
 113433424.884 8  88389682.18846  21585662.250                    21585664.375
        51.300          39.400
 128324149.113 6  99992861.92643  24419277.492                    24419279.945
        40.400          21.800
 120490214.444 7  93888492.71645  22928530.852                    22928536.262
        44.100          30.900
 110100378.474 8  85792529.54647  20951400.258                    20951404.750
        52.000          42.300
 112137896.617 8  87380204.46846  21339130.141                    21339133.590
        52.500          41.300
 115262993.190 7  89815312.15846  21933820.813                    21933820.441
        47.500          36.300
 108514762.768 8  84556977.92047  20649669.531                    20649672.027
        52.500          42.600
 18  2 21  8 59  0.0000000  0  9G13G16G05G23G06G30G09G02G07
 128864277.191 7 100413741.78943  24522058.969                    24522061.602
        42.300          22.300
 128279592.693 6  99958137.30343  24410795.633                    24410798.223
        39.200          19.300
 113375496.624 8  88344543.29146  21574638.922                    21574640.941
        52.000          39.400
 128429743.461 6 100075143.18243  24439372.320                    24439373.766
        41.300          22.500
 120607890.265 7  93980188.14745  22950923.773                    22950929.340
        43.100          30.500
 110055214.707 8  85757337.00947  20942805.813                    20942810.313
        51.800          42.500
 112221993.828 8  87445734.75546  21355133.352                    21355136.770
        52.100          41.400
 115316666.921 7  89857135.82646  21944034.570                    21944034.270
        47.200          36.000
 108522210.212 8  84562781.13447  20651086.844                    20651089.094
        52.600          42.300
 18  2 21  8 59 30.0000000  0  9G13G16G05G23G06G30G09G02G07
 128780788.692 6 100348685.86643  24506170.313                    24506173.793
        39.800          22.300
 128341137.351 6 100006094.16243  24422507.086                    24422509.172
        40.400          19.300
 113317888.888 8  88299654.15146  21563676.578                    21563678.809
        52.100          39.900
 128535397.335 7 100157470.83343  24459477.781                    24459478.883
        42.200          22.000
 120725780.630 7  94072050.70845  22973358.234                    22973363.879
        43.500          31.700
 110010523.480 8  85722512.67947  20934301.586                    20934305.711
        52.300          42.100
 112306321.975 8  87511444.98746  21371180.086                    21371183.496
        52.300          41.200
 115370843.682 8  89899351.47846  21954344.188                    21954344.172
        48.200          36.200
 108530181.909 8  84568992.84147  20652603.992                    20652605.973
        53.400          42.200
                            4  1
RINEX FILE SPLICE; other post-header comments skipped       COMMENT
 18  2 21  9  0  0.0000000  0  9G13G16G05G23G06G30G09G02G07
 128697387.730 6 100283698.17843  24490299.750                    24490302.934
        38.100          18.300
 128403243.009 6 100054488.12343  24434325.570                    24434328.191
        40.400          19.600
 113260605.998 8  88255018.13946  21552776.000                    21552778.113
        51.600          39.300
 128641112.451 7 100239846.18943  24479595.320                    24479595.613
        42.100          22.200
 120843885.356 7  94164080.30845  22995832.594                    22995837.715
        45.000          32.200
 109966309.075 8  85688059.88847  20925887.977                    20925892.188
        52.300          42.300
 112390882.671 8  87577336.43346  21387271.492                    21387275.699
        52.000          41.000
 115425524.722 8  89941960.06245  21964749.750                    21964749.918
        48.700          35.600
 108538680.481 8  84575615.11147  20654221.016                    20654222.723
        53.000          42.700
 18  2 21  9  0 30.0000000  0  9G13G16G05G23G06G30G09G02G07
 128614071.484 6 100218776.39143  24474445.336                    24474448.090
        39.600          19.900
 128465904.363 6 100103315.14643  24446249.742                    24446252.117
        40.200          20.600
 113203645.294 8  88210633.17346  21541936.852                    21541939.121
        52.700          39.600
 128746884.491 6 100322265.90643  24499722.523                    24499723.484
        41.300          21.100
 120962197.518 7  94256271.56645  23018347.164                    23018352.355
        44.000          31.900
 109922568.931 8  85653976.66047  20917564.336                    20917569.129
        52.800          42.500
 112475670.878 8  87643405.14446  21403406.344                    21403410.977
        51.300          41.800
 115480704.850 7  89984957.53946  21975250.141                    21975249.238
        47.300          36.200
 108547701.897 8  84582644.78847  20655937.891                    20655939.285
        51.600          42.200
 18  2 21  9  1  0.0000000  0  9G13G16G05G23G06G30G09G02G07
 128530839.236 6 100153920.13943  24458606.398                    24458609.500
        39.800          21.300
 128529119.147 6 100152573.35742  24458278.469                    24458281.508
        40.500          17.800
 113147008.660 8  88166500.73846  21531159.203                    21531161.656
        52.100          39.400
 128852711.642 6 100404728.54243  24519860.297                    24519861.750
        40.600          21.500
 121080713.122 7  94348621.32845  23040899.094                    23040904.289
        44.300          31.000
 109879303.507 8  85620263.34047  20909331.383                    20909335.668
        52.500          42.800
 112560684.464 8  87709649.45646  21419583.563                    21419588.535
        51.800          41.100
 115536381.146 7  90028341.66246  21985845.234                    21985844.254
        47.400          36.300
 108557244.729 8  84590080.76047  20657753.875                    20657755.477
        52.300          42.000
 18  2 21  9  1 30.0000000  0  9G13G16G05G23G06G30G09G02G07
 128447696.813 6 100089133.91843  24442785.609                    24442788.086
        40.900          21.300
 128592889.444 6 100202264.47743  24470414.367                    24470416.504
        39.700          19.300
 113090702.578 8  88122625.87646  21520444.234                    21520446.738
        52.500          39.700
 128958597.969 6 100487237.30843  24540010.070                    24540011.633
        41.700          22.200
 121199433.935 7  94441131.00145  23063491.789                    23063496.344
        45.000          32.000
 109836518.952 8  85586924.72547  20901189.672                    20901193.992
        52.500          42.900
 112645927.116 8  87776072.27546  21435804.727                    21435809.359
        51.300          41.500
 115592556.863 7  90072114.92946  21996534.531                    21996534.691
        47.200          36.200
 108567313.682 8  84597926.69147  20659669.844                    20659672.031
        53.000          42.500
 18  2 21  9  2  0.0000000  0  9G13G16G05G23G06G30G09G02G07
 128364642.283 6 100024416.13543  24426979.969                    24426983.551
        39.100          22.300
 128657211.242 6 100252385.35643  24482654.297                    24482657.664
        39.000          19.000
 113034726.803 8  88079008.39546  21509792.664                    21509794.906
        51.800          40.000
 129064539.793 6 100569789.32143  24560170.703                    24560171.563
        41.300          21.800
 121318354.213 7  94533796.11045  23086121.680                    23086126.570
        45.800          31.400
 109794213.925 8  85553959.77147  20893139.422                    20893143.984
        52.500          42.800
 112731394.891 8  87842670.52846  21452068.984                    21452072.594
        51.200          40.900
 115649227.962 7  90116274.20345  22007319.102                    22007318.734
        46.800          35.800
 108577905.345 8  84606179.93947  20661685.625                    20661687.180
        52.100          42.200
 18  2 21  9  2 30.0000000  0  9G13G16G05G23G06G30G09G02G07
 128281681.033 6  99959771.03843  24411193.516                    24411197.113
        39.400          20.400
 128722088.032 6 100302938.66043  24495000.609                    24495002.906
        39.900          19.000
 112979088.033 8  88035653.50946  21499205.047                    21499206.941
        52.300          39.100
 129170541.397 6 100652387.93343  24580341.070                    24580342.953
        40.200          21.100
 121437475.776 7  94626618.06245  23108789.422                    23108795.809
        43.200          31.800
 109752394.667 8  85521373.33747  20885181.367                    20885185.652
        52.300          43.000
 112817091.596 8  87909447.17646  21468376.563                    21468380.191
        49.300          40.600
 115706397.489 7  90160821.86145  22018197.813                    22018197.480
        45.300          35.500
 108589024.568 8  84614844.26547  20663801.461                    20663803.008
        53.300          42.700
 18  2 21  9  3  0.0000000  0  9G13G16G05G23G06G30G09G02G07
 128198809.180 6  99895195.64243  24395422.992                    24395427.336
        39.900          21.500
 128787512.636 6 100353918.82443  24507450.180                    24507453.270
        38.700          18.300
 112923783.369 8  87992558.96346  21488680.977                    21488682.820
        52.500          39.400
 129276596.927 6 100735028.50243  24600523.633                    24600524.898
        40.700          22.200
 121556790.919 7  94719590.84045  23131494.094                    23131500.719
        44.800          32.300
 109711057.731 8  85489162.74047  20877315.125                    20877319.680
        52.300          42.700
 112903011.334 8  87976397.59346  21484726.445                    21484730.613
        51.000          40.900
 115764059.068 7  90205752.93946  22029170.789                    22029170.223
        45.800          36.600
 108600666.160 8  84623915.63947  20666016.758                    20666018.313
        53.200          42.200
 18  2 21  9  3 30.0000000  0  9G13G16G05G23G06G30G09G02G07
 128116027.153 6  99830690.17543  24379669.906                    24379673.695
        39.300          21.800
 128853483.580 6 100405324.73443  24520003.586                    24520006.613
        36.200          18.300
 112868814.452 8  87949726.05146  21478220.367                    21478222.563
        51.900          38.800
 129382705.663 6 100817710.53843  24620715.063                    24620716.801
        38.900          22.000
 121676296.313 7  94812711.85645  23154235.508                    23154241.793
        44.300          31.700
 109670204.167 8  85457328.78647  20869540.875                    20869545.777
        52.600          42.600
 112989152.653 8  88043520.70046  21501118.586                    21501123.027
        52.100          40.900
 115822210.706 7  90251065.87645  22040236.516                    22040236.586
        45.900          34.600
 108612829.404 8  84633393.49346  20668331.336                    20668333.004
        51.900          41.700
 18  2 21  9  4  0.0000000  0  9G13G16G05G23G06G30G09G02G07
 128033335.174 6  99766254.87643  24363934.961                    24363937.633
        41.100          22.000
 128919998.615 5 100457154.59942  24532661.625                    24532663.898
        35.400          16.900
 112814182.749 8  87907155.89246  21467824.492                    21467826.492
        51.600          39.000
 129488866.758 6 100900433.36343  24640916.930                    24640919.340
        38.600          20.900
 121795988.550 7  94905978.50045  23177011.805                    23177017.953
        43.800          30.500
 109629834.921 8  85425872.24847  20861858.625                    20861863.688
        52.700          43.000
 113075514.174 8  88110815.35646  21517552.750                    21517557.250
        52.400          41.100
 115880850.181 7  90296758.94946  22051394.719                    22051395.609
        46.500          36.400
 108625513.801 8  84643277.42746  20670744.898                    20670746.035
        53.700          41.800
 18  2 21  9  4 30.0000000  0  9G13G16G05G23G06G30G09G02G07
 127950735.304 6  99701891.37343  24348216.008                    24348219.488
        40.400          21.500
 128987056.821 5 100509407.69042  24545422.641                    24545425.566
        35.200          16.900
 112759891.641 8  87864851.12946  21457493.305                    21457495.090
        51.700          39.400
 129595080.822 6 100983197.50343  24661129.656                    24661130.414
        40.900          21.700
 121915865.953 7  94999389.42645  23199824.328                    23199830.848
        45.300          32.400
 109589952.601 8  85394795.11747  20854269.391                    20854274.008
        52.600          42.500
 113162095.979 8  88178281.68846  21534029.063                    21534033.020
        51.800          40.200
 115939977.268 7  90342831.98745  22062646.375                    22062647.191
        45.100          35.800
 108638719.656 8  84653567.71546  20673258.023                    20673259.148
        52.700          41.700
 18  2 21  9  5  0.0000000  0  9G13G16G05G23G06G30G09G02G07
 127868227.782 6  99637599.88443  24332515.336                    24332519.008
        41.100          22.200
 129054655.734 6 100562082.12442  24558285.742                    24558288.754
        36.200          15.600
 112705942.403 8  87822812.76346  21447227.094                    21447229.016
        52.800          39.500
 129701345.872 6 101066001.40743  24681350.633                    24681352.184
        40.900          21.800
 122035924.535 7  95092941.52745  23222669.602                    23222676.441
        43.600          31.800
 109550557.533 8  85364097.66047  20846773.023                    20846777.387
        53.100          43.200
 113248896.062 8  88245918.09646  21550546.203                    21550550.332
        50.900          40.800
 115999589.225 7  90389282.83846  22073990.742                    22073991.027
        45.700          36.400
 108652446.144 8  84664263.67946  20675869.961                    20675871.348
        52.000          41.700
 18  2 21  9  5 30.0000000  0  9G13G16G05G23G06G30G09G02G07
 127785815.383 6  99573382.48543  24316833.125                    24316835.922
        41.500          21.100
 129122795.819 6 100615178.24542  24571251.969                    24571254.293
        36.700          16.300
 112652339.795 8  87781044.50246  21437026.664                    21437028.336
        52.700          40.200
 129807663.594 6 101148846.30643  24701582.305                    24701584.438
        40.700          21.300
 122156163.587 7  95186634.23445  23245551.383                    23245557.469
        44.000          31.700
 109511653.214 8  85333782.61147  20839369.555                    20839374.195
        52.800          43.200
 113335915.528 8  88313725.46346  21567105.422                    21567109.434
        51.100          40.100
 116059686.556 7  90436111.91145  22085426.617                    22085426.730
        46.600          35.900
 108666694.938 8  84675366.62446  20678581.266                    20678582.563
        52.100          41.700
 18  2 21  9  6  0.0000000  0  9G13G16G05G23G06G30G09G02G07
 127703493.720 7  99509235.76943  24301168.055                    24301170.816
        42.800          21.700
 129191469.949 6 100668690.52342  24584320.398                    24584323.375
        36.700          16.300
 112599080.348 8  87739543.63546  21426891.820                    21426893.766
        51.900          39.700
 129914028.223 6 101231727.73943  24721822.797                    24721824.250
        40.200          21.100
 122276574.998 7  95280461.26245  23268465.195                    23268470.840
        45.400          31.800
 109473235.917 8  85303847.06647  20832059.148                    20832063.953
        53.200          43.300
 113423148.303 8  88381699.02346  21583704.938                    21583709.102
        52.100          40.300
 116120262.676 7  90483314.04846  22096954.094                    22096953.992
        47.400          36.900
 108681460.527 8  84686872.28046  20681391.125                    20681392.688
        51.900          41.600
 18  2 21  9  6 30.0000000  0  9G13G16G05G23G06G30G09G02G07
 127621267.118 7  99445163.11643  24285520.789                    24285523.223
        42.100          20.400
 129260679.694 6 100722620.16143  24597491.297                    24597493.059
        37.800          19.300
 112546169.826 8  87698314.65646  21416823.141                    21416825.160
        51.800          39.300
 130020442.449 6 101314647.88043  24742073.094                    24742073.965
        41.300          20.400
 122397159.433 7  95374423.11844  23291410.898                    23291416.063
        42.700          29.400
 109435310.411 8  85274294.72847  20824842.141                    20824846.684
        52.400          43.300
 113510596.811 8  88449840.70646  21600346.359                    21600350.500
        51.200          40.800
 116181319.421 8  90530890.72146  22108572.758                    22108572.754
        48.200          36.000
 108696746.227 8  84698783.18846  20684299.750                    20684301.238
        52.500          41.600
 18  2 21  9  7  0.0000000  0  9G13G16G05G23G06G30G09G02G07
 127539136.215 6  99381165.04243  24269891.047                    24269894.410
        41.100          21.500
 129330422.927 6 100776965.51343  24610761.961                    24610765.203
        37.800          18.600
 112493609.235 8  87657358.35246  21406821.430                    21406823.703
        52.100          39.400
 130126905.316 6 101397605.87843  24762333.047                    24762333.352
        41.400          20.100
 122517913.448 7  95468517.09844  23314389.594                    23314395.691
        42.600          29.700
 109397877.575 8  85245126.28747  20817719.094                    20817723.566
        53.000          43.600
 113598259.586 8  88518149.35446  21617028.172                    21617031.930
        51.600          41.100
 116242854.374 7  90578840.00846  22120282.867                    22120282.391
        47.000          36.000
 108712550.926 8  84711098.53646  20687307.070                    20687308.715
        51.500          41.800
 18  2 21  9  7 30.0000000  0  9G13G16G05G23G06G30G09G02G07
 127457097.540 7  99317238.80943  24254280.273                    24254283.461
        42.000          22.900
 129400694.028 6 100831722.18743  24624134.766                    24624137.391
        37.800          19.300
 112441396.425 8  87616673.04246  21396885.469                    21396887.824
        52.700          39.400
 130233412.196 6 101480598.17343  24782599.719                    24782600.688
        40.800          20.100
 122638830.085 7  95562737.80545  23337400.211                    23337405.777
        44.500          31.800
 109360934.593 8  85216339.54847  20810689.023                    20810693.199
        53.400          44.000
 113686131.587 8  88586621.02446  21633749.289                    21633753.820
        51.500          40.100
 116304861.815 8  90627157.47146  22132082.367                    22132082.535
        48.100          36.900
 108728870.124 8  84723814.80046  20690412.852                    20690414.176
        51.600          41.700
 18  2 21  9  8  0.0000000  0  9G13G16G05G23G06G30G09G02G07
 127375139.030 6  99253375.06143  24238683.906                    24238686.980
        41.600          22.600
 129471477.556 6 100886878.14843  24637604.414                    24637606.793
        39.400          18.600
 112389521.901 8  87576251.33546  21387014.445                    21387016.371
        51.800          39.500
 130339949.402 6 101563614.10443  24802873.547                    24802874.371
        40.500          20.900
 122759893.385 7  95657072.80345  23360438.008                    23360442.668
        43.400          30.900
 109324469.737 8  85187925.37547  20803749.820                    20803754.531
        52.800          44.000
 113774198.790 8  88655244.80346  21650507.531                    21650512.219
        49.900          39.900
 116367327.154 7  90675831.71446  22143969.109                    22143968.762
        47.400          36.400
 108745690.874 8  84736921.87646  20693613.859                    20693615.371
        52.100          41.900
 18  2 21  9  8 30.0000000  0  9G13G16G05G23G06G30G09G02G07
 127293265.532 6  99189577.58243  24223103.852                    24223106.734
        41.800          22.300
 129542775.984 6 100942435.31043  24651171.594                    24651174.418
        39.800          20.600
 112337991.235 8  87536097.56446  21377208.180                    21377210.293
        52.300          39.800
 130446520.225 6 101646656.21143  24823153.273                    24823155.063
        39.500          22.200
 122881104.481 7  95751522.95245  23383502.391                    23383508.254
        43.400          30.000
 109288488.306 8  85159887.90447  20796902.703                    20796907.883
        52.600          44.100
 113862464.230 8  88724023.04146  21667303.977                    21667308.262
        51.000          39.500
 116430252.729 7  90724864.58745  22155942.742                    22155942.852
        46.800          35.700
 108763016.124 8  84750422.06646  20696910.438                    20696912.703
        52.500          41.800
 18  2 21  9  9  0.0000000  0  8G13G16G05G06G30G09G02G07
 127211482.126 7  99125850.22743  24207541.453                    24207543.824
        42.700          21.700
 129614591.803 6 100998395.65543  24664837.742                    24664840.277
        39.400          20.600
 112286810.540 8  87496216.50846  21367468.906                    21367470.965
        51.000          40.200
 123002464.791 7  95846089.39244  23406596.641                    23406601.750
        43.000          29.900
 109252995.878 8  85132231.47147  20790148.430                    20790153.234
        52.400          43.500
 113950931.254 8  88792958.36546  21684138.977                    21684142.945
        51.800          39.600
 116493640.806 7  90774257.86445  22168005.594                    22168005.586
        47.200          35.700
 108780850.018 8  84764318.60546  20700304.203                    20700306.484
        51.400          41.700
 18  2 21  9  9 30.0000000  0  8G13G16G05G06G30G09G02G07
 127129801.360 6  99062202.92343  24191996.945                    24192000.113
        40.300          21.100
 129686934.704 6 101054766.71743  24678604.906                    24678607.883
        39.600          21.700
 112235993.503 8  87456618.81046  21357798.711                    21357800.707
        52.000          39.900
 123123983.033 7  95940778.91745  23429721.820                    23429725.383
        45.200          31.100
 109218005.352 8  85104966.12747  20783490.172                    20783494.777
        52.200          43.500
 114039610.510 8  88862059.07446  21701014.305                    21701018.090
        50.700          39.900
 116557501.364 7  90824019.27745  22180157.445                    22180158.555
        47.000          35.400
 108799203.775 8  84778620.22646  20703796.773                    20703799.047
        52.300          41.900
 18  2 21  9 10  0.0000000  0  8G13G16G05G06G30G09G02G07
 127048233.239 6  98998643.41743  24176475.594                    24176478.316
        41.900          21.100
 129759812.058 6 101111554.21043  24692472.094                    24692476.398
        37.200          19.600
 112185551.486 8  87417313.34146  21348199.641                    21348202.043
        52.500          39.500
 123245665.676 7  96035596.54045  23452876.555                    23452882.344
        42.300          31.500
 109183527.269 8  85078100.09747  20776929.375                    20776933.734
        53.000          43.700
 114128510.343 8  88931331.67146  21717931.211                    21717934.949
        49.700          38.800
 116621842.171 7  90874154.93746  22192401.766                    22192401.273
        47.500          36.100
 108818086.301 8  84793333.87747  20707390.063                    20707392.527
        52.100          42.100
 18  2 21  9 10 30.0000000  0  8G13G16G05G06G30G09G02G07
 126966770.763 6  98935166.18243  24160973.383                    24160976.508
        40.800          21.700
 129833213.396 6 101168749.99943  24706439.891                    24706442.961
        36.800          20.100
 112135478.609 8  87378295.52246  21338671.359                    21338673.445
        52.600          39.700
 123367501.699 6  96130533.60644  23476060.867                    23476067.102
        41.600          29.900
 109149554.627 8  85051627.91147  20770464.914                    20770469.145
        53.100          43.600
 114217621.614 8  89000769.00646  21734888.328                    21734893.070
        48.800          39.100
 116686652.720 7  90924656.64046  22204734.586                    22204734.703
        47.600          36.400
 108837488.556 8  84808452.52747  20711082.094                    20711084.371
        52.000          42.000
 18  2 21  9 11  0.0000000  0  8G13G16G05G06G30G09G02G07
 126885413.002 6  98871770.58943  24145491.578                    24145494.773
        41.100          22.500
 129907135.308 6 101226351.47043  24720507.563                    24720510.684
        37.600          20.100
 112085775.587 8  87339565.89446  21329213.438                    21329215.570
        53.200          40.200
 123489486.313 7  96225586.49944  23499274.320                    23499279.797
        44.300          29.200
 109116086.858 8  85025549.12547  20764095.984                    20764100.746
        53.200          44.000
 114306941.601 8  89070368.96846  21751885.078                    21751890.602
        48.700          39.400
 116751929.917 7  90975521.94645  22217156.438                    22217156.563
        46.400          35.700
 108857408.381 8  84823974.46947  20714872.891                    20714875.121
        52.800          42.200
 18  2 21  9 11 30.0000000  0  8G13G16G05G06G30G09G02G07
 126804159.035 6  98808455.93243  24130029.508                    24130032.172
        40.200          21.800
 129981574.146 6 101284355.73543  24734673.070                    24734675.281
        37.800          19.300
 112036442.374 8  87301124.42446  21319825.422                    21319827.488
        52.700          40.200
 123611614.782 7  96320751.55345  23522514.969                    23522520.297
        45.400          30.200
 109083123.315 8  84999863.24547  20757823.102                    20757827.785
        53.200          44.300
 114396467.491 8  89140129.37446  21768922.500                    21768926.711
        50.200          39.400
 116817669.914 7  91026747.88345  22229666.820                    22229666.277
        47.000          35.600
 108877843.517 8  84839897.96846  20718761.602                    20718763.891
        52.300          41.500
 18  2 21  9 12  0.0000000  0  8G13G16G05G06G30G09G02G07
 126723007.457 6  98745221.00243  24114586.766                    24114590.102
        39.400          22.000
 130056525.718 6 101342759.50043  24748935.742                    24748938.016
        37.400          19.300
 111987478.808 8  87262970.99446  21310508.031                    21310509.734
        52.500          39.800
 123733882.197 7  96416024.82245  23545781.492                    23545787.719
        43.400          30.600
 109050663.038 8  84974569.52647  20751646.000                    20751650.914
        52.100          44.400
 114486196.251 8  89210047.85446  21785997.258                    21786000.508
        50.200          39.200
 116883868.654 7  91078331.29045  22242263.688                    22242264.023
        47.400          35.800
 108898791.245 8  84856220.87047  20722747.828                    20722750.094
        52.900          42.100
 18  2 21  9 12 30.0000000  0  8G13G16G05G06G30G09G02G07
 126641962.648 7  98682069.28043  24099165.102                    24099167.254
        42.700          21.700
 130131991.427 6 101401563.88542  24763296.023                    24763299.102
        37.500          17.800
 111938891.002 8  87225110.36346  21301262.367                    21301263.871
        52.800          40.100
 123856289.352 7  96511406.94445  23569074.781                    23569081.824
        43.600          31.300
 109018710.854 8  84949671.73247  20745565.898                    20745570.605
        53.500          44.100
 114576130.543 8  89280126.52446  21803111.047                    21803114.105
        50.500          39.800
 116950527.904 7  91130273.51745  22254948.688                    22254948.344
        47.000          35.000
 108920255.291 8  84872946.09546  20726832.383                    20726834.754
        53.300          41.800
 18  2 21  9 13  0.0000000  0  8G13G16G05G06G30G09G02G07
 126561025.709 6  98619001.57343  24083763.234                    24083765.602
        41.000          22.500
 130207969.612 6 101460767.64043  24777754.445                    24777756.957
        38.500          18.300
 111890680.937 8  87187544.07046  21292088.117                    21292089.773
        52.000          40.200
 123978833.551 7  96606895.85444  23592394.359                    23592400.914
        42.900          29.900
 108987268.095 8  84925170.89147  20739583.148                    20739587.379
        52.500          44.200
 114666269.721 8  89350364.82946  21820263.859                    21820267.867
        50.200          39.800
 117017646.115 7  91182573.34745  22267720.805                    22267721.090
        46.600          35.500
 108942234.433 8  84890072.69846  20731014.664                    20731016.691
        53.100          41.600
 18  2 21  9 13 30.0000000  0  8G13G16G05G06G30G09G02G07
 126480194.931 6  98556016.65143  24068381.148                    24068384.207
        39.900          22.500
 130284456.276 6 101520367.58643  24792308.641                    24792311.801
        38.700          18.300
 111842848.019 8  87150271.67146  21282985.555                    21282987.508
        52.200          40.200
 124101509.502 7  96702487.48244  23615739.219                    23615744.262
        42.500          28.500
 108956333.525 8  84901066.03247  20733696.219                    20733700.379
        53.200          44.500
 114756610.410 8  89420760.13646  21837454.633                    21837458.770
        49.500          39.100
 117085219.051 7  91235227.50745  22280579.531                    22280579.059
        46.800          35.200
 108964725.824 8  84907598.46646  20735294.836                    20735296.434
        53.400          41.500
 18  2 21  9 14  0.0000000  0  7G13G05G06G30G09G02G07
 126399472.384 6  98493116.04543  24053020.281                    24053022.688
        40.600          22.500
 111795395.683 8  87113295.82046  21273955.930                    21273957.688
        52.300          40.400
 124224314.937 6  96798179.98044  23639107.336                    23639114.027
        41.500          28.600
 108925908.748 8  84877358.40947  20727906.766                    20727910.551
        53.600          44.300
 114847152.186 8  89491312.16046  21854684.375                    21854688.770
        49.100          39.300
 117153245.574 7  91288235.12245  22293524.219                    22293524.566
        47.000          35.200
 108987729.681 8  84925523.54746  20739672.141                    20739674.258
        52.900          41.300
 18  2 21  9 14 30.0000000  0  7G13G05G06G30G09G02G07
 126318874.917 6  98430312.91843  24037683.313                    24037685.895
        41.100          22.900
 111748341.901 8  87076630.53946  21265001.672                    21265003.512
        52.000          40.500
 124347263.243 7  96893983.80445  23662504.078                    23662511.398
        42.300          31.000
 108896011.144 9  84854061.58247  20722217.023                    20722221.031
        54.100          44.200
 114937910.437 8  89562032.85046  21871955.094                    21871959.211
        50.200          39.600
 117221739.538 7  91341606.99045  22306558.383                    22306558.523
        46.400          35.200
 109011261.493 8  84943860.02046  20744150.352                    20744152.313
        53.300          41.800
 18  2 21  9 15  0.0000000  0  7G13G05G06G30G09G02G07
 126238404.750 7  98367608.94643  24022370.594                    24022372.488
        42.200          22.800
 111701690.347 8  87040278.68246  21256124.328                    21256126.238
        52.400          40.100
 124470352.987 6  96989897.81744  23685927.219                    23685933.930
        41.700          28.900
 108866643.209 8  84831177.47347  20716628.422                    20716632.934
        53.200          44.100
 115028885.720 8  89632922.67246  21889267.250                    21889271.379
        51.300          39.000
 117290700.841 7  91395343.01645  22319681.625                    22319681.625
        46.800          35.600
 109035322.326 8  84962608.71746  20748728.891                    20748730.816
        53.100          41.800
 18  2 21  9 15 30.0000000  0  7G13G05G06G30G09G02G07
 126158049.348 6  98304994.45543  24007078.031                    24007080.719
        41.600          22.300
 111655429.808 8  87004231.51146  21247321.102                    21247322.852
        51.400          40.100
 124593567.849 7  97085909.34144  23709374.313                    23709380.668
        42.300          27.900
 108837792.538 8  84808696.43247  20711138.289                    20711142.887
        53.400          44.300
 115120063.564 8  89703970.32946  21906618.242                    21906621.691
        51.000          39.500
 117360114.053 7  91449431.17145  22332890.523                    22332890.762
        46.300          35.900
 109059897.696 8  84981758.36046  20753405.383                    20753407.086
        52.600          41.900
 18  2 21  9 16  0.0000000  0  7G13G05G06G30G09G02G07
 126077806.052 6  98242467.27143  23991809.242                    23991810.805
        41.800          22.800
 111609559.217 8  86968488.18846  21238592.055                    21238594.043
        52.200          40.600
 124716901.893 6  97182013.74244  23732843.852                    23732849.680
        41.200          26.700
 108809457.068 8  84786616.84447  20705745.984                    20705751.258
        53.200          44.900
 115211440.043 8  89775172.76646  21924005.984                    21924010.391
        49.600          38.700
 117429973.731 7  91503867.22746  22346184.039                    22346184.684
        46.900          36.000
 109084984.265 8  85001306.33446  20758179.266                    20758181.262
        52.700          41.500
 18  2 21  9 16 30.0000000  0  7G13G05G06G30G09G02G07
 125997675.426 6  98180027.90943  23976560.508                    23976563.219
        41.500          22.200
 111564079.365 8  86933049.34946  21229937.516                    21229939.488
        52.700          40.400
 124840351.425 7  97278208.14444  23756336.523                    23756341.547
        43.400          28.900
 108781636.971 8  84764938.85747  20700452.398                    20700456.871
        53.400          44.600
 115303013.304 8  89846528.53446  21941431.938                    21941437.012
        49.600          39.500
 117500277.169 7  91558649.08446  22359562.570                    22359563.777
        46.700          36.000
 109110580.558 8  85021251.49846  20763049.805                    20763051.445
        52.900          41.700
 18  2 21  9 17  0.0000000  0  7G13G05G06G30G09G02G07
 125917655.752 7  98117674.98443  23961333.508                    23961335.961
        42.200          22.300
 111518990.340 8  86897915.05146  21221357.508                    21221359.285
        51.600          41.000
 124963910.942 7  97374488.23244  23779849.016                    23779854.867
        44.300          29.000
 108754330.650 8  84743661.20647  20695256.133                    20695260.574
        53.200          44.600
 115394779.960 8  89918034.98246  21958894.695                    21958898.766
        49.700          39.200
 117571019.893 7  91613773.19746  22373024.445                    22373026.020
        46.300          36.200
 109136682.759 8  85041590.87146  20768016.828                    20768018.617
        52.100          41.300
 18  2 21  9 17 30.0000000  0  7G13G05G06G30G09G02G07
 125837748.699 7  98055409.81343  23946127.250                    23946129.391
        43.400          22.600
 111474294.768 8  86863087.33246  21212852.656                    21212853.801
        52.100          40.200
 125087578.549 7  97470852.52944  23803381.469                    23803388.176
        42.800          26.100
 108727539.992 8  84722785.37147  20690158.320                    20690162.199
        53.800          44.200
 115486739.860 8  89989692.03746  21976394.242                    21976398.559
        50.000          39.400
 117642200.996 7  91669238.93745  22386570.117                    22386570.406
        46.600          35.800
 109163291.369 8  85062324.85746  20773080.398                    20773082.531
        52.600          40.700
 18  2 21  9 18  0.0000000  0  7G13G05G06G30G09G02G07
 125757958.531 7  97993235.69943  23930942.867                    23930945.293
        43.100          23.800
 111429998.276 8  86828570.58446  21204422.992                    21204424.883
        52.100          40.300
 125211354.865 7  97567301.53844  23826936.250                    23826940.961
        42.700          26.000
 108701269.393 8  84702314.77447  20685158.953                    20685163.148
        53.700          44.300
 115578895.617 8  90061501.70246  21993931.445                    21993934.918
        49.200          39.000
 117713821.577 7  91725047.12745  22400198.930                    22400199.059
        46.800          35.400
 109190409.166 8  85083455.59546  20778240.750                    20778243.184
        51.800          40.800
 18  2 21  9 18 30.0000000  0  7G13G05G06G30G09G02G07
 125678280.971 7  97931149.33844  23915781.461                    23915783.734
        43.400          24.900
 111386097.882 8  86794362.48446  21196068.695                    21196071.031
        51.700          40.600
 125335231.948 7  97663829.11344  23850508.961                    23850514.164
        42.600          26.200
 108675514.857 8  84682246.30847  20680258.117                    20680262.164
        52.900          44.100
 115671241.368 8  90133459.40246  22011503.578                    22011507.738
        48.200          38.200
 117785874.851 7  91781192.48445  22413910.531                    22413910.277
        46.400          35.100
 109218030.331 8  85104978.57446  20783497.078                    20783499.223
        51.800          41.100
 18  2 21  9 19  0.0000000  0  7G13G05G06G30G09G02G07
 125598721.457 7  97869154.97044  23900642.086                    23900644.941
        43.800          24.300
 111342600.340 8  86760468.28646  21187791.453                    21187793.566
        51.400          40.300
 125459211.547 7  97760436.54744  23874101.773                    23874107.543
        42.500          28.100
 108650281.773 8  84662584.15947  20675456.164                    20675460.449
        52.700          43.800
 115763780.732 8  90205567.97146  22029113.406                    22029117.012
        49.100          38.100
 117858363.117 7  91837676.78245  22427703.805                    22427704.301
        46.000          35.700
 109246158.501 8  85126896.62046  20788849.539                    20788851.793
        52.300          41.600
 18  2 21  9 19 30.0000000  0  7G13G05G06G30G09G02G07
 125519279.138 7  97807251.91544  23885524.531                    23885527.770
        43.200          25.300
 111299505.741 8  86726888.07746  21179590.914                    21179593.039
        52.100          40.400
 125583288.886 6  97857120.09244  23897712.086                    23897719.344
        41.200          27.300
 108625569.076 8  84643327.51647  20670753.477                    20670757.813
        52.700          44.300
 115856510.763 8  90277825.09646  22046759.281                    22046763.895
        48.700          38.500
 117931282.275 7  91894496.88045  22441580.742                    22441580.914
        46.000          35.200
 109274791.224 8  85149207.82646  20794298.086                    20794300.113
        51.800          41.000
 18  2 21  9 20  0.0000000  0  7G13G05G06G30G09G02G07
 125439953.354 7  97745439.68443  23870428.820                    23870432.211
        42.700          23.800
 111256814.092 8  86693621.86546  21171467.031                    21171469.320
        51.400          40.500
 125707459.371 6  97953876.28044  23921340.406                    23921348.223
        38.100          26.400
 108601376.027 8  84624475.79747  20666149.711                    20666154.324
        51.800          44.400
 115949429.031 7  90350228.91246  22064440.531                    22064445.242
        47.300          38.600
 118004628.541 7  91951649.77445  22455537.750                    22455538.223
        45.500          34.400
 109303926.175 8  85171910.38946  20799842.227                    20799844.383
        52.500          41.300
 18  2 21  9 20 30.0000000  0  7G13G05G06G30G09G02G07
 125360746.958 7  97683720.46644  23855356.688                    23855359.266
        43.800          25.400
 111214529.952 8  86660673.19846  21163420.500                    21163422.758
        52.000          41.400
 125831722.661 6  98050704.74244  23944987.633                    23944994.289
        39.400          25.900
 108577705.823 8  84606031.48347  20661645.414                    20661649.844
        53.200          44.700
 116042536.864 7  90422780.46946  22082159.047                    22082162.926
        46.700          37.800
 118078402.460 7  92009135.89645  22469576.609                    22469577.117
        45.200          34.900
 109333564.301 8  85195005.03046  20805482.320                    20805484.012
        52.300          41.600
 18  2 21  9 21  0.0000000  0  7G13G05G06G30G09G02G07
 125281657.853 7  97622092.62944  23840306.375                    23840309.109
        42.300          26.600
 111172653.047 8  86628041.83646  21155451.648                    21155454.164
        52.100          40.400
 125956072.791 6  98147600.94944  23968650.375                    23968657.078
        39.600          24.700
 108554556.362 8  84587992.95047  20657240.258                    20657244.477
        53.100          44.500
 116135830.485 8  90495476.79646  22099912.820                    22099916.527
        48.700          38.600
 118152598.660 7  92066951.11345  22483695.719                    22483696.281
        46.400          34.700
 109363702.025 8  85218488.97946  20811217.664                    20811218.906
        51.800          41.700
 18  2 21  9 21 30.0000000  0  7G13G05G06G30G09G02G07
 125202686.739 7  97560556.70644  23825278.789                    23825281.535
        42.600          25.500
 111131184.411 8  86595728.62246  21147560.188                    21147562.730
        51.900          40.300
 126080506.670 6  98244562.33044  23992330.234                    23992336.750
        40.500          27.600
 108531928.146 8  84570360.57947  20652934.133                    20652938.387
        53.400          44.300
 116229308.666 8  90568316.89946  22117702.133                    22117704.707
        50.800          39.600
 118227214.948 7  92125093.69745  22497894.570                    22497895.004
        46.500          34.300
 109394338.469 8  85242361.53646  20817047.633                    20817048.766
        50.900          40.800
 18  2 21  9 22  0.0000000  0  7G13G05G06G30G09G02G07
 125123836.697 7  97499115.16044  23810274.445                    23810277.051
        42.600          25.700
 111090128.627 8  86563737.10146  21139747.664                    21139750.262
        51.200          41.000
 126205023.912 6  98341588.69844  24016024.773                    24016031.105
        40.200          26.500
 108509824.382 8  84553136.86547  20648728.273                    20648732.375
        53.200          44.200
 116322972.984 8  90641302.04846  22135525.609                    22135528.043
        51.200          39.400
 118302251.395 7  92183563.64145  22512173.313                    22512174.176
        46.600          35.200
 109425474.995 8  85266623.75746  20822972.516                    20822973.371
        49.900          41.400
 18  2 21  9 22 30.0000000  0  7G13G05G06G30G09G02G07
 125045106.941 6  97437767.30244  23795291.328                    23795295.090
        41.300          25.600
 111049485.882 8  86532067.43246  21132013.555                    21132016.055
        51.500          40.900
 126329619.713 6  98438676.31344  24039735.297                    24039740.285
        40.500          25.300
 108488243.962 8  84536320.95947  20644621.516                    20644625.484
        53.600          44.700
 116416820.576 8  90714429.99546  22153383.945                    22153386.973
        51.900          39.300
 118377703.856 7  92242357.77245  22526532.453                    22526532.004
        47.400          34.300
 109457108.848 8  85291273.51346  20828992.258                    20828993.441
        50.200          41.000
 18  2 21  9 23  0.0000000  0  7G13G05G06G30G09G02G07
 124966497.118 7  97376512.93844  23780333.680                    23780336.242
        42.200          25.200
 111009257.440 8  86500720.60946  21124358.258                    21124360.473
        52.300          41.100
 126454290.453 6  98535822.28943  24063458.992                    24063463.395
        40.200          23.000
 108467186.782 9  84519912.76347  20640614.359                    20640618.305
        54.200          44.400
 116510849.632 8  90787699.34046  22171276.469                    22171280.793
        50.000          39.500
 118453569.446 7  92301473.79945  22540968.789                    22540967.785
        46.400          33.700
 109489238.312 8  85316309.45446  20835106.234                    20835107.613
        50.800          40.900
 18  2 21  9 23 30.0000000  0  7G13G05G06G30G09G02G07
 124888007.138 6  97315351.94744  23765396.531                    23765400.188
        41.100          25.300
 110969443.357 8  86469696.65246  21116782.039                    21116784.262
        52.100          41.400
 126579031.813 6  98633023.26744  24087195.570                    24087202.000
        40.500          25.400
 108446652.148 8  84503911.74947  20636706.422                    20636711.012
        53.000          44.500
 116605057.889 8  90861108.35046  22189203.320                    22189207.613
        49.600          38.300
 118529844.348 8  92360908.76945  22555483.695                    22555483.684
        48.000          35.400
 109521860.930 8  85341729.68146  20841314.266                    20841316.441
        52.700          41.000
 18  2 21  9 24  0.0000000  0  7G13G05G06G30G09G02G07
 124809638.915 7  97254285.81444  23750483.875                    23750486.445
        43.000          24.900
 110930047.966 8  86438998.94846  21109285.305                    21109287.414
        51.900          40.800
 126703842.750 7  98730278.46844  24110947.305                    24110953.625
        45.000          28.100
 108426642.632 9  84488319.92247  20632898.953                    20632903.457
        54.000          44.900
 116699446.279 8  90934657.72146  22207164.625                    22207168.809
        48.100          37.300
 118606528.308 7  92420662.45945  22570075.586                    22570075.719
        46.900          34.700
 109554977.573 8  85367534.85746  20847615.922                    20847618.477
        51.500          41.500
 18  2 21  9 24 30.0000000  0  7G13G05G06G30G09G02G07
 124731395.709 7  97193317.12044  23735595.063                    23735597.551
        44.000          26.300
 110891074.784 8  86408630.23246  21101869.094                    21101870.906
        52.300          41.200
 126828722.023 7  98827586.94844  24134711.234                    24134717.555
        43.700          27.100
 108407160.483 8  84473139.03047  20629191.805                    20629195.887
        53.900          44.400
 116794015.492 8  91008348.00846  22225159.844                    22225164.598
        49.300          37.000
 118683620.710 7  92480734.44045  22584746.445                    22584746.523
        46.300          33.800
 109588589.062 8  85393725.60746  20854012.063                    20854014.387
        52.600          40.900
 18  2 21  9 25  0.0000000  0  7G13G05G06G30G09G02G07
 124653276.146 7  97132444.78144  23720729.430                    23720731.133
        43.600          25.600
 110852523.769 8  86378590.47546  21094532.813                    21094535.172
        52.600          41.300
 126953665.001 6  98924945.03244  24158486.297                    24158493.188
        41.700          24.100
 108388204.487 8  84458368.12347  20625584.398                    20625588.715
        53.200          44.100
 116888762.741 8  91082176.99946  22243189.680                    22243194.508
        48.800          36.400
 118761117.080 7  92541121.16845  22599493.164                    22599493.473
        47.000          33.800
 109622692.541 8  85420299.72846  20860501.906                    20860504.039
        51.200          41.300
 18  2 21  9 25 30.0000000  0  7G13G05G06G30G09G02G07
 124575280.144 7  97071668.68243  23705887.563                    23705889.281
        45.200          23.800
 110814396.407 8  86348880.84546  21087277.648                    21087279.758
        52.300          41.800
 127078667.875 7  99022349.79944  24182274.156                    24182279.863
        43.600          25.800
 108369774.368 8  84444006.99847  20622077.430                    20622081.895
        53.900          44.600
 116983686.189 8  91156143.32045  22261252.531                    22261257.828
        48.400          35.600
 118839014.529 7  92601820.44845  22614316.625                    22614317.188
        47.300          33.600
 109657286.127 8  85447255.75746  20867084.672                    20867086.914
        51.900          41.800
 18  2 21  9 26  0.0000000  0  7G13G05G06G30G09G02G07
 124497418.743 7  97010997.47544  23691070.039                    23691072.922
        44.100          24.900
 110776704.360 8  86319510.42546  21080105.070                    21080107.402
        51.800          41.100
 127203737.900 7  99119806.92144  24206074.672                    24206080.191
        44.100          25.500
 108351880.997 8  84430064.11847  20618672.492                    20618676.742
        53.400          44.700
 117078795.176 7  91230254.21345  22279351.305                    22279356.055
        46.000          34.700
 118917320.905 7  92662838.40545  22629217.961                    22629218.008
        47.300          33.600
 109692378.894 8  85474600.76647  20873762.695                    20873764.762
        52.500          42.100
 18  2 21  9 26 30.0000000  0  7G13G05G06G30G09G02G07
 124419702.883 7  96950439.68544  23676281.523                    23676284.137
        43.900          26.500
 110739459.663 8  86290488.58846  21073017.461                    21073019.871
        52.500          41.800
 127328882.426 6  99217322.08944  24229887.922                    24229894.711
        41.600          26.500
 108334535.049 8  84416547.79247  20615371.727                    20615375.613
        53.500          45.100
 117174098.862 7  91304516.81845  22297487.211                    22297492.949
        46.400          35.400
 118996044.120 7  92724181.15045  22644198.492                    22644198.656
        46.900          33.700
 109727979.789 8  85502341.72046  20880537.445                    20880539.785
        52.700          41.600
 18  2 21  9 27  0.0000000  0  7G13G05G06G30G09G02G07
 124342124.903 7  96889989.34044  23661519.531                    23661521.672
        43.700          26.200
 110702655.838 8  86261810.28246  21066014.086                    21066016.434
        52.300          41.700
 127454090.347 6  99314886.64744  24253714.477                    24253721.262
        40.700          25.500
 108317728.785 8  84403452.00747  20612173.484                    20612178.055
        53.800          45.000
 117269588.063 7  91378923.94746  22315657.992                    22315664.293
        46.500          36.900
 119075173.163 7  92785840.10745  22659256.422                    22659257.238
        47.400          34.200
 109764079.762 8  85530471.57946  20887406.930                    20887409.090
        52.200          41.500
 18  2 21  9 27 30.0000000  0  7G13G05G06G30G09G02G07
 124264685.698 6  96829647.11044  23646782.531                    23646785.984
        41.800          26.000
 110666295.011 8  86233477.17946  21059094.813                    21059097.285
        51.000          41.800
 127579358.839 7  99412498.37444  24277553.141                    24277559.523
        42.000          25.700
 108301462.784 8  84390777.21047  20609078.219                    20609082.297
        51.800          44.500
 117365261.886 7  91453474.97445  22333864.789                    22333869.367
        47.000          35.400
 119154705.897 7  92847813.61045  22674390.305                    22674391.668
        46.200          33.000
 109800677.619 8  85558989.38346  20894371.352                    20894372.813
        51.300          41.400
 18  2 21  9 28  0.0000000  0  7G13G05G06G30G09G02G07
 124187376.890 6  96769406.49144  23632071.164                    23632074.938
        41.300          26.400
 110630369.326 8  86205483.13546  21052258.570                    21052260.824
        49.400          41.700
 127704675.462 6  99510147.64544  24301399.156                    24301405.750
        40.400          25.300
 108285728.107 8  84378516.41947  20606083.773                    20606088.582
        50.700          44.700
 117461109.955 7  91528161.75645  22352103.906                    22352108.586
        45.600          35.000
 119234630.355 7  92910092.36345  22689599.828                    22689600.258
        46.300          33.200
 109837762.938 8  85587887.02446  20901428.359                    20901430.258
        49.600          41.300
 18  2 21  9 28 30.0000000  0  7G13G05G06G30G09G02G07
 124110203.008 6  96709271.03144  23617385.938                    23617388.453
        41.400          26.200
 110594885.411 8  86177833.32346  21045506.336                    21045508.563
        52.300          41.700
 127830041.584 6  99607835.48243  24325255.930                    24325261.117
        39.800          23.500
 108270529.389 8  84366673.26347  20603191.844                    20603196.180
        52.800          44.900
 117557135.460 7  91602986.81545  22370376.820                    22370382.258
        45.000          34.900
 119314948.736 7  92972678.07445  22704884.133                    22704884.781
        46.100          32.700
 109875338.468 8  85617166.64946  20908578.820                    20908580.203
        51.800          41.000
 18  2 21  9 29  0.0000000  0  7G13G05G06G30G09G02G07
 124033163.215 6  96649240.01644  23602724.922                    23602727.879
        41.800          26.700
 110559843.434 8  86150527.90047  21038837.945                    21038840.102
        52.900          42.000
 127955452.685 6  99705558.36444  24349121.102                    24349127.527
        39.300          26.300
 108255865.412 8  84355246.78847  20600401.242                    20600405.727
        53.700          45.300
 117653335.852 7  91677948.13545  22388683.469                    22388688.070
        47.000          34.600
 119395656.550 7  93035567.23245  22720241.938                    22720242.688
        46.100          32.400
 109913401.354 8  85646826.06746  20915821.609                    20915823.145
        52.100          40.800
 18  2 21  9 29 30.0000000  0  7G13G05G06G30G09G02G07
 123956257.853 7  96589313.80244  23588090.758                    23588093.145
        43.100          27.100
 110525244.342 8  86123567.56646  21032254.016                    21032256.074
        52.000          41.500
 128080905.235 6  99803313.49944  24372992.641                    24373000.836
        39.900          26.100
 108241735.986 8  84344236.85347  20597712.766                    20597717.063
        52.400          44.600
 117749709.456 8  91753044.43446  22407023.492                    22407027.820
        48.300          36.100
 119476750.613 7  93098757.35545  22735673.789                    22735674.590
        45.500          32.500
 109951950.250 8  85676864.16246  20923157.516                    20923159.066
        52.000          40.900
 18  2 21  9 30  0.0000000  0  7G13G05G06G30G09G02G07
 123879484.797 7  96529490.64444  23573480.969                    23573484.016
        42.300          27.000
 110491086.846 8  86096951.34547  21025754.211                    21025756.387
        53.400          42.000
 128206393.437 6  99901096.41244  24396873.109                    24396880.734
        40.800          24.300
 108228138.650 9  84333641.52147  20595125.078                    20595129.656
        54.100          45.300
 117846252.496 8  91828272.74946  22425395.250                    22425399.445
        48.000          36.600
 119558225.663 7  93162244.35445  22751178.070                    22751178.336
        45.100          31.300
 109990980.876 8  85707277.63846  20930585.102                    20930586.082
        51.700          41.100
 18  2 21  9 30 30.0000000  0  8G13G05G28G06G30G09G02G07
 123802840.679 7  96469767.97644  23558896.414                    23558899.008
        42.300          27.100
 110457369.382 8  86070677.98546  21019338.070                    21019339.820
        52.000          41.700
 129080004.757 6 100581847.53043  24563110.313                    24563113.746
        38.900          20.400
 128331910.689 7  99998902.02944  24420758.672                    24420765.332
        42.000          24.600
 108215070.046 8  84323458.19047  20592638.359                    20592642.734
        52.400          45.400
 117942960.293 7  91903629.43946  22443797.906                    22443801.910
        47.200          36.200
 119640075.730 7  93226023.58745  22766753.602                    22766753.684
        45.200          31.300
 110030488.140 8  85738062.51046  20938102.828                    20938104.645
        51.200          41.100
 18  2 21  9 31  0.0000000  0  8G13G05G28G06G30G09G02G07
 123726316.525 6  96410138.78644  23544333.805                    23544337.398
        41.700          26.000
 110424083.017 8  86044740.55747  21013003.328                    21013005.832
        52.500          42.500
 128998165.058 6 100518076.25642  24547536.742                    24547538.559
        39.400          16.900
 128457443.912 7 100096720.11944  24444646.766                    24444653.449
        42.500          25.000
 108202520.254 8  84313679.13647  20590249.961                    20590254.734
        53.400          44.700
 118039821.720 7  91979105.83045  22462229.875                    22462233.645
        46.800          35.300
 119722288.123 7  93290085.15145  22782398.148                    22782397.750
        45.000          31.400
 110070460.713 8  85769209.96546  20945709.289                    20945710.598
        50.800          40.800
 18  2 21  9 31 30.0000000  0  8G13G05G28G06G30G09G02G07
 123649919.461 7  96350608.64244  23529796.570                    23529799.578
        42.000          26.200
 110391236.295 8  86019145.70647  21006752.789                    21006755.102
        52.900          42.300
 128916348.873 6 100454323.28942  24531968.211                    24531969.441
        38.100          17.800
 128582996.444 6 100194553.19144  24468538.133                    24468545.859
        39.200          25.500
 108190495.878 8  84304309.49947  20587961.813                    20587966.367
        52.600          44.700
 118136841.971 8  92054706.00045  22480692.352                    22480695.742
        48.100          35.500
 119804866.102 7  93354431.60145  22798112.641                    22798112.023
        45.800          31.300
 110110903.567 8  85800723.87646  20953405.406                    20953406.773
        51.500          41.400
 18  2 21  9 32  0.0000000  0  8G13G05G28G06G30G09G02G07
 123573651.500 7  96291179.08744  23515283.266                    23515285.598
        42.000          26.700
 110358832.727 8  85993896.16847  21000586.711                    21000589.113
        52.100          42.200
 128834560.545 4 100390592.27152  24516398.977                    24516407.199
        28.300          16.300
 128708567.286 6 100292400.46044  24492434.352                    24492441.594
        41.500          27.000
 108178999.056 9  84295350.93347  20585774.359                    20585778.391
        54.100          44.800
 118234021.924 8  92130430.60746  22499185.938                    22499188.898
        51.000          37.800
 119887809.418 7  93419062.69845  22813895.438                    22813896.781
        44.600          31.700
 110151817.245 8  85832604.66146  20961190.922                    20961192.879
        51.800          41.100
 18  2 21  9 32 30.0000000  0  8G13G05G28G06G30G09G02G07
 123497515.721 6  96231852.52244  23500795.516                    23500797.258
        41.600          26.000
 110326875.583 8  85968994.49847  20994505.578                    20994507.781
        53.400          42.300
 128752804.901 6 100326886.74643  24500846.570                    24500849.164
        37.900          19.900
 128834155.541 7 100390261.38044  24516333.648                    24516338.840
        44.000          25.600
 108168032.147 9  84286805.29347  20583687.336                    20583691.629
        54.100          44.500
 118331362.698 8  92206280.55346  22517709.391                    22517712.770
        50.500          37.000
 119971117.190 7  93483977.79045  22829749.203                    22829749.461
        44.600          31.000
 110193202.819 8  85864853.15446  20969066.578                    20969068.332
        51.700          41.400
 18  2 21  9 33  0.0000000  0  8G13G05G28G06G30G09G02G07
 123421511.068 6  96172628.15044  23486332.031                    23486334.324
        41.300          25.500
 110295365.638 8  85944441.29147  20988509.375                    20988511.723
        53.200          43.000
 128671083.413 6 100263207.65843  24485294.430                    24485298.367
        38.600          21.700
 128959756.548 6 100488132.33943  24540234.125                    24540238.695
        41.700          21.500
 108157593.650 8  84278671.39547  20581700.563                    20581705.020
        53.900          44.700
 118428861.604 8  92282253.66846  22536262.406                    22536266.629
        50.300          37.500
 120054785.544 7  93549173.87745  22845670.578                    22845671.320
        44.300          30.800
 110235056.812 8  85897466.62846  20977031.242                    20977033.570
        52.400          41.700
 18  2 21  9 33 30.0000000  0  8G13G05G28G06G30G09G02G07
 123345637.218 6  96113505.69444  23471893.289                    23471895.414
        41.300          26.900
 110264303.138 8  85920236.74247  20982598.695                    20982600.602
        53.600          42.900
 128589397.604 6 100199556.43343  24469750.234                    24469753.578
        40.300          19.600
 129085366.538 6 100586010.19643  24564134.875                    24564142.570
        38.100          21.300
 108147682.699 8  84270948.58247  20579814.672                    20579818.941
        53.400          44.400
 118526516.590 8  92358348.41946  22554845.375                    22554849.980
        50.300          37.300
 120138810.668 7  93614647.97345  22861659.891                    22861661.750
        43.900          31.400
 110277377.211 8  85930443.54946  20985084.352                    20985086.859
        51.800          41.300
 18  2 21  9 34  0.0000000  0  8G13G05G28G06G30G09G02G07
 123269882.413 7  96054475.97344  23457477.984                    23457480.492
        42.400          26.000
 110233677.547 8  85896372.64147  20976770.633                    20976772.750
        53.500          42.600
 128507738.249 5 100135925.72642  24454209.094                    24454213.520
        35.500          15.600
 129210970.210 6 100683883.07144  24588038.641                    24588045.082
        41.300          25.100
 108138287.291 8  84263627.48247  20578026.719                    20578030.980
        53.600          44.200
 118624314.387 8  92434554.44646  22573455.781                    22573459.227
        50.500          37.400
 120223177.659 7  93680388.41845  22877714.633                    22877715.723
        44.300          31.300
 110320150.023 8  85963773.00247  20993223.867                    20993226.109
        53.400          42.100
 18  2 21  9 34 30.0000000  0  8G13G05G28G06G30G09G02G07
 123194249.771 7  95995541.46144  23443085.539                    23443088.156
        42.600          26.800
 110203493.158 8  85872852.34647  20971026.695                    20971029.176
        53.500          42.100
 128426110.154 6 100072319.52542  24438677.633                    24438681.020
        36.600          17.800
 129336566.816 7 100781750.52544  24611939.688                    24611945.426
        42.900          26.200
 108129409.795 8  84256709.95847  20576337.063                    20576341.430
        53.300          44.500
 118722256.272 8  92510872.77646  22592093.563                    22592096.723
        51.000          36.500
 120307885.872 7  93746394.78545  22893833.813                    22893834.691
        45.200          30.100
 110363376.658 8  85997456.08846  21001449.422                    21001451.797
        52.300          41.700
 18  2 21  9 35  0.0000000  0  8G13G05G28G06G30G09G02G07
 123118745.884 7  95936707.26944  23428717.711                    23428719.258
        45.600          27.800
 110173756.684 8  85849681.06646  20965367.898                    20965370.738
        53.400          41.900
 128344522.079 6 100008744.47543  24423151.336                    24423155.465
        38.300          19.300
 129462159.131 6 100879614.62744  24635838.984                    24635845.512
        39.200          25.800
 108121055.955 8  84250200.48047  20574747.883                    20574751.805
        53.400          44.600
 118820346.824 8  92587306.96346  22610759.641                    22610763.133
        51.000          37.000
 120392938.536 7  93812669.56744  22910018.805                    22910018.926
        43.800          29.300
 110407060.706 8  86031495.59646  21009762.219                    21009764.297
        52.200          41.600
 18  2 21  9 35 30.0000000  0  8G13G05G28G06G30G09G02G07
 123043374.264 7  95877976.14144  23414375.195                    23414377.352
        44.500          26.900
 110144473.479 8  85826862.98247  20959795.773                    20959798.121
        53.200          42.100
 128262979.754 6  99945205.00842  24407635.406                    24407638.332
        39.400          17.400
 129587747.723 6 100977475.72143  24659735.813                    24659744.852
        36.900          22.200
 108113229.215 8  84244101.71647  20573258.141                    20573262.301
        53.400          44.500
 118918588.384 8  92663858.79646  22629454.078                    22629458.813
        49.300          36.500
 120478336.139 7  93879213.12744  22926269.391                    22926270.020
        43.800          29.300
 110451204.521 8  86065893.37047  21018162.430                    21018164.379
        52.300          42.000
 18  2 21  9 36  0.0000000  0  8G13G05G28G06G30G09G02G07
 122968133.885 7  95819347.28244  23400056.750                    23400060.004
        46.600          28.700
 110115643.458 8  85804398.03347  20954309.672                    20954311.645
        52.800          42.200
 128181484.485 6  99881702.25042  24392127.227                    24392130.934
        38.400          17.800
 129713327.870 6 101075330.31543  24683634.234                    24683641.602
        39.200          22.600
 108105928.054 8  84238412.51047  20571869.000                    20571873.648
        53.300          44.800
 119016978.341 8  92740526.23646  22648177.031                    22648181.910
        49.300          37.000
 120564074.496 7  93946022.18644  22942584.734                    22942584.234
        42.000          28.800
 110495804.788 8  86100646.81346  21026649.711                    21026651.969
        52.400          41.300
 18  2 21  9 36 30.0000000  0  8G13G05G28G06G30G09G02G07
 122893028.522 7  95760823.63144  23385765.258                    23385767.418
        46.300          27.900
 110087270.887 9  85782289.52747  20948910.406                    20948912.352
        54.000          42.400
 128100041.533 6  99818240.25243  24376629.180                    24376632.371
        39.200          19.000
 129838899.309 6 101173178.17443  24707529.477                    24707537.598
        38.900          22.500
 108099155.183 8  84233134.94147  20570580.070                    20570584.551
        52.600          44.400
 119115518.304 8  92817310.60246  22666928.930                    22666933.434
        50.300          37.100
 120650153.670 7  94013096.84744  22958965.680                    22958965.781
        43.400          29.400
 110540862.870 8  86135756.99146  21035223.672                    21035225.844
        52.100          41.600
 18  2 21  9 37  0.0000000  0  8G13G05G28G06G30G09G02G07
 122818061.011 7  95702407.39844  23371499.367                    23371500.746
        45.800          28.200
 110059359.648 8  85760540.50547  20943599.172                    20943601.078
        52.900          42.200
 128018655.866 6  99754822.82143  24361141.219                    24361144.984
        39.000          19.900
 129964461.476 6 101271018.80743  24731424.094                    24731430.379
        39.900          23.900
 108092912.936 8  84228270.85747  20569392.539                    20569396.746
        53.600          45.000
 119214209.579 8  92894212.85046  22685709.109                    22685713.859
        51.000          37.200
 120736572.945 7  94080436.50244  22975410.523                    22975410.938
        43.500          29.700
 110586379.587 8  86171224.55047  21043885.422                    21043887.531
        51.900          42.100
 18  2 21  9 37 30.0000000  0  8G13G05G28G06G30G09G02G07
 122743232.750 7  95644099.68844  23357260.117                    23357261.988
        44.800          27.000
 110031911.717 9  85739152.49347  20938376.016                    20938377.742
        54.000          42.500
 127937331.366 6  99691453.17343  24345664.492                    24345669.871
        38.800          19.900
 130090012.407 6 101368850.59743  24755315.648                    24755322.305
        37.100          22.000
 108087202.220 8  84223820.95147  20568305.750                    20568309.805
        52.600          45.100
 119313052.062 8  92971232.94846  22704518.281                    22704522.410
        50.400          36.000
 120823330.564 7  94148039.80345  22991920.094                    22991919.852
        42.500          30.200
 110632354.389 8  86207049.07246  21052634.297                    21052635.988
        52.600          41.600
 18  2 21  9 38  0.0000000  0  8G13G05G28G06G30G09G02G07
 122668547.219 7  95585903.18844  23343047.234                    23343049.922
        43.200          25.600
 110004932.092 8  85718129.41047  20933241.805                    20933244.035
        53.300          42.300
 127856073.675 6  99628135.57742  24330203.430                    24330206.695
        39.200          17.800
 130215551.965 6 101466673.48443  24779204.742                    24779211.074
        36.300          19.000
 108082025.718 8  84219787.31647  20567320.664                    20567324.516
        53.900          44.700
 119412047.436 8  93048372.18045  22723355.867                    22723360.750
        48.400          35.100
 120910426.646 7  94215906.85245  23008494.367                    23008494.609
        43.000          30.200
 110678788.442 8  86243231.44646  21061470.352                    21061471.961
        52.000          41.700
 18  2 21  9 38 30.0000000  0  8G13G05G28G06G30G09G02G07
 122594003.054 7  95527816.86144  23328862.430                    23328864.695
        44.100          28.300
 109978420.491 8  85697471.02047  20928196.781                    20928198.836
        53.400          42.400
 127774883.452 6  99564870.47843  24314753.164                    24314755.488
        41.000          18.300
 130341075.200 6 101564483.78343  24803090.625                    24803096.305
        38.500          19.300
 108077381.576 8  84216168.50147  20566436.797                    20566441.445
        53.300          44.900
 119511192.773 8  93125628.25746  22742222.508                    22742227.758
        50.100          36.100
 120997856.576 6  94284034.03745  23025130.711                    23025131.816
        41.500          30.200
 110725678.539 8  86279769.20546  21070393.633                    21070395.070
        52.600          41.900
 18  2 21  9 39  0.0000000  0  8G13G05G28G06G30G09G02G07
 122519600.450 7  95469840.80244  23314703.328                    23314706.602
        43.400          27.200
 109952377.382 8  85677177.68447  20923241.250                    20923243.250
        53.200          42.000
 127693762.648 6  99501659.41543  24299316.922                    24299318.855
        40.600          19.000
 130466578.483 6 101662278.61143  24826973.484                    24826979.070
        39.900          22.000
 108073269.002 8  84212963.89347  20565654.164                    20565658.457
        53.300          45.100
 119610486.552 8  93202999.99246  22761118.320                    22761122.418
        50.300          36.400
 121085616.722 6  94352418.51745  23041831.141                    23041832.438
        41.900          30.000
 110773022.122 8  86316660.30046  21079403.031                    21079403.926
        51.900          41.300
 18  2 21  9 39 30.0000000  0  8G13G05G28G06G30G09G02G07
 122445341.848 7  95411976.97244  23300572.719                    23300575.262
        42.400          28.500
 109926805.978 8  85657251.90947  20918374.977                    20918376.984
        53.700          42.400
 127612716.286 6  99438506.46743  24283893.328                    24283896.820
        38.300          20.900
 130592060.900 6 101760057.08143  24850852.438                    24850859.375
        36.300          21.700
 108069689.764 9  84210174.88547  20564973.242                    20564977.641
        54.100          44.700
 119709929.244 8  93280487.77846  22780041.734                    22780046.551
        49.900          36.700
 121173706.153 7  94421059.59044  23058594.180                    23058594.746
        43.700          29.800
 110820819.848 8  86353905.28246  21088498.297                    21088500.074
        51.000          41.300
 18  2 21  9 40  0.0000000  0  8G13G05G28G06G30G09G02G07
 122371227.511 7  95354225.55244  23286469.117                    23286471.934
        42.400          28.300
 109901707.968 8  85637695.01247  20913599.133                    20913600.957
        53.500          42.000
 127531746.611 6  99375413.34943  24268485.297                    24268489.246
        37.600          20.400
 130717519.259 5 101857816.59743  24874723.977                    24874734.645
        33.100          19.000
 108066643.436 8  84207801.11347  20564393.430                    20564397.703
        52.800          44.900
 119809519.682 8  93358090.67546  22798992.836                    22798997.910
        50.300          36.300
 121262121.567 6  94489954.71344  23075418.891                    23075419.828
        41.800          28.900
 110869070.024 8  86391502.81846  21097679.891                    21097681.781
        51.100          41.500
 18  2 21  9 40 30.0000000  0  8G13G05G28G06G30G09G02G07
 120721848.307 7  94068995.03944  22972602.750                    22972605.602
        45.100          28.400
 108301676.831 8  84390917.49947  20609123.078                    20609125.180
        53.000          42.100
 125875446.519 6  98084790.00643  23953302.734                    23953306.148
        39.800          21.500
 129267547.643 6 100727968.48644  24598806.117                    24598812.832
        40.600          24.500
 106488722.818 9  82978252.58547  20264124.914                    20264129.934
        54.100          44.500
 118333853.179 8  92208220.62645  22518182.813                    22518186.359
        49.800          35.300
 119775456.498 7  93331514.35744  22792515.820                    22792516.406
        42.900          29.900
 109342365.167 8  85201862.64946  20807157.305                    20807159.941
        51.600          40.900
 18  2 21  9 41  0.0000000  0  8G13G05G28G06G30G09G02G07
 120648052.848 7  94011492.11444  22958560.109                    22958563.469
        43.000          29.100
 108277557.792 8  84372123.43547  20604533.367                    20604535.539
        52.600          42.200
 125794666.664 6  98021844.68943  23937930.070                    23937934.363
        39.300          21.500
 129392977.311 6 100825705.87943  24622673.867                    24622681.664
        40.500          22.200
 106486770.462 9  82976731.27147  20263753.445                    20263758.082
        54.400          45.000
 118433764.567 8  92286073.64045  22537195.633                    22537199.180
        49.900          35.600
 119864544.490 7  93400933.54245  22809469.328                    22809469.434
        43.700          31.100
 109391542.925 8  85240182.97046  20816515.461                    20816517.875
        51.400          41.500
 18  2 21  9 41 30.0000000  0  7G13G05G28G30G09G02G07
 120574413.756 7  93954111.02644  22944547.164                    22944549.598
        44.200          29.400
 108253926.520 8  84353709.46347  20600036.734                    20600038.766
        52.500          42.400
 125713981.424 6  97958973.05343  23922576.297                    23922579.297
        39.400          18.300
 106485360.658 9  82975632.71847  20263485.547                    20263490.238
        54.300          45.300
 118533830.653 8  92364047.17746  22556238.070                    22556241.906
        49.800          36.600
 119953960.248 7  93470608.12745  22826485.133                    22826485.000
        43.900          30.600
 109441177.970 8  85278859.60646  20825960.477                    20825963.121
        52.100          41.700
 18  2 21  9 42  0.0000000  0  7G13G05G28G30G09G02G07
 120500935.577 7  93896855.32545  22930565.117                    22930567.629
        45.300          30.300
 108230788.798 8  84335680.07447  20595633.813                    20595635.383
        52.300          42.000
 125633398.183 6  97896180.98743  23907241.727                    23907244.836
        38.100          19.300
 106484497.556 9  82974960.16747  20263321.438                    20263325.492
        54.100          45.200
 118634054.819 7  92442143.88145  22575309.258                    22575313.859
        47.500          35.000
 120043705.441 7  93540539.38645  22843562.133                    22843563.195
        44.600          31.500
 109491273.451 8  85317895.04846  20835493.891                    20835496.090
        51.900          41.400
 18  2 21  9 42 30.0000000  0  7G13G05G28G30G09G02G07
 120427632.751 7  93839736.25544  22916615.398                    22916617.602
        44.900          29.100
 108208158.989 8  84318046.44647  20591327.281                    20591329.727
        52.100          42.000
 125552932.962 6  97833480.90043  23891930.156                    23891933.582
        40.500          22.800
 106484194.118 9  82974723.72847  20263263.188                    20263267.898
        54.300          45.100
 118734449.197 7  92520373.20845  22594413.977                    22594417.945
        47.300          35.700
 120133790.268 7  93610735.30745  22860705.367                    22860705.801
        44.900          31.800
 109541840.391 8  85357297.84746  20845116.086                    20845118.504
        52.200          41.500
 18  2 21  9 43  0.0000000  0  7G13G05G28G30G09G02G07
 120354504.055 7  93782752.89044  22902699.703                    22902702.648
        45.000          29.400
 108186037.317 8  84300808.78047  20587117.664                    20587119.707
        51.500          42.500
 125472586.974 6  97770873.68544  23876640.477                    23876644.270
        40.600          24.700
 106484448.632 9  82974922.04647  20263311.594                    20263316.188
        54.100          44.900
 118835011.226 7  92598733.18845  22613550.398                    22613553.543
        47.300          34.700
 120224210.217 7  93681192.37545  22877911.328                    22877911.914
        45.100          31.100
 109592876.038 8  85397065.87346  20854828.016                    20854829.898
        53.200          41.500
 18  2 21  9 43 30.0000000  0  7G13G05G28G30G09G02G07
 120281555.422 7  93725909.82944  22888818.016                    22888820.324
        44.800          29.400
 108164430.317 8  84283972.15646  20583005.750                    20583007.930
        52.300          41.700
 125392368.104 6  97708365.50543  23861375.586                    23861378.332
        41.400          20.100
 106485266.209 9  82975559.11347  20263467.141                    20263471.871
        54.400          45.200
 118935745.271 8  92677227.23345  22632719.648                    22632723.352
        48.600          34.500
 120314967.869 7  93751912.58545  22895181.992                    22895182.418
        46.000          31.400
 109644384.000 8  85437201.93546  20864629.773                    20864631.953
        53.300          41.300
 18  2 21  9 44  0.0000000  0  7G13G05G28G30G09G02G07
 120208780.730 7  93669202.29044  22874969.086                    22874971.043
        45.100          28.400
 108143332.535 8  84267532.32847  20578991.438                    20578993.160
        52.300          42.400
 125312272.380 6  97645953.26443  23846132.898                    23846135.703
        39.600          18.600
 106486639.600 9  82976629.29047  20263728.930                    20263733.438
        54.100          44.800
 119036643.340 8  92755849.06145  22651919.852                    22651923.586
        48.400          34.900
 120406053.266 7  93822888.18045  22912515.070                    22912515.445
        45.800          31.800
 109696355.768 8  85477699.40946  20874519.930                    20874521.324
        53.300          41.600
 18  2 21  9 44 30.0000000  0  7G13G05G28G30G09G02G07
 120136174.495 7  93612626.02544  22861152.563                    22861155.184
        45.600          29.000
 108122739.843 8  84251486.06946  20575072.563                    20575074.828
        52.000          41.800
 125232296.723 6  97583634.59143  23830913.836                    23830918.000
        39.900          19.000
 106488562.976 9  82978128.03147  20264094.750                    20264099.473
        54.300          45.600
 119137698.849 7  92834593.58545  22671149.797                    22671154.547
        47.900          35.400
 120497458.198 7  93894112.75245  22929908.977                    22929909.582
        45.700          32.200
 109748783.912 8  85518552.49246  20884496.328                    20884498.285
        52.500          40.900
 18  2 21  9 45  0.0000000  0  7G13G05G28G30G09G02G07
 120063735.218 7  93556179.85645  22847368.344                    22847369.980
        46.000          30.000
 108102650.512 8  84235832.04747  20571249.742                    20571252.023
        52.300          42.400
 125152441.329 7  97521409.64944  23815718.594                    23815722.305
        43.100          24.100
 106491033.181 8  82980052.85647  20264564.945                    20264569.508
        53.800          45.200
 119238907.954 7  92913457.78945  22690409.375                    22690414.781
        47.400          35.100
 120589176.605 7  93965581.58745  22947362.555                    22947363.598
        46.200          32.400
 109801663.912 8  85559757.68246  20894559.297                    20894561.133
        53.000          41.300
 18  2 21  9 45 30.0000000  0  7G13G05G28G30G09G02G07
 119991461.437 7  93499862.63444  22833614.922                    22833616.645
        46.300          29.800
 108083064.394 8  84220570.12746  20567522.367                    20567524.777
        52.300          41.900
 125072706.751 6  97459278.86943  23800545.375                    23800549.414
        41.400          22.800
 106494047.820 8  82982401.92647  20265138.594                    20265143.137
        53.900          45.300
 119340267.556 7  92992439.23545  22709696.945                    22709702.387
        47.200          34.900
 120681203.937 7  94037291.15845  22964874.289                    22964875.547
        42.700          30.700
 109854992.206 8  85601312.18546  20904707.078                    20904708.961
        52.200          41.000
 18  2 21  9 46  0.0000000  0  8G13G05G28G30G09G20G02G07
 119919346.285 7  93443669.02644  22819891.859                    22819894.359
        47.500          29.800
 108063975.259 8  84205695.47947  20563889.930                    20563892.438
        52.800          43.000
 124993088.392 6  97397238.65143  23785394.328                    23785398.145
        40.700          21.100
 106497599.454 8  82985169.43347  20265814.477                    20265818.551
        53.700          44.900
 119441769.521 8  93071531.65345  22729012.625                    22729017.918
        48.500          35.800
 128939641.570 6 100472452.32044  24536398.031                    24536399.789
        40.900          24.200
 120773529.774 7  94109233.32945  22982443.531                    22982445.004
        43.800          31.800
 109908759.674 8  85643208.89946  20914938.625                    20914940.801
        52.400          41.200
 18  2 21  9 46 30.0000000  0  8G13G05G28G30G09G20G02G07
 119847380.072 7  93387591.47845  22806197.297                    22806199.832
        46.900          30.700
 108045374.234 8  84191201.16347  20560350.570                    20560352.434
        52.800          42.000
 124913578.996 6  97335283.29143  23770264.086                    23770268.254
        40.900          21.100
 106501677.336 8  82988346.99847  20266590.516                    20266595.051
        53.400          45.100
 119543402.485 8  93150726.15145  22748352.898                    22748357.691
        48.200          34.700
 128846795.560 6 100400104.80543  24518729.617                    24518731.590
        40.200          23.200
 120866140.922 7  94181397.81245  23000067.055                    23000068.184
        43.400          32.100
 109962954.551 8  85685438.65446  20925251.578                    20925253.633
        52.200          40.900
 18  2 21  9 47  0.0000000  0  8G13G05G28G30G09G20G02G07
 119775565.724 7  93331632.27144  22792531.445                    22792534.027
        46.800          29.600
 108027264.620 8  84177089.77647  20556904.313                    20556906.285
        51.300          42.100
 124834183.510 6  97273416.70543  23755156.500                    23755158.664
        41.300          22.200
 106506283.211 8  82991935.99247  20267466.680                    20267471.223
        53.700          45.500
 119645167.592 7  93230023.58645  22767717.836                    22767723.195
        47.800          34.400
 128754047.713 6 100327833.77143  24501080.648                    24501082.871
        38.400          22.800
 120959036.716 7  94253784.09445  23017744.461                    23017745.250
        44.100          32.200
 110017577.270 8  85728001.80846  20935645.609                    20935647.762
        53.000          41.100
 18  2 21  9 47 30.0000000  0  8G13G05G28G30G09G20G02G07
 119703908.758 7  93275795.68245  22778895.016                    22778898.563
        46.300          31.000
 108009652.556 8  84163366.08847  20553552.578                    20553554.863
        51.500          42.400
 124754909.353 6  97211644.67943  23740069.727                    23740073.965
        38.400          20.900
 106511421.625 8  82995939.95347  20268444.469                    20268449.402
        53.900          45.700
 119747068.739 8  93309427.04545  22787109.289                    22787113.668
        48.200          34.600
 128661404.597 6 100255644.33143  24483451.078                    24483452.910
        38.300          22.300
 121052218.930 7  94326393.56845  23035476.539                    23035477.066
        43.200          31.600
 110072630.743 8  85770900.61046  20946122.445                    20946124.887
        52.400          41.500
 18  2 21  9 48  0.0000000  0  8G13G05G28G30G09G20G02G07
 119632406.137 7  93220079.37045  22765288.742                    22765291.445
        46.100          30.000
 107992536.179 8  84150028.64646  20550295.641                    20550297.785
        51.800          41.900
 124675755.924 6  97149966.70843  23725007.859                    23725011.465
        37.700          20.900
 106517088.753 8  83000355.90147  20269523.016                    20269527.461
        53.400          44.900
 119849101.508 8  93388933.06345  22806525.156                    22806530.148
        48.300          34.500
 128568865.126 6 100183535.67243  24465841.352                    24465842.980
        39.000          22.300
 121145681.380 7  94399221.39945  23053262.891                    23053262.637
        44.700          32.100
 110128110.100 8  85814131.26946  20956679.859                    20956682.063
        52.800          41.100
 18  2 21  9 48 30.0000000  0  8G13G05G28G30G09G20G02G07
 119561044.170 7  93164472.64645  22751708.492                    22751712.039
        45.800          30.400
 107975902.085 8  84137067.01846  20547130.359                    20547132.766
        50.500          41.600
 124596711.032 6  97088373.34343  23709965.961                    23709969.590
        38.800          19.300
 106523269.322 9  83005171.92347  20270699.273                    20270704.168
        54.000          45.500
 119951250.022 7  93468529.27345  22825963.977                    22825968.785
        47.300          35.100
 128476416.596 6 100111497.88043  24448249.125                    24448251.141
        37.700          20.900
 121239406.430 7  94472253.86645  23071097.711                    23071097.496
        43.400          31.300
 110183998.589 8  85857680.73646  20967315.016                    20967317.230
        53.000          41.300
 18  2 21  9 49  0.0000000  0  8G13G05G28G30G09G20G02G07
 119489831.717 7  93108982.43544  22738157.844                    22738160.836
        47.600          29.900
 107959759.790 8  84124488.59647  20544058.289                    20544060.566
        51.100          42.100
 124517785.928 6  97026873.27443  23694946.938                    23694950.613
        37.900          20.900
 106529971.209 8  83010394.17347  20271974.586                    20271979.820
        53.800          45.000
 120053521.678 7  93548221.43945  22845425.070                    22845429.930
        45.500          34.200
 128384069.572 6 100039539.18443  24430676.047                    24430678.293
        38.200          21.300
 121333399.216 7  94545494.94745  23088983.695                    23088983.797
        44.200          31.900
 110240303.066 8  85901554.35646  20978029.367                    20978031.988
        53.000          41.100
 18  2 21  9 49 30.0000000  0  8G13G05G28G30G09G20G02G07
 119418775.080 7  93053613.63844  22724635.867                    22724638.383
        46.200          29.600
 107944116.237 8  84112298.81847  20541081.508                    20541083.887
        52.000          42.500
 124438989.063 6  96965473.20343  23679951.547                    23679956.629
        37.500          20.600
 106537199.771 8  83016026.81547  20273350.086                    20273354.699
        53.300          45.400
 120155921.328 7  93628013.32445  22864910.633                    22864915.844
        46.300          33.000
 128291831.627 6  99967665.48943  24413123.219                    24413125.242
        39.000          21.300
 121427662.560 7  94618946.84945  23106921.227                    23106922.301
        42.900          30.900
 110297027.115 8  85945754.89446  20988823.883                    20988826.273
        52.900          41.000
 18  2 21  9 50  0.0000000  0  8G13G05G28G30G09G20G02G07
 119347873.138 7  92998365.37245  22711143.797                    22711146.617
        45.700          30.100
 107928971.047 8  84100497.37347  20538199.742                    20538202.160
        51.800          42.400
 124360321.368 6  96904173.78643  23664982.156                    23664986.039
        38.800          21.100
 106544952.755 8  83022068.10847  20274825.734                    20274830.207
        53.900          45.900
 120258446.150 7  93707902.74645  22884421.297                    22884425.652
        46.000          32.800
 128199703.208 6  99895877.12143  24395592.375                    24395593.605
        38.700          19.300
 121522191.814 7  94692605.94945  23124909.984                    23124910.305
        43.300          31.300
 110354167.554 8  85990279.90146  20999697.055                    20999699.289
        53.400          40.900
 18  2 21  9 50 30.0000000  0  8G13G05G28G30G09G20G02G07
 119277131.244 7  92943241.82144  22697682.250                    22697684.523
        46.300          29.500
 107914330.223 8  84089088.93247  20535413.750                    20535415.699
        51.500          42.300
 124281790.970 6  96842981.30443  23650038.688                    23650041.180
        39.400          20.100
 106553234.448 9  83028521.36547  20276401.391                    20276406.070
        54.300          45.400
 120361099.925 7  93787892.66145  22903955.563                    22903960.625
        46.300          33.300
 128107691.175 6  99824179.43943  24378082.195                    24378084.391
        38.100          20.400
 121616989.010 7  94766473.86245  23142949.250                    23142949.410
        45.400          32.100
 110411727.490 8  86035131.78146  21010650.563                    21010652.703
        53.000          40.900
 18  2 21  9 51  0.0000000  0  8G13G05G28G30G09G20G02G07
 119206551.537 7  92888244.66345  22684251.094                    22684253.809
        46.400          30.600
 107900196.464 8  84078075.60247  20532724.141                    20532726.340
        52.000          42.000
 124203401.332 6  96781898.47643  23635121.672                    23635123.773
        39.300          21.500
 106562045.781 9  83035387.34047  20278078.109                    20278082.773
        54.100          45.400
 120463883.148 7  93867983.44945  22923514.844                    22923519.547
        45.700          34.600
 128015799.121 6  99752575.28543  24360594.820                    24360597.938
        38.600          19.600
 121712052.505 7  94840549.27745  23161039.008                    23161039.598
        44.300          31.000
 110469706.513 8  86080310.23546  21021683.375                    21021685.332
        53.200          41.100
 18  2 21  9 51 30.0000000  0  8G13G05G28G30G09G20G02G07
 119136136.807 7  92833376.05544  22670852.133                    22670853.746
        45.800          29.400
 107886572.652 8  84067459.64247  20530131.469                    20530133.531
        51.500          42.200
 124125157.547 6  96720929.36943  23620231.258                    23620236.035
        37.500          20.900
 106571388.258 8  83042667.19447  20279856.039                    20279860.813
        52.800          45.400
 120566796.881 7  93948175.91145  22943098.273                    22943104.043
        44.800          33.600
 127924030.829 6  99681067.52943  24343132.836                    24343135.348
        39.400          20.900
 121807381.136 7  94914831.28745  23179179.766                    23179180.094
        45.600          31.300
 110528104.734 9  86125815.35246  21032796.258                    21032798.398
        54.100          40.500
 18  2 21  9 52  0.0000000  0  8G13G05G28G30G09G20G02G07
 119065885.569 7  92778634.85145  22657483.516                    22657486.445
        45.100          30.500
 107873457.954 8  84057240.39547  20527635.906                    20527638.156
        51.200          42.600
 124047059.961 6  96660074.17243  23605370.031                    23605374.402
        39.000          20.900
 106581259.040 8  83050358.71547  20281734.258                    20281738.695
        53.200          44.600
 120669837.849 7  94028467.52945  22962706.547                    22962711.832
        45.400          32.800
 127832386.852 6  99609656.65343  24325693.930                    24325696.254
        38.800          20.100
 121902969.707 7  94989315.85245  23197369.328                    23197370.746
        45.100          30.000
 110586918.304 8  86171644.09946  21043988.469                    21043990.273
        53.900          40.800
 18  2 21  9 52 30.0000000  0  8G13G05G28G30G09G20G02G07
 118995801.247 7  92724023.70245  22644146.547                    22644149.113
        44.000          30.000
 107860856.534 8  84047421.10447  20525237.570                    20525239.984
        50.800          42.300
 123969114.740 6  96599337.69543  23590538.438                    23590541.742
        39.500          21.300
 106591660.527 8  83058463.77347  20283713.500                    20283718.270
        53.100          45.000
 120773008.037 7  94108859.84745  22982339.359                    22982344.340
        45.200          33.100
 127740871.785 6  99538346.20943  24308278.852                    24308280.996
        39.400          19.300
 121998818.145 7  95064002.89345  23215608.875                    23215610.063
        45.400          30.400
 110646148.113 8  86217797.19146  21055259.391                    21055261.047
        53.600          41.200
 18  2 21  9 53  0.0000000  0  8G13G05G28G30G09G20G02G07
 118925881.822 7  92669541.03945  22630841.398                    22630844.082
        45.300          30.400
 107848767.065 8  84038000.73746  20522937.383                    20522939.531
        52.400          41.800
 123891321.522 6  96538719.65843  23575733.906                    23575738.480
        39.000          21.700
 106602589.448 8  83066979.81347  20285793.352                    20285798.207
        53.300          45.300
 120876303.814 7  94189350.00845  23001995.242                    23002000.355
        44.900          32.600
 127649485.194 6  99467135.91743  24290888.547                    24290891.223
        39.100          19.900
 122094920.941 7  95138888.12944  23233896.625                    23233897.434
        45.500          29.900
 110705789.985 8  86264271.35846  21066608.773                    21066610.980
        52.600          40.900
 18  2 21  9 53 30.0000000  0  8G13G05G28G30G09G20G02G07
 118856127.974 7  92615187.40045  22617568.000                    22617570.363
        44.900          30.900
 107837190.473 8  84028980.01447  20520734.219                    20520736.832
        52.100          42.300
 123813683.143 6  96478222.29743  23560960.508                    23560964.188
        39.800          22.300
 106614045.200 9  83075906.37947  20287973.031                    20287977.734
        54.200          45.200
 120979724.175 7  94269937.27945  23021675.922                    23021680.395
        45.100          31.300
 127558229.226 6  99396027.36143  24273523.633                    24273525.754
        38.400          19.600
 122191275.109 7  95213969.26044  23252231.836                    23252233.887
        44.200          29.000
 110765842.018 8  86311065.15646  21078036.359                    21078038.719
        53.200          41.300
 18  2 21  9 54  0.0000000  0  8G13G05G28G30G09G20G02G07
 118786543.132 7  92560965.45945  22604325.930                    22604328.879
        44.900          30.400
 107826131.025 8  84020362.25647  20518630.039                    20518631.879
        49.300          42.400
 123736205.490 6  96417850.14743  23546217.117                    23546220.477
        40.900          23.000
 106626029.935 8  83085245.13447  20290254.047                    20290258.188
        50.500          44.200
 121083270.972 7  94350623.05845  23041380.555                    23041385.238
        45.600          32.300
 127467108.759 6  99325024.43443  24256184.148                    24256185.781
        38.000          19.600
 122287880.439 7  95289246.09944  23270616.617                    23270617.020
        44.900          28.700
 110826305.100 8  86358179.24646  21089542.000                    21089544.543
        49.800          41.200
 18  2 21  9 54 30.0000000  0  8G13G05G28G30G09G20G02G07
 118717126.778 7  92506874.79444  22591116.594                    22591118.988
        45.100          29.900
 107815588.462 8  84012147.26847  20516623.680                    20516625.695
        50.700          42.100
 123658889.405 6  96357603.89843  23531503.859                    23531507.688
        40.600          22.000
 106638541.828 8  83094994.65447  20292634.617                    20292639.188
        51.400          45.000
 121186942.015 7  94431405.63445  23061108.188                    23061113.461
        46.000          32.900
 127376124.772 6  99254127.83943  24238870.445                    24238872.316
        37.900          19.600
 122384732.717 7  95364715.37444  23289046.109                    23289047.574
        43.700          29.100
 110887176.062 8  86405611.15546  21101125.516                    21101128.016
        50.200          41.200
 18  2 21  9 55  0.0000000  0  8G13G05G28G30G09G20G02G07
 118647876.873 7  92452913.84945  22577938.320                    22577941.652
        44.900          30.700
 107805560.905 8  84004333.57547  20514715.469                    20514718.082
        52.300          42.300
 123581735.321 6  96297483.90543  23516822.234                    23516825.508
        41.100          20.100
 106651577.513 8  83105152.33147  20295115.172                    20295119.840
        52.700          44.600
 121290733.612 7  94512282.17445  23080859.070                    23080864.215
        46.400          33.100
 127285276.646 6  99183337.07343  24221582.117                    24221584.547
        37.300          19.000
 122481826.182 7  95440372.56344  23307522.359                    23307523.367
        44.100          28.700
 110948450.519 8  86453357.47946  21112785.867                    21112787.797
        52.500          40.600
 18  2 21  9 55 30.0000000  0  8G13G05G28G30G09G20G02G07
 118578800.805 7  92399088.36245  22564794.383                    22564796.340
        46.000          30.900
 107796056.089 8  83996927.22247  20512907.031                    20512909.082
        53.400          42.700
 123504752.754 6  96237497.56343  23502172.875                    23502175.555
        40.900          20.600
 106665142.866 8  83115722.73447  20297696.602                    20297701.156
        53.600          44.900
 121394651.417 7  94593257.02845  23100633.734                    23100639.648
        46.600          32.300
 127194573.204 6  99112659.08943  24204322.023                    24204324.297
        37.900          19.000
 122579164.256 7  95516220.35444  23326045.117                    23326046.770
        43.800          29.200
 111010133.340 8  86501422.00046  21124523.609                    21124525.297
        52.500          40.500
 18  2 21  9 56  0.0000000  0  8G13G05G28G30G09G20G02G07
 118509897.712 7  92345397.65544  22551682.633                    22551684.379
        47.800          29.700
 107787074.027 8  83989928.21447  20511197.531                    20511200.090
        50.500          42.900
 123427942.754 6  96177645.63643  23487556.492                    23487558.953
        40.500          21.800
 106679235.876 8  83126704.30447  20300378.539                    20300383.152
        50.700          44.600
 121498693.059 7  94674328.38445  23120432.883                    23120437.824
        46.600          32.000
 127104015.296 6  99042094.47943  24187089.578                    24187090.945
        39.100          19.600
 122676742.372 7  95592255.21944  23344613.148                    23344614.758
        42.400          26.400
 111072221.159 8  86549802.12146  21136338.484                    21136339.895
        51.200          40.200
 18  2 21  9 56 30.0000000  0  8G13G05G28G30G09G20G02G07
 118441167.709 7  92291841.84445  22538604.031                    22538605.895
        46.600          31.300
 107778614.960 8  83983336.73047  20509588.039                    20509590.227
        51.100          42.900
 123351307.348 6  96117929.84743  23472972.547                    23472976.883
        37.200          21.700
 106693855.180 8  83138095.96847  20303160.672                    20303164.602
        51.800          45.000
 121602856.979 7  94755495.03745  23140254.461                    23140259.082
        46.100          31.900
 127013604.300 6  98971644.37743  24169885.273                    24169886.258
        37.400          19.900
 122774557.475 7  95668474.75444  23363227.008                    23363227.898
        43.000          27.000
 111134711.400 8  86598495.81446  21148229.820                    21148231.496
        51.700          39.700
 18  2 21  9 57  0.0000000  0  8G13G05G28G30G09G20G02G07
 118372611.319 7  92238421.30245  22525557.820                    22525560.094
        46.700          31.000
 107770680.361 8  83977153.91947  20508078.188                    20508080.484
        53.000          42.800
 123274849.894 6  96058352.70243  23458423.844                    23458426.164
        39.100          22.600
 106709000.130 8  83149897.22947  20306042.461                    20306046.809
        53.700          45.100
 121707142.270 7  94836756.25745  23160099.156                    23160104.375
        46.100          32.100
 126923342.209 6  98901310.30943  24152708.266                    24152710.492
        39.200          19.900
 122872606.296 7  95744876.37844  23381885.617                    23381886.441
        44.100          27.900
 111197602.459 8  86647501.80646  21160197.484                    21160199.113
        52.900          39.100
 18  2 21  9 57 30.0000000  0  8G13G05G28G30G09G20G02G07
 118304230.417 7  92185137.49945  22512544.914                    22512547.379
        46.500          30.900
 107763271.662 8  83971380.90447  20506668.109                    20506670.500
        52.500          43.300
 123198574.225 6  95998917.14143  23443908.961                    23443911.645
        40.200          21.700
 106724670.986 8  83162108.27847  20309024.648                    20309028.637
        53.900          45.200
 121811548.978 7  94918112.09545  23179967.367                    23179971.730
        46.300          31.100
 126833232.853 6  98831095.22743  24135561.242                    24135563.555
        38.400          20.100
 122970886.690 7  95821458.44344  23400587.273                    23400588.645
        43.000          28.000
 111260893.396 8  86696819.41046  21172241.344                    21172243.457
        53.200          39.800
 18  2 21  9 58  0.0000000  0  8G13G05G28G30G09G20G02G07
 118236025.032 7  92131990.44644  22499565.602                    22499568.031
        45.700          29.800
 107756389.689 8  83966018.31347  20505358.227                    20505360.801
        52.200          42.400
 123122482.237 6  95939624.69743  23429428.594                    23429431.164
        39.000          20.600
 106740866.498 8  83174728.16347  20312106.344                    20312110.516
        53.000          44.700
 121916075.647 7  94999561.43745  23199857.797                    23199862.672
        43.300          30.200
 126743277.729 6  98761000.31843  24118443.266                    24118445.348
        39.100          20.100
 123069395.199 7  95898218.26544  23419333.148                    23419334.547
        42.300          24.600
 111324581.726 8  86746446.67546  21184360.656                    21184363.059
        52.700          40.400
 18  2 21  9 58 30.0000000  0  8G13G05G28G30G09G20G02G07
 118167995.455 7  92078980.39345  22486620.242                    22486622.637
        46.400          31.400
 107750034.896 8  83961066.51747  20504149.203                    20504151.160
        52.700          42.600
 123046575.794 6  95880476.86743  23414984.133                    23414987.082
        39.600          22.200
 106757585.249 8  83187755.76647  20315288.117                    20315292.426
        53.500          44.300
 122020720.734 7  95081103.02145  23219770.742                    23219776.598
        42.900          30.000
 126653478.156 6  98691026.64443  24101354.969                    24101356.980
        41.000          19.600
 123168128.167 6  95975152.96044  23438121.008                    23438122.441
        41.800          25.700
 111388665.188 8  86796381.85646  21196555.602                    21196558.313
        52.500          40.200
 18  2 21  9 59  0.0000000  0  8G13G05G28G30G09G20G02G07
 118100144.329 7  92026109.39345  22473708.883                    22473710.746
        45.800          31.200
 107744210.057 8  83956527.67647  20503040.727                    20503042.492
        51.900          42.600
 122970859.746 6  95821477.38243  23400575.367                    23400579.172
        40.800          22.000
 106774828.393 8  83201191.97447  20318569.516                    20318572.980
        53.000          45.000
 122125485.185 7  95162737.58445  23239706.656                    23239711.734
        43.900          30.900
 126563838.040 6  98621177.23543  24084297.188                    24084298.777
        40.900          20.400
 123267084.648 7  96052261.88844  23456952.750                    23456952.953
        44.100          26.500
 111453144.121 8  86846625.16546  21208825.547                    21208828.023
        53.000          39.700
 18  2 21  9 59 30.0000000  0  8G13G05G28G30G09G20G02G07
 118032467.402 7  91973374.12945  22460830.508                    22460832.824
        46.500          32.300
 107738911.668 8  83952399.05747  20502032.813                    20502034.434
        52.400          43.300
 122895332.217 6  95762624.85943  23386203.883                    23386206.688
        41.400          22.900
 106792590.485 8  83215032.56847  20321949.508                    20321953.457
        53.000          45.200
 122230363.462 7  95244460.85845  23259664.969                    23259670.078
        44.000          30.000
 126474355.862 6  98551450.87143  24067269.117                    24067270.852
        41.700          19.300
 123366256.793 7  96129538.83444  23475824.180                    23475824.695
        42.200          26.100
 111518011.348 8  86897171.05646  21221169.633                    21221171.441
        52.800          40.100
                            4  1
RINEX FILE SPLICE; other post-header comments skipped       COMMENT
 18  2 21 10  0  0.0000000  0  8G13G05G28G30G09G20G02G07
 117964971.183 7  91920779.68245  22447986.297                    22447988.707
        45.900          31.900
 107734146.219 8  83948685.71847  20501125.766                    20501128.125
        52.200          43.100
 122820001.873 7  95703925.93644  23371869.563                    23371871.688
        43.400          24.000
 106810876.524 8  83229281.43347  20325429.016                    20325433.277
        52.700          44.900
 122335360.389 7  95326276.60745  23279645.289                    23279649.605
        45.500          31.100
 126385039.006 7  98481853.36143  24050272.375                    24050274.398
        42.300          19.000
 123465647.467 6  96206986.04344  23494737.320                    23494738.961
        40.700          26.400
 111583271.018 8  86948022.74046  21233587.742                    21233589.457
        52.700          39.200
 18  2 21 10  0 30.0000000  0  8G13G05G28G30G09G20G02G07
 117897652.374 7  91868323.47345  22435176.250                    22435178.875
        47.600          31.400
 107729910.774 8  83945385.36447  20500319.875                    20500321.922
        52.500          43.200
 122744867.000 7  95645379.28944  23357571.367                    23357573.547
        43.000          25.700
 106829681.332 8  83243934.52847  20329007.602                    20329012.031
        52.800          45.500
 122440470.728 7  95408180.72844  23299647.195                    23299651.168
        45.400          29.300
 126295885.555 7  98412383.12943  24033308.250                    24033309.500
        42.900          20.600
 123565249.282 7  96284597.79144  23513691.531                    23513692.988
        42.700          26.000
 111648917.097 8  86999175.51746  21246079.789                    21246082.020
        51.600          38.100
 18  2 21 10  1  0.0000000  0  8G13G05G28G30G09G20G02G07
 117830512.673 7  91816006.83745  22422399.883                    22422401.926
        46.000          32.800
 107726207.555 8  83942499.74147  20499615.227                    20499617.133
        52.500          43.400
 122669932.010 7  95586988.42044  23343311.492                    23343314.172
        43.400          24.200
 106849005.602 8  83258992.39847  20332684.758                    20332689.129
        53.900          45.300
 122545695.063 7  95490173.66444  23319670.773                    23319674.816
        45.800          29.700
 126206899.057 7  98343043.01443  24016373.930                    24016375.461
        43.200          19.900
 123665060.522 6  96362372.71044  23532684.828                    23532686.559
        40.800          25.900
 111714948.899 8  87050628.86446  21258644.734                    21258647.195
        51.500          39.500
 18  2 21 10  1 30.0000000  0  8G13G05G28G30G09G20G02G07
 117763554.602 7  91763831.71945  22409657.922                    22409659.738
        46.100          32.300
 107723038.706 8  83940030.50147  20499012.047                    20499014.496
        53.000          42.900
 122595200.774 7  95528756.29843  23329090.891                    23329092.969
        42.500          21.300
 106868849.794 8  83274455.40847  20336461.000                    20336465.230
        53.400          45.400
 122651033.836 7  95572255.77844  23339715.820                    23339720.809
        45.500          29.900
 126118083.334 7  98273835.95543  23999473.242                    23999474.930
        42.600          20.600
 123765079.658 6  96440309.67143  23551717.414                    23551718.898
        41.100          23.800
 111781366.084 8  87102382.50146  21271284.195                    21271286.184
        52.900          39.600
 18  2 21 10  2  0.0000000  0  8G13G05G28G30G09G20G02G07
 117696777.436 7  91711797.57845  22396950.531                    22396952.730
        45.800          31.500
 107720403.944 8  83937977.42847  20498510.828                    20498512.891
        52.700          43.100
 122520674.666 7  95470684.05944  23314908.688                    23314911.199
        43.000          24.700
 106889211.698 8  83290321.83047  20340336.094                    20340339.914
        53.700          45.100
 122756484.696 7  95654425.21545  23359782.695                    23359787.828
        46.600          30.900
 126029439.060 7  98204762.49743  23982603.836                    23982605.551
        42.300          20.400
 123865302.348 6  96518405.20243  23570789.531                    23570791.207
        41.400          23.300
 111848165.213 8  87154433.76446  21283995.500                    21283997.313
        52.500          39.400
 18  2 21 10  2 30.0000000  0  8G13G05G28G30G09G20G02G07
 117630184.562 7  91659907.04645  22384278.070                    22384280.070
        45.700          32.600
 107718306.824 8  83936343.30847  20498111.797                    20498114.082
        52.500          43.200
 122446359.472 7  95412776.15244  23300767.469                    23300770.039
        43.600          25.000
 106910093.354 8  83306593.24347  20344309.148                    20344313.984
        53.700          45.100
 122862049.690 7  95736683.59445  23379871.031                    23379876.777
        45.900          32.300
 125940971.585 7  98135826.80943  23965769.641                    23965771.109
        42.400          21.100
 123965728.475 6  96596659.28143  23589899.945                    23589901.426
        40.000          22.900
 111915347.646 8  87206783.70046  21296779.719                    21296782.652
        52.100          39.800
 18  2 21 10  3  0.0000000  0  8G13G05G28G30G09G20G02G07
 117563773.346 7  91608158.06345  22371640.570                    22371642.941
        45.600          31.900
 107716745.199 8  83935126.45847  20497814.148                    20497816.734
        52.500          42.800
 122372254.588 7  95355032.10644  23286665.414                    23286668.043
        43.700          24.600
 106931490.382 8  83323266.25747  20348381.164                    20348385.488
        53.000          44.900
 122967724.474 7  95819027.54445  23399980.742                    23399985.102
        46.600          31.400
 125852679.766 6  98067027.99743  23948967.648                    23948969.656
        41.700          20.900
 124066351.349 6  96675066.66044  23609048.227                    23609050.086
        39.400          25.100
 111982907.813 8  87259427.96246  21309636.578                    21309638.668
        52.600          39.900
 18  2 21 10  3 30.0000000  0  8G13G05G28G30G09G20G02G07
 117497546.343 7  91556552.60745  22359038.063                    22359040.109
        46.300          32.700
 107715721.269 8  83934328.58447  20497619.539                    20497621.926
        52.200          42.600
 122298364.402 7  95297455.34444  23272604.609                    23272606.449
        44.100          25.400
 106953403.533 8  83340341.43847  20352551.273                    20352555.418
        53.200          44.700
 123073509.716 7  95901457.56345  23420111.352                    23420116.074
        46.600          31.400
 125764567.561 7  97998369.13943  23932200.984                    23932202.555
        42.700          21.300
 124167169.424 6  96753626.14244  23628233.391                    23628234.766
        41.000          25.800
 112050845.510 8  87312366.42546  21322564.391                    21322566.449
        52.500          39.500
 18  2 21 10  4  0.0000000  0  8G13G05G28G30G09G20G02G07
 117431507.565 7  91505093.83645  22346471.688                    22346473.730
        47.000          33.300
 107715239.412 8  83933953.09947  20497527.805                    20497529.855
        51.800          42.900
 122224694.951 7  95240050.60944  23258585.453                    23258588.082
        43.900          25.300
 106975835.335 8  83357820.76947  20356819.742                    20356824.188
        52.800          44.300
 123179408.053 7  95983975.69645  23440262.781                    23440267.535
        45.500          30.900
 125676640.426 6  97929854.50143  23915468.703                    23915470.520
        40.700          21.300
 124268183.371 6  96832338.26043  23647455.406                    23647456.078
        39.900          23.400
 112119162.313 8  87365600.28046  21335564.445                    21335566.309
        52.400          39.100
 18  2 21 10  4 30.0000000  0  8G13G05G28G30G09G20G02G07
 117365652.840 7  91453778.47945  22333939.945                    22333941.980
        47.200          33.000
 107715295.771 8  83933997.01447  20497538.672                    20497540.434
        51.200          42.300
 122151244.175 7  95182816.26744  23244608.680                    23244610.859
        43.800          26.000
 106998780.085 8  83375699.80047  20361185.828                    20361190.246
        52.500          44.500
 123285413.756 7  96066577.48045  23460434.320                    23460440.477
        44.600          30.200
 125588896.042 6  97861482.25143  23898772.242                    23898774.047
        41.100          20.900
 124369385.497 6  96911196.98143  23666713.070                    23666713.770
        38.200          21.800
 112187851.468 8  87419124.29246  21348635.852                    21348637.480
        51.700          39.600
 18  2 21 10  5  0.0000000  0  8G13G05G28G30G09G20G02G07
 117299984.552 7  91402608.39745  22321443.773                    22321445.984
        47.500          33.800
 107715892.817 8  83934462.23647  20497652.172                    20497654.070
        51.300          42.600
 122078016.545 7  95125755.80744  23230674.070                    23230676.449
        44.400          26.300
 107022238.255 8  83393978.89047  20365649.867                    20365654.277
        52.500          44.600
 123391527.411 7  96149263.38945  23480627.820                    23480633.063
        45.300          30.400
 125501338.198 6  97793255.37443  23882109.930                    23882111.793
        41.800          22.500
 124470774.084 6  96990201.04644  23686007.820                    23686007.883
        40.800          24.500
 112256912.412 8  87472938.01846  21361777.906                    21361779.023
        51.700          39.300
 18  2 21 10  5 30.0000000  0  8G13G05G28G30G09G20G02G07
 117234503.360 7  91351584.10145  22308983.352                    22308985.426
        46.800          33.300
 107717030.948 8  83935349.08847  20497868.977                    20497870.457
        52.300          42.500
 122005014.351 7  95068871.05444  23216782.398                    23216784.277
        43.800          26.800
 107046208.793 8  83412657.21947  20370211.023                    20370215.758
        52.400          43.800
 123497747.944 7  96232032.59144  23500840.734                    23500845.988
        45.700          29.100
 125413969.191 7  97725175.63943  23865484.125                    23865486.402
        42.400          22.300
 124572345.933 6  97069347.89643  23705335.891                    23705336.785
        41.000          23.400
 112326343.232 8  87527039.94746  21374989.891                    21374991.250
        50.700          39.000
 18  2 21 10  6  0.0000000  0  8G13G05G28G30G09G20G02G07
 117169211.534 8  91300707.37545  22296558.188                    22296560.781
        48.500          33.700
 107718712.979 8  83936659.75847  20498189.117                    20498190.789
        53.100          43.600
 121932242.543 7  95012165.76743  23202933.727                    23202935.414
        43.500          23.400
 107070692.572 8  83431735.49447  20374870.203                    20374875.230
        53.100          44.600
 123604076.428 7  96314885.92945  23521074.750                    23521079.324
        44.500          30.000
 125326793.172 7  97657246.26843  23848895.266                    23848897.043
        43.200          22.300
 124674100.234 6  97148636.88244  23724699.352                    23724700.090
        41.400          25.400
 112396143.967 8  87581430.11746  21388272.297                    21388274.641
        51.900          40.300
 18  2 21 10  6 30.0000000  0  8G13G05G28G30G09G20G02G07
 117104106.977 8  91249976.56045  22284169.492                    22284171.344
        48.600          33.600
 107720936.794 8  83938392.59447  20498612.242                    20498614.289
        53.300          42.800
 121859700.830 7  94955639.77944  23189129.672                    23189131.344
        43.800          26.000
 107095685.777 8  83451210.70847  20379626.391                    20379631.352
        53.700          44.500
 123710509.143 7  96397820.45544  23541327.234                    23541333.715
        43.100          29.700
 125239809.456 7  97589466.76143  23832343.148                    23832344.633
        42.900          22.000
 124776030.656 7  97228063.09544  23744095.508                    23744096.867
        42.200          24.400
 112466309.817 8  87636104.79546  21401624.555                    21401626.965
        52.300          40.000
 18  2 21 10  7  0.0000000  0  8G13G05G28G30G09G20G02G07
 117039191.123 7  91199392.77845  22271815.602                    22271818.188
        47.300          33.100
 107723702.891 8  83940547.99547  20499138.578                    20499140.582
        53.000          42.800
 121787392.089 7  94899295.37744  23175368.930                    23175371.867
        44.100          25.500
 107121187.551 8  83471082.22447  20384478.906                    20384484.133
        52.900          44.600
 123817045.307 7  96480835.58544  23561600.984                    23561606.770
        44.100          29.800
 125153020.749 7  97521839.21343  23815826.969                    23815829.613
        43.400          23.400
 124878134.133 7  97307624.21244  23763525.570                    23763525.719
        43.000          25.200
 112536839.002 8  87691062.58046  21415046.078                    21415048.285
        52.800          40.100
 18  2 21 10  7 30.0000000  0  8G13G05G28G30G09G20G02G07
 116974464.510 7  91148956.46545  22259499.016                    22259500.906
        47.400          34.400
 107727012.657 8  83943127.02247  20499768.234                    20499770.676
        53.100          43.100
 121715319.103 7  94843134.63944  23161654.719                    23161657.254
        43.800          27.400
 107147196.983 8  83491349.30647  20389428.570                    20389433.516
        53.500          44.500
 123923684.148 7  96563930.73744  23581893.820                    23581899.305
        44.000          29.700
 125066429.219 7  97454365.30444  23799349.680                    23799351.234
        43.400          24.100
 124980408.197 7  97387318.24344  23782987.711                    23782988.477
        43.400          26.700
 112607729.584 8  87746301.98846  21428536.219                    21428538.488
        52.200          40.200
 18  2 21 10  8  0.0000000  0  8G13G05G28G30G09G20G02G07
 116909928.835 8  91098668.95245  22247218.563                    22247220.465
        48.300          34.200
 107730867.598 8  83946130.86747  20500501.758                    20500503.980
        53.000          43.200
 121643485.550 7  94787160.50644  23147984.359                    23147987.906
        42.900          25.900
 107173713.847 8  83512011.78347  20394474.609                    20394479.629
        53.600          44.500
 124030425.658 7  96647105.86844  23602205.453                    23602211.379
        43.800          27.100
 124980038.029 7  97387047.50344  23782909.039                    23782911.406
        43.400          24.500
 125082850.480 7  97467143.35344  23802481.797                    23802482.996
        43.400          26.400
 112678980.707 8  87801822.34346  21442095.242                    21442097.031
        52.900          40.400
 18  2 21 10  8 30.0000000  0  8G13G05G28G30G09G20G02G07
 116845586.039 7  91048531.71945  22234974.281                    22234975.988
        47.200          34.800
 107735269.864 8  83949561.19847  20501339.516                    20501342.129
        53.000          43.100
 121571895.616 7  94731376.19044  23134361.898                    23134364.672
        44.100          26.000
 107200738.719 8  83533070.12547  20399617.250                    20399622.117
        53.200          44.300
 124137270.540 7  96730361.56344  23622538.141                    23622543.008
        44.500          27.900
 124893851.568 7  97319889.25343  23766508.820                    23766510.949
        42.800          22.900
 125185459.880 7  97547098.66044  23822008.109                    23822009.121
        43.200          27.100
 112750591.862 8  87857623.23346  21455721.844                    21455723.500
        52.300          39.900
 18  2 21 10  9  0.0000000  0  8G13G05G28G30G09G20G02G07
 116781435.202 8  90998544.05745  22222766.797                    22222768.563
        48.000          34.500
 107740217.961 8  83953416.85347  20502281.188                    20502283.512
        52.300          43.500
 121500550.056 7  94675782.27144  23120784.500                    23120787.699
        43.700          26.000
 107228268.502 8  83554521.89447  20404856.008                    20404860.629
        53.000          44.700
 124244215.872 7  96813695.56244  23642889.156                    23642893.605
        45.200          28.100
 124807869.973 7  97252890.60644  23750146.977                    23750149.316
        42.100          24.500
 125288230.704 7  97627179.77844  23841564.555                    23841565.910
        43.500          27.800
 112822559.037 8  87913701.54746  21469416.781                    21469418.969
        52.200          39.500
 18  2 21 10  9 30.0000000  0  8G13G05G28G30G09G20G02G07
 116717477.246 7  90948706.70945  22210596.320                    22210598.004
        47.200          34.800
 107745713.013 8  83957698.70947  20503326.867                    20503329.430
        53.500          43.600
 121429451.662 7  94620380.95244  23107255.117                    23107257.805
        43.900          26.000
 107256302.213 8  83576366.34547  20410190.727                    20410195.340
        52.600          44.700
 124351260.902 7  96897107.22944  23663259.445                    23663264.285
        44.600          29.400
 124722095.612 6  97186053.47444  23733825.555                    23733827.355
        41.700          25.800
 125391160.239 7  97707384.55444  23861151.758                    23861153.027
        43.400          27.100
 112894880.882 8  87970056.21746  21483178.773                    21483181.414
        52.000          39.900
 18  2 21 10 10  0.0000000  0  8G13G05G28G30G09G20G02G07
 116653714.057 7  90899021.11745  22198462.242                    22198464.566
        46.900          34.800
 107751756.940 8  83962408.26047  20504476.797                    20504478.977
        52.500          43.700
 121358604.566 7  94565175.43844  23093773.383                    23093776.664
        43.600          26.800
 107284840.170 8  83598603.70947  20415621.484                    20415625.633
        53.700          44.200
 124458406.158 7  96980596.97645  23683648.773                    23683653.438
        44.600          30.200
 124636532.054 6  97119380.59243  23717542.594                    23717545.117
        41.100          23.000
 125494247.146 7  97787711.90944  23880768.094                    23880769.422
        42.800          27.500
 112967556.367 8  88026686.44646  21497008.570                    21497011.398
        52.900          39.700
 18  2 21 10 10 30.0000000  0  8G13G05G28G30G09G20G02G07
 116590148.019 7  90849489.15645  22186365.555                    22186368.297
        47.500          35.000
 107758351.675 8  83967547.00947  20505731.883                    20505734.152
        52.900          43.800
 121288013.105 7  94510169.17144  23080340.563                    23080344.363
        45.100          27.900
 107313882.650 8  83621234.20447  20421148.227                    20421152.578
        53.800          44.600
 124565652.239 7  97064165.25844  23704056.445                    23704061.980
        43.200          29.400
 124551183.182 6  97052874.98444  23701301.641                    23701303.637
        40.900          26.400
 125597489.441 7  97868160.38244  23900414.781                    23900415.660
        44.600          26.700
 113040584.860 8  88083591.75046  21510905.492                    21510907.742
        53.000          40.600
 18  2 21 10 11  0.0000000  0  8G13G05G28G30G09G20G02G07
 116526776.502 7  90800108.75345  22174306.727                    22174308.699
        47.300          34.700
 107765494.504 8  83973112.84747  20507091.188                    20507092.945
        52.500          43.400
 121217676.601 7  94455361.56244  23066956.141                    23066958.949
        45.500          27.300
 107343425.140 8  83644254.33447  20426769.805                    20426774.184
        53.500          44.100
 124672994.771 6  97147808.70944  23724482.727                    23724489.199
        41.800          29.100
 124466048.051 6  96986535.95044  23685100.359                    23685102.855
        41.800          25.600
 125700880.611 7  97948724.87044  23920089.055                    23920091.770
        44.100          28.500
 113113961.064 8  88140768.01046  21524868.945                    21524870.879
        53.400          40.400
 18  2 21 10 11 30.0000000  0  8G13G05G28G30G09G20G02G07
 116463601.772 8  90750881.69845  22162285.000                    22162287.000
        48.500          34.600
 107773187.782 8  83979107.59347  20508555.055                    20508557.242
        53.400          43.400
 121147598.796 7  94400755.50844  23053620.773                    23053623.195
        45.700          27.600
 107373468.039 8  83667664.37547  20432486.719                    20432491.012
        53.300          44.600
 124780434.518 7  97231527.91744  23744928.984                    23744934.078
        43.900          29.500
 124381130.698 7  96920366.58044  23668941.656                    23668943.762
        42.000          26.100
 125804419.286 7  98029404.27244  23939791.641                    23939794.043
        42.700          27.700
 113187684.749 8  88198215.03046  21538898.055                    21538900.184
        53.300          40.100
 18  2 21 10 12  0.0000000  0  8G13G05G28G30G09G20G02G07
 116400627.525 8  90701810.85445  22150301.094                    22150303.652
        48.800          34.800
 107781435.174 8  83985534.12947  20510124.922                    20510126.867
        53.400          43.400
 121077785.547 7  94346355.60444  23040335.445                    23040337.379
        44.900          27.900
 107404013.339 8  83691465.90647  20438299.367                    20438303.965
        53.000          44.700
 124887973.629 7  97315324.60845  23765393.141                    23765398.051
        43.600          30.300
 124296436.226 6  96854370.90644  23652824.391                    23652826.719
        41.500          25.900
 125908105.368 7  98110198.54844  23959523.047                    23959525.035
        43.400          27.900
 113261757.396 8  88255933.96046  21552993.742                    21552995.563
        52.000          39.900
 18  2 21 10 12 30.0000000  0  8G13G05G28G30G09G20G02G07
 116337850.359 8  90652893.59545  22138355.141                    22138357.590
        48.200          34.800
 107790232.382 8  83992389.08947  20511798.672                    20511801.113
        53.300          43.200
 121008235.482 7  94292160.76644  23027100.961                    23027103.121
        45.100          27.200
 107435055.442 8  83715654.54747  20444206.586                    20444210.859
        53.700          44.700
 124995606.856 7  97399194.58644  23785874.922                    23785880.199
        43.500          29.300
 124211962.933 6  96788547.58244  23636749.969                    23636751.680
        41.200          26.400
 126011931.713 7  98191102.12744  23979280.172                    23979282.309
        42.600          26.700
 113336172.502 8  88313919.74646  21567154.188                    21567156.145
        51.300          39.600
 18  2 21 10 13  0.0000000  0  8G13G05G28G30G09G20G02G07
 116275271.483 8  90604130.84645  22126446.750                    22126449.461
        49.300          35.400
 107799580.977 8  83999673.70147  20513577.641                    20513580.117
        53.400          43.400
 120938951.852 7  94238173.56544  23013916.398                    23013919.328
        45.000          28.200
 107466593.858 8  83740229.93947  20450208.055                    20450212.254
        53.800          44.300
 125103334.136 6  97483137.86644  23806373.711                    23806379.281
        41.400          26.600
 124127713.954 7  96722899.03944  23620717.773                    23620720.203
        42.300          26.900
 126115896.147 6  98272113.32144  23999063.781                    23999065.820
        41.200          26.400
 113410928.411 8  88372171.09446  21581379.766                    21581381.973
        52.500          39.600
 18  2 21 10 13 30.0000000  0  8G13G05G28G30G09G20G02G07
 116212893.081 8  90555524.30745  22114576.602                    22114578.988
        50.100          34.800
 107809482.965 8  84007389.53047  20515461.898                    20515464.305
        52.900          43.500
 120869938.657 7  94184397.08544  23000784.000                    23000785.734
        45.500          27.700
 107498628.788 8  83765192.21147  20456303.844                    20456308.285
        53.400          44.200
 125211155.943 6  97567154.80744  23826891.578                    23826896.984
        41.800          25.600
 124043692.877 6  96657428.09244  23604729.141                    23604731.078
        41.600          26.000
 126219996.420 6  98353230.36944  24018873.281                    24018874.699
        40.500          25.100
 113486024.572 8  88430687.57646  21595670.578                    21595672.141
        53.000          40.100
 18  2 21 10 14  0.0000000  0  8G13G05G28G30G09G20G02G07
 116150715.436 8  90507074.19145  22102744.477                    22102746.508
        49.900          34.400
 107819937.776 8  84015536.13047  20517451.422                    20517453.750
        52.200          43.200
 120801197.772 7  94130832.76544  22987701.820                    22987705.004
        45.300          26.800
 107531158.303 8  83790539.87147  20462493.977                    20462498.406
        53.500          43.900
 125319070.570 7  97651244.09644  23847427.563                    23847433.297
        42.400          29.100
 123959901.230 6  96592135.91444  23588783.711                    23588786.145
        40.800          25.800
 126324229.122 6  98434450.59344  24038708.805                    24038710.684
        40.900          28.600
 113561458.445 8  88489467.20646  21610025.352                    21610027.063
        51.900          40.000
 18  2 21 10 14 30.0000000  0  8G13G05G28G30G09G20G02G07
 116088740.390 8  90458781.96045  22090951.281                    22090953.125
        50.000          34.800
 107830947.099 8  84024114.81847  20519546.617                    20519548.750
        52.400          43.700
 120732732.829 7  94077483.48144  22974673.477                    22974676.457
        44.700          26.500
 107564182.043 8  83816272.65847  20468778.258                    20468782.453
        53.600          43.600
 125427078.140 6  97735405.79744  23867980.523                    23867987.379
        41.400          29.300
 123876342.435 6  96527025.18444  23572883.469                    23572885.238
        41.000          26.700
 126428592.066 6  98515772.27244  24058568.930                    24058570.438
        40.700          28.000
 113637228.990 8  88548509.17246  21624443.648                    21624445.477
        51.700          39.800
 18  2 21 10 15  0.0000000  0  8G13G05G28G30G09G20G02G07
 116026969.681 8  90410648.94445  22079196.750                    22079198.766
        49.400          35.100
 107842512.681 8  84033126.95147  20521747.609                    20521749.887
        51.900          43.500
 120664547.981 7  94024352.46844  22961698.297                    22961701.242
        45.000          27.800
 107597700.174 8  83842390.67047  20475156.461                    20475161.289
        53.200          44.100
 125535179.211 6  97819640.29844  23888550.953                    23888558.680
        40.900          28.300
 123793020.425 6  96462098.97944  23557027.898                    23557029.883
        41.200          26.200
 126533083.383 6  98597193.98644  24078452.305                    24078454.723
        37.800          26.100
 113713335.993 8  88607813.29346  21638925.977                    21638928.063
        51.500          39.800
 18  2 21 10 15 30.0000000  0  9G15G13G05G28G30G09G20G02G07
 130137075.213 7                  24764262.375
        43.900
 115965395.556 8  90362669.11145  22067479.492                    22067481.820
        50.200          35.200
 107854626.566 8  84042566.33847  20524052.352                    20524054.465
        50.500          44.000
 120596637.000 7  93971434.83544  22948775.547                    22948778.719
        45.800          28.000
 107631703.009 8  83868886.38947  20481626.984                    20481631.754
        53.200          44.200
 125643364.442 7  97903940.38644  23909138.742                    23909145.152
        42.000          28.600
 123709929.108 6  96397352.50944  23541216.016                    23541217.922
        41.800          26.800
 126637692.067 6  98678707.15243  24098359.164                    24098360.344
        38.100          22.900
 113789768.313 8  88667370.92846  21653470.516                    21653472.465
        49.900          39.600
 18  2 21 10 16  0.0000000  0  9G15G13G05G28G30G09G20G02G07
 130050626.711 7                  24747811.195
        43.000
 115904013.729 8  90314839.12645  22055798.500                    22055801.051
        49.600          35.300
 107867283.807 8  84052429.11147  20526461.203                    20526463.574
        50.900          43.700
 120528997.729 7  93918728.94944  22935904.500                    22935907.172
        44.600          28.100
 107666183.902 8  83895754.62147  20488188.727                    20488193.172
        53.100          44.500
 125751627.671 7  97988301.29344  23929741.094                    23929746.445
        43.400          26.700
 123627065.385 7  96332783.38944  23525447.430                    23525449.285
        42.000          28.100
 126742409.183 6  98760304.89544  24118286.430                    24118287.457
        40.900          24.100
 113866519.121 8  88727176.74046  21668075.492                    21668078.188
        51.100          39.700
 18  2 21 10 16 30.0000000  0  9G15G13G05G28G30G09G20G02G07
 129964216.927 7                  24731367.758
        42.100
 115842832.085 8  90267165.13046  22044156.305                    22044158.473
        50.100          36.000
 107880491.728 8  84062720.98647  20528974.445                    20528976.742
        51.100          43.700
 120461639.470 7  93866242.02944  22923086.047                    22923088.527
        44.400          27.300
 107701148.614 8  83922999.84647  20494842.461                    20494846.891
        53.000          44.800
 125859974.848 7  98072727.68344  23950358.750                    23950364.238
        45.000          26.600
 123544438.605 7  96268398.89244  23509724.406                    23509725.715
        42.000          27.000
 126847238.729 6  98841990.22244  24138235.578                    24138236.488
        39.900          27.100
 113943593.351 8  88787234.56846  21682742.500                    21682744.766
        50.900          39.200
 18  2 21 10 17  0.0000000  0  9G15G13G05G28G30G09G20G02G07
 129877850.053 6 101203535.69943  24714933.555                    24714936.410
        41.700          21.700
 115781854.250 8  90219649.93045  22032552.906                    22032555.137
        49.600          34.900
 107894253.853 8  84073444.71147  20531593.328                    20531595.879
        51.200          43.400
 120394568.176 7  93813978.73144  22910323.266                    22910325.168
        45.100          25.600
 107736599.022 8  83950623.53647  20501588.047                    20501593.059
        53.500          44.000
 125968408.511 6  98157221.40344  23970992.344                    23970997.895
        41.400          26.200
 123462054.335 6  96204203.36244  23494046.352                    23494048.586
        41.600          27.700
 126952181.192 6  98923763.49444  24158204.797                    24158206.355
        36.600          24.400
 114020992.081 8  88847545.25346  21697471.008                    21697472.887
        51.100          39.500
 18  2 21 10 17 30.0000000  0  9G15G13G05G28G30G09G20G02G07
 129791522.155 7 101136267.24343  24698505.508                    24698508.789
        42.600          23.000
 115721076.854 8  90172290.93945  22020987.102                    22020989.109
        49.400          35.400
 107908566.008 8  84084597.03047  20534316.781                    20534318.813
        50.300          43.700
 120327782.040 7  93761937.62544  22897613.648                    22897616.094
        44.000          27.000
 107772529.471 8  83978621.29147  20508425.289                    20508430.262
        52.700          44.300
 126076923.415 6  98241778.34244  23991642.563                    23991648.559
        41.100          27.000
 123379910.749 6  96140195.37744  23478415.656                    23478417.191
        41.500          28.000
 127057228.998 5  99005618.76643  24178192.727                    24178196.645
        35.500          22.900
 114098709.059 8  88908103.92546  21712260.086                    21712262.238
        49.500          38.900
 18  2 21 10 18  0.0000000  0  9G15G13G05G28G30G09G20G02G07
 129705231.196 7 101069027.55143  24682084.742                    24682088.891
        42.900          23.800
 115660496.921 8  90125085.81345  22009459.281                    22009461.160
        49.400          35.600
 107923425.387 8  84096175.76147  20537144.180                    20537146.590
        50.600          42.600
 120261279.957 7  93710117.85144  22884959.094                    22884962.082
        44.500          27.500
 107808935.102 8  84006989.30247  20515353.305                    20515358.027
        53.700          44.500
 126185515.091 7  98326395.15044  24012307.672                    24012312.543
        42.900          28.900
 123298006.972 7  96076374.25944  23462829.586                    23462831.195
        43.000          27.200
 127162375.574 6  99087551.04344  24198204.773                    24198205.980
        39.500          25.900
 114176738.990 8  88968906.44646  21727108.328                    21727111.176
        49.800          39.700
 18  2 21 10 18 30.0000000  0  9G15G13G05G28G30G09G20G02G07
 129618980.626 7 101001819.31543  24665671.531                    24665675.492
        43.200          23.500
 115600118.381 8  90078037.60645  21997969.805                    21997971.379
        50.000          35.000
 107938835.064 8  84108183.29547  20540076.813                    20540079.328
        50.100          43.600
 120195067.745 7  93658523.97944  22872358.891                    22872362.047
        43.200          26.200
 107845817.501 8  84035728.83647  20522371.945                    20522376.180
        52.900          44.700
 126294185.668 7  98411073.46744  24032986.602                    24032991.883
        43.500          28.700
 123216348.063 7  96012743.94744  23447290.328                    23447292.469
        42.900          27.300
 127267620.510 6  99169560.09843  24218231.883                    24218231.461
        40.500          23.000
 114255082.580 8  89029953.39846  21742016.969                    21742019.184
        50.400          40.300
 18  2 21 10 19  0.0000000  0  9G15G13G05G28G30G09G20G02G07
 129532776.583 7 100934647.35744  24649267.391                    24649271.324
        43.000          24.500
 115539947.252 8  90031151.01945  21986519.531                    21986521.496
        50.200          35.600
 107954801.085 8  84120624.33447  20543115.055                    20543117.313
        50.700          43.600
 120129153.315 7  93607162.14544  22859816.016                    22859818.871
        44.300          27.900
 107883180.710 8  84064843.02147  20529482.023                    20529486.246
        53.700          44.100
 126402939.607 7  98495816.75444  24053681.531                    24053686.980
        43.600          27.300
 123134941.936 7  95949310.61444  23431799.422                    23431801.148
        43.200          27.900
 127372966.441 6  99251647.81143  24238277.852                    24238278.941
        37.300          22.600
 114333743.277 8  89091247.42746  21756985.805                    21756987.914
        51.700          39.600
 18  2 21 10 19 30.0000000  0  9G15G13G05G28G30G09G20G02G07
 129446619.316 7 100867511.86244  24632872.711                    24632876.305
        44.600          26.700
 115479983.801 8  89984426.26145  21975108.555                    21975110.613
        49.600          34.800
 107971322.613 8  84133498.23647  20546258.992                    20546261.598
        50.300          43.100
 120063538.250 7  93556033.58244  22847329.922                    22847332.770
        44.100          27.400
 107921022.521 8  84094330.15347  20536682.953                    20536687.203
        52.800          44.800
 126511775.294 7  98580623.70244  24074392.539                    24074397.809
        42.500          27.100
 123053790.058 7  95886075.39044  23416356.602                    23416358.645
        43.700          28.300
 127478409.378 5  99333811.01743  24258342.305                    24258343.547
        34.300          21.300
 114412718.125 8  89152786.26546  21772014.211                    21772016.082
        51.100          38.800
 18  2 21 10 20  0.0000000  0  9G15G13G05G28G30G09G20G02G07
 129360508.212 7 100800412.32044  24616485.828                    24616489.848
        43.200          26.000
 115420227.008 8  89937862.52445  21963736.828                    21963739.887
        48.900          34.900
 107988398.219 8  84146803.90747  20549508.539                    20549510.813
        49.800          43.300
 119998224.018 7  93505139.41144  22834901.320                    22834904.141
        45.500          28.900
 107959340.192 8  84124188.07047  20543974.375                    20543978.398
        52.400          44.300
 126620690.438 7  98665492.55144  24095118.648                    24095124.145
        43.000          29.400
 122972893.276 7  95823038.96544  23400962.984                    23400964.855
        43.500          27.100
 127583944.883 6  99416046.36744  24278425.688                    24278426.430
        37.300          24.200
 114492003.775 8  89214567.28446  21787101.953                    21787104.105
        49.500          39.000
 18  2 21 10 20 30.0000000  0  9G15G13G05G28G30G09G20G02G07
 129274444.727 7 100733349.87944  24600109.227                    24600112.172
        44.800          25.200
 115360678.708 8  89891461.26745  21952405.680                    21952407.813
        49.100          35.300
 108006029.205 8  84160542.32247  20552863.398                    20552866.133
        50.300          43.800
 119933213.563 7  93454481.96744  22822529.820                    22822532.586
        46.000          28.200
 107998133.069 8  84154416.28947  20551356.406                    20551360.574
        53.200          44.000
 126729684.865 7  98750423.18444  24115859.406                    24115865.363
        43.700          28.600
 122892254.961 7  95760203.93444  23385618.047                    23385619.574
        44.900          27.900
 127689570.929 6  99498352.34144  24298525.688                    24298527.262
        38.700          24.300
 114571599.195 8  89276589.66246  21802248.141                    21802250.137
        50.500          39.400
 18  2 21 10 21  0.0000000  0  9G15G13G05G28G30G09G20G02G07
 129188430.890 7 100666326.13344  24583740.305                    24583744.711
        44.500          27.600
 115301340.720 8  89845223.88845  21941113.813                    21941116.137
        48.800          35.400
 108024217.122 8  84174714.72647  20556324.500                    20556326.934
        50.500          43.200
 119868510.969 7  93404064.41844  22810217.953                    22810220.027
        46.000          28.400
 108037401.002 8  84185014.67447  20558828.703                    20558833.238
        53.700          44.200
 126838759.062 6  98835415.98344  24136615.055                    24136621.543
        41.000          26.400
 122811878.696 7  95697573.09044  23370322.578                    23370324.727
        44.700          28.400
 127795285.371 6  99580727.17543  24318642.258                    24318642.910
        36.100          21.500
 114651503.444 8  89338852.69146  21817453.305                    21817455.910
        49.800          38.700
 18  2 21 10 21 30.0000000  0  9G15G13G05G28G30G09G20G02G07
 129102468.387 7 100599342.37344  24567383.039                    24567386.785
        44.700          26.900
 115242214.550 8  89799151.54545  21929862.578                    21929864.648
        49.100          34.900
 108042962.499 8  84189321.50647  20559891.664                    20559894.152
        51.200          43.500
 119804119.182 7  93353889.05144  22797963.820                    22797966.453
        45.000          28.300
 108077143.172 8  84215982.58547  20566391.570                    20566396.184
        52.900          44.000
 126947912.743 6  98920470.73543  24157386.266                    24157392.125
        40.900          22.200
 122731767.820 7  95635149.04644  23355077.883                    23355079.797
        45.200          29.100
 127901085.962 6  99663169.12343  24338775.445                    24338776.004
        36.400          19.000
 114731715.325 8  89401355.43946  21832717.211                    21832719.379
        50.700          39.200
 18  2 21 10 22  0.0000000  0  9G15G13G05G28G30G09G20G02G07
 129016556.782 7 100532398.28144  24551034.320                    24551038.160
        44.500          27.700
 115183300.021 8  89753244.12045  21918651.352                    21918653.406
        48.800          35.200
 108062264.553 8  84204362.05947  20563564.703                    20563566.672
        51.100          42.900
 119740039.904 7  93303957.21444  22785769.672                    22785772.297
        45.500          29.300
 108117357.193 8  84247318.18947  20574044.086                    20574048.613
        52.600          44.400
 127057144.079 7  99005586.06444  24178172.734                    24178177.508
        42.000          24.000
 122651923.563 7  95572932.76444  23339884.461                    23339886.742
        44.600          28.400
 128006968.563 6  99745675.04743  24358924.945                    24358926.070
        39.800          22.300
 114812231.692 8  89464095.44446  21848038.898                    21848041.012
        51.500          38.100
 18  2 21 10 22 30.0000000  0  9G15G13G05G28G30G09G20G02G07
 128930697.823 7 100465495.22344  24534695.906                    24534698.996
        43.800          28.500
 115124598.348 8  89707502.56345  21907480.844                    21907482.938
        48.800          35.200
 108082124.089 8  84219837.01847  20567343.633                    20567346.035
        51.900          43.100
 119676276.077 7  93254271.15144  22773636.664                    22773639.172
        45.200          28.100
 108158042.128 8  84279020.72847  20581785.961                    20581791.012
        52.700          44.300
 127166452.659 6  99090761.54244  24198973.586                    24198979.387
        41.400          26.400
 122572348.518 7  95510926.25044  23324741.734                    23324743.668
        44.500          27.900
 128112930.732 6  99828242.90543  24379088.555                    24379090.359
        40.300          22.800
 114893050.959 8  89527071.48346  21863418.633                    21863420.234
        51.200          38.700
 18  2 21 10 23  0.0000000  0  9G15G13G05G28G30G09G20G02G07
 128844893.760 7 100398634.93844  24518368.328                    24518371.707
        45.400          27.300
 115066111.521 8  89661928.41945  21896351.258                    21896353.090
        49.500          35.400
 108102542.589 8  84235747.52947  20571229.188                    20571232.008
        50.500          42.700
 119612831.564 7  93204833.93544  22761562.781                    22761565.121
        45.200          28.200
 108199197.790 8  84311090.07147  20589617.750                    20589623.020
        52.600          44.600
 127275838.964 6  99175997.53844  24219789.367                    24219795.609
        40.800          28.300
 122493046.797 7  95449132.71944  23309651.055                    23309652.555
        44.700          28.100
 128218970.637 6  99910871.31543  24399267.180                    24399268.961
        39.000          22.900
 114974172.490 8  89590283.05846  21878855.305                    21878856.938
        50.000          37.800
 18  2 21 10 23 30.0000000  0  9G15G13G05G28G30G09G20G02G07
 128759154.758 7 100331825.34144  24502051.945                    24502055.824
        44.700          28.100
 115007850.071 8  89616529.89745  21885264.227                    21885266.602
        49.300          34.800
 108123529.450 8  84252100.91947  20575223.031                    20575225.348
        50.900          43.100
 119549718.544 7  93155654.97244  22749553.023                    22749555.477
        44.700          28.100
 108240832.242 8  84343532.49647  20597540.539                    20597545.184
        52.700          44.000
 127385311.662 6  99261300.85044  24240620.906                    24240628.313
        40.600          28.900
 122414030.003 7  95387561.19744  23294614.156                    23294616.246
        44.800          28.000
 128325094.812 6  99993565.43243  24419462.078                    24419463.047
        38.000          21.100
 115055604.004 8  89653736.16146  21894350.930                    21894353.789
        50.800          38.700
 18  2 21 10 24  0.0000000  0  9G15G13G05G28G30G09G20G02G07
 128673493.253 7 100265076.14744  24485750.750                    24485754.520
        44.500          28.800
 114949826.451 8  89571316.68845  21874222.859                    21874224.133
        49.700          35.200
 108145096.875 8  84268906.69947  20579327.563                    20579329.563
        52.500          43.400
 119486951.164 7  93106745.36844  22737608.523                    22737611.348
        45.300          29.900
 108282955.816 8  84376356.05547  20605556.359                    20605560.887
        53.400          44.700
 127494881.637 6  99346679.95444  24261471.344                    24261478.004
        39.500          26.600
 122335312.235 7  95326222.68744  23279635.008                    23279636.395
        44.600          27.700
 128431311.934 6 100076331.96743  24439674.578                    24439675.141
        38.700          19.300
 115137355.025 8  89717438.22946  21909907.719                    21909910.227
        51.000          38.100
 18  2 21 10 24 30.0000000  0  9G15G13G05G28G30G09G20G02G07
 128587902.935 7 100198382.43344  24469464.117                    24469467.355
        45.100          28.500
 114892033.912 8  89526283.55345  21863225.008                    21863226.746
        48.800          35.600
 108167237.256 8  84286158.93447  20583540.633                    20583542.809
        53.100          43.500
 119424524.375 7  93058101.18944  22725728.883                    22725732.230
        45.500          29.200
 108325559.371 8  84409553.62547  20613663.938                    20613668.445
        53.600          44.900
 127604540.412 6  99432128.29444  24282338.445                    24282344.406
        39.900          25.700
 122256888.934 7  95265113.63444  23264711.414                    23264712.770
        44.600          28.900
 128537611.374 6 100159162.67043  24459902.594                    24459903.293
        39.800          19.900
 115219415.945 8  89781381.79146  21925523.656                    21925526.637
        51.000          39.300
 18  2 21 10 25  0.0000000  0  9G15G13G05G28G30G09G20G02G07
 128502377.899 7 100131739.57844  24453189.328                    24453192.746
        44.000          27.900
 114834466.682 8  89481425.97746  21852270.742                    21852272.648
        48.800          36.000
 108189943.501 8  84303852.10147  20587861.664                    20587863.512
        52.100          43.700
 119362433.652 7  93009718.84744  22713913.570                    22713916.656
        45.200          28.200
 108368634.771 8  84443118.87347  20621860.977                    20621865.664
        53.500          45.000
 127714280.505 6  99517640.01444  24303221.852                    24303228.164
        39.800          25.600
 122178755.608 7  95204230.54044  23249843.086                    23249845.043
        43.400          27.900
 128643983.323 6 100242049.88143  24480144.703                    24480146.457
        40.800          22.800
 115301778.210 8  89845560.14946  21941196.930                    21941199.520
        50.000          39.300
 18  2 21 10 25 30.0000000  0  9G15G13G05G28G30G09G20G02G07
 128416918.545 7 100065147.89544  24436926.828                    24436930.125
        44.600          28.800
 114777125.046 8  89436744.18945  21841358.703                    21841361.184
        48.900          35.600
 108213215.647 8  84321986.21547  20592289.641                    20592292.281
        51.900          43.700
 119300681.479 7  92961600.31644  22702162.484                    22702165.676
        44.500          27.900
 108412180.138 8  84477050.31747  20630147.211                    20630151.840
        53.700          44.600
 127824100.623 6  99603214.08344  24324120.539                    24324125.578
        41.300          27.000
 122100913.931 7  95143574.69444  23235030.258                    23235031.707
        43.200          28.900
 128750424.436 6 100324990.93144  24500398.648                    24500402.750
        38.600          24.100
 115384439.526 8  89909971.56346  21956926.891                    21956928.602
        49.600          37.800
 18  2 21 10 26  0.0000000  0  9G15G13G05G28G30G09G20G02G07
 128331525.796 7  99998608.11244  24420677.102                    24420680.332
        42.800          28.500
 114720009.787 8  89392238.79346  21830490.250                    21830492.391
        48.500          36.000
 108237053.479 8  84340561.15047  20596826.211                    20596828.105
        51.000          43.300
 119239270.142 7  92913747.34644  22690475.953                    22690478.656
        45.500          28.400
 108456193.952 8  84511346.80247  20638522.680                    20638526.863
        53.700          44.100
 127934000.032 6  99688849.89644  24345033.070                    24345039.492
        41.400          27.500
 122023366.526 7  95083148.15644  23220273.313                    23220275.469
        43.300          27.400
 128856931.881 6 100407983.60243  24520666.234                    24520670.340
        37.700          21.100
 115467397.863 8  89974614.40746  21972713.102                    21972715.820
        49.800          38.900
 18  2 21 10 26 30.0000000  0  9G15G13G05G28G30G09G20G02G07
 128246200.109 7  99932120.60044  24404439.250                    24404443.418
        43.900          28.800
 114663121.213 8  89347910.04245  21819664.633                    21819667.086
        49.300          35.700
 108261456.921 8  84359576.81047  20601470.008                    20601472.098
        51.900          43.100
 119178201.680 7  92866161.57044  22678854.984                    22678858.141
        44.100          28.500
 108500674.276 8  84546006.78647  20646986.859                    20646992.039
        52.600          44.600
 128043977.370 7  99774546.43344  24365961.695                    24365968.020
        43.200          28.600
 121946115.581 7  95022952.62644  23205572.930                    23205575.141
        42.600          28.700
 128963501.963 6 100491025.15143  24540946.813                    24540949.332
        38.800          21.500
 115550650.688 8  90039486.72846  21988555.391                    21988557.398
        49.900          37.500
 18  2 21 10 27  0.0000000  0  9G15G13G05G28G30G09G20G02G07
 128160942.391 7  99865686.04244  24388215.898                    24388219.117
        44.200          28.100
 114606460.069 8  89303758.50645  21808882.422                    21808885.086
        49.200          35.800
 108286425.892 8  84379033.14047  20606221.383                    20606223.809
        50.900          43.100
 119117478.479 7  92818844.84044  22667299.938                    22667303.137
        45.000          29.000
 108545619.472 8  84581029.00947  20655539.945                    20655544.531
        52.900          45.000
 128154031.666 7  99860302.96544  24386904.203                    24386910.543
        42.800          26.800
 121869163.335 7  94962989.84144  23190929.406                    23190931.805
        43.800          28.500
 129070131.724 6 100574113.24443  24561238.266                    24561239.676
        40.300          18.300
 115634195.948 8  90104586.92046  22004453.867                    22004456.426
        50.600          38.900
 18  2 21 10 27 30.0000000  0  9G15G13G05G28G30G09G20G02G07
 128075752.430 7  99799304.26244  24372004.508                    24372008.449
        43.700          27.700
 114550025.968 8  89259783.88345  21798143.633                    21798145.219
        49.900          35.800
 108311958.498 8  84398928.66847  20611080.102                    20611082.363
        51.200          42.900
 119057101.707 7  92771798.03344  22655810.625                    22655814.078
        44.600          29.600
 108591026.647 8  84616411.22147  20664180.602                    20664185.324
        53.400          44.700
 128264160.805 6  99946117.79644  24407860.805                    24407867.371
        41.900          26.100
 121792511.092 7  94903260.85544  23176343.484                    23176345.633
        43.200          29.300
 129176816.790 6 100657244.52143  24581540.297                    24581540.727
        41.600          20.900
 115718030.284 8  90169912.34746  22020407.039                    22020409.609
        50.800          38.600
 18  2 21 10 28  0.0000000  0  9G15G13G05G28G30G09G20G02G07
 127990628.285 7  99732973.78844  24355806.180                    24355809.910
        44.300          28.200
 114493816.985 8  89215984.68646  21787447.734                    21787449.504
        49.800          36.000
 108338052.609 8  84419261.73047  20616045.266                    20616047.688
        51.100          43.200
 118997071.147 7  92725021.01944  22644387.664                    22644390.336
        44.300          29.600
 108636891.661 8  84652150.18847  20672908.172                    20672912.887
        53.000          44.700
 128374361.296 6 100031988.22543  24428831.625                    24428836.078
        39.700          22.200
 121716158.533 7  94843765.36744  23161813.609                    23161815.867
        43.000          28.900
 129283551.608 6 100740414.48543  24601850.570                    24601853.098
        40.200          22.500
 115802149.337 8  90235459.65246  22036414.508                    22036416.152
        50.800          38.200
 18  2 21 10 28 30.0000000  0  9G15G13G05G28G30G09G20G02G07
 127905575.381 7  99666698.81744  24339621.266                    24339625.016
        44.100          28.300
 114437838.604 8  89172365.16546  21776794.938                    21776796.926
        50.600          36.100
 108364712.340 8  84440035.53247  20621118.492                    20621121.398
        50.800          43.000
 118937393.745 7  92678519.16544  22633031.359                    22633034.051
        45.900          29.800
 108683217.418 8  84688248.17847  20681723.977                    20681728.590
        52.700          44.700
 128484636.817 6 100117917.14143  24449816.008                    24449821.016
        41.100          22.900
 121640112.522 7  94784508.75344  23147342.789                    23147344.551
        42.800          27.500
 129390337.779 6 100823624.34443  24622170.898                    24622174.078
        38.800          22.000
 115886555.310 8  90301230.51346  22052476.313                    22052478.363
        49.400          37.200
 18  2 21 10 29  0.0000000  0  9G15G13G05G28G30G09G20G02G07
 127820592.515 7  99600478.42644  24323449.367                    24323453.293
        45.200          29.400
 114382089.346 8  89128924.19046  21766186.188                    21766188.020
        50.900          36.100
 108391935.311 8  84461248.23147  20626298.766                    20626301.340
        49.600          43.400
 118878069.686 7  92632292.65045  22621742.297                    22621744.344
        44.600          30.100
 108730000.201 8  84724702.28147  20690626.453                    20690630.688
        53.100          44.500
 128594984.327 6 100203902.16443  24470815.125                    24470820.219
        40.600          23.600
 121564373.246 7  94725491.14044  23132929.500                    23132932.211
        43.500          29.400
 129497169.999 6 100906870.11743  24642500.719                    24642502.793
        40.100          22.200
 115971243.870 8  90367221.58446  22068591.781                    22068593.410
        50.500          37.200
 18  2 21 10 29 30.0000000  0  9G15G13G05G28G30G09G20G02G07
 127735681.683 7  99534314.16144  24307291.609                    24307295.336
        45.200          28.900
 114326570.996 8  89085663.14846  21755621.328                    21755623.754
        50.800          36.400
 108419722.588 8  84482900.65047  20631586.680                    20631589.316
        50.500          42.900
 118819102.332 7  92586344.09344  22610520.891                    22610523.348
        44.200          29.400
 108777239.361 8  84761512.02347  20699615.328                    20699620.043
        52.700          44.600
 128705403.854 6 100289943.27144  24491826.625                    24491832.227
        41.400          26.200
 121488944.024 7  94666715.14544  23118576.453                    23118578.215
        42.800          28.700
 129604045.932 7 100990150.00843  24662839.414                    24662840.164
        42.500          20.900
 116056214.391 8  90433432.36546  22084760.992                    22084763.500
        50.200          37.600
 18  2 21 10 30  0.0000000  0  9G15G13G05G28G30G09G20G02G07
 127650840.895 7  99468204.48644  24291146.578                    24291150.477
        43.400          28.700
 114271281.525 8  89042580.44946  21745100.008                    21745102.363
        50.300          36.100
 108448071.535 8  84504990.72947  20636981.406                    20636983.617
        51.900          43.100
 118760491.157 7  92540673.09244  22599368.070                    22599370.609
        45.200          29.800
 108824930.346 8  84798673.82047  20708690.766                    20708695.375
        52.800          44.100
 128815891.742 6 100376037.65643  24512852.211                    24512857.688
        40.900          23.900
 121413824.433 7  94608180.41144  23104281.555                    23104283.070
        44.300          28.700
 129710959.780 6 101073459.61442  24683184.023                    24683183.090
        41.400          16.900
 116141462.017 8  90499859.07546  22100983.773                    22100985.609
        50.900          37.300
 18  2 21 10 30 30.0000000  0  8G15G13G05G28G30G09G20G07
 127566074.094 7  99402152.46244  24275016.484                    24275019.426
        44.800          28.900
 114216225.522 8  88999679.68046  21734623.148                    21734625.676
        50.600          36.800
 108476984.558 8  84527520.35047  20642483.234                    20642486.043
        51.000          42.400
 118702242.323 7  92495284.43845  22588283.227                    22588286.512
        44.600          30.400
 108873075.176 8  84836189.26647  20717852.609                    20717856.973
        53.400          44.000
 128926450.629 6 100462187.34844  24533891.242                    24533896.566
        40.000          26.100
 121339020.498 7  94549891.63344  23090046.414                    23090048.109
        43.400          27.800
 116226988.169 8  90566502.80946  22117258.727                    22117261.375
        51.500          37.900
 18  2 21 10 31  0.0000000  0  8G15G13G05G28G30G09G20G07
 127481385.360 7  99336161.25544  24258900.203                    24258903.980
        44.800          28.300
 114161405.803 8  88956963.02046  21724191.234                    21724193.648
        50.500          36.400
 108506464.106 8  84550491.42347  20648093.289                    20648095.750
        51.500          42.700
 118644360.378 7  92450181.66645  22577268.539                    22577271.523
        44.900          30.000
 108921674.653 8  84874058.98547  20727100.422                    20727104.598
        53.200          44.600
 129037082.217 6 100548393.70744  24554943.430                    24554948.504
        40.300          24.600
 121264537.278 7  94491852.75344  23075872.656                    23075874.605
        43.800          27.200
 116312793.157 8  90633363.82346  22133586.656                    22133589.141
        51.800          36.900
 18  2 21 10 31 30.0000000  0  8G15G13G05G28G30G09G20G07
 127396790.306 7  99270243.06144  24242802.945                    24242805.820
        45.000          28.100
 114106838.189 8  88914442.80346  21713807.828                    21713809.672
        50.800          37.200
 108536524.995 8  84573915.48347  20653813.602                    20653815.688
        51.200          42.400
 118586862.576 7  92405378.21544  22566327.508                    22566330.332
        43.900          29.300
 108970742.072 8  84912293.33047  20736437.891                    20736442.066
        53.500          44.500
 129147800.519 6 100634667.61944  24576013.102                    24576017.945
        40.900          24.600
 121190392.000 7  94434077.22544  23061763.352                    23061765.297
        42.700          27.600
 116398889.822 8  90700452.10546  22149969.984                    22149972.895
        51.700          37.500
 18  2 21 10 32  0.0000000  0  8G15G13G05G28G30G09G20G07
 127312282.242 7  99204392.63244  24226720.922                    24226724.441
        44.300          27.800
 114052515.703 8  88872113.60446  21703470.195                    21703472.188
        50.200          36.100
 108567159.339 8  84597786.39347  20659642.961                    20659645.215
        51.200          43.100
 118529743.657 7  92360869.98745  22555457.922                    22555460.805
        44.900          30.900
 109020267.902 8  84950884.89147  20745862.484                    20745866.590
        53.500          45.000
 129258596.758 6 100721002.26644  24597096.539                    24597101.902
        41.000          24.000
 121116578.953 7  94376560.58644  23047716.914                    23047719.148
        42.100          27.900
 116485268.654 8  90767760.25946  22166407.602                    22166409.891
        51.800          36.900
 18  2 21 10 32 30.0000000  0  8G15G13G05G28G30G09G20G07
 127227855.877 7  99138605.87144  24210655.609                    24210658.781
        43.800          28.700
 113998433.213 8  88829971.40746  21693178.508                    21693181.016
        48.700          36.900
 108598360.664 8  84622099.10547  20665580.422                    20665582.809
        51.900          42.700
 118472999.655 7  92316653.91045  22544659.242                    22544662.133
        43.900          30.500
 109070244.471 9  84989827.65747  20755372.883                    20755377.320
        54.000          44.500
 129369464.131 7 100807392.34244  24618193.703                    24618199.840
        42.400          24.000
 121043094.580 7  94319300.03844  23033733.766                    23033735.902
        42.300          27.200
 116571921.491 8  90835281.95246  22182897.453                    22182898.184
        52.500          36.400
 18  2 21 10 33  0.0000000  0  8G15G13G05G28G30G09G20G07
 127143511.920 7  99072883.34044  24194605.789                    24194608.871
        43.600          27.900
 113944591.371 7  88788016.72946  21682932.820                    21682935.414
        47.500          36.500
 108630128.882 8  84646853.55747  20671625.797                    20671628.066
        51.700          42.600
 118416632.697 7  92272731.65245  22533933.992                    22533936.004
        44.200          31.600
 109120669.891 9  85029120.19947  20764968.414                    20764973.047
        54.100          45.000
 129480401.549 6 100893836.99344  24639304.156                    24639310.566
        41.700          24.600
 120969941.309 7  94262297.50644  23019813.039                    23019814.977
        42.200          27.900
 116658845.886 8  90903015.25846  22199438.773                    22199440.035
        51.100          37.100
 18  2 21 10 33 30.0000000  0  8G15G13G05G28G30G09G20G07
 127059254.435 7  99007228.17144  24178571.492                    24178574.613
        42.500          27.700
 113890994.018 8  88746252.56646  21672733.516                    21672736.129
        49.100          37.300
 108662466.338 8  84672051.56347  20677779.195                    20677781.715
        51.400          42.700
 118360648.302 7  92229107.47045  22523280.328                    22523282.293
        44.500          31.000
 109171545.675 8  85068763.66247  20774649.719                    20774654.656
        53.800          44.300
 129591411.265 7 100980337.98844  24660428.258                    24660435.418
        42.100          25.600
 120897124.387 7  94205557.05144  23005956.500                    23005958.652
        43.400          26.900
 116746043.163 8  90970961.16246  22216031.289                    22216033.859
        51.400          36.800
 18  2 21 10 34  0.0000000  0  8G15G13G05G28G30G09G20G07
 125399657.520 7  97714035.78344  23862760.914                    23862764.141
        43.400          28.400
 112262216.127 8  87477074.98646  21362787.656                    21362789.844
        49.300          36.600
 107119949.676 8  83470090.52147  20384248.320                    20384251.020
        51.300          43.300
 116729622.628 7  90958178.40945  22212906.227                    22212908.320
        45.000          31.800
 107647447.598 8  83881154.75947  20484623.578                    20484628.480
        53.900          45.000
 128127071.994 7  99839294.31344  24381774.492                    24381781.027
        42.600          25.100
 119249220.093 7  92921475.79444  22692370.617                    22692372.680
        43.200          27.600
 115258090.160 8  89811517.24546  21932883.188                    21932885.887
        52.300          36.300
 18  2 21 10 34 30.0000000  0  9G15G13G05G28G30G09G20G21G07
 125315559.825 7  97648505.13944  23846757.367                    23846760.875
        42.200          26.200
 112209094.281 8  87435681.34346  21352678.875                    21352681.035
        48.000          36.700
 107153408.634 8  83496162.43347  20390615.250                    20390617.340
        50.300          43.100
 116674393.951 7  90915143.11345  22202396.406                    22202398.262
        44.100          30.400
 107699202.706 8  83921483.40347  20494472.109                    20494477.156
        53.400          44.300
 128238207.443 6  99925893.28244  24402922.648                    24402929.637
        41.600          24.400
 119177067.511 7  92865253.01544  22678640.789                    22678642.434
        43.700          28.000
 134342364.622 6 104682381.02143  25564502.070                    25564504.879
        41.300          22.300
 115345810.995 8  89879871.11146  21949576.313                    21949578.563
        51.600          37.400
 18  2 21 10 35  0.0000000  0  9G15G13G05G28G30G09G20G21G07
 125231531.612 7  97583028.65344  23830767.445                    23830770.563
        42.400          27.700
 112156199.395 8  87394464.54646  21342613.289                    21342615.359
        49.100          37.200
 107187416.027 8  83522661.68847  20397087.047                    20397089.496
        51.500          43.200
 116619534.592 7  90872395.59945  22191957.391                    22191958.652
        46.200          30.900
 107751383.189 8  83962143.50847  20504401.242                    20504406.645
        53.500          44.300
 128349392.803 6 100012531.14844  24424081.500                    24424087.566
        41.800          26.000
 119105238.832 7  92809282.61744  22664971.680                    22664973.840
        44.300          27.800
 134312638.402 6 104659217.72043  25558846.180                    25558848.840
        40.500          22.200
 115433778.913 8  89948417.52746  21966316.109                    21966317.609
        52.500          36.000
 18  2 21 10 35 30.0000000  0  9G15G13G05G28G30G09G20G21G07
 125147580.766 7  97517612.41744  23814792.156                    23814795.445
        42.400          27.200
 112103539.387 8  87353430.78046  21332592.406                    21332594.320
        49.500          37.100
 107221978.318 8  83549593.33847  20403663.633                    20403665.988
        51.000          42.500
 116565053.732 7  90829943.00845  22181589.555                    22181591.539
        46.000          30.400
 107803994.078 8  84003139.00147  20514412.953                    20514417.938
        52.700          44.100
 128460633.942 6 100099212.48844  24445250.281                    24445255.160
        41.900          24.500
 119033743.184 7  92753571.73644  22651366.906                    22651369.148
        44.900          28.600
 134283295.023 6 104636352.77343  25553262.344                    25553264.641
        41.100          22.600
 115521998.475 8  90017160.05145  21983103.914                    21983105.148
        52.100          35.600
 18  2 21 10 36  0.0000000  0  9G15G13G05G28G30G09G20G21G07
 125063706.672 7  97452256.01344  23798830.805                    23798834.871
        43.800          25.600
 112051113.143 8  87312579.16746  21322615.875                    21322618.078
        49.200          37.300
 107257093.315 8  83576955.66947  20410345.734                    20410348.281
        51.400          43.200
 116510951.935 7  90787785.78145  22171294.578                    22171296.391
        47.900          32.100
 107857032.048 9  84044467.28147  20524505.813                    20524510.289
        54.100          44.500
 128571928.341 6 100185935.32544  24466428.695                    24466433.656
        39.900          24.900
 118962581.216 7  92698120.85544  22637824.875                    22637827.262
        44.100          29.200
 134254334.566 6 104613786.18843  25547751.195                    25547753.445
        41.800          22.500
 115610466.511 8  90086096.16846  21999938.602                    21999940.441
        51.900          36.100
 18  2 21 10 36 30.0000000  0  9G15G13G05G28G30G09G20G21G07
 124979911.699 7  97386961.25544  23782885.547                    23782888.316
        43.300          25.300
 111998923.067 8  87271911.58346  21312684.898                    21312686.859
        49.100          37.300
 107292761.965 8  83604749.40247  20417133.414                    20417135.738
        51.700          42.800
 116457233.026 7  90745926.91545  22161071.992                    22161074.613
        46.800          32.400
 107910496.854 8  84086128.16247  20534680.125                    20534683.945
        53.900          44.700
 128683276.666 6 100272700.19044  24487617.531                    24487623.344
        40.500          25.000
 118891757.003 7  92642933.17844  22624347.563                    22624349.926
        43.500          28.600
 134225759.436 7 104591519.85043  25542313.172                    25542315.758
        42.100          22.800
 115699182.031 8  90155225.12945  22016820.305                    22016822.383
        51.500          35.600
