     2.11           OBSERVATION DATA    G (GPS)             RINEX VERSION / TYPE
teqc  2016Nov7                          20180328 12:23:34UTCPGM / RUN BY / DATE
Linux 2.4.21-27.ELsmp|Opteron|gcc|Linux x86_64|=+           COMMENT
teqc  2016Nov7                          20180328 12:23:33UTCCOMMENT
     2.11           OBSERVATION DATA    M (MIXED)           COMMENT
teqc  2016Nov7                          20180328 12:23:31UTCCOMMENT
teqc  2016Nov7      IGN-RGP             20180220 09:14:18UTCCOMMENT
teqc  2015Jun23     IGN-RGP             20180220 09:06:45UTCCOMMENT
Linux2.4.20-8|i386|gcc|Win32-MinGW32|=                      COMMENT
   0.000      (antenna height)                              COMMENT
 +48.90315691 (latitude)                                    COMMENT
  +2.98054565 (longitude)                                   COMMENT
0221.246      (elevation)                                   COMMENT
BIT 2 OF LLI FLAGS DATA COLLECTED UNDER A/S CONDITION       COMMENT
19759M001 (COGO code)                                       COMMENT
SXJ0                                                        MARKER NAME
19759M001                                                   MARKER NUMBER
Automatic           GIE COOP&TECH                           OBSERVER / AGENCY
5018K67398          TRIMBLE NETR5       4.41                REC # / TYPE / VERS
1441003348          TRM55971.00     NONE                    ANT # / TYPE
  4195019.9590   218423.4060  4783652.9850                  APPROX POSITION XYZ
        1.2000        0.0000        0.0000                  ANTENNA: DELTA H/E/N
     1     1                                                WAVELENGTH FACT L1/2
     9    L1    L2    C1    P1    P2    D1    D2    S1    S2# / TYPES OF OBSERV
    30.0000                                                 INTERVAL
    18                                                      LEAP SECONDS
 SNR is mapped to RINEX snr flag value [0-9]                COMMENT
  L1 & L2: min(max(int(snr_dBHz/6), 0), 9)                  COMMENT
teqc_2016 edited: GLONASS # 25 - 30 excluded                COMMENT
Forced Modulo Decimation to 30 seconds                      COMMENT
teqc_2016 edited: all GLONASS satellites excluded           COMMENT
teqc_2016 edited: all SBAS satellites excluded              COMMENT
teqc_2016 edited: all Galileo satellites excluded           COMMENT
  2018     2    20     8     0    0.0000000     GPS         TIME OF FIRST OBS
                                                            END OF HEADER
 18  2 20  8  0  0.0000000  0  8G05G07G23G09G30G16G02G06
 125187929.386 7  97549069.73245  23822478.172                    23822481.891
      3306.688                          45.600          31.200
 114066725.290 8  88883214.96746  21706182.297                    21706186.262
      2347.109                          51.800          37.700
 118026404.108 8  91968666.85745  22459681.664                    22459683.492
     -2487.160                          48.100          33.400
 106186182.838 8  82742558.66147  20206566.594                    20206572.613
      -950.629                          52.800          45.200
 121422053.623 7  94614634.69645  23105851.227                    23105857.078
      3500.242                          47.300          30.700
 127412466.809 6  99282474.39743  24245790.391                    24245795.699
       979.363                          38.600          20.100
 115401961.009 8  89923633.30246  21960271.203                    21960271.391
       982.617                          48.300          36.000
 111025244.938 8  86513228.97946  21127409.188                    21127416.699
     -1777.297                          51.000          41.600
 18  2 20  8  0 30.0000000  0  8G05G07G23G09G30G16G02G06
 125088771.311 7  97471803.69845  23803608.578                    23803612.863
      3303.719        2574.340          45.400          30.700
 113996513.353 8  88828504.37346  21692821.547                    21692825.457
      2333.547        1818.507          52.300          37.800
 118101111.570 8  92026880.45845  22473898.500                    22473900.145
     -2493.437       -1942.847          48.100          32.100
 106214891.576 9  82764929.09747  20212029.953                    20212035.992
      -963.461        -750.569          54.400          45.400
 121317145.142 7  94532887.83245  23085887.523                    23085894.672
      3493.527        2722.299          46.400          32.000
 127383364.309 6  99259797.11943  24240252.914                    24240256.988
       960.430         748.776          36.900          20.100
 115372742.578 8  89900865.68846  21954710.953                    21954712.184
       965.145         752.292          48.800          36.900
 111078826.005 8  86554980.43846  21137605.453                    21137612.586
     -1795.008       -1398.483          51.700          41.200
 18  2 20  8  1  0.0000000  0  8G05G07G23G09G30G16G02G06
 124989707.436 7  97394611.05545  23784757.602                    23784761.898
      3300.445        2571.879          45.800          30.700
 113926711.217 8  88774113.11246  21679538.703                    21679542.691
      2319.844        1807.856          51.700          38.100
 118176006.373 7  92085240.03245  22488150.398                    22488152.246
     -2499.699       -1947.691          47.500          33.800
 106243986.320 8  82787600.31947  20217566.461                    20217572.559
      -976.266        -760.576          51.600          45.000
 121212440.563 7  94451299.89745  23065962.336                    23065970.625
      3486.723        2716.997          46.600          32.500
 127354826.848 6  99237560.14643  24234821.383                    24234826.402
       941.797         734.071          37.300          19.600
 115344049.664 7  89878507.55746  21949250.484                    21949252.520
       947.578         738.646          47.100          36.900
 111132942.164 8  86597148.85446  21147903.508                    21147910.367
     -1812.828       -1412.344          51.600          40.900
 18  2 20  8  1 30.0000000  0  8G05G07G23G09G30G16G02G06
 124890739.156 7  97317492.92145  23765924.531                    23765928.441
      3297.289        2569.382          47.500          30.600
 113857321.332 8  88720043.08446  21666334.219                    21666338.789
      2306.066        1797.156          51.800          38.600
 118251087.531 8  92143744.80545  22502438.094                    22502440.609
     -2505.844       -1952.476          48.600          33.900
 106273466.301 8  82810571.72447  20223176.172                    20223182.168
      -989.148        -770.553          53.400          45.200
 121107942.808 7  94369873.13845  23046076.969                    23046085.523
      3479.766        2711.603          47.700          32.200
 127326856.491 6  99215765.08143  24229498.992                    24229503.984
       922.941         719.366          36.900          19.000
 115315883.779 7  89856560.07946  21943890.727                    21943893.090
       930.055         724.952          46.600          36.000
 111187591.917 8  86639733.05646  21158302.961                    21158309.875
     -1830.613       -1426.159          51.300          41.000
 18  2 20  8  2  0.0000000  0  8G05G07G23G09G30G16G02G06
 124791868.050 7  97240450.51645  23747109.805                    23747114.090
      3294.168        2566.809          47.300          31.200
 113788345.104 8  88666295.39846  21653208.594                    21653213.184
      2292.340        1786.369          52.300          38.600
 118326353.693 8  92202393.72645  22516760.648                    22516763.270
     -2511.930       -1957.275          48.100          33.600
 106303330.071 8  82833842.19647  20228859.320                    20228864.883
     -1001.832        -780.505          51.100          45.000
 121003654.050 8  94288609.19745  23026232.141                    23026238.586
      3472.895        2706.143          48.700          32.300
 127299454.839 6  99194413.11142  24224284.047                    24224288.906
       904.172         704.571          36.200          17.800
 115288245.269 7  89835023.55245  21938631.508                    21938632.797
       912.578         711.231          46.800          35.700
 111242773.217 8  86682731.45846  21168803.477                    21168810.742
     -1848.125       -1439.948          51.200          41.600
 18  2 20  8  2 30.0000000  0  8G05G07G23G09G30G16G02G06
 124693096.347 8  97163485.55145  23728314.750                    23728318.750
      3290.785        2564.216          48.100          30.600
 113719784.445 8  88612871.53146  21640161.742                    21640165.773
      2278.453        1775.536          52.600          38.000
 118401803.526 8  92261185.77945  22531118.109                    22531120.547
     -2517.965       -1962.056          48.300          33.600
 106333576.510 9  82857410.83747  20234614.867                    20234620.809
     -1014.535        -790.446          54.100          44.900
 120899576.828 7  94207510.07345  23006427.102                    23006433.230
      3465.742        2700.617          47.600          31.600
 127272623.305 6  99173505.43542  24219178.547                    24219183.508
       884.840         689.740          36.500          17.400
 115261135.648 7  89813899.16745  21933472.930                    21933473.520
       894.863         697.473          47.200          35.800
 111298484.276 8  86726142.66946  21179405.305                    21179412.180
     -1865.773       -1453.708          52.300          40.600
 18  2 20  8  3  0.0000000  0  8G05G07G23G09G30G16G02G06
 124594425.333 7  97086599.03844  23709537.727                    23709542.371
      3287.336        2561.604          46.300          29.700
 113651641.451 8  88559773.11646  21627194.422                    21627198.836
      2264.465        1764.700          53.400          38.800
 118477436.076 8  92320120.23045  22545510.078                    22545512.230
     -2524.113       -1966.759          49.100          33.100
 106364204.602 8  82881276.88347  20240443.195                    20240448.824
     -1027.266        -800.304          52.700          44.600
 120795713.765 7  94126577.83345  22986662.328                    22986669.727
      3458.434        2695.047          46.400          31.900
 127246363.560 6  99153043.30143  24214182.273                    24214186.613
       865.805         674.879          37.600          19.600
 115234556.258 8  89793187.96745  21928414.867                    21928415.352
       877.125         683.718          48.500          35.000
 111354723.399 8  86769965.36246  21190106.945                    21190113.918
     -1883.426       -1467.353          51.100          40.600
 18  2 20  8  3 30.0000000  0  8G05G07G23G09G30G16G02G06
 124495856.454 7  97009792.13245  23690780.859                    23690785.605
      3283.824        2558.919          47.000          30.900
 113583917.768 8  88507001.41546  21614307.219                    21614310.852
      2250.320        1753.764          53.000          39.000
 118553250.105 8  92379196.07545  22559937.156                    22559939.219
     -2530.273       -1971.476          48.000          31.700
 106395213.232 8  82905439.44547  20246343.953                    20246349.676
     -1040.043        -810.200          52.800          44.900
 120692067.266 7  94045814.37745  22966938.531                    22966946.238
      3451.180        2689.354          47.600          32.800
 127220676.854 6  99133027.66743  24209294.508                    24209297.828
       846.590         659.958          39.200          20.100
 115208507.664 7  89772890.36445  21923457.172                    21923458.766
       859.293         669.893          47.400          34.800
 111411488.756 8  86814198.09646  21200909.156                    21200916.117
     -1901.004       -1481.034          50.700          40.500
 18  2 20  8  4  0.0000000  0  8G05G07G23G09G30G16G02G06
 124397390.595 7  96933065.49944  23672043.266                    23672047.738
      3280.598        2556.265          46.400          28.200
 113516615.259 8  88454557.89846  21601499.789                    21601503.633
      2236.449        1742.840          53.000          38.800
 118629244.238 8  92438412.26745  22574398.398                    22574400.684
     -2535.973       -1976.086          48.700          31.800
 106426601.214 8  82929897.61447  20252316.828                    20252322.535
     -1052.418        -819.988          52.600          44.700
 120588639.955 8  93965221.70645  22947257.617                    22947265.422
      3443.996        2683.677          48.500          34.100
 127195564.629 6  99113459.69743  24204516.000                    24204519.742
       827.473         645.054          39.500          21.800
 115182991.035 7  89753007.23745  21918601.875                    21918603.629
       841.828         656.116          46.800          35.100
 111468778.386 8  86858839.35046  21211810.828                    21211817.918
     -1918.211       -1494.563          50.900          40.400
 18  2 20  8  4 30.0000000  0  8G05G07G23G09G30G16G02G06
 124299029.781 7  96856420.69444  23653326.320                    23653330.477
      3276.832        2553.465          46.700          28.600
 113449736.001 8  88402444.20446  21588773.344                    21588777.488
      2222.176        1731.776          52.700          38.700
 118705417.680 7  92497768.16745  22588893.758                    22588896.301
     -2542.148       -1980.770          47.600          32.600
 106458367.680 8  82954650.69847  20258362.031                    20258367.453
     -1065.262        -829.862          53.500          44.400
 120485434.506 8  93884801.90745  22927618.508                    22927626.016
      3436.457        2677.842          48.000          32.300
 127171028.987 6  99094341.02543  24199847.297                    24199850.547
       808.184         630.024          40.700          21.700
 115158007.621 7  89733539.60545  21913848.039                    21913849.820
       823.898         642.211          47.900          35.100
 111526590.726 8  86903887.91046  21222812.102                    21222819.246
     -1935.789       -1508.176          51.900          40.900
 18  2 20  8  5  0.0000000  0  8G05G07G23G09G30G16G02G06
 124200774.984 7  96779858.50044  23634628.422                    23634632.680
      3273.266        2550.719          46.800          27.600
 113383280.796 8  88350660.93946  21576127.250                    21576131.652
      2207.945        1720.747          52.000          38.400
 118781768.021 8  92557261.90345  22603422.688                    22603425.355
     -2548.059       -1985.363          48.600          32.400
 106490510.459 8  82979697.02147  20264478.445                    20264484.199
     -1077.824        -839.610          53.200          44.700
 120382452.439 7  93804556.16945  22908020.914                    22908028.539
      3428.824        2672.002          47.800          31.500
 127147070.363 7  99075671.95643  24195288.297                    24195291.313
       788.863         615.030          42.100          21.700
 115133557.562 8  89714487.60545  21909195.555                    21909197.246
       805.918         628.346          49.400          35.700
 111584922.887 8  86949341.52746  21233912.461                    21233919.609
     -1953.215       -1521.641          51.400          41.000
 18  2 20  8  5 30.0000000  0  8G05G07G23G09G30G16G02G06
 124102628.311 7  96703380.56544  23615952.070                    23615956.445
      3269.910        2547.932          46.500          27.400
 113317252.117 8  88299210.03546  21563562.547                    21563566.910
      2193.898        1709.664          52.400          38.700
 118858295.046 7  92616893.33345  22617985.250                    22617987.785
     -2553.723       -1989.927          47.400          31.500
 106523029.137 8  83005036.23947  20270666.258                    20270672.734
     -1090.102        -849.335          51.900          44.500
 120279696.946 8  93724486.97245  22888467.195                    22888474.141
      3421.512        2666.117          48.800          33.400
 127123690.655 7  99057453.98943  24190839.055                    24190842.266
       769.777         600.016          42.000          19.900
 115109642.410 8  89695852.41645  21904644.164                    21904645.727
       788.348         614.453          49.300          35.700
 111643773.625 8  86995199.22746  21245111.305                    21245118.258
     -1970.195       -1535.065          50.300          40.200
 18  2 20  8  6  0.0000000  0  8G05G07G23G09G30G16G02G06
 124004591.139 7  96626987.95944  23597295.898                    23597300.168
      3266.109        2544.992          46.600          26.700
 113251651.997 8  88248093.06546  21551079.227                    21551083.375
      2179.539        1698.477          52.200          38.800
 118934997.975 8  92676661.82845  22632581.570                    22632583.883
     -2559.648       -1994.501          48.100          31.900
 106555922.923 8  83030667.75147  20276926.086                    20276931.719
     -1102.609        -859.109          53.500          44.900
 120177170.960 8  93644596.60345  22868957.594                    22868964.406
      3413.691        2660.097          48.100          33.600
 127100891.688 6  99039688.57443  24186499.984                    24186503.895
       750.340         584.867          40.500          19.600
 115086263.750 7  89677635.26245  21900195.359                    21900196.988
       770.406         600.479          47.800          35.000
 111703141.398 8  87041459.81346  21256408.797                    21256415.945
     -1987.453       -1548.510          51.500          40.100
 18  2 20  8  6 30.0000000  0  8G05G07G23G09G30G16G02G06
 123906665.732 7  96550682.41744  23578661.539                    23578665.395
      3262.371        2542.117          47.600          27.700
 113186482.112 8  88197311.33246  21538677.523                    21538681.664
      2165.160        1687.297          51.800          38.400
 119011875.433 7  92736566.32045  22647210.688                    22647213.359
     -2565.379       -1999.001          47.800          31.800
 106589190.437 8  83056590.48547  20283256.773                    20283262.766
     -1115.090        -868.774          53.200          45.000
 120074876.676 8  93564886.80345  22849490.945                    22849498.395
      3405.977        2654.064          48.500          32.600
 127078674.727 6  99022376.66643  24182272.977                    24182276.141
       730.781         569.722          39.900          19.000
 115063421.857 8  89659836.36945  21895848.555                    21895850.344
       752.559         586.548          48.400          34.600
 111763024.078 8  87088121.62446  21267803.711                    21267811.047
     -2004.598       -1561.847          51.500          40.300
 18  2 20  8  7  0.0000000  0  8G05G07G23G09G30G16G02G06
 123808853.370 7  96474464.99544  23560048.961                    23560053.230
      3258.527        2539.158          47.300          28.800
 113121744.168 8  88146866.18246  21526358.398                    21526362.383
      2150.676        1676.087          52.000          38.900
 119088926.191 8  92796605.84745  22661873.250                    22661875.813
     -2571.227       -2003.466          48.300          31.700
 106622830.817 8  83082803.75347  20289658.148                    20289664.090
     -1127.551        -878.427          52.900          45.200
 119972816.829 7  93485359.68545  22830069.484                    22830077.172
      3398.074        2647.954          47.300          31.800
 127057041.228 6  99005519.34343  24178155.703                    24178159.246
       711.414         554.600          40.400          20.600
 115041118.130 8  89642456.82445  21891604.891                    21891606.016
       734.512         572.584          48.000          35.200
 111823419.926 8  87135183.28246  21279297.023                    21279304.320
     -2021.727       -1575.129          51.200          39.900
 18  2 20  8  7 30.0000000  0  8G05G07G23G09G30G16G02G06
 123711155.671 7  96398336.91444  23541457.063                    23541461.152
      3254.676        2536.167          46.700          27.700
 113057439.979 8  88096759.03546  21514121.820                    21514125.652
      2136.301        1664.776          52.500          37.900
 119166148.779 7  92856779.27945  22676568.156                    22676570.344
     -2576.828       -2007.920          47.600          31.100
 106656842.582 8  83109306.42147  20296130.477                    20296136.695
     -1139.852        -888.062          53.600          45.000
 119870993.675 7  93406017.00045  22810693.203                    22810700.875
      3390.129        2641.776          47.600          31.800
 127035992.418 6  98989117.68943  24174150.578                    24174153.938
       691.918         539.369          40.300          19.000
 115019353.080 8  89625497.03746  21887463.430                    21887464.641
       716.594         558.568          48.800          36.100
 111884326.671 8  87182643.06046  21290887.297                    21290894.461
     -2038.656       -1588.378          51.100          40.800
 18  2 20  8  8  0.0000000  0  8G05G07G23G09G30G16G02G06
 123613574.123 7  96322299.34744  23522888.063                    23522892.191
      3250.816        2533.118          46.300          26.900
 112993571.583 8  88046991.46046  21501967.836                    21501971.645
      2121.719        1653.418          52.800          38.200
 119243542.463 7  92917086.01445  22691295.984                    22691298.473
     -2582.562       -2012.373          47.100          32.900
 106691224.718 8  83136097.68647  20302673.070                    20302679.270
     -1152.180        -897.692          52.500          44.500
 119769409.852 7  93326860.76345  22791362.945                    22791370.098
      3382.254        2635.518          47.500          33.500
 127015529.527 6  98973172.59643  24170256.305                    24170260.172
       672.289         524.107          40.000          21.100
 114998127.773 8  89608957.83445  21883423.680                    21883425.676
       698.621         544.509          49.500          35.900
 111945742.456 8  87230499.48346  21302574.180                    21302581.758
     -2055.531       -1601.585          49.700          39.400
 18  2 20  8  8 30.0000000  0  8G05G07G23G09G30G16G02G06
 123516109.901 7  96246353.17544  23504341.383                    23504345.168
      3246.930        2530.057          47.400          26.800
 112930140.660 8  87997564.77346  21489897.680                    21489901.777
      2107.102        1642.046          53.600          39.400
 119321106.819 7  92977525.75345  22706055.672                    22706058.602
     -2588.234       -2016.806          47.600          32.100
 106725976.478 8  83163176.97547  20309285.977                    20309292.598
     -1164.484        -907.284          53.400          44.900
 119668068.213 7  93247893.26545  22772078.320                    22772085.934
      3374.090        2629.192          47.000          32.800
 126995654.275 6  98957685.40943  24166473.305                    24166477.496
       652.734         508.824          37.900          20.100
 114977443.820 8  89592840.46645  21879487.289                    21879489.074
       680.582         530.436          48.000          35.700
 112007665.672 8  87278751.31446  21314357.727                    21314365.199
     -2072.414       -1614.752          50.500          40.000
 18  2 20  8  9  0.0000000  0  8G05G07G23G09G30G16G02G06
 123418765.342 7  96170500.28044  23485817.422                    23485821.328
      3242.832        2526.932          46.800          26.500
 112867148.957 8  87948480.34246  21477910.641                    21477914.898
      2092.375        1630.635          53.400          38.900
 119398839.904 7  93038096.96145  22720847.695                    22720850.461
     -2593.836       -2021.134          47.500          31.400
 106761096.462 8  83190543.19247  20315969.023                    20315975.578
     -1176.805        -916.812          53.700          44.900
 119566971.008 7  93169116.26145  22752839.344                    22752847.488
      3365.766        2622.821          44.700          33.600
 126976367.661 6  98942656.88943  24162803.617                    24162807.922
       633.203         493.554          39.900          20.900
 114957301.587 8  89577145.19245  21875654.805                    21875656.246
       662.414         516.376          49.000          35.700
 112070094.105 8  87327396.81746  21326237.578                    21326244.801
     -2089.363       -1627.827          52.000          39.900
 18  2 20  8  9 30.0000000  0  8G05G07G23G09G30G16G02G06
 123321542.281 7  96094742.04844  23467316.055                    23467320.023
      3238.805        2523.729          47.700          26.200
 112804597.645 8  87899739.07546  21466007.578                    21466011.773
      2077.652        1619.136          53.600          39.500
 119476740.340 7  93098798.57145  22735671.625                    22735673.938
     -2599.555       -2025.505          46.600          31.900
 106796583.298 8  83218195.24647  20322721.914                    20322728.066
     -1189.039        -926.341          51.700          44.900
 119466120.457 7  93090531.43145  22733648.570                    22733655.871
      3357.566        2616.365          46.800          33.800
 126957670.737 6  98928087.86143  24159245.945                    24159250.063
       613.113         478.204          38.600          21.100
 114937701.363 8  89561872.28546  21871925.305                    21871926.281
       644.363         502.266          49.900          36.400
 112133025.454 8  87376434.21946  21338213.117                    21338220.238
     -2106.074       -1640.903          50.200          39.700
 18  2 20  8 10  0.0000000  0  8G05G07G23G09G30G16G02G06
 123224441.332 7  96019078.95944  23448838.813                    23448841.961
      3234.688        2520.549          47.900          26.300
 112742488.588 8  87851342.41746  21454188.695                    21454192.969
      2062.926        1607.649          53.200          39.000
 119554807.064 7  93159629.75845  22750527.906                    22750529.336
     -2604.902       -2029.777          47.500          30.300
 106832435.811 8  83246132.26147  20329544.453                    20329550.594
     -1201.164        -935.823          52.800          44.500
 119365519.101 7  93012140.75345  22714505.063                    22714512.051
      3349.258        2609.858          47.600          33.400
 126939564.878 6  98913979.41043  24155800.641                    24155805.508
       593.699         462.856          39.300          20.900
 114918644.142 8  89547022.50046  21868299.078                    21868300.008
       626.207         488.172          50.300          36.200
 112196457.631 8  87425861.87846  21350283.570                    21350290.508
     -2122.648       -1653.865          50.600          39.600
 18  2 20  8 10 30.0000000  0  8G05G07G23G09G30G16G02G06
 123127464.498 8  95943512.59244  23430384.586                    23430388.781
      3230.453        2517.301          49.100          27.000
 112680823.434 8  87803291.66446  21442454.000                    21442458.051
      2048.047        1596.109          53.100          38.700
 119633039.215 7  93220589.85645  22765414.336                    22765416.516
     -2610.508       -2034.067          46.200          31.100
 106868652.938 8  83274353.38447  20336436.422                    20336442.047
     -1213.375        -945.257          52.300          44.400
 119265169.511 8  92933946.25745  22695409.477                    22695416.105
      3340.723        2603.299          48.400          34.400
 126922051.304 6  98900332.48043  24152467.406                    24152472.363
       573.863         447.490          39.200          20.600
 114900130.840 8  89532596.54846  21864775.875                    21864777.313
       608.031         474.029          50.200          36.200
 112260388.712 8  87475678.28346  21362449.742                    21362456.590
     -2139.398       -1666.792          49.900          40.200
 18  2 20  8 11  0.0000000  0  8G05G07G23G09G30G16G02G06
 123030613.070 8  95868043.95344  23411954.750                    23411958.355
      3226.258        2514.022          48.800          27.000
 112619604.203 8  87755588.37046  21430804.672                    21430807.934
      2033.305        1584.511          53.700          38.600
 119711435.859 7  93281678.11745  22780333.141                    22780335.074
     -2615.910       -2038.305          46.600          31.200
 106905233.846 8  83302857.98747  20343397.484                    20343403.328
     -1225.352        -954.694          53.000          44.500
 119165074.472 8  92855950.13645  22676361.602                    22676369.129
      3332.328        2596.676          48.200          34.600
 126905131.480 6  98887148.22143  24149247.219                    24149252.430
       554.148         432.018          39.500          21.100
 114882162.627 8  89518595.33146  21861356.430                    21861357.914
       589.891         459.862          49.300          36.300
 112324816.908 8  87525882.05646  21374709.922                    21374717.191
     -2155.883       -1679.677          50.000          40.200
 18  2 20  8 11 30.0000000  0  8G05G07G23G09G30G16G02G06
 122933889.385 8  95792674.84444  23393548.516                    23393552.605
      3221.977        2510.727          48.400          28.500
 112558832.069 8  87708233.45646  21419239.891                    21419243.973
      2018.230        1572.893          53.100          39.400
 119789995.414 7  93342893.31045  22795282.461                    22795284.934
     -2621.434       -2042.524          46.900          31.700
 106942176.852 8  83331644.73547  20350427.664                    20350433.160
     -1237.516        -964.083          52.100          44.700
 119065235.965 8  92778153.92945  22657363.328                    22657370.406
      3323.586        2589.978          48.900          34.700
 126888805.843 6  98874426.98843  24146141.453                    24146145.355
       534.348         416.598          39.800          21.500
 114864739.482 8  89505018.84046  21858041.242                    21858042.750
       571.660         445.724          49.700          36.500
 112389739.518 8  87576471.06346  21387064.391                    21387071.816
     -2172.285       -1692.467          48.700          40.400
 18  2 20  8 12  0.0000000  0  8G05G07G23G09G30G16G02G06
 122837295.128 7  95717406.60244  23375167.070                    23375171.207
      3217.586        2507.330          45.000          29.200
 112498508.987 8  87661228.45146  21407760.586                    21407764.605
      2003.250        1561.204          52.900          39.400
 119868716.975 7  93404234.76145  22810262.703                    22810264.961
     -2626.809       -2046.727          46.800          31.400
 106979481.060 9  83360712.95047  20357526.664                    20357531.883
     -1249.582        -973.454          54.300          44.400
 118965656.722 7  92700559.70745  22638414.500                    22638420.563
      3314.938        2583.225          47.300          34.300
 126873075.775 7  98862169.80743  24143148.695                    24143152.711
       514.352         401.101          42.200          22.600
 114847862.718 8  89491868.10546  21854829.563                    21854831.262
       553.391         431.510          49.600          37.000
 112455154.804 8  87627443.97246  21399512.070                    21399519.875
     -2188.680       -1705.242          50.200          39.500
 18  2 20  8 12 30.0000000  0  8G05G07G23G09G30G16G02G06
 122740831.715 8  95642240.30844  23356810.875                    23356815.074
      3213.168        2503.894          48.400          27.700
 112438636.431 8  87614574.50946  21396367.633                    21396371.473
      1988.094        1549.460          53.200          39.600
 119947599.493 7  93465701.63245  22825273.641                    22825275.816
     -2632.230       -2050.919          47.100          31.100
 107017145.226 9  83390061.64047  20364693.984                    20364699.340
     -1261.484        -982.799          54.400          45.200
 118866339.144 8  92623169.36445  22619514.875                    22619520.844
      3306.055        2576.366          49.300          34.400
 126857942.496 7  98850377.64043  24140268.906                    24140272.375
       494.477         385.569          42.300          22.200
 114831532.883 8  89479143.55646  21851722.273                    21851723.652
       535.164         417.280          50.500          38.100
 112521060.528 8  87678799.04346  21412053.734                    21412061.203
     -2205.152       -1717.993          48.500          39.400
 18  2 20  8 13  0.0000000  0  8G05G07G23G09G30G16G02G06
 122644500.268 7  95567176.84544  23338479.141                    23338483.184
      3208.918        2500.441          46.800          28.300
 112379215.661 8  87568272.62746  21385059.844                    21385064.074
      1973.285        1537.707          52.500          39.000
 120026641.632 7  93527292.89345  22840314.898                    22840316.551
     -2637.230       -2055.038          47.000          31.100
 107055168.066 8  83419689.82247  20371929.516                    20371935.449
     -1273.344        -992.101          53.700          45.000
 118767285.523 7  92545984.73045  22600664.313                    22600671.855
      3297.438        2569.478          46.900          33.600
 126843406.744 7  98839051.12043  24137501.914                    24137506.613
       474.672         370.018          42.100          22.200
 114815750.530 8  89466845.60346  21848718.758                    21848720.305
       517.066         403.053          49.900          37.500
 112587454.469 8  87730534.57446  21424688.047                    21424695.336
     -2221.160       -1730.637          50.300          39.000
 18  2 20  8 13 30.0000000  0  8G05G07G23G09G30G16G02G06
 122548303.109 7  95492218.03144  23320173.828                    23320177.422
      3204.359        2496.938          47.700          29.600
 112320248.611 8  87522324.28946  21373838.867                    21373843.168
      1958.023        1525.923          53.300          39.500
 120105842.347 7  93589007.70645  22855386.383                    22855388.301
     -2642.594       -2059.125          47.200          31.500
 107093548.510 9  83449596.65347  20379233.063                    20379239.367
     -1285.246       -1001.352          54.500          45.100
 118668498.482 8  92469007.84945  22581866.016                    22581873.820
      3288.383        2562.542          49.100          34.800
 126829469.852 6  98828191.17743  24134849.781                    24134854.309
       454.539         354.450          40.900          21.100
 114800516.523 8  89454974.94046  21845820.016                    21845821.465
       498.703         388.816          49.800          37.500
 112654334.509 8  87782648.87946  21437414.945                    21437422.418
     -2237.391       -1743.220          50.700          38.700
 18  2 20  8 14  0.0000000  0  8G05G07G23G09G30G16G02G06
 122452241.355 8  95417364.70844  23301893.617                    23301897.879
      3199.832        2493.371          48.400          28.400
 112261737.123 8  87476730.93646  21362704.375                    21362709.023
      1942.805        1514.022          53.200          39.100
 120185200.907 7  93650845.52245  22870487.555                    22870490.559
     -2647.848       -2063.240          46.200          31.400
 107132285.625 8  83479781.40747  20386604.203                    20386610.441
     -1297.145       -1010.630          52.600          45.000
 118569980.726 8  92392240.78345  22563119.289                    22563126.234
      3279.457        2555.486          49.400          35.400
 126816132.955 6  98817798.76143  24132313.258                    24132316.160
       434.629         338.896          38.800          20.900
 114785831.594 8  89443532.12746  21843025.539                    21843026.898
       480.414         374.515          49.400          37.600
 112721698.652 8  87835140.37446  21450233.938                    21450241.219
     -2253.395       -1755.791          49.600          39.500
 18  2 20  8 14 30.0000000  0  8G05G07G23G09G30G16G02G06
 122356316.870 7  95342618.35644  23283640.102                    23283644.441
      3195.230        2489.839          47.900          28.900
 112203682.709 8  87431493.76746  21351657.008                    21351661.141
      1927.625        1502.206          53.200          39.100
 120264715.996 7  93712805.28945  22885618.883                    22885621.734
     -2652.910       -2067.220          46.200          31.400
 107171378.091 9  83510243.05647  20394043.453                    20394049.438
     -1308.840       -1019.787          54.600          45.100
 118471734.536 7  92315685.30645  22544423.016                    22544429.988
      3270.422        2548.460          47.600          33.400
 126803396.959 6  98807874.61443  24129889.367                    24129892.230
       414.582         323.290          41.600          22.000
 114771696.552 8  89432517.80746  21840335.508                    21840337.438
       462.090         360.295          49.800          37.500
 112789544.630 8  87888007.32346  21463144.727                    21463152.395
     -2269.348       -1768.195          51.900          39.500
 18  2 20  8 15  0.0000000  0  8G05G07G23G09G30G16G02G06
 122260531.926 7  95267980.72645  23265412.867                    23265417.109
      3190.430        2486.162          47.800          30.800
 112146086.446 8  87386613.58046  21340696.656                    21340700.727
      1912.160        1490.250          53.100          38.900
 120344386.289 7  93774885.99745  22900779.727                    22900782.168
     -2658.367       -2071.283          45.800          30.000
 107210824.483 9  83540980.49647  20401549.906                    20401556.043
     -1320.934       -1029.022          55.000          45.200
 118373762.090 7  92239343.16345  22525778.766                    22525786.664
      3260.969        2541.268          47.000          33.300
 126791262.465 6  98798419.15243  24127580.000                    24127583.348
       394.395         307.626          40.400          22.200
 114758111.094 8  89421931.73246  21837750.813                    21837751.934
       443.559         345.970          49.600          37.900
 112857869.983 8  87941247.81546  21476146.766                    21476154.211
     -2285.535       -1780.681          51.200          39.800
 18  2 20  8 15 30.0000000  0  8G05G07G23G09G30G16G02G06
 122164887.558 8  95193452.65945  23247212.148                    23247216.480
      3185.781        2482.504          48.900          30.200
 112088950.457 8  87342092.04346  21329824.117                    21329828.148
      1896.789        1478.292          52.900          38.700
 120424211.014 7  93837087.07244  22915969.875                    22915971.586
     -2663.414       -2075.278          46.000          29.100
 107250624.156 9  83571993.22447  20409123.180                    20409129.543
     -1332.543       -1038.149          54.500          44.400
 118276066.331 7  92163216.62745  22507188.328                    22507195.570
      3251.793        2534.088          47.800          33.800
 126779730.939 6  98789433.54243  24125386.242                    24125388.250
       374.125         291.959          41.200          20.100
 114745076.676 8  89411775.03946  21835269.961                    21835271.727
       425.219         331.656          49.700          38.400
 112926672.961 8  87994860.48846  21489239.414                    21489246.715
     -2301.363       -1793.041          51.300          38.700
 18  2 20  8 16  0.0000000  0  8G05G07G23G09G30G16G02G06
 122069385.534 8  95119035.50345  23229038.703                    23229042.730
      3180.945        2478.736          48.100          31.800
 112032275.237 8  87297929.54546  21319038.875                    21319042.824
      1881.434        1466.252          53.300          38.700
 120504188.644 7  93899407.29045  22931189.344                    22931191.102
     -2668.449       -2079.276          45.500          30.500
 107290775.135 9  83603279.67947  20416763.883                    20416769.785
     -1344.230       -1047.306          54.500          44.600
 118178649.064 8  92087307.06145  22488651.258                    22488658.441
      3242.535        2526.769          49.400          35.000
 126768802.572 6  98780917.92843  24123305.969                    24123309.004
       354.109         276.205          41.800          20.100
 114732593.387 8  89402047.78146  21832894.281                    21832896.559
       406.871         317.291          49.400          38.100
 112995950.593 8  88048843.02946  21502422.445                    21502429.879
     -2317.230       -1805.379          49.800          38.900
 18  2 20  8 16 30.0000000  0  8G05G07G23G09G30G16G02G06
 121974028.029 8  95044730.94145  23210892.563                    23210897.016
      3176.027        2474.977          48.300          31.300
 111976062.975 8  87254127.79446  21308342.359                    21308346.113
      1865.867        1454.237          52.500          39.200
 120584318.426 7  93961846.04245  22946437.211                    22946439.797
     -2673.652       -2083.192          45.200          30.900
 107331276.840 8  83634839.44047  20424471.102                    20424476.531
     -1356.004       -1056.387          53.100          44.300
 118081513.185 8  92011616.79145  22470166.938                    22470173.809
      3232.977        2519.448          48.200          34.500
 126758478.633 6  98772873.27443  24121341.758                    24121343.789
       333.934         260.572          40.400          19.000
 114720661.844 8  89392750.46546  21830624.133                    21830625.871
       388.441         302.975          49.900          38.300
 113065701.184 8  88103194.11846  21515695.773                    21515702.746
     -2332.961       -1817.625          50.200          38.900
 18  2 20  8 17  0.0000000  0  8G05G07G23G09G30G16G02G06
 121878815.672 8  94970539.50145  23192774.445                    23192778.758
      3171.379        2471.191          49.100          31.500
 111920314.865 8  87210687.72446  21297733.742                    21297738.203
      1850.551        1442.141          53.000          38.600
 120664599.421 7  94024402.60945  22961714.625                    22961716.965
     -2678.457       -2087.117          45.200          30.600
 107372127.871 8  83666671.41747  20432244.953                    20432250.281
     -1367.453       -1065.458          52.800          44.100
 117984660.945 7  91936147.52545  22451735.992                    22451743.082
      3223.641        2512.037          47.900          34.000
 126748760.115 6  98765300.42042  24119492.070                    24119494.188
       313.781         244.768          40.400          17.800
 114709282.722 8  89383883.61946  21828458.703                    21828460.082
       370.020         288.576          49.300          37.900
 113135922.296 8  88157911.84446  21529058.398                    21529065.914
     -2348.449       -1829.841          49.200          39.200
 18  2 20  8 17 30.0000000  0  8G05G07G23G09G30G16G02G06
 121783751.120 8  94896463.23545  23174684.195                    23174688.297
      3166.234        2467.281          49.600          32.100
 111865032.742 8  87167610.75946  21287213.773                    21287218.047
      1834.867        1430.000          53.200          39.200
 120745030.758 7  94087076.35045  22977019.953                    22977022.582
     -2683.613       -2091.047          46.400          30.300
 107413327.218 8  83698774.80147  20440084.578                    20440089.691
     -1379.113       -1074.505          53.500          43.500
 117888094.908 8  91860901.28845  22433360.297                    22433367.184
      3214.070        2504.576          48.200          34.600
 126739647.637 6  98758199.78343  24117757.836                    24117760.422
       293.637         229.037          41.000          19.900
 114698456.825 8  89375447.85446  21826398.813                    21826399.680
       351.582         274.226          50.300          38.200
 113206611.753 8  88212994.51246  21542510.008                    21542517.340
     -2364.184       -1841.989          51.300          39.000
 18  2 20  8 18  0.0000000  0  8G05G07G23G09G30G16G02G06
 121688836.279 8  94822503.59745  23156622.523                    23156626.398
      3161.301        2463.409          49.500          32.100
 111810218.116 8  87124898.08646  21276783.133                    21276787.367
      1819.367        1417.847          53.300          39.700
 120825610.665 7  94149865.85945  22992354.008                    22992355.570
     -2688.449       -2094.872          46.100          30.400
 107454873.603 9  83731148.60847  20447990.820                    20447996.348
     -1390.633       -1083.499          54.800          44.300
 117791817.464 8  91785879.89845  22415039.602                    22415046.320
      3204.434        2497.038          49.700          35.700
 126731142.054 6  98751572.05443  24116139.867                    24116142.297
       273.371         213.265          40.900          19.300
 114688184.126 8  89367443.15546  21824444.109                    21824445.254
       333.203         259.836          49.700          37.400
 113277767.152 8  88268440.25846  21556050.602                    21556057.664
     -2379.551       -1854.050          50.800          38.100
 18  2 20  8 18 30.0000000  0  8G05G07G23G09G30G16G02G06
 121594072.497 8  94748661.70745  23138589.766                    23138593.996
      3156.227        2459.464          49.300          33.400
 111755871.981 8  87082550.47346  21266441.641                    21266445.766
      1803.621        1405.662          53.600          39.400
 120906338.323 7  94212770.50445  23007715.805                    23007717.758
     -2693.437       -2098.697          46.300          30.700
 107496765.758 9  83763791.83947  20455962.664                    20455968.809
     -1402.238       -1092.458          54.700          44.600
 117695830.888 8  91711085.17246  22396774.289                    22396781.281
      3194.680        2489.458          49.000          36.000
 126723243.835 6  98745417.56843  24114636.336                    24114639.477
       253.059         197.506          39.800          19.600
 114678465.414 8  89359870.13946  21822594.172                    21822595.754
       314.699         245.445          48.700          38.300
 113349386.159 8  88324247.24046  21569678.961                    21569686.789
     -2395.121       -1866.066          51.100          38.100
 18  2 20  8 19  0.0000000  0  8G05G07G23G09G30G16G02G06
 121499461.599 8  94674938.93345  23120586.188                    23120589.836
      3151.160        2455.493          48.900          33.400
 111701995.909 8  87040569.13646  21256189.336                    21256193.262
      1787.969        1393.488          53.500          39.400
 120987212.797 7  94275789.54944  23023105.813                    23023107.820
     -2698.266       -2102.458          46.200          29.900
 107539002.508 9  83796703.58647  20463999.969                    20464006.230
     -1413.684       -1101.377          54.300          44.900
 117600137.615 8  91636519.01945  22378564.078                    22378571.480
      3184.816        2481.851          48.300          35.500
 126715953.911 6  98739737.11443  24113249.141                    24113251.891
       232.820         181.690          40.300          19.900
 114669300.742 8  89352728.82646  21820850.547                    21820852.453
       296.301         231.094          48.900          38.500
 113421466.365 8  88380413.61646  21583395.664                    21583402.645
     -2410.328       -1877.980          51.300          38.300
 18  2 20  8 19 30.0000000  0  8G05G07G23G09G30G16G02G06
 121405004.873 8  94601336.30345  23102611.547                    23102615.180
      3145.934        2451.482          49.300          34.000
 111648591.419 8  86998955.27346  21246026.617                    21246030.578
      1772.277        1381.200          53.800          39.400
 121068232.990 7  94338922.12144  23038523.008                    23038525.180
     -2703.039       -2106.222          45.500          29.300
 107581582.698 9  83829882.93247  20472102.758                    20472109.215
     -1425.055       -1110.260          54.100          45.100
 117504740.072 8  91562183.32645  22360410.008                    22360417.762
      3174.977        2474.128          48.800          35.500
 126709273.077 6  98734531.26543  24111977.570                    24111980.957
       212.516         165.902          40.400          19.600
 114660690.666 8  89346019.66346  21819212.359                    21819213.914
       277.707         216.683          48.700          38.200
 113494005.566 8  88436937.64346  21597199.633                    21597206.801
     -2425.602       -1889.872          50.700          38.800
 18  2 20  8 20  0.0000000  0  8G05G07G23G09G30G16G02G06
 121310704.083 8  94527855.17345  23084666.781                    23084670.484
      3140.676        2447.413          49.000          33.300
 111595660.351 8  86957710.30046  21235953.969                    21235957.891
      1756.457        1368.897          53.300          39.600
 121149398.456 7  94402167.89445  23053968.914                    23053970.668
     -2707.953       -2109.979          45.000          30.200
 107624505.542 8  83863329.29547  20480270.867                    20480277.285
     -1436.508       -1119.165          53.600          44.600
 117409641.092 8  91488080.23145  22342314.023                    22342319.973
      3164.949        2466.356          48.700          35.300
 126703202.288 6  98729800.78543  24110822.211                    24110825.453
       192.125         150.035          38.300          19.600
 114652636.243 7  89339743.47346  21817679.594                    21817681.031
       259.188         202.249          47.800          38.900
 113567001.684 8  88493817.72246  21611089.984                    21611097.309
     -2440.941       -1901.690          49.800          38.800
 18  2 20  8 20 30.0000000  0  8G05G07G23G09G30G16G02G06
 121216561.065 8  94454496.99545  23066751.711                    23066755.992
      3135.496        2443.259          48.900          33.700
 111543203.509 8  86916834.86246  21225971.992                    21225975.676
      1740.598        1356.508          53.700          39.600
 121230707.568 7  94465525.63245  23069441.805                    23069443.250
     -2712.719       -2113.733          46.600          31.200
 107667769.419 9  83897041.40647  20488503.625                    20488509.965
     -1447.781       -1128.032          54.400          44.400
 117314842.666 8  91414211.30945  22324274.375                    22324280.520
      3154.891        2458.474          49.500          35.500
 126697741.793 6  98725545.83243  24109783.102                    24109786.531
       171.816         134.125          40.500          20.400
 114645137.301 8  89333900.14746  21816252.188                    21816254.043
       240.633         187.773          48.300          38.100
 113640452.054 8  88551051.75846  21625067.250                    21625074.484
     -2455.871       -1913.508          50.200          37.900
 18  2 20  8 21  0.0000000  0  8G05G07G23G09G30G16G02G06
 121122578.279 8  94381263.66545  23048867.469                    23048871.285
      3130.160        2439.097          49.300          34.400
 111491221.925 8  86876329.74646  21216079.883                    21216083.672
      1724.895        1344.214          53.000          39.700
 121312158.860 7  94528994.14145  23084941.164                    23084943.875
     -2717.262       -2117.364          45.700          30.400
 107711372.883 9  83931018.12247  20496801.094                    20496807.098
     -1458.945       -1136.786          54.300          44.500
 117220346.778 8  91340578.17345  22306291.586                    22306298.648
      3144.953        2450.641          48.600          35.100
 126692892.111 6  98721766.87343  24108860.805                    24108864.047
       151.605         118.320          41.200          20.400
 114638193.784 8  89328489.62446  21814930.727                    21814932.305
       222.285         173.401          49.100          38.400
 113714353.969 8  88608637.63546  21639130.289                    21639137.797
     -2470.781       -1925.139          51.100          38.000
 18  2 20  8 21 30.0000000  0  8G05G07G23G09G30G16G02G06
 121028757.416 8  94308156.51545  23031013.695                    23031017.559
      3124.566        2434.844          49.300          34.300
 111439717.420 8  86836196.37946  21206279.227                    21206283.184
      1708.785        1331.764          53.500          39.600
 121393751.798 7  94592573.00945  23100467.680                    23100470.297
     -2722.176       -2121.084          45.100          30.500
 107755315.205 9  83965258.89547  20505162.992                    20505168.719
     -1470.434       -1145.613          54.700          44.000
 117126156.459 8  91267183.14745  22288368.000                    22288375.234
      3134.484        2442.632          48.600          35.700
 126688654.375 6  98718464.73143  24108054.148                    24108057.352
       131.055         102.309          38.400          21.100
 114631806.629 7  89323512.60546  21813715.313                    21813717.332
       203.590         158.906          47.300          38.000
 113788705.491 8  88666573.86446  21653279.297                    21653286.430
     -2485.902       -1936.833          51.100          37.900
 18  2 20  8 22  0.0000000  0  8G05G07G23G09G30G16G02G06
 120935099.973 8  94235176.69345  23013191.266                    23013195.188
      3119.348        2430.618          48.800          34.900
 111388691.291 8  86796435.77746  21196569.039                    21196573.449
      1693.078        1319.354          53.200          39.200
 121475485.222 7  94656261.35644  23116021.367                    23116023.328
     -2726.621       -2124.685          45.400          29.900
 107799595.002 9  83999762.63547  20513588.961                    20513594.504
     -1481.453       -1154.344          55.200          44.000
 117032273.808 8  91194027.85846  22270503.297                    22270509.875
      3124.414        2434.633          50.000          36.200
 126685028.767 6  98715639.54443  24107364.383                    24107367.918
       110.902          86.485          41.000          21.100
 114625975.936 8  89318969.20246  21812606.148                    21812608.168
       185.270         144.473          48.200          39.300
 113863504.053 8  88724858.45046  21667512.703                    21667520.188
     -2500.535       -1948.411          51.000          37.800
 18  2 20  8 22 30.0000000  0  8G05G07G23G09G30G16G02G06
 120841606.932 8  94162324.98245  22995400.219                    22995404.145
      3113.672        2426.344          48.800          33.900
 111338144.624 8  86757048.78246  21186950.273                    21186954.387
      1676.855        1306.885          53.400          39.200
 121557358.186 7  94720058.46944  23131600.648                    23131603.289
     -2731.414       -2128.295          45.500          28.500
 107844211.107 9  84034528.43047  20522079.375                    20522084.668
     -1492.812       -1163.057          54.500          44.200
 116938701.235 8  91121114.16946  22252697.133                    22252703.438
      3113.957        2426.567          49.600          36.100
 126682015.765 6  98713291.75143  24106791.117                    24106794.426
        90.125          70.580          40.700          20.600
 114620701.801 8  89314859.47346  21811602.461                    21811604.711
       166.535         130.007          48.900          38.400
 113938747.180 8  88783489.43046  21681830.797                    21681838.152
     -2515.414       -1959.903          49.000          37.900
 18  2 20  8 23  0.0000000  0  8G05G07G23G09G30G16G02G06
 120748280.516 8  94089603.11245  22977640.859                    22977644.691
      3107.980        2421.906          49.100          35.300
 111288078.855 8  86718036.50446  21177423.258                    21177427.141
      1660.793        1294.311          53.400          40.200
 121639369.801 7  94783963.55444  23147207.211                    23147209.941
     -2736.102       -2131.922          46.400          29.600
 107889162.315 9  84069555.34447  20530633.422                    20530639.293
     -1503.973       -1171.795          54.500          44.200
 116845441.080 8  91048443.92845  22234949.789                    22234956.352
      3103.414        2418.371          49.700          35.800
 126679616.246 6  98711421.98743  24106334.133                    24106337.906
        69.648          54.602          37.900          20.100
 114615984.810 8  89311183.89446  21810704.906                    21810706.582
       147.926         115.488          48.300          38.600
 114014432.469 8  88842464.95546  21696233.289                    21696240.488
     -2530.199       -1971.399          49.900          37.100
 18  2 20  8 23 30.0000000  0  8G05G07G23G09G30G16G02G06
 120655123.462 8  94017013.20745  22959913.273                    22959918.023
      3102.426        2417.521          49.100          34.500
 111238495.179 8  86679399.88746  21167987.672                    21167991.652
      1644.766        1281.788          53.500          39.400
 121721518.794 7  94847975.71545  23162840.273                    23162842.609
     -2740.508       -2135.492          46.900          30.500
 107934447.377 9  84104842.39347  20539250.586                    20539257.234
     -1515.102       -1180.442          54.900          44.500
 116752495.661 8  90976018.95145  22217262.734                    22217269.949
      3092.945        2410.165          50.000          35.500
 126677830.222 6  98710030.28543  24105994.633                    24105998.391
        49.066          38.627          39.700          20.100
 114611825.009 8  89307942.49446  21809913.211                    21809914.840
       129.410         101.016          49.600          38.300
 114090557.456 8  88901783.10946  21710719.453                    21710726.535
     -2544.785       -1982.803          51.200          37.200
 18  2 20  8 24  0.0000000  0  8G05G07G23G09G30G16G02G06
 120562136.891 8  93944556.15245  22942218.766                    22942222.926
      3096.621        2413.068          50.400          34.600
 111189395.227 8  86641140.20446  21158644.398                    21158648.352
      1628.566        1269.218          53.100          39.400
 121803804.271 7  94912094.23444  23178498.266                    23178500.457
     -2745.148       -2138.994          47.200          28.900
 107980065.373 8  84140388.86947  20547931.586                    20547938.109
     -1526.246       -1189.065          53.100          44.300
 116659867.577 8  90903841.25646  22199636.453                    22199643.078
      3082.293        2401.927          50.200          36.400
 126676658.331 6  98709117.12943  24105771.680                    24105775.340
        28.664          22.699          38.200          20.400
 114608223.126 8  89305135.83146  21809227.758                    21809229.035
       110.668          86.534          50.000          37.400
 114167119.891 8  88961442.12246  21725288.773                    21725296.094
     -2559.348       -1994.108          48.300          37.500
 18  2 20  8 24 30.0000000  0  8G05G07G23G09G30G16G02G06
 120469321.827 8  93872232.74145  22924557.023                    22924560.938
      3090.754        2408.552          49.900          34.800
 111140779.694 8  86603257.99046  21149392.992                    21149397.215
      1612.219        1256.583          52.000          39.900
 121886224.886 7  94976318.05144  23194182.125                    23194183.688
     -2749.805       -2142.557          47.000          26.900
 108026014.407 9  84176193.30447  20556675.297                    20556681.906
     -1537.328       -1197.708          54.200          44.600
 116567558.531 8  90831912.15246  22182070.992                    22182077.691
      3071.453        2393.520          51.000          36.700
 126676100.666 6  98708682.61443  24105664.398                    24105668.828
         8.203           6.690          37.900          20.100
 114605178.096 8  89302763.07546  21808647.617                    21808649.941
        91.965          72.009          49.400          37.900
 114244116.668 8  89021439.60646  21739941.000                    21739948.242
     -2573.984       -2005.424          49.300          36.800
 18  2 20  8 25  0.0000000  0  8G05G07G23G09G30G16G02G06
 120376680.113 8  93800044.40345  22906927.516                    22906931.410
      3085.051        2404.069          49.500          34.800
 111092649.755 8  86565754.16146  21140234.242                    21140238.023
      1596.242        1244.023          52.400          39.900
 121968780.228 7  95040646.86844  23209892.367                    23209893.879
     -2754.074       -2145.963          47.600          28.200
 108072293.892 8  84212255.23247  20565482.070                    20565488.199
     -1548.105       -1206.191          53.800          44.400
 116475571.463 8  90760233.93146  22164566.211                    22164572.820
      3060.863        2385.227          50.800          36.500
 126676158.557 6  98708727.73643  24105675.891                    24105680.344
       -12.176          -9.246          37.700          19.900
 114602691.107 8  89300825.15446  21808175.109                    21808177.219
        73.578          57.593          49.900          39.200
 114321545.871 8  89081774.02846  21754674.852                    21754682.074
     -2588.105       -2016.552          48.400          36.300
 18  2 20  8 25 30.0000000  0  8G05G07G23G09G30G16G02G06
 120284215.276 8  93727993.87745  22889332.141                    22889336.012
      3079.227        2399.449          49.500          34.000
 111045007.145 8  86528630.06646  21131168.125                    21131172.047
      1579.922        1231.330          52.800          40.100
 122051468.943 7  95105079.59244  23225627.539                    23225629.480
     -2758.559       -2149.443          47.600          27.900
 108118902.603 9  84248573.69647  20574351.219                    20574357.648
     -1559.113       -1214.741          54.100          44.500
 116383908.605 8  90688808.35446  22147122.664                    22147129.734
      3049.930        2376.759          50.000          36.500
 126676832.015 6  98709252.51543  24105804.094                    24105808.090
       -32.801         -25.253          37.600          20.100
 114600762.036 8  89299321.97046  21807808.094                    21807810.211
        54.934          43.078          49.900          39.900
 114399404.925 8  89142443.39646  21769491.125                    21769498.371
     -2602.492       -2027.701          49.100          37.000
 18  2 20  8 26  0.0000000  0  8G05G07G23G09G30G16G02G06
 120191927.506 8  93656081.33345  22871770.563                    22871774.617
      3073.281        2394.854          49.100          34.600
 110997852.893 8  86491886.50946  21122195.000                    21122199.191
      1563.570        1218.644          52.200          40.200
 122134290.147 7  95169615.55644  23241387.578                    23241389.922
     -2762.957       -2152.868          47.000          28.800
 108165839.307 8  84285147.73747  20583283.148                    20583289.199
     -1570.090       -1223.247          52.800          44.600
 116292572.265 8  90617637.21546  22129741.852                    22129749.332
      3038.980        2368.255          50.100          36.600
 126678121.038 6  98710256.93843  24106048.703                    24106053.227
       -53.352         -41.211          37.900          20.400
 114599391.407 8  89298253.92746  21807547.445                    21807549.059
        36.285          28.585          50.800          39.200
 114477691.343 7  89203445.78346  21784389.109                    21784395.625
     -2616.672       -2038.749          47.900          36.500
 18  2 20  8 26 30.0000000  0  8G05G07G23G09G30G16G02G06
 120099819.826 8  93584309.12345  22854242.813                    22854246.914
      3067.051        2390.132          48.200          33.700
 110951188.282 8  86455524.48946  21113315.078                    21113319.266
      1547.145        1205.912          51.600          40.400
 122217242.878 7  95234253.98844  23257172.570                    23257176.172
     -2767.375       -2156.240          46.300          29.000
 108213102.728 8  84321976.35647  20592277.227                    20592283.012
     -1581.012       -1231.709          51.300          43.900
 116201564.721 8  90546722.28646  22112423.820                    22112430.859
      3027.938        2359.708          49.900          36.900
 126680026.064 6  98711741.38643  24106411.984                    24106415.844
       -73.863         -57.203          39.300          19.600
 114598579.178 8  89297621.01446  21807392.664                    21807394.313
        17.578          14.098          49.000          38.800
 114556402.490 8  89264779.12446  21799366.984                    21799373.805
     -2630.898       -2049.744          48.900          37.100
 18  2 20  8 27  0.0000000  0  8G05G07G23G09G30G16G02G06
 120007893.577 8  93512678.27645  22836749.961                    22836753.527
      3061.176        2385.435          48.500          33.000
 110905014.354 8  86419544.81046  21104528.070                    21104532.469
      1530.969        1193.188          52.400          40.200
 122300326.024 7  95298994.02044  23272983.203                    23272985.863
     -2771.613       -2159.605          46.500          29.100
 108260691.748 8  84359058.70747  20601333.297                    20601338.785
     -1591.637       -1240.129          53.000          44.000
 116110888.356 8  90476065.40646  22095168.328                    22095175.980
      3017.051        2351.086          50.200          36.500
 126682547.815 6  98713706.40443  24106891.828                    24106895.293
       -94.254         -73.214          40.800          21.500
 114598325.372 8  89297423.24146  21807344.430                    21807345.625
        -0.859          -0.394          49.800          38.100
 114635535.967 8  89326441.55746  21814425.461                    21814432.629
     -2644.801       -2060.673          49.000          36.800
 18  2 20  8 27 30.0000000  0  8G05G07G23G09G30G16G02G06
 119916150.222 7  93441189.94445  22819291.742                    22819295.539
      3055.035        2380.618          47.300          32.300
 110859332.366 8  86383948.46946  21095835.359                    21095839.453
      1514.465        1180.368          51.200          39.900
 122383538.994 8  95363835.25144  23288818.828                    23288820.031
     -2775.961       -2162.996          48.200          27.600
 108308605.406 8  84396394.01447  20610451.031                    20610456.512
     -1602.566       -1248.583          52.400          44.200
 116020545.677 8  90405668.53846  22077976.984                    22077984.324
      3005.770        2342.363          49.200          36.900
 126685686.480 6  98716152.09243  24107488.063                    24107492.887
      -115.035         -89.261          38.900          19.900
 114598630.174 8  89297660.75046  21807402.414                    21807403.320
       -19.457         -14.930          49.000          38.700
 114715089.405 7  89388431.23046  21829564.023                    21829571.402
     -2658.836       -2071.571          47.600          36.500
 18  2 20  8 28  0.0000000  0  8G05G07G23G09G30G16G02G06
 119824592.092 8  93369845.95345  22801868.680                    22801872.477
      3048.820        2375.767          48.300          33.000
 110814143.326 8  86348736.25046  21087236.172                    21087240.566
      1498.051        1167.521          51.900          39.700
 122466880.411 7  95428776.62644  23304677.688                    23304679.117
     -2780.164       -2166.338          47.300          28.700
 108356842.241 8  84433981.15147  20619630.500                    20619636.270
     -1613.273       -1256.965          53.600          44.400
 115930538.788 8  90335533.33346  22060849.188                    22060856.535
      2994.543        2333.576          50.100          36.500
 126689441.766 6  98719078.30743  24108203.367                    24108207.078
      -135.484        -105.328          40.500          21.300
 114599493.584 8  89298333.52946  21807566.789                    21807568.477
       -38.070         -29.459          49.600          38.700
 114795060.054 8  89450745.99746  21844782.203                    21844789.715
     -2672.633       -2082.392          50.000          36.900
 18  2 20  8 28 30.0000000  0  8G05G07G23G09G30G16G02G06
 119733220.907 8  93298647.63445  22784481.445                    22784485.426
      3042.563        2370.912          48.800          33.500
 110769448.433 8  86313909.08246  21078730.828                    21078735.289
      1481.547        1154.693          50.900          40.100
 122550349.346 7  95493817.31344  23320560.938                    23320564.066
     -2784.457       -2169.622          44.400          29.100
 108405400.861 8  84471819.02647  20628870.328                    20628876.297
     -1623.965       -1265.300          52.300          43.900
 115840869.698 8  90265661.33946  22043785.883                    22043793.531
      2983.301        2324.815          49.200          37.400
 126693814.087 6  98722485.30143  24109035.398                    24109039.625
      -156.055        -121.329          40.900          21.500
 114600915.402 8  89299441.43946  21807837.219                    21807839.293
       -56.758         -43.968          49.300          39.200
 114875445.053 8  89513383.62846  21860079.195                    21860086.219
     -2686.375       -2093.109          49.100          37.000
 18  2 20  8 29  0.0000000  0  8G05G07G23G09G30G16G02G06
 119642038.029 8  93227596.03745  22767130.055                    22767133.598
      3036.328        2366.007          49.500          32.500
 110725248.550 8  86279467.62046  21070319.898                    21070323.824
      1465.063        1141.845          52.300          39.900
 122633944.991 7  95558956.70544  23336469.133                    23336472.563
     -2788.574       -2172.866          46.600          28.900
 108454280.402 8  84509906.97147  20638171.508                    20638177.422
     -1634.676       -1273.597          52.100          43.200
 115751541.046 8  90196054.63646  22026786.938                    22026794.445
      2971.945        2315.968          50.000          37.300
 126698803.729 6  98726373.33943  24109984.938                    24109989.203
      -176.680        -137.351          41.100          21.700
 114602896.017 8  89300984.75346  21808213.734                    21808216.164
       -75.301         -58.441          49.300          38.800
 114956242.213 8  89576342.43246  21875454.102                    21875461.191
     -2700.082       -2103.770          49.400          37.400
 18  2 20  8 29 30.0000000  0  8G05G07G23G09G30G16G02G06
 119551045.988 8  93156693.15145  22749814.375                    22749818.117
      3029.879        2361.025          48.600          33.000
 110681544.839 8  86245412.79446  21062003.156                    21062007.141
      1448.441        1128.926          51.100          39.900
 122717666.068 7  95624193.83944  23352400.922                    23352404.191
     -2792.863       -2176.156          45.500          29.900
 108503479.539 8  84548243.95047  20647534.219                    20647540.277
     -1645.281       -1281.910          51.300          44.100
 115662555.042 8  90126714.93246  22009853.352                    22009861.043
      2960.434        2306.983          49.500          37.400
 126704411.012 6  98730742.62443  24111052.039                    24111056.355
      -197.227        -153.400          40.600          21.100
 114605435.036 8  89302963.19046  21808697.102                    21808699.559
       -94.047         -72.964          49.000          38.700
 115037448.831 8  89639620.29746  21890907.297                    21890914.668
     -2713.703       -2114.377          49.400          36.900
 18  2 20  8 30  0.0000000  0  8G05G07G23G09G30G16G02G06
 119460246.690 8  93085940.45545  22732536.094                    22732539.746
      3023.398        2355.946          50.400          33.100
 110638338.554 8  86211745.57446  21053781.844                    21053785.297
      1431.879        1115.944          50.800          40.000
 122801512.165 7  95689528.41944  23368356.500                    23368358.996
     -2797.051       -2179.438          46.200          28.500
 108552997.237 8  84586829.15947  20656956.445                    20656963.105
     -1655.859       -1290.200          50.500          43.200
 115573914.023 8  90057644.03946  21992985.633                    21992992.781
      2948.914        2297.985          49.300          37.300
 126710636.080 6  98735593.32243  24112236.039                    24112241.543
      -217.840        -169.463          40.600          21.500
 114608532.628 8  89305376.89446  21809286.555                    21809288.457
      -112.629         -87.512          48.200          38.300
 115119062.285 8  89703215.16746  21906437.805                    21906445.055
     -2727.207       -2124.960          48.500          36.500
 18  2 20  8 30 30.0000000  0  8G05G07G23G09G30G16G02G06
 119369641.532 8  93015339.03345  22715294.711                    22715298.406
      3016.898        2350.963          49.100          31.600
 110595630.378 8  86178466.48146  21045654.570                    21045658.367
      1415.355        1103.057          50.900          39.900
 122885481.871 7  95754959.32844  23384334.914                    23384337.047
     -2800.961       -2182.540          46.900          26.900
 108602832.047 8  84625661.47747  20666439.906                    20666446.516
     -1666.387       -1298.354          50.200          43.800
 115485620.081 8  89988843.59946  21976184.359                    21976191.035
      2937.305        2288.987          49.100          37.900
 126717478.691 6  98740925.20743  24113538.789                    24113543.371
      -238.359        -185.446          39.000          21.800
 114612188.633 7  89308225.73746  21809982.734                    21809983.762
      -131.105        -101.953          47.900          38.300
 115201080.063 8  89767125.10346  21922045.539                    21922052.348
     -2740.582       -2135.363          48.200          36.900
 18  2 20  8 31  0.0000000  0  8G05G07G23G09G30G16G02G06
 119279232.359 8  92944890.33545  22698090.383                    22698093.840
      3010.234        2345.778          49.900          31.600
 110553421.917 8  86145576.78346  21037622.586                    21037626.391
      1398.527        1090.037          51.900          40.300
 122969574.438 7  95820485.97744  23400337.063                    23400339.535
     -2805.215       -2185.771          43.400          26.700
 108652982.959 8  84664740.10247  20675983.313                    20675989.527
     -1677.008       -1306.591          50.900          43.500
 115397675.610 8  89920315.45446  21959449.313                    21959455.684
      2925.547        2279.861          50.200          37.900
 126724939.566 6  98746738.83843  24114958.602                    24114962.488
      -259.148        -201.565          39.900          20.100
 114616402.967 8  89311509.64146  21810784.438                    21810785.699
      -149.840        -116.473          48.700          38.100
 115283499.548 8  89831348.05946  21937729.211                    21937736.648
     -2754.184       -2145.793          48.000          37.000
 18  2 20  8 31 30.0000000  0  8G05G07G23G09G30G16G02G06
 119189021.404 8  92874596.08945  22680923.992                    22680927.258
      3003.805        2340.659          50.100          32.300
 110511713.466 8  86113076.70046  21029685.492                    21029689.734
      1382.039        1077.057          51.900          40.100
 123053788.296 7  95886107.11144  23416362.484                    23416365.316
     -2809.016       -2188.869          45.300          26.100
 108703448.375 8  84704063.79247  20685586.602                    20685593.426
     -1687.312       -1314.729          51.200          43.800
 115310082.446 8  89852061.05446  21942780.711                    21942787.418
      2913.977        2270.738          50.500          38.800
 126733017.965 6  98753033.68443  24116495.094                    24116500.078
      -279.543        -217.567          38.400          20.600
 114621175.230 8  89315228.28746  21811692.703                    21811694.660
      -168.254        -130.949          49.600          38.800
 115366317.646 7  89895881.61046  21953488.961                    21953496.992
     -2767.078       -2156.078          47.500          37.500
 18  2 20  8 32  0.0000000  0  8G05G07G23G09G30G16G02G06
 119099010.346 7  92804457.59645  22663795.047                    22663799.324
      2996.871        2335.399          47.500          32.400
 110470506.307 8  86080967.23846  21021844.258                    21021848.430
      1365.008        1063.984          50.800          40.200
 123138122.894 7  95951822.32244  23432411.742                    23432414.195
     -2813.344       -2192.029          45.700          27.700
 108754227.328 8  84743631.78847  20695249.461                    20695256.027
     -1698.012       -1322.871          51.600          44.100
 115222843.055 7  89784082.34746  21926179.023                    21926186.586
      2901.945        2261.478          47.900          38.100
 126741713.925 6  98759809.71643  24118150.773                    24118154.566
      -300.184        -233.641          39.200          20.400
 114626505.610 8  89319381.80846  21812706.563                    21812709.125
      -187.098        -145.467          49.300          38.200
 115449532.046 7  89960723.97646  21969324.281                    21969331.797
     -2780.473       -2166.377          47.000          37.000
 18  2 20  8 32 30.0000000  0  8G05G07G23G09G30G16G02G06
 119009201.087 8  92734476.36045  22646705.023                    22646708.957
      2990.348        2330.202          49.900          32.200
 110429801.841 8  86049249.49746  21014098.234                    21014102.281
      1348.504        1050.972          49.600          40.600
 123222577.446 7  96017631.00444  23448482.883                    23448484.879
     -2817.023       -2195.097          44.700          27.900
 108805318.797 8  84783443.30347  20704971.852                    20704978.328
     -1708.094       -1330.919          51.600          43.900
 115135959.853 8  89716381.18346  21909645.969                    21909653.117
      2890.230        2252.238          50.100          38.500
 126751027.752 6  98767067.25043  24119923.109                    24119927.398
      -320.520        -249.660          36.200          21.300
 114632394.004 8  89323970.13946  21813827.500                    21813829.559
      -205.430        -159.916          48.100          39.000
 115533140.117 7  90025873.10145  21985233.938                    21985241.777
     -2793.387       -2176.543          47.200          35.800
 18  2 20  8 33  0.0000000  0  8G05G07G23G09G30G16G02G06
 118919595.556 7  92664653.88745  22629653.484                    22629657.590
      2983.422        2324.850          47.600          32.600
 110389600.853 8  86017924.05646  21006448.180                    21006452.641
      1331.613        1037.861          50.900          40.600
 123307151.234 7  96083532.60944  23464575.680                    23464578.371
     -2821.125       -2198.198          43.000          25.600
 108856721.533 8  84823497.36447  20714753.992                    20714760.137
     -1718.586       -1339.025          52.200          44.300
 115049435.014 8  89648959.24546  21893181.008                    21893187.824
      2878.184        2242.888          49.300          39.500
 126760959.614 6  98774806.34043  24121812.758                    24121817.313
      -341.426        -265.725          37.900          19.900
 114638840.228 8  89328993.13446  21815054.297                    21815056.477
      -224.191        -174.430          49.300          38.700
 115617139.348 7  90091327.01746  22001219.078                    22001226.531
     -2806.496       -2186.675          47.400          36.900
 18  2 20  8 33 30.0000000  0  8G05G07G23G09G30G16G02G06
 118830195.648 8  92594991.60745  22612641.469                    22612644.922
      2976.609        2319.490          50.300          32.600
 110349903.746 8  85986991.26346  20998894.156                    20998898.113
      1314.801        1024.766          50.000          40.800
 123391842.917 7  96149526.08544  23480692.398                    23480693.875
     -2825.082       -2201.257          43.200          24.700
 108908434.122 8  84863792.88347  20724594.367                    20724600.410
     -1728.852       -1347.030          51.400          43.900
 114963270.539 8  89581818.09146  21876784.719                    21876790.977
      2866.117        2233.520          50.900          38.800
 126771509.165 6  98783026.76843  24123820.992                    24123824.672
      -361.945        -281.733          39.900          19.900
 114645843.874 8  89334450.51546  21816387.016                    21816388.129
      -242.754        -188.888          50.000          38.100
 115701526.804 8  90157083.45146  22017277.422                    22017284.680
     -2819.348       -2196.720          48.400          37.100
 18  2 20  8 34  0.0000000  0  8G05G07G23G09G30G16G02G06
 118741003.164 8  92525490.96545  22595668.703                    22595672.355
      2969.672        2314.119          51.100          33.000
 110310711.501 8  85956451.86646  20991436.289                    20991439.914
      1297.992        1011.674          51.700          40.800
 123476651.458 7  96215610.61944  23496830.945                    23496831.891
     -2828.863       -2204.232          44.100          25.500
 108960455.436 8  84904328.95847  20734494.188                    20734499.824
     -1739.070       -1355.020          53.000          44.200
 114877468.603 8  89514959.46046  21860456.953                    21860463.355
      2854.063        2224.093          50.600          38.600
 126782675.953 6  98791728.14543  24125945.531                    24125949.832
      -382.371        -297.748          40.100          19.600
 114653404.600 8  89340342.00746  21817825.672                    21817826.754
      -261.285        -203.343          49.800          37.700
 115786299.784 7  90223140.28946  22033409.094                    22033417.270
     -2832.121       -2206.664          47.400          36.300
 18  2 20  8 34 30.0000000  0  8G05G07G23G09G30G16G02G06
 118652019.748 8  92456153.25045  22578735.773                    22578739.480
      2962.492        2308.611          50.200          32.700
 110272025.085 8  85926306.60746  20984074.367                    20984078.633
      1281.027         998.491          51.500          40.600
 123561576.308 7  96281785.80244  23512992.188                    23512994.133
     -2832.797       -2207.280          43.800          28.500
 109012784.324 9  84945104.68847  20744451.969                    20744457.195
     -1749.457       -1363.022          54.100          44.300
 114792031.532 8  89448385.13946  21844198.430                    21844205.402
      2841.613        2214.531          51.300          38.900
 126794460.211 6  98800910.67543  24128187.820                    24128192.164
      -403.277        -313.864          39.200          19.600
 114661522.296 8  89346667.48246  21819370.383                    21819371.672
      -279.957        -217.836          49.100          37.600
 115871455.717 7  90289495.53146  22049613.297                    22049621.313
     -2844.930       -2216.624          47.900          36.900
 18  2 20  8 35  0.0000000  0  8G05G07G23G09G30G16G02G06
 118563247.717 8  92386980.23745  22561842.836                    22561846.402
      2955.520        2303.105          49.600          33.200
 110233845.716 8  85896556.44546  20976809.227                    20976813.301
      1264.129         985.299          51.600          40.900
 123646616.335 7  96348050.69044  23529174.500                    23529177.410
     -2836.566       -2210.243          42.600          27.300
 109065419.847 8  84986119.37347  20754468.523                    20754473.711
     -1759.605       -1370.985          53.600          44.200
 114706961.690 8  89382096.95846  21828010.586                    21828017.375
      2829.449        2204.975          51.500          39.200
 126806862.261 6  98810574.61843  24130548.125                    24130552.066
      -423.699        -329.877          37.800          19.900
 114670197.136 8  89353427.07546  21821021.422                    21821023.395
      -298.500        -232.297          49.800          38.400
 115956992.096 7  90356147.23146  22065890.539                    22065898.570
     -2857.496       -2226.448          46.400          36.600
 18  2 20  8 35 30.0000000  0  8G05G07G23G09G30G16G02G06
 118474689.443 8  92317973.78445  22544990.773                    22544994.191
      2948.285        2297.498          49.600          32.100
 110196174.205 8  85867202.03446  20969640.563                    20969644.402
      1247.094         972.080          52.100          40.400
 123731770.552 7  96414404.54744  23545378.906                    23545382.117
     -2840.512       -2213.248          42.600          28.700
 109118360.496 9  85027371.81347  20764542.734                    20764547.762
     -1769.828       -1378.914          55.000          44.400
 114622261.021 8  89316096.42946  21811892.602                    21811899.066
      2817.043        2195.340          51.400          38.900
 126819881.725 6  98820719.62143  24133024.984                    24133029.984
      -444.281        -345.930          39.000          19.600
 114679428.391 8  89360620.22946  21822778.070                    21822780.418
      -317.113        -246.780          50.500          39.200
 116042905.944 7  90423093.06246  22082239.570                    22082247.746
     -2870.160       -2236.258          46.700          36.800
 18  2 20  8 36  0.0000000  0  8G05G07G23G09G30G16G02G06
 118386345.859 8  92249134.62645  22528179.070                    22528182.922
      2941.273        2291.901          49.500          33.100
 110159011.354 8  85838243.97446  20962568.406                    20962572.633
      1230.352         958.843          51.500          41.000
 123817038.159 7  96480846.80544  23561604.914                    23561607.918
     -2844.059       -2216.166          43.100          26.900
 109171605.182 9  85068861.17647  20774674.891                    20774680.082
     -1779.840       -1386.831          54.500          44.400
 114537931.732 8  89250385.29346  21795845.180                    21795851.813
      2804.855        2185.657          52.000          38.600
 126833517.906 6  98831345.18743  24135620.469                    24135624.469
      -464.684        -361.943          36.500          19.300
 114689215.866 8  89368246.80846  21824640.813                    21824642.566
      -335.492        -261.246          50.400          39.600
 116129194.625 7  90490330.96846  22098659.703                    22098667.535
     -2882.465       -2245.994          47.300          36.300
 18  2 20  8 36 30.0000000  0  8G05G07G23G09G30G16G02G06
 118298219.521 8  92180464.75545  22511409.523                    22511413.492
      2933.965        2286.242          49.900          33.600
 110122357.870 8  85809682.82746  20955593.336                    20955597.191
      1213.430         945.635          52.300          40.300
 123902418.246 7  96547376.74144  23577852.188                    23577855.180
     -2847.746       -2219.043          43.400          28.100
 109225152.719 9  85110586.50247  20784864.570                    20784870.289
     -1789.977       -1394.629          54.600          44.300
 114453976.029 8  89184965.27846  21779868.688                    21779875.379
      2792.426        2175.979          51.300          38.600
 126847770.843 6  98842451.35343  24138332.594                    24138337.387
      -485.234        -377.952          37.600          19.600
 114699559.122 8  89376306.47146  21826609.133                    21826610.441
      -353.973        -275.624          51.300          38.400
 116215855.427 7  90557858.84646  22115150.594                    22115158.938
     -2894.816       -2255.572          47.400          36.400
 18  2 20  8 37  0.0000000  0  8G05G07G23G09G30G16G02G06
 118210312.671 8  92111965.90045  22494681.547                    22494685.379
      2926.539        2280.557          50.500          34.600
 110086214.470 8  85781519.14446  20948715.828                    20948719.801
      1196.199         932.403          52.100          40.600
 123987909.940 7  96613993.61144  23594120.297                    23594124.023
     -2851.535       -2221.916          42.600          28.300
 109279001.806 8  85152546.81747  20795111.984                    20795117.344
     -1799.934       -1402.423          53.500          44.300
 114370395.990 8  89119837.99546  21763964.031                    21763971.047
      2779.656        2166.205          52.700          39.000
 126862640.362 6  98854037.99643  24141161.930                    24141166.426
      -505.945        -393.942          40.000          19.900
 114710458.107 8  89384799.16646  21828682.750                    21828683.914
      -372.598        -290.028          50.300          37.300
 116302885.531 7  90625674.48046  22131712.102                    22131719.859
     -2907.160       -2265.102          46.200          37.000
 18  2 20  8 37 30.0000000  0  8G05G07G23G09G30G16G02G06
 118122626.888 8  92043639.32545  22477995.203                    22477998.793
      2918.871        2274.702          51.100          34.100
 110050582.323 8  85753753.84946  20941934.883                    20941939.047
      1178.891         919.023          53.200          40.400
 124073512.380 7  96680696.76244  23610410.266                    23610414.012
     -2855.508       -2224.888          42.900          28.000
 109333151.523 8  85194741.37747  20805415.953                    20805421.633
     -1810.246       -1410.297          53.200          44.100
 114287193.920 8  89055005.22846  21748131.508                    21748138.148
      2766.727        2156.267          53.300          39.400
 126878126.205 6  98866104.87743  24144108.953                    24144113.309
      -526.793        -410.005          39.200          19.300
 114721912.222 8  89393724.44146  21830862.461                    21830863.133
      -391.344        -304.533          50.400          36.100
 116390282.406 7  90693775.90846  22148343.141                    22148351.121
     -2919.520       -2274.667          47.500          37.000
 18  2 20  8 38  0.0000000  0  8G05G07G23G09G30G16G02G06
 118035163.834 8  91975486.30545  22461351.617                    22461355.285
      2911.684        2268.965          50.700          34.700
 110015462.230 8  85726387.54746  20935251.852                    20935256.016
      1161.992         905.753          52.600          41.000
 124159224.227 7  96747485.17644  23626720.695                    23626725.113
     -2859.062       -2227.659          42.700          28.200
 109387600.425 8  85237169.07947  20815777.438                    20815782.824
     -1820.066       -1418.008          52.900          43.200
 114204371.755 8  88990468.48046  21732370.797                    21732377.395
      2754.297        2146.424          52.700          39.000
 126894227.754 6  98878651.54043  24147172.617                    24147177.484
      -547.082        -425.979          39.400          19.300
 114733920.682 8  89403081.68646  21833147.617                    21833149.035
      -409.664        -318.881          51.000          36.800
 116478043.075 7  90762160.81546  22165043.563                    22165051.504
     -2931.496       -2284.047          47.100          36.600
 18  2 20  8 38 30.0000000  0  8G05G07G23G09G30G16G02G06
 117947925.405 8  91907508.31145  22444750.563                    22444754.590
      2904.184        2263.072          51.500          35.500
 109980855.185 8  85699421.02046  20928666.594                    20928670.641
      1144.926         892.425          52.700          40.900
 124245045.328 7  96814358.72144  23643051.914                    23643055.809
     -2862.602       -2230.500          44.500          27.100
 109442347.624 8  85279829.22247  20826195.227                    20826200.969
     -1829.844       -1425.741          52.600          43.200
 114121931.926 8  88926229.67046  21716682.984                    21716689.738
      2741.633        2136.466          52.100          38.600
 126910945.298 6  98891678.20443  24150353.500                    24150358.492
      -567.488        -441.957          37.600          18.600
 114746483.809 8  89412871.12246  21835538.367                    21835539.965
      -428.062        -333.275          51.300          37.500
 116566165.117 7  90830827.31746  22181812.516                    22181820.598
     -2943.418       -2293.414          46.500          36.800
 18  2 20  8 39  0.0000000  0  8G05G07G23G09G30G16G02G06
 117860913.880 8  91839707.12146  22428193.141                    22428197.082
      2896.473        2257.175          51.600          36.100
 109946760.882 8  85672854.03446  20922178.742                    20922183.051
      1127.793         879.137          52.100          41.300
 124330974.064 7  96881316.14644  23659403.641                    23659407.543
     -2866.250       -2233.250          44.300          27.800
 109497391.453 8  85322720.51747  20836669.305                    20836675.160
     -1839.824       -1433.405          51.300          42.400
 114039875.992 8  88862290.00546  21701067.805                    21701074.633
      2728.715        2126.501          52.400          38.700
 126928277.594 6  98905183.88343  24153652.492                    24153657.188
      -588.211        -457.881          38.500          18.600
 114759600.400 8  89423091.83146  21838034.945                    21838036.547
      -446.562        -347.624          51.400          38.700
 116654645.238 7  90899772.83746  22198649.820                    22198657.637
     -2955.328       -2302.628          47.000          36.000
 18  2 20  8 39 30.0000000  0  8G05G07G23G09G30G16G02G06
 117774130.120 8  91772083.43046  22411678.625                    22411683.164
      2888.867        2251.219          51.900          36.100
 109913180.767 8  85646687.72646  20915788.508                    20915793.070
      1110.684         865.754          52.400          41.100
 124417010.160 7  96948357.23044  23675775.703                    23675779.641
     -2869.734       -2236.033          44.500          27.500
 109552731.094 8  85365842.31646  20847199.453                    20847205.648
     -1849.715       -1441.094          51.700          41.500
 113958206.496 8  88798651.44346  21685526.625                    21685534.031
      2715.707        2116.419          52.300          38.600
 126946224.892 6  98919168.78243  24157067.828                    24157072.281
      -608.582        -473.855          40.500          19.300
 114773270.431 8  89433743.78746  21840635.422                    21840637.617
      -464.957        -362.000          51.300          38.100
 116743481.078 7  90968995.54946  22215554.672                    22215562.582
     -2967.211       -2311.843          46.600          36.100
 18  2 20  8 40  0.0000000  0  8G05G07G23G09G30G16G02G06
 117687577.974 8  91704640.19446  22395208.477                    22395212.168
      2881.203        2245.180          52.300          37.000
 109880115.355 8  85620922.47146  20909496.656                    20909500.863
      1093.559         852.360          52.100          41.400
 124503152.458 7  97015481.07744  23692168.320                    23692172.148
     -2873.160       -2238.790          44.200          27.900
 109608365.256 8  85409193.61146  20857786.039                    20857792.563
     -1859.359       -1448.751          49.500          41.000
 113876925.368 8  88735315.50546  21670059.680                    21670066.594
      2702.883        2106.292          52.200          39.200
 126964786.914 6  98933632.68843  24160600.070                    24160604.676
      -628.969        -489.889          41.000          19.600
 114787493.418 8  89444826.60646  21843341.836                    21843343.727
      -483.305        -376.388          50.200          37.100
 116832669.714 7  91038493.15945  22232526.773                    22232534.664
     -2978.855       -2321.005          46.600          35.500
 18  2 20  8 40 30.0000000  0  8G05G07G23G09G30G16G02G06
 117601258.985 8  91637378.64146  22378782.766                    22378786.555
      2873.359        2239.084          52.700          37.200
 109847565.645 8  85595559.06146  20903302.492                    20903306.730
      1076.301         838.936          51.900          40.900
 124589400.161 7  97082687.04644  23708580.383                    23708584.445
     -2876.707       -2241.548          43.600          28.900
 109664293.033 8  85452773.68946  20868428.734                    20868435.324
     -1869.133       -1456.386          48.800          41.000
 113796034.996 8  88672284.05246  21654666.461                    21654673.844
      2689.727        2096.092          51.900          39.500
 126983962.973 6  98948575.05643  24164249.102                    24164253.250
      -649.437        -505.812          41.200          19.900
 114802269.242 8  89456340.21346  21846154.023                    21846155.121
      -501.781        -390.771          51.000          36.000
 116922208.636 7  91108263.72746  22249565.453                    22249573.234
     -2990.516       -2330.112          46.800          36.100
 18  2 20  8 41  0.0000000  0  8G05G07G23G09G30G16G02G06
 117515174.163 8  91570299.55846  22362400.859                    22362405.375
      2865.617        2233.035          51.600          36.700
 109815531.406 8  85570597.33546  20897206.469                    20897209.984
      1059.246         825.589          50.300          40.700
 124675751.930 7  97149974.10144  23725012.445                    23725016.730
     -2880.082       -2244.185          43.500          26.900
 109720512.519 8  85496581.08446  20879126.906                    20879133.867
     -1878.832       -1463.892          49.000          40.900
 113715536.709 8  88609558.13046  21639348.117                    21639355.074
      2676.738        2085.938          51.500          38.000
 127003752.155 7  98963995.22643  24168015.500                    24168019.129
      -669.828        -521.692          42.000          20.900
 114817596.385 8  89468283.44446  21849070.492                    21849071.285
      -520.023        -405.020          50.800          36.700
 117012094.313 7  91178304.48646  22266670.383                    22266678.059
     -3001.934       -2339.010          47.000          36.800
 18  2 20  8 41 30.0000000  0  8G05G07G23G09G30G16G02G06
 117429325.750 8  91503404.70346  22346064.539                    22346068.766
      2857.605        2226.826          51.300          36.700
 109784014.214 8  85546038.49646  20891208.695                    20891212.973
      1041.883         812.116          50.600          40.900
 124762207.445 7  97217341.98544  23741464.656                    23741467.777
     -2883.547       -2246.899          42.000          26.000
 109777023.148 8  85540615.33946  20889880.586                    20889887.418
     -1888.590       -1471.486          48.800          41.700
 113635433.187 8  88547139.82346  21624104.813                    21624111.332
      2663.461        2075.615          52.400          38.500
 127024154.346 7  98979893.01243  24171898.391                    24171902.105
      -690.367        -537.637          42.800          22.300
 114833475.091 8  89480656.46946  21852092.648                    21852093.184
      -538.559        -419.375          51.800          37.000
 117102324.587 7  91248613.75845  22283840.766                    22283848.281
     -3013.461       -2347.955          46.900          35.600
 18  2 20  8 42  0.0000000  0  8G05G07G23G09G30G16G02G06
 117343715.730 8  91436695.60246  22329773.602                    22329777.629
      2849.656        2220.625          51.800          37.300
 109753014.415 8  85521882.81946  20885309.875                    20885313.594
      1024.668         798.702          50.300          40.700
 124848765.300 7  97284789.65944  23757935.984                    23757938.711
     -2886.957       -2249.543          42.300          24.000
 109833823.459 8  85584875.31346  20900689.063                    20900696.684
     -1898.090       -1478.955          48.900          41.600
 113555726.220 8  88485030.50846  21608937.406                    21608943.828
      2650.270        2065.311          52.200          38.200
 127045168.576 7  98996267.75843  24175897.039                    24175900.738
      -710.613        -553.492          42.700          21.800
 114849904.443 8  89493458.56146  21855218.680                    21855220.234
      -556.785        -433.638          50.900          37.600
 117192896.367 7  91319189.13945  22301075.641                    22301083.016
     -3024.695       -2356.782          46.900          35.400
 18  2 20  8 42 30.0000000  0  8G05G07G23G09G30G16G02G06
 117258347.102 8  91370174.58546  22313528.570                    22313532.078
      2841.570        2214.318          51.600          37.300
 109722532.673 8  85498130.82646  20879509.453                    20879513.445
      1007.473         785.214          50.300          40.700
 124935425.191 7  97352316.82743  23774427.125                    23774429.953
     -2890.391       -2252.205          42.700          23.000
 109890912.497 8  85629360.26847  20911552.992                    20911560.043
     -1907.730       -1486.446          49.200          42.000
 113476418.031 8  88423231.92046  21593845.508                    21593852.078
      2636.945        2054.912          52.600          38.700
 127066795.150 7  99013119.61043  24180012.734                    24180016.367
      -731.094        -569.417          43.900          22.500
 114866883.814 8  89506689.21946  21858449.195                    21858451.566
      -575.094        -447.938          50.700          37.900
 117283807.060 7  91390028.62345  22318375.563                    22318383.141
     -3035.988       -2365.540          46.500          34.900
 18  2 20  8 43  0.0000000  0  8G05G07G23G09G30G16G02G06
 117173221.835 8  91303843.22446  22297329.711                    22297333.852
      2833.605        2208.037          50.200          37.200
 109692570.618 8  85474783.78846  20873807.664                    20873811.289
       990.254         771.772          51.100          40.600
 125022187.142 7  97419923.47743  23790937.492                    23790939.766
     -2893.543       -2254.749          43.500          22.500
 109948290.065 8  85674070.06547  20922471.703                    20922478.746
     -1917.238       -1493.874          50.200          42.300
 113397511.617 8  88361746.41146  21578829.852                    21578837.090
      2623.582        2044.526          52.300          38.500
 127089033.961 7  99030448.56543  24184244.469                    24184247.922
      -751.465        -585.253          43.700          22.300
 114884413.699 8  89520348.82946  21861785.070                    21861787.438
      -593.320        -462.155          49.800          36.900
 117375054.800 7  91461130.73445  22335739.555                    22335746.902
     -3047.078       -2374.210          46.700          34.800
 18  2 20  8 43 30.0000000  0  8G05G07G23G09G30G16G02G06
 117088341.183 8  91237702.47646  22281177.500                    22281181.746
      2825.266        2201.589          50.500          37.600
 109663127.600 8  85451841.18746  20868204.938                    20868208.719
       972.785         758.232          51.200          41.000
 125109049.301 7  97487608.20743  23807467.078                    23807469.082
     -2896.996       -2257.394          44.200          22.900
 110005953.759 8  85719002.81946  20933444.742                    20933451.426
     -1926.918       -1501.350          50.300          41.800
 113319007.790 8  88300574.62446  21563890.617                    21563898.355
      2610.039        2033.979          52.300          38.700
 127111883.477 7  99048253.35343  24188592.461                    24188595.883
      -771.758        -601.126          44.000          22.000
 114902492.411 8  89534436.11546  21865225.883                    21865227.406
      -611.691        -476.454          50.300          37.000
 117466635.525 7  91532492.32445  22353166.461                    22353174.078
     -3058.191       -2382.874          46.900          33.700
 18  2 20  8 44  0.0000000  0  8G05G07G23G09G30G16G02G06
 117003706.906 8  91171753.70546  22265072.281                    22265076.008
      2817.020        2195.172          51.100          37.600
 109634204.257 8  85429303.52546  20862701.094                    20862704.688
       955.445         744.713          51.400          41.000
 125196010.322 7  97555369.99143  23824015.000                    23824016.777
     -2900.285       -2259.954          43.300          22.000
 110063902.366 8  85764157.57046  20944472.055                    20944479.066
     -1936.336       -1508.737          50.300          41.800
 113240908.494 8  88239718.06046  21549028.867                    21549035.973
      2596.559        2023.456          51.900          38.800
 127135342.816 7  99066533.35243  24193056.734                    24193059.563
      -792.090        -617.015          42.000          22.000
 114921118.854 8  89548950.22346  21868770.477                    21868771.680
      -629.941        -490.687          51.000          37.000
 117558546.376 7  91604111.14945  22370656.648                    22370663.984
     -3069.152       -2391.413          47.700          34.800
 18  2 20  8 44 30.0000000  0  8G05G07G23G09G30G16G02G06
 116919320.218 8  91105997.84446  22249014.016                    22249018.137
      2808.836        2188.737          50.000          37.100
 109605801.546 8  85407171.55746  20857296.195                    20857300.406
       938.164         731.210          51.000          41.500
 125283069.618 6  97623208.31243  23840581.781                    23840582.613
     -2903.613       -2262.530          41.800          20.900
 110122134.989 8  85809533.62747  20955553.922                    20955559.844
     -1945.727       -1516.086          52.100          42.400
 113163216.081 8  88179178.53546  21534244.875                    21534251.656
      2583.004        2012.860          52.600          38.900
 127159411.937 7  99085288.46543  24197636.820                    24197640.004
      -812.457        -632.801          42.300          21.500
 114940292.818 8  89563890.98346  21872419.297                    21872420.102
      -648.199        -504.890          50.700          37.000
 117650784.797 7  91675985.21545  22388209.023                    22388216.484
     -3079.953       -2399.881          46.200          33.800
 18  2 20  8 45  0.0000000  0  8G05G07G23G09G30G16G02G06
 116835184.469 8  91040437.52646  22233003.148                    22233007.418
      2800.359        2182.157          49.200          37.400
 109577919.133 8  85385445.01846  20851990.086                    20851994.254
       920.758         717.651          51.900          41.300
 125370226.196 7  97691122.47443  23857168.000                    23857167.965
     -2906.723       -2265.039          44.700          21.700
 110180650.080 8  85855129.79347  20966689.125                    20966695.004
     -1955.207       -1523.438          52.700          42.200
 113085932.084 8  88118957.24746  21519538.188                    21519544.824
      2569.320        2002.193          52.100          39.000
 127184089.369 6  99104517.63443  24202332.344                    24202335.645
      -832.676        -648.632          41.600          21.500
 114960013.347 8  89579257.63146  21876171.484                    21876172.863
      -666.418        -519.099          50.200          36.500
 117743347.576 7  91748112.04445  22405823.203                    22405830.371
     -3090.773       -2408.303          46.500          33.800
 18  2 20  8 45 30.0000000  0  8G05G07G23G09G30G16G02G06
 116751301.683 8  90975074.32946  22217040.727                    22217045.398
      2791.844        2175.590          49.600          36.900
 109550557.675 8  85364124.41346  20846783.578                    20846787.324
       903.336         704.136          52.100          41.400
 125457479.346 7  97759111.89943  23873771.117                    23873772.348
     -2910.043       -2267.525          43.700          21.800
 110239446.447 8  85900945.13947  20977877.852                    20977883.789
     -1964.504       -1530.696          53.000          42.700
 113009058.490 8  88059055.75246  21504909.297                    21504915.922
      2555.641        1991.536          52.000          38.600
 127209374.334 6  99124220.20343  24207143.859                    24207147.137
      -853.051        -664.378          39.000          21.100
 114980279.427 8  89595049.35946  21880027.734                    21880029.836
      -684.645        -533.252          49.000          36.800
 117836231.837 7  91820489.36845  22423498.633                    22423505.746
     -3101.430       -2416.603          46.700          34.100
 18  2 20  8 46  0.0000000  0  8G05G07G23G09G30G16G02G06
 116667673.202 8  90909909.28846  22201126.531                    22201131.375
      2783.371        2168.917          48.500          36.400
 109523718.026 8  85343210.41246  20841676.359                    20841680.094
       885.984         690.557          51.400          41.600
 125544828.485 7  97827176.11943  23890392.820                    23890394.688
     -2913.141       -2270.001          42.200          22.300
 110298523.216 8  85946978.96747  20989119.750                    20989125.922
     -1973.824       -1537.993          52.900          42.900
 112932597.516 8  87999475.79346  21490359.141                    21490366.332
      2541.910        1980.783          52.900          39.400
 127235266.561 6  99144395.94843  24212071.055                    24212074.734
      -873.062        -680.165          38.500          20.100
 115001090.678 8  89611265.89746  21883988.609                    21883990.805
      -702.781        -547.417          49.000          37.800
 117929434.986 7  91893115.17845  22441234.352                    22441241.918
     -3112.008       -2424.865          45.600          33.900
 18  2 20  8 46 30.0000000  0  8G05G07G23G09G30G16G02G06
 116584300.959 8  90844943.90246  22185261.445                    22185265.613
      2774.789        2162.303          48.800          36.600
 109497400.478 8  85322703.24646  20836668.141                    20836672.223
       868.555         677.030          51.100          40.700
 125632272.472 6  97895314.20143  23907032.023                    23907035.156
     -2916.359       -2272.443          40.800          21.800
 110357879.019 8  85993230.23747  21000415.117                    21000421.012
     -1983.199       -1545.195          52.500          42.700
 112856550.947 8  87940218.75046  21475888.328                    21475895.645
      2527.977        1970.020          51.900          39.500
 127261765.158 6  99165044.21943  24217113.586                    24217117.109
      -893.371        -695.894          39.100          21.100
 115022446.119 8  89627906.47746  21888052.789                    21888054.211
      -720.906        -561.501          50.300          37.500
 118022953.969 7  91965987.09945  22459030.852                    22459038.434
     -3122.594       -2433.011          47.000          34.100
 18  2 20  8 47  0.0000000  0  8G05G07G23G09G30G16G02G06
 116501186.956 8  90780179.74745  22169445.305                    22169449.570
      2766.145        2155.556          48.100          35.900
 109471605.680 8  85302603.41047  20831759.430                    20831763.379
       851.109         663.440          51.400          42.000
 125719810.498 7  97963525.58743  23923691.273                    23923693.543
     -2919.457       -2274.879          43.000          21.800
 110417513.041 8  86039698.30347  21011762.852                    21011768.660
     -1992.453       -1552.421          53.000          42.600
 112780921.051 8  87881286.39446  21461496.438                    21461503.355
      2514.098        1959.177          51.900          39.300
 127288869.551 6  99186164.51643  24222271.633                    24222275.301
      -913.559        -711.582          37.900          20.400
 115044345.289 8  89644970.74946  21892219.977                    21892221.395
      -738.996        -575.614          51.200          37.200
 118116786.237 7  92039103.14545  22476885.992                    22476893.680
     -3132.895       -2441.104          46.400          33.600
 18  2 20  8 47 30.0000000  0  8G05G07G23G09G30G16G02G06
 116418333.024 8  90715618.25246  22153678.727                    22153682.863
      2757.543        2148.775          48.500          36.500
 109446333.778 8  85282911.03746  20826950.117                    20826954.012
       833.762         649.888          51.200          40.500
 125807441.755 7  98031809.63643  23940367.094                    23940368.801
     -2922.492       -2277.266          42.500          22.200
 110477423.770 8  86086381.96347  21023163.523                    21023169.633
     -2001.492       -1559.530          53.700          42.700
 112705709.417 8  87822679.94746  21447184.430                    21447191.105
      2500.168        1948.330          52.300          40.200
 127316578.520 6  99207755.92443  24227544.773                    24227547.723
      -933.621        -727.250          40.300          21.300
 115066787.105 8  89662457.88246  21896490.086                    21896491.344
      -756.941        -589.670          50.800          36.200
 118210928.584 7  92112460.79745  22494800.727                    22494809.043
     -3142.980       -2449.092          46.100          33.100
 18  2 20  8 48  0.0000000  0  8G05G07G23G09G30G16G02G06
 116335742.783 8  90651262.22146  22137962.602                    22137966.777
      2748.609        2141.871          49.100          36.600
 109421585.726 8  85263626.84746  20822240.891                    20822244.801
       816.340         636.221          51.800          41.400
 125895165.675 6  98100165.90743  23957059.719                    23957062.055
     -2925.711       -2279.739          41.800          21.700
 110537610.371 8  86133280.59747  21034616.648                    21034622.789
     -2010.730       -1566.753          53.600          43.000
 112630918.263 8  87764401.14946  21432951.766                    21432958.492
      2486.039        1937.322          52.200          39.800
 127344891.956 6  99229818.33843  24232932.375                    24232936.164
      -953.797        -742.986          38.900          22.000
 115089771.174 8  89680367.55645  21900863.820                    21900864.750
      -775.121        -603.793          50.400          35.400
 118305378.483 7  92186058.09245  22512774.016                    22512782.457
     -3153.324       -2457.082          45.400          33.600
 18  2 20  8 48 30.0000000  0  8G05G07G23G09G30G16G02G06
 116253417.038 8  90587112.28846  22122296.570                    22122300.613
      2739.805        2134.957          49.200          36.400
 109397361.431 8  85244750.79046  20817631.125                    20817635.164
       798.746         622.598          51.500          41.300
 125982981.393 6  98168593.68143  23973771.070                    23973773.211
     -2928.609       -2282.077          40.400          22.000
 110598071.409 9  86180393.08947  21046122.141                    21046128.273
     -2019.949       -1573.891          54.500          43.700
 112556549.241 8  87706451.27546  21418800.117                    21418806.457
      2471.918        1926.318          51.700          39.000
 127373808.668 6  99252350.82843  24238435.148                    24238439.371
      -974.012        -758.683          38.700          22.500
 115113296.444 8  89698698.92945  21905340.570                    21905341.996
      -793.121        -617.862          49.800          35.900
 118400132.754 7  92259892.55545  22530805.258                    22530813.152
     -3163.402       -2464.966          45.100          33.800
 18  2 20  8 49  0.0000000  0  8G05G07G23G09G30G16G02G06
 116171358.198 8  90523170.32846  22106681.430                    22106685.504
      2730.867        2128.024          48.600          36.900
 109373661.804 8  85226283.56046  20813121.094                    20813125.090
       781.277         608.984          50.200          41.600
 126070887.779 6  98237092.09543  23990499.094                    23990501.348
     -2931.754       -2284.419          41.400          21.300
 110658806.032 9  86227718.76547  21057679.563                    21057685.633
     -2029.020       -1580.959          54.100          43.300
 112482604.552 8  87648832.05446  21404728.758                    21404735.684
      2457.738        1915.287          52.000          39.600
 127403327.620 6  99275352.58843  24244051.758                    24244056.535
      -993.996        -774.297          39.900          21.100
 115137361.833 8  89717451.16646  21909920.219                    21909921.758
      -811.133        -631.858          49.900          37.100
 118495188.783 7  92333962.16445  22548894.086                    22548901.789
     -3173.551       -2472.759          45.500          32.700
 18  2 20  8 49 30.0000000  0  8G05G07G23G09G30G16G02G06
 116089567.488 8  90459437.33246  22091117.094                    22091121.020
      2722.098        2121.071          50.000          36.600
 109350486.498 8  85208224.88646  20808710.898                    20808715.227
       763.902         595.386          51.900          40.600
 126158884.046 7  98305660.56843  24007244.508                    24007246.859
     -2934.465       -2286.737          42.200          22.300
 110719812.794 8  86275256.50147  21069288.656                    21069294.621
     -2037.930       -1587.990          53.700          42.500
 112409085.782 8  87591544.74346  21390738.586                    21390745.813
      2443.684        1904.237          52.400          40.000
 127433447.810 6  99298822.88143  24249783.539                    24249788.090
     -1013.711        -789.855          40.600          20.900
 115161966.218 8  89736623.37446  21914602.367                    21914604.348
      -828.965        -645.825          50.300          37.900
 118590543.419 7  92408264.45045  22567039.281                    22567047.535
     -3183.363       -2480.459          45.600          32.800
 18  2 20  8 50  0.0000000  0  8G05G07G23G09G30G16G02G06
 116008047.431 8  90395915.21345  22075604.086                    22075608.434
      2712.836        2113.999          50.500          35.900
 109327836.252 8  85190575.35246  20804400.930                    20804405.055
       746.359         581.740          52.300          40.900
 126246969.803 7  98374298.80743  24024006.305                    24024008.926
     -2937.574       -2289.043          42.000          22.000
 110781090.685 8  86323005.50647  21080949.219                    21080955.043
     -2046.984       -1595.014          53.900          42.600
 112335994.902 8  87534590.84546  21376829.977                    21376836.883
      2429.320        1893.087          52.900          40.500
 127464168.499 6  99322761.06143  24255629.031                    24255634.109
     -1033.969        -805.472          39.600          21.800
 115187108.773 8  89756214.95546  21919386.727                    21919388.570
      -846.937        -659.791          49.800          38.200
 118686193.875 7  92482797.24145  22585240.984                    22585249.191
     -3193.082       -2488.088          44.500          32.300
 18  2 20  8 50 30.0000000  0  8G05G07G23G09G30G16G02G06
 115926799.657 8  90332605.26146  22060143.188                    22060147.664
      2703.723        2106.900          51.200          36.300
 109305711.320 8  85173335.15146  20800190.547                    20800194.688
       728.746         568.071          52.200          41.700
 126335143.951 7  98443005.86643  24040785.281                    24040787.578
     -2940.453       -2291.335          42.500          21.700
 110842638.491 8  86370964.82247  21092661.109                    21092667.063
     -2055.965       -1602.008          53.500          42.100
 112263333.732 8  87477971.78846  21363002.594                    21363009.598
      2414.965        1881.901          52.300          40.500
 127495488.254 6  99347166.04743  24261589.648                    24261594.492
     -1053.906        -820.999          41.000          22.600
 115212788.773 8  89776225.33146  21924273.047                    21924274.961
      -864.910        -673.752          49.300          36.100
 118782137.239 7  92557558.27345  22603498.141                    22603506.500
     -3202.914       -2495.698          44.900          33.300
 18  2 20  8 51  0.0000000  0  8G05G07G23G09G30G16G02G06
 115845827.382 8  90269509.99345  22044734.680                    22044738.523
      2694.496        2099.709          51.100          35.900
 109284111.863 8  85156504.41146  20796080.305                    20796084.301
       711.195         554.433          52.700          41.400
 126423405.778 7  98511781.23543  24057581.477                    24057583.688
     -2943.512       -2293.585          42.600          22.500
 110904455.098 8  86419133.59547  21104425.000                    21104430.813
     -2064.996       -1608.970          53.700          42.500
 112191104.157 8  87421689.02846  21349257.875                    21349264.055
      2400.422        1870.668          52.500          40.100
 127527406.663 6  99372037.55644  24267662.992                    24267667.738
     -1073.816        -836.554          40.800          24.300
 115239005.108 8  89796653.64745  21929261.727                    21929263.922
      -882.801        -687.666          49.400          35.700
 118878370.553 7  92632545.25045  22621810.789                    22621818.961
     -3212.621       -2503.181          44.400          32.500
 18  2 20  8 51 30.0000000  0  8G05G07G23G09G30G16G02G06
 115765132.102 8  90206630.56145  22029378.891                    22029383.430
      2685.258        2092.527          51.300          35.800
 109263038.364 8  85140083.50846  20792070.164                    20792074.242
       693.762         540.793          51.500          41.200
 126511754.363 7  98580624.20643  24074393.047                    24074395.824
     -2946.352       -2295.817          42.500          22.200
 110966539.323 8  86467510.90547  21116239.570                    21116245.172
     -2073.832       -1615.896          53.900          43.000
 112119307.963 8  87365743.96246  21335595.602                    21335602.250
      2386.070        1859.414          52.700          39.600
 127559922.260 6  99397374.38444  24273850.758                    24273855.406
     -1093.789        -852.024          39.800          24.100
 115265756.742 8  89817499.07345  21934352.633                    21934354.523
      -900.590        -701.517          48.500          35.900
 118974890.956 7  92707755.90845  22640178.438                    22640186.621
     -3222.020       -2510.572          44.200          32.400
 18  2 20  8 52  0.0000000  0  8G05G07G23G09G30G16G02G06
 115684715.553 8  90143968.31546  22014076.047                    22014080.164
      2676.039        2085.228          50.900          36.700
 109242491.048 8  85124072.61446  20788160.398                    20788164.105
       676.254         527.093          51.400          40.900
 126600189.130 6  98649534.34843  24091221.914                    24091225.141
     -2949.250       -2298.111          41.600          20.900
 111028890.062 8  86516095.89547  21128104.531                    21128110.484
     -2082.562       -1622.816          53.700          42.600
 112047947.054 8  87310138.08746  21322016.070                    21322022.648
      2371.609        1848.052          52.300          40.000
 127593034.620 6  99423176.21243  24280151.695                    24280156.320
     -1113.375        -867.482          39.400          22.600
 115293042.895 8  89838761.00746  21939545.008                    21939546.848
      -918.297        -715.431          49.300          36.000
 119071695.562 7  92783188.04645  22658599.266                    22658607.305
     -3231.402       -2517.948          45.400          32.100
 18  2 20  8 52 30.0000000  0  8G05G07G23G09G30G16G02G06
 115604580.303 8  90081525.26546  21998827.258                    21998830.625
      2666.574        2077.893          52.500          36.300
 109222470.431 8  85108472.14046  20784350.156                    20784354.344
       658.625         513.411          51.500          41.300
 126688709.440 7  98718511.16243  24108066.859                    24108069.664
     -2951.898       -2300.283          43.300          22.500
 111091506.326 9  86564887.78047  21140019.977                    21140026.215
     -2091.559       -1629.704          54.400          42.700
 111977023.288 8  87254872.83646  21308519.656                    21308526.477
      2356.918        1836.695          53.200          41.100
 127626741.865 6  99449441.59443  24286565.422                    24286570.672
     -1133.426        -882.967          39.200          21.800
 115320862.771 8  89860438.81146  21944839.305                    21944841.141
      -936.137        -729.271          49.100          37.000
 119168781.525 7  92858839.40045  22677074.086                    22677082.547
     -3240.816       -2525.224          44.500          32.300
 18  2 20  8 53  0.0000000  0  8G05G07G23G09G30G16G02G06
 115524727.621 8  90019302.38946  21983631.547                    21983635.453
      2657.074        2070.521          51.400          36.900
 109202976.395 8  85093281.98246  20780640.750                    20780644.805
       641.090         499.714          51.300          41.100
 126777313.985 7  98787553.61243  24124927.648                    24124931.238
     -2954.848       -2302.491          43.300          23.600
 111154386.844 8  86613885.57147  21151985.430                    21151991.750
     -2100.344       -1636.562          53.700          42.800
 111906538.417 8  87199949.57946  21295106.922                    21295113.980
      2342.160        1825.240          53.100          40.900
 127661043.451 6  99476170.06843  24293093.539                    24293098.660
     -1153.293        -898.380          38.000          22.300
 115349214.661 8  89882531.17746  21950234.539                    21950236.289
      -953.871        -743.087          49.300          36.800
 119266145.864 7  92934707.67345  22695602.672                    22695610.703
     -3250.012       -2532.429          44.700          32.500
 18  2 20  8 53 30.0000000  0  8G05G07G23G09G30G16G02G06
 115445160.014 8  89957301.65246  21968490.578                    21968494.277
      2647.535        2063.118          51.900          36.700
 109184009.287 8  85078502.42246  20777031.563                    20777035.582
       623.434         486.053          50.900          41.200
 126866002.312 7  98856661.32444  24141804.961                    24141807.672
     -2957.609       -2304.589          43.400          26.400
 111217530.538 8  86663088.43747  21164001.336                    21164007.063
     -2109.090       -1643.368          53.300          42.200
 111836494.263 8  87145369.75446  21281778.023                    21281785.141
      2327.434        1813.804          52.900          41.700
 127695938.505 6  99503361.02143  24299733.695                    24299738.789
     -1173.016        -913.760          36.900          21.100
 115378097.897 8  89905037.58346  21955730.672                    21955732.285
      -971.570        -756.845          48.800          36.900
 119363785.676 7  93010790.60145  22714182.875                    22714190.453
     -3259.094       -2539.510          45.800          33.100
 18  2 20  8 54  0.0000000  0  8G05G07G23G09G30G16G02G06
 115365879.568 8  89895524.68746  21953403.922                    21953407.711
      2637.910        2055.574          52.500          36.700
 109165569.041 8  85064133.39646  20773522.586                    20773526.496
       605.852         472.325          52.100          41.400
 126954773.536 7  98925833.64643  24158697.141                    24158700.914
     -2960.422       -2306.807          44.300          22.600
 111280936.048 8  86712495.31247  21176067.000                    21176072.965
     -2117.891       -1650.204          52.900          42.200
 111766892.343 8  87091134.51546  21268533.219                    21268540.242
      2312.590        1802.247          53.900          41.600
 127731425.505 6  99531013.21243  24306487.023                    24306491.219
     -1192.570        -929.163          36.100          20.900
 115407510.991 7  89927956.88246  21961327.531                    21961329.297
      -989.367        -770.663          47.800          36.000
 119461697.844 7  93087085.77145  22732814.891                    22732822.629
     -3268.305       -2546.608          44.300          32.400
 18  2 20  8 54 30.0000000  0  8G05G07G23G09G30G16G02G06
 115286888.030 8  89833972.83546  21938372.539                    21938376.184
      2628.215        2048.068          52.200          36.300
 109147655.948 8  85050175.13846  20770113.711                    20770117.664
       588.328         458.651          51.600          41.800
 127043626.850 7  98995069.94943  24175604.938                    24175608.285
     -2963.082       -2308.888          42.300          20.900
 111344602.344 8  86762105.38947  21188182.227                    21188187.977
     -2126.531       -1656.940          52.700          42.100
 111697734.522 8  87037245.31646  21255372.953                    21255379.563
      2297.855        1790.713          53.400          40.600
 127767502.822 6  99559125.41143  24313352.742                    24313356.715
     -1212.469        -944.480          36.700          20.900
 115437453.175 7  89951288.44845  21967025.609                    21967027.047
     -1006.941        -784.349          46.900          35.800
 119559879.525 7  93163590.93345  22751498.094                    22751505.766
     -3277.211       -2553.534          45.000          31.500
 18  2 20  8 55  0.0000000  0  8G05G07G23G09G30G16G02G06
 115208187.970 8  89772648.09245  21923396.563                    21923399.910
      2618.434        2040.485          51.700          35.900
 109130270.255 8  85036627.86046  20766805.484                    20766809.188
       570.754         444.940          50.200          41.400
 127132561.432 7  99064369.57143  24192528.844                    24192531.707
     -2965.848       -2311.021          42.000          21.800
 111408528.391 8  86811917.88346  21200347.047                    21200352.781
     -2135.164       -1663.670          52.300          41.600
 111629022.638 8  86983703.58946  21242297.750                    21242303.945
      2283.004        1779.115          53.800          40.500
 127804169.997 6  99587697.22043  24320330.328                    24320333.883
     -1232.004        -959.798          38.100          19.000
 115467923.163 7  89975031.29345  21972823.969                    21972825.500
     -1024.480        -798.041          47.000          35.500
 119658327.890 7  93240303.90745  22770232.320                    22770239.980
     -3285.980       -2560.426          44.600          31.900
 18  2 20  8 55 30.0000000  0  8G05G07G23G09G30G16G02G06
 115129780.530 8  89711551.38846  21908475.766                    21908479.762
      2608.652        2032.876          50.900          36.500
 109113411.942 8  85023491.52046  20763597.148                    20763601.305
       553.074         431.241          50.800          41.100
 127221576.555 7  99133731.92244  24209469.289                    24209471.582
     -2968.512       -2313.062          42.700          24.000
 111472712.750 8  86861931.66246  21212561.070                    21212566.703
     -2143.852       -1670.374          51.800          41.900
 111560758.168 8  86930510.49846  21229307.211                    21229313.691
      2268.004        1767.481          53.400          41.400
 127841424.990 6  99616727.08243  24327419.898                    24327422.273
     -1251.578        -975.016          38.200          19.000
 115498919.508 7  89999184.28445  21978722.398                    21978723.824
     -1041.953        -811.694          46.900          35.500
 119757039.699 7  93317222.16945  22789016.477                    22789023.992
     -3294.742       -2567.238          46.000          31.400
 18  2 20  8 56  0.0000000  0  8G05G07G23G09G30G16G02G06
 115051668.592 8  89650684.95746  21893611.453                    21893615.883
      2598.926        2025.159          51.200          37.200
 109097081.726 8  85010766.67846  20760489.766                    20760493.906
       535.664         417.547          51.300          41.100
 127310671.569 6  99203156.54944  24226423.000                    24226426.297
     -2970.992       -2315.159          41.800          24.600
 111537154.689 8  86912146.14647  21224823.969                    21224829.719
     -2152.242       -1677.019          53.800          42.100
 111492943.139 9  86877667.63146  21216402.484                    21216409.438
      2253.070        1755.783          54.100          41.700
 127879267.372 6  99646214.67143  24334620.594                    24334624.328
     -1270.996        -990.256          39.500          19.000
 115530441.109 8  90023746.55146  21984720.453                    21984722.262
     -1059.297        -825.326          48.800          36.600
 119856012.351 7  93394343.68645  22807850.336                    22807858.227
     -3303.246       -2573.945          45.400          31.900
 18  2 20  8 56 30.0000000  0  8G05G07G23G09G30G16G02G06
 114973854.045 8  89590050.23846  21878803.727                    21878807.531
      2588.855        2017.421          51.100          36.700
 109081278.850 8  84998452.74746  20757482.516                    20757486.617
       518.008         403.856          50.500          41.100
 127399845.576 7  99272642.69843  24243391.305                    24243395.152
     -2973.723       -2317.156          42.400          22.300
 111601852.824 8  86962560.26747  21237135.820                    21237141.480
     -2160.859       -1683.663          52.800          42.100
 111425579.072 9  86825176.16646  21203583.273                    21203590.051
      2237.941        1744.053          54.200          41.300
 127917695.693 6  99676158.83143  24341933.148                    24341935.402
     -1290.750       -1005.450          40.900          18.300
 115562486.830 7  90048717.22745  21990818.836                    21990820.199
     -1076.941        -838.915          47.500          35.900
 119955242.788 7  93471666.05245  22826733.430                    22826741.219
     -3311.934       -2580.588          45.400          32.300
 18  2 20  8 57  0.0000000  0  8G05G07G23G09G30G16G02G06
 114896339.026 8  89529648.91646  21864053.188                    21864056.477
      2578.891        2009.574          51.200          36.900
 109066003.978 8  84986550.25246  20754575.820                    20754580.121
       500.461         390.099          50.500          41.100
 127489097.896 6  99342189.84443  24260375.367                    24260379.719
     -2976.316       -2319.242          41.700          22.000
 111666806.305 8  87013173.35446  21249495.578                    21249501.801
     -2169.285       -1690.319          52.500          41.700
 111358667.844 8  86773037.55846  21190850.758                    21190857.770
      2222.910        1732.241          53.800          41.600
 127956708.649 6  99706558.57543  24349356.984                    24349359.957
     -1310.008       -1020.688          39.700          19.600
 115595056.116 7  90074095.87645  21997016.313                    21997018.293
     -1094.367        -852.536          47.200          35.900
 120054728.081 7  93549187.01445  22845664.742                    22845672.613
     -3320.309       -2587.229          44.900          31.300
 18  2 20  8 57 30.0000000  0  8G05G07G23G09G30G16G02G06
 114819125.751 8  89469482.71246  21849359.977                    21849364.223
      2568.797        2001.741          50.900          37.600
 109051256.919 8  84975059.04446  20751769.688                    20751773.602
       482.813         376.427          50.500          41.400
 127578427.704 7  99411797.39343  24277374.938                    24277378.023
     -2978.977       -2321.195          42.500          20.400
 111732013.719 8  87063984.32146  21261903.922                    21261910.063
     -2177.785       -1696.883          52.700          41.600
 111292210.891 8  86721252.93946  21178204.516                    21178211.258
      2207.715        1720.445          53.900          41.900
 127996304.473 6  99737412.45743  24356891.531                    24356894.898
     -1329.387       -1035.727          41.700          19.900
 115628146.910 7  90099880.87745  22003313.383                    22003315.074
     -1111.687        -866.030          47.500          35.700
 120154465.187 7  93626904.20545  22864643.977                    22864651.781
     -3328.723       -2593.722          45.600          31.200
 18  2 20  8 58  0.0000000  0  8G05G07G23G09G30G16G02G06
 114742216.035 8  89409553.07546  21834724.484                    21834728.789
      2558.469        1993.817          50.900          37.800
 109037037.792 8  84963979.20946  20749063.695                    20749067.941
       465.086         362.689          50.500          41.100
 127667834.492 7  99481464.98843  24294388.563                    24294390.922
     -2981.516       -2323.208          43.500          20.900
 111797474.162 8  87114992.44246  21274360.719                    21274366.688
     -2186.230       -1703.439          52.700          41.600
 111226210.076 8  86669823.74946  21165644.773                    21165651.445
      2192.406        1708.562          53.900          41.700
 128036482.329 6  99768719.88743  24364537.391                    24364540.715
     -1348.926       -1050.869          41.100          19.900
 115661758.140 7  90126071.43445  22009709.492                    22009711.117
     -1129.055        -879.557          47.000          35.500
 120254451.250 7  93704815.36145  22883671.094                    22883678.957
     -3336.930       -2600.138          45.000          30.800
 18  2 20  8 58 30.0000000  0  8G05G07G23G09G30G16G02G06
 114665612.181 8  89349861.76046  21820147.180                    21820151.391
      2548.387        1985.852          51.100          37.100
 109023346.449 8  84953310.63846  20746458.141                    20746462.727
       447.633         348.989          51.700          41.300
 127757317.204 7  99551191.71944  24311416.750                    24311420.750
     -2983.953       -2325.160          42.200          25.100
 111863186.381 8  87166196.75146  21286865.352                    21286871.188
     -2194.543       -1709.958          53.200          41.600
 111160666.891 8  86618751.14846  21153172.297                    21153178.941
      2177.156        1696.657          53.900          41.800
 128077240.869 6  99800479.75643  24372293.445                    24372297.238
     -1368.176       -1065.951          38.900          19.600
 115695888.498 8  90152666.51246  22016204.625                    22016206.109
     -1146.238        -893.008          48.100          36.000
 120354683.253 7  93782918.17545  22902744.570                    22902753.008
     -3345.047       -2606.510          45.000          32.100
 18  2 20  8 59  0.0000000  0  8G05G07G23G09G30G16G02G06
 114589316.078 8  89290410.25446  21805628.664                    21805632.254
      2538.066        1977.828          51.100          37.800
 109010183.236 8  84943053.59846  20743953.469                    20743957.629
       429.961         335.257          51.300          41.300
 127846875.309 6  99620977.14044  24328458.602                    24328463.121
     -2986.598       -2327.133          40.800          24.100
 111929149.391 8  87217596.49246  21299417.984                    21299423.527
     -2202.988       -1716.476          53.500          41.600
 111095583.134 8  86568036.54047  21140787.273                    21140793.371
      2161.746        1684.691          53.800          42.100
 128118578.339 6  99832690.73043  24380159.313                    24380163.871
     -1387.527       -1080.985          39.300          20.400
 115730536.889 8  90179665.25145  22022797.703                    22022799.637
     -1163.605        -906.455          48.800          35.900
 120455158.348 7  93861210.41645  22921864.555                    22921872.809
     -3353.180       -2612.771          45.100          32.100
 18  2 20  8 59 30.0000000  0  8G05G07G23G09G30G16G02G06
 114513329.474 8  89231199.90746  21791168.914                    21791172.535
      2527.727        1969.756          51.900          37.500
 108997547.818 8  84933207.82046  20741548.859                    20741553.547
       412.461         321.558          51.900          41.400
 127936507.683 6  99690820.38043  24345515.984                    24345519.285
     -2988.801       -2329.031          40.100          21.800
 111995361.848 8  87269190.59546  21312018.031                    21312023.848
     -2211.152       -1722.926          52.900          40.700
 111030960.140 9  86517680.96547  21128489.930                    21128496.297
      2146.434        1672.693          54.300          42.100
 128160493.532 6  99865351.87743  24388135.523                    24388140.535
     -1406.777       -1095.924          37.000          19.300
 115765701.619 8  90207066.33546  22029489.305                    22029491.500
     -1180.711        -919.849          48.400          36.200
 120555873.346 7  93939689.59045  22941029.836                    22941038.113
     -3361.117       -2618.958          46.000          31.900
                            4  1
RINEX FILE SPLICE; other post-header comments skipped       COMMENT
 18  2 20  9  0  0.0000000  0  8G05G07G23G09G30G16G02G06
 114437654.969 8  89172232.75446  21776768.758                    21776772.695
      2517.285                          52.300          38.800
 108985440.655 8  84923773.67046  20739245.000                    20739249.137
       394.777                          50.800          41.100
 128026214.127 7  99760721.40443  24362586.203                    24362589.559
     -2991.391                          42.000          20.900
 112061823.006 8  87320978.50046  21324664.797                    21324671.004
     -2219.473                          53.000          41.800
 110966799.896 9  86467685.96847  21116281.016                    21116287.059
      2130.938                          54.500          42.000
 128202985.338 6  99898462.33043  24396221.586                    24396226.555
     -1426.004                          37.500          21.100
 115801381.710 8  90234868.96046  22036278.570                    22036280.434
     -1197.855                          48.700          36.000
 120656825.640 7  94018353.68345  22960240.398                    22960248.262
     -3369.004                          46.500          31.300
 18  2 20  9  0 30.0000000  0  8G05G07G23G09G30G16G02G06
 114362294.039 8  89113509.96146  21762427.859                    21762432.098
      2506.609        1953.474          52.000          38.300
 108973861.200 8  84914750.73146  20737041.422                    20737045.934
       377.078         294.148          51.600          41.300
 128115993.395 7  99830679.22443  24379671.594                    24379673.344
     -2993.953       -2332.836          42.100          21.500
 112128531.433 8  87372959.08346  21337359.133                    21337365.133
     -2227.820       -1735.770          53.600          41.000
 110903103.680 8  86418052.56246  21104159.828                    21104166.098
      2115.328        1648.634          53.400          41.400
 128246052.322 6  99932020.96843  24404417.352                    24404421.828
     -1445.215       -1125.804          37.700          21.100
 115837575.445 8  90263071.81346  22043166.492                    22043168.711
     -1215.105        -946.518          48.100          36.300
 120758011.950 7  94097200.12545  22979495.727                    22979504.070
     -3376.922       -2631.126          45.000          31.900
 18  2 20  9  1  0.0000000  0  8G05G07G23G09G30G16G02G06
 114287249.445 8  89055033.67046  21748147.016                    21748151.348
      2496.090        1945.223          51.700          38.300
 108962809.450 8  84906138.97446  20734938.477                    20734942.832
       359.555         280.434          51.500          41.100
 128205845.057 6  99900693.45143  24396769.969                    24396772.047
     -2996.367       -2334.716          41.200          21.800
 112195486.185 8  87425131.60547  21350100.086                    21350106.039
     -2235.996       -1742.188          52.500          42.100
 110839873.197 8  86368782.08147  21092127.328                    21092134.184
      2099.777        1636.485          53.700          42.000
 128289692.252 6  99966026.07543  24412722.070                    24412726.953
     -1464.258       -1140.683          38.700          21.800
 115874281.769 8  90291674.12246  22050151.984                    22050153.504
     -1232.125        -959.848          49.500          36.600
 120859429.434 7  94176226.69145  22998794.922                    22998802.910
     -3384.363       -2637.111          46.300          31.900
 18  2 20  9  1 30.0000000  0  8G05G07G23G09G30G16G02G06
 114212523.018 8  88996805.28346  21733927.094                    21733931.340
      2485.309        1936.917          52.700          38.700
 108952285.170 8  84897938.24146  20732935.828                    20732940.086
       341.820         266.727          53.200          41.400
 128295768.315 6  99970763.37143  24413881.336                    24413884.688
     -2998.645       -2336.539          40.200          22.000
 112262685.992 8  87477495.07946  21362887.703                    21362894.301
     -2244.215       -1748.528          53.200          41.300
 110777109.848 8  86319875.59547  21080183.734                    21080190.492
      2084.164        1624.328          53.300          42.100
 128333903.887 6 100000476.67143  24421135.773                    24421139.723
     -1483.430       -1155.550          40.000          22.300
 115911498.804 8  90320674.43446  22057234.023                    22057235.125
     -1249.211        -973.099          49.900          36.000
 120961074.977 7  94255430.96945  23018137.438                    23018145.555
     -3392.074       -2642.981          45.600          31.600
 18  2 20  9  2  0.0000000  0  8G05G07G23G09G30G16G02G06
 114138116.235 8  88938825.97946  21719767.930                    21719772.242
      2474.902        1928.620          52.100          38.400
 108942288.448 8  84890148.59046  20731033.492                    20731037.375
       324.434         253.029          52.700          41.200
 128385762.281 6 100040888.42443  24431006.430                    24431010.188
     -3001.012       -2338.375          40.100          22.200
 112330129.691 8  87530048.59646  21375721.797                    21375728.031
     -2252.180       -1754.849          52.800          41.100
 110714815.116 8  86271334.26047  21068329.586                    21068336.137
      2068.699        1612.150          53.800          42.000
 128378685.807 6 100035371.63043  24429657.531                    24429660.945
     -1502.250       -1170.317          40.400          20.100
 115949225.281 8  90350071.71245  22064412.680                    22064414.176
     -1266.020        -986.297          49.500          35.900
 121062945.585 7  94334810.61145  23037522.625                    23037530.852
     -3399.430       -2648.792          45.800          32.300
 18  2 20  9  2 30.0000000  0  8G05G07G23G09G30G16G02G06
 114064031.982 8  88881098.00146  21705670.219                    21705674.477
      2464.074        1920.174          51.900          38.400
 108932819.819 8  84882770.44746  20729231.664                    20729235.727
       306.840         239.278          52.500          41.800
 128475826.667 6 100111068.39243  24448145.336                    24448148.238
     -3003.312       -2340.203          41.100          22.000
 112397816.634 8  87582791.65446  21388602.352                    21388608.508
     -2260.266       -1761.159          52.700          40.800
 110652991.013 8  86223159.65347  21056564.625                    21056571.461
      2052.992        1599.881          53.300          42.000
 128424037.024 6 100070710.25843  24438287.500                    24438290.977
     -1521.180       -1185.124          41.800          20.900
 115987460.116 7  90379865.11045  22071688.211                    22071690.063
     -1282.930        -999.520          47.900          35.200
 121165038.705 7  94414363.65545  23056950.234                    23056958.758
     -3406.777       -2654.566          46.700          31.600
 18  2 20  9  3  0.0000000  0  9G05G13G07G23G09G30G16G02G06
 113990271.816 8  88823622.56546  21691633.922                    21691638.203
      2453.180        1911.734          51.600          38.600
 129665065.492 6                  24674447.398
      3309.730                          41.900
 108923878.066 8  84875802.84846  20727530.086                    20727534.199
       289.234         225.623          53.200          41.800
 128565960.227 6 100181302.30243  24465296.852                    24465300.066
     -3005.637       -2342.005          41.100          22.000
 112465745.376 8  87635723.13146  21401528.922                    21401534.762
     -2268.355       -1767.421          52.200          41.400
 110591638.657 8  86175352.63246  21044889.797                    21044895.898
      2037.133        1587.613          53.900          41.300
 128469955.323 6 100106490.72743  24447025.352                    24447028.824
     -1540.109       -1199.820          41.600          19.600
 116026201.548 8  90410053.23645  22079060.555                    22079062.621
     -1299.797       -1012.645          48.200          35.000
 121267350.973 7  94494087.47145  23076419.789                    23076427.637
     -3414.160       -2660.202          45.300          31.000
 18  2 20  9  3 30.0000000  0  9G05G13G07G23G09G30G16G02G06
 113916838.396 8  88766401.72846  21677660.070                    21677664.262
      2442.234        1903.258          51.800          38.200
 129565814.198 6                  24655560.289
      3306.840                          41.400
 108915463.642 8  84869246.15546  20725928.922                    20725933.258
       271.613         211.946          52.900          41.700
 128656163.035 6 100251590.11543  24482462.352                    24482465.707
     -3007.910       -2343.777          41.900          22.000
 112533915.069 8  87688842.35246  21414501.180                    21414507.289
     -2276.434       -1773.640          52.100          41.100
 110530759.795 9  86127914.55546  21033305.016                    21033310.707
      2021.379        1575.329          54.400          41.600
 128516439.289 6 100142711.98842  24455871.000                    24455874.324
     -1558.898       -1214.467          41.200          16.300
 116065448.292 8  90440635.10946  22086529.063                    22086531.520
     -1316.668       -1025.721          48.400          36.100
 121369879.714 7  94573979.96245  23095930.594                    23095938.094
     -3421.258       -2665.761          46.500          31.400
 18  2 20  9  4  0.0000000  0  9G05G13G07G23G09G30G16G02G06
 113843733.514 8  88709436.89946  21663748.961                    21663752.789
      2431.477        1894.656          52.100          38.100
 129466646.827 6                  24636689.758
      3304.242                          40.900
 108907576.369 8  84863100.22446  20724428.188                    20724432.105
       254.242         198.233          52.900          41.500
 128746433.700 7 100321930.77443  24499640.594                    24499644.352
     -3009.961       -2345.552          42.000          22.900
 112602324.470 8  87742148.36746  21427518.875                    21427524.809
     -2284.219       -1779.866          51.500          41.000
 110470355.801 8  86080846.51747  21021810.633                    21021817.094
      2005.637        1562.948          53.500          42.200
 128563487.147 6 100179372.72942  24464823.172                    24464826.844
     -1577.508       -1229.095          40.500          16.900
 116105198.671 8  90471609.42346  22094093.477                    22094095.426
     -1333.258       -1038.794          48.100          36.300
 121472621.776 7  94654038.67045  23115482.109                    23115489.723
     -3428.066       -2671.284          45.100          31.100
 18  2 20  9  4 30.0000000  0  9G05G13G07G23G09G30G16G02G06
 113770959.384 8  88652729.78446  21649900.422                    21649904.246
      2420.281        1886.112          52.100          38.600
 129367564.847 6                  24617834.773
      3301.379                          40.500
 108900215.901 8  84857364.79846  20723027.500                    20723031.438
       236.629         184.601          53.100          41.400
 128836771.463 7 100392323.73643  24516832.141                    24516834.430
     -3012.406       -2347.215          43.200          22.200
 112670972.398 8  87795640.24946  21440582.469                    21440588.273
     -2292.199       -1786.003          50.200          40.900
 110410428.018 8  86034149.56247  21010406.648                    21010413.250
      1989.680        1550.612          53.000          42.600
 128611097.866 6 100216471.99342  24473883.086                    24473886.895
     -1596.457       -1243.686          37.200          14.800
 116145450.979 7  90502974.86246  22101753.414                    22101754.641
     -1350.016       -1051.749          46.500          36.200
 121575574.126 7  94734261.23445  23135072.578                    23135080.488
     -3435.160       -2676.666          44.800          30.500
 18  2 20  9  5  0.0000000  0  9G05G13G07G23G09G30G16G02G06
 113698517.416 8  88596281.50246  21636115.313                    21636119.398
      2409.137        1877.469          52.400          38.800
 129268568.749 6                  24598996.086
      3298.492                          40.200
 108893381.816 8  84852039.53346  20721726.961                    20721731.020
       219.082         170.951          53.400          41.800
 128927175.673 6 100462768.54043  24534033.875                    24534038.047
     -3014.531       -2348.937          40.200          19.000
 112739857.677 8  87849317.07646  21453690.594                    21453696.504
     -2300.062       -1792.149          50.500          40.300
 110350977.829 8  85987824.76247  20999093.531                    20999100.242
      1973.695        1538.184          53.900          42.000
 128659269.197 5                  24483047.656
     -1615.016                          33.600
 116186203.590 7  90534730.13545  22109508.109                    22109509.492
     -1366.621       -1064.734          47.000          35.300
 121678733.706 7  94814645.27544  23154703.563                    23154711.152
     -3442.086       -2682.011          45.100          29.400
 18  2 20  9  5 30.0000000  0  9G05G13G07G23G09G30G16G02G06
 113626410.302 8  88540094.15146  21622393.781                    21622397.777
      2397.941        1868.672          52.200          39.000
 129169659.303 6                  24580174.969
      3295.492                          41.400
 108887073.947 8  84847124.31646  20720526.500                    20720530.223
       201.422         157.225          53.300          41.400
 129017645.890 6 100533264.75842  24551250.828                    24551253.742
     -3016.723       -2350.707          37.900          17.800
 112808979.353 8  87903178.11146  21466844.055                    21466850.383
     -2308.012       -1798.337          51.600          40.500
 110292006.809 8  85941873.32647  20987871.484                    20987878.301
      1957.676        1525.688          53.700          42.400
 128707999.329 5 100291979.51642  24492322.328                    24492327.309
     -1633.465       -1272.729          33.900          15.600
 116227455.231 7  90566874.28245  22117357.938                    22117358.996
     -1383.398       -1077.727          47.000          34.500
 121782097.594 7  94895188.53044  23174373.109                    23174381.039
     -3448.883       -2687.328          43.900          29.900
 18  2 20  9  6  0.0000000  0  9G05G13G07G23G09G30G16G02G06
 113554639.876 8  88484169.15246  21608736.328                    21608740.066
      2386.664        1859.937          51.300          38.700
 129070837.317 6                  24561369.242
      3292.488                          40.600
 108881292.360 8  84842619.18846  20719426.289                    20719430.059
       183.867         143.575          52.900          41.100
 129108181.185 6 100603811.72543  24568478.234                    24568482.102
     -3018.906       -2352.369          38.900          20.400
 112878336.528 8  87957222.65146  21480041.992                    21480048.559
     -2315.914       -1804.424          50.800          40.100
 110233516.473 8  85896296.47447  20976741.406                    20976748.027
      1941.609        1513.193          53.900          42.800
 128757287.122 6 100330385.49843  24501703.070                    24501707.004
     -1652.027       -1287.163          37.400          19.000
 116269204.151 7  90599405.90845  22125302.758                    22125304.039
     -1399.953       -1090.606          47.800          35.600
 121885663.024 7  94975888.81444  23194080.336                    23194088.590
     -3455.594       -2692.519          45.300          29.800
 18  2 20  9  6 30.0000000  0  9G05G13G07G23G09G30G16G02G06
 113483208.687 8  88428508.49946  21595143.336                    21595147.262
      2375.434        1851.069          51.700          39.700
 128972104.121 6 100497763.72743  24542580.836                    24542585.613
      3289.770        2563.377          41.000          20.100
 108876037.332 8  84838524.36846  20718426.688                    20718430.066
       166.523         129.894          53.900          41.500
 129198781.106 6 100674408.99243  24585718.508                    24585723.082
     -3021.070       -2354.026          39.700          22.500
 112947928.223 8  88011449.93146  21493284.977                    21493291.859
     -2323.395       -1810.498          51.000          40.400
 110175508.433 8  85851095.41547  20965703.016                    20965709.375
      1925.691        1500.652          53.900          42.800
 128807130.661 6 100369224.56043  24511188.063                    24511191.887
     -1670.641       -1301.555          40.000          21.100
 116311449.169 8  90632324.08746  22133341.734                    22133343.266
     -1416.281       -1103.481          48.100          36.000
 121989427.148 7  95056743.92045  23213826.078                    23213834.730
     -3461.953       -2697.628          43.900          30.700
 18  2 20  9  7  0.0000000  0  9G05G13G07G23G09G30G16G02G06
 113412118.650 8  88373113.67746  21581615.094                    21581619.387
      2363.980        1842.184          52.900          39.900
 128873459.928 6 100420898.16343  24523809.469                    24523814.340
      3286.641        2561.067          39.500          20.100
 108871307.716 8  84834838.96046  20717526.602                    20717530.281
       148.887         116.248          52.700          41.600
 129289444.821 6 100745055.92943  24602972.313                    24602975.957
     -3023.078       -2355.687          40.500          22.600
 113017753.184 8  88065858.97646  21506572.344                    21506578.906
     -2331.355       -1816.544          50.600          40.400
 110117983.858 8  85806271.07447  20954756.250                    20954762.254
      1909.395        1488.064          53.500          42.100
 128857528.084 6 100408495.24143  24520779.063                    24520782.305
     -1689.180       -1315.982          40.900          23.300
 116354188.401 7  90665627.36645  22141474.867                    22141476.535
     -1432.832       -1116.312          46.500          35.900
 122093386.807 7  95137751.38144  23233608.953                    23233617.059
     -3468.598       -2702.675          44.700          29.800
 18  2 20  9  7 30.0000000  0  9G05G13G07G23G09G30G16G02G06
 113341371.089 8  88317985.70846  21568152.383                    21568156.746
      2352.512        1833.296          52.500          39.700
 128774905.127 6 100344102.22043  24505055.320                    24505060.250
      3283.656        2558.730          40.200          21.800
 108867102.727 8  84831562.34446  20716726.313                    20716730.230
       131.371         102.644          53.300          41.700
 129380171.099 6 100815751.62843  24620236.125                    24620240.629
     -3025.301       -2357.306          37.300          19.600
 113087809.800 8  88120448.52846  21519903.609                    21519910.176
     -2339.031       -1822.539          50.900          40.100
 110060943.617 8  85761824.13747  20943902.008                    20943908.074
      1893.176        1475.467          53.800          42.100
 128908477.594 6 100448196.12144  24530473.563                    24530477.629
     -1707.586       -1330.301          41.400          24.100
 116397419.627 8  90699313.99846  22149701.453                    22149703.359
     -1449.258       -1129.050          49.100          36.500
 122197538.440 7  95218908.45844  23253428.781                    23253436.711
     -3474.852       -2707.606          44.900          28.100
 18  2 20  9  8  0.0000000  0  9G05G13G07G23G09G30G16G02G06
 113270968.422 8  88263126.49646  21554755.289                    21554759.621
      2340.953        1824.304          51.800          39.900
 128676441.183 6 100267377.07043  24486317.430                    24486322.430
      3280.523        2556.376          39.900          21.700
 108863422.765 8  84828694.84946  20716025.930                    20716029.941
       113.898          89.002          53.400          41.700
 129470959.770 6 100886495.95042  24637513.406                    24637517.016
     -3027.277       -2358.942          36.000          16.300
 113158097.451 8  88175218.11046  21533279.141                    21533285.480
     -2346.844       -1828.537          50.600          40.200
 110004389.432 8  85717755.95947  20933140.391                    20933146.324
      1877.039        1462.831          53.500          42.500
 128959977.511 7 100488325.90644  24540274.320                    24540277.777
     -1725.785       -1344.536          42.700          24.000
 116441141.664 8  90733383.11445  22158021.234                    22158023.359
     -1465.621       -1141.780          48.600          35.400
 122301879.568 7  95300213.20644  23273283.766                    23273292.777
     -3481.215       -2712.504          43.800          28.900
 18  2 20  9  8 30.0000000  0  9G05G13G07G23G09G30G16G02G06
 113200912.831 8  88208537.73246  21541424.016                    21541428.313
      2329.219        1815.235          52.200          40.000
 128578068.529 6 100190723.06643  24467597.930                    24467603.703
      3277.469        2553.975          39.600          22.000
 108860267.575 8  84826236.26346  20715425.383                    20715429.441
        96.285          75.367          53.600          41.000
 129561810.226 6 100957288.52843  24654801.906                    24654804.395
     -3029.633       -2360.508          38.400          18.300
 113228615.211 8  88230167.00546  21546698.250                    21546704.344
     -2354.594       -1834.513          51.000          39.300
 109948322.884 9  85674067.74547  20922470.883                    20922477.211
      1860.598        1450.141          54.100          42.400
 129012025.655 7 100528882.88344  24550178.484                    24550182.477
     -1744.133       -1358.782          42.400          24.600
 116485353.020 8  90767833.50745  22166434.523                    22166436.219
     -1481.992       -1154.488          48.100          35.600
 122406407.337 7  95381663.36744  23293175.297                    23293183.348
     -3487.590       -2717.329          44.700          27.200
 18  2 20  9  9  0.0000000  0  9G05G13G07G23G09G30G16G02G06
 113131206.724 8  88154221.29446  21528159.586                    21528163.355
      2317.660        1806.153          52.800          40.200
 128479788.378 6 100114141.16843  24448895.641                    24448901.133
      3274.520        2551.591          40.000          22.300
 108857636.770 8  84824186.28947  20714924.969                    20714928.777
        78.930          61.768          52.100          42.000
 129652721.627 6 101028128.59743  24672101.961                    24672105.906
     -3031.367       -2362.102          40.500          21.800
 113299361.895 8  88285294.28046  21560160.688                    21560166.902
     -2362.035       -1840.438          50.700          39.400
 109892745.102 8  85630760.39847  20911894.586                    20911901.059
      1844.461        1437.458          53.700          42.800
 129064620.761 6 100569866.07943  24560186.742                    24560190.660
     -1762.227       -1372.959          39.700          20.100
 116530051.628 7  90802663.59345  22174940.211                    22174942.492
     -1498.102       -1167.099          47.600          35.100
 122511118.606 7  95463256.53144  23313101.078                    23313109.465
     -3493.383       -2722.033          45.500          27.500
 18  2 20  9  9 30.0000000  0  8G05G13G07G09G30G16G02G06
 113061852.100 8  88100178.73346  21514961.805                    21514965.742
      2305.918        1796.976          52.300          40.000
 128381600.918 6 100037631.49643  24430211.445                    24430216.340
      3271.336        2549.123          40.400          22.000
 108855529.774 8  84822544.47846  20714523.914                    20714527.742
        61.445          48.137          53.100          41.300
 113370336.382 8  88340599.05746  21573666.578                    21573672.906
     -2369.609       -1846.343          51.200          39.900
 109837657.480 9  85587834.99647  20901411.898                    20901418.613
      1828.059        1424.678          54.100          43.000
 129117761.117 6 100611274.15142  24570297.094                    24570302.922
     -1780.363       -1387.096          36.400          15.600
 116575235.845 8  90837872.05245  22183538.883                    22183540.586
     -1514.258       -1179.707          48.600          35.800
 122616010.422 7  95544990.38244  23333061.016                    23333069.313
     -3499.422       -2726.722          43.600          27.900
 18  2 20  9 10  0.0000000  0  7G05G13G07G09G30G02G06
 112992850.600 8  88046411.33346  21501831.313                    21501835.574
      2294.168        1787.816          53.200          40.200
 128283507.267 7  99961194.91043  24411544.938                    24411550.051
      3268.172        2546.703          42.200          22.300
 108853945.743 8  84821310.16846  20714222.672                    20714226.383
        44.129          34.591          51.800          41.700
 113441537.350 8  88396080.30746  21587215.703                    21587222.012
     -2377.125       -1852.201          51.900          39.500
 109783060.931 9  85545292.24847  20891022.227                    20891029.043
      1811.680        1411.921          54.100          42.700
 116620903.351 8  90873457.08646  22192229.008                    22192230.895
     -1530.289       -1192.218          48.700          36.200
 122721079.452 7  95626862.30744  23353055.227                    23353063.375
     -3505.187       -2731.252          44.300          26.800
 18  2 20  9 10 30.0000000  0  7G05G13G07G09G30G02G06
 112924204.234 8  87992920.66946  21488768.563                    21488772.598
      2282.215        1778.573          53.600          40.300
 128185507.737 7  99884831.69243  24392896.586                    24392901.188
      3265.113        2544.283          42.100          21.500
 108852884.666 8  84820483.37446  20714020.563                    20714024.660
        26.629          21.025          53.200          41.600
 113512963.876 8  88451737.31946  21600807.859                    21600813.750
     -2384.668       -1858.019          51.800          39.200
 109728956.860 8  85503133.25647  20880726.766                    20880733.473
      1795.254        1399.143          53.600          42.700
 116667052.781 8  90909417.67045  22201011.047                    22201012.699
     -1546.375       -1204.691          49.200          35.400
 122826322.926 7  95708870.16044  23373082.453                    23373090.598
     -3510.969       -2735.735          44.300          27.100
 18  2 20  9 11  0.0000000  0  7G05G13G07G09G30G02G06
 112855914.638 8  87939707.99946  21475773.664                    21475777.402
      2270.375        1769.251          53.000          40.400
 128087603.461 6  99808542.65943  24374265.234                    24374269.969
      3261.965        2541.765          41.700          22.000
 108852345.877 8  84820063.55046  20713918.336                    20713922.176
         9.258           7.440          53.700          41.800
 113584614.797 8  88507569.19746  21614442.719                    21614448.352
     -2392.047       -1863.862          52.200          39.200
 109675346.455 9  85461358.91247  20870524.875                    20870531.395
      1778.801        1386.281          54.200          42.900
 116713682.912 8  90945752.81445  22209884.273                    22209886.180
     -1562.266       -1217.186          48.000          35.300
 122931737.692 7  95791011.50044  23393142.242                    23393150.496
     -3516.668       -2740.175          43.500          28.400
 18  2 20  9 11 30.0000000  0  7G05G13G07G09G30G02G06
 112787984.781 8  87886775.65046  21462846.656                    21462850.461
      2258.332        1759.939          53.300          40.600
 127989795.781 7  99732328.87743  24355653.023                    24355658.406
      3258.801        2539.297          43.200          21.800
 108852329.609 8  84820050.87546  20713915.055                    20713919.012
        -8.141          -6.092          53.100          41.400
 113656489.617 8  88563575.54146  21628119.875                    21628125.746
     -2399.480       -1869.623          51.000          39.100
 109622231.510 8  85419970.64947  20860417.625                    20860424.277
      1762.313        1373.441          53.900          42.800
 116760791.926 8  90982461.10045  22218848.555                    22218850.414
     -1578.203       -1229.543          48.200          34.200
 123037321.338 7  95873284.41044  23413234.586                    23413242.711
     -3522.117       -2744.482          44.600          29.100
 18  2 20  9 12  0.0000000  0  7G05G13G07G09G30G02G06
 112720417.136 8  87834125.53946  21449989.008                    21449993.145
      2246.219        1750.440          53.900          40.200
 127892085.044 7  99656190.63243  24337059.969                    24337064.641
      3255.602        2536.744          43.300          22.200
 108852835.428 8  84820445.03147  20714011.148                    20714015.156
       -25.590         -19.686          53.100          42.100
 113728587.108 8  88619755.37846  21641839.688                    21641845.523
     -2406.988       -1875.453          50.900          38.800
 109569613.111 9  85378969.31447  20850404.461                    20850410.770
      1745.676        1360.460          54.100          42.600
 116808377.596 8  91019540.80645  22227904.297                    22227905.777
     -1594.129       -1241.958          48.100          34.400
 123143070.737 7  95955686.48944  23433358.172                    23433366.586
     -3527.750       -2748.793          44.100          29.800
 18  2 20  9 12 30.0000000  0  7G05G13G07G09G30G02G06
 112653213.163 8  87781758.80146  21437200.641                    21437204.414
      2234.043        1740.995          53.600          40.600
 127794472.194 7  99580128.71443  24318484.625                    24318489.496
      3252.102        2534.201          42.200          22.800
 108853862.691 8  84821245.50847  20714206.531                    20714210.977
       -42.895         -33.214          52.000          42.300
 113800906.151 8  88676107.84946  21655601.602                    21655608.035
     -2414.312       -1881.181          50.700          39.400
 109517492.360 8  85338355.74447  20840486.555                    20840492.402
      1729.078        1347.543          53.900          43.100
 116856438.214 8  91056990.59045  22237050.094                    22237051.391
     -1609.949       -1254.272          48.800          35.500
 123248982.812 7  96038215.31744  23453512.219                    23453520.367
     -3533.035       -2752.977          42.800          26.700
 18  2 20  9 13  0.0000000  0  7G05G13G07G09G30G02G06
 112586374.582 8  87729676.78646  21424481.797                    21424485.441
      2221.852        1731.476          53.900          40.400
 127696957.834 6  99504143.51443  24299928.094                    24299932.582
      3248.773        2531.587          41.600          21.100
 108855410.712 8  84822451.76346  20714501.219                    20714505.680
       -60.355         -46.733          52.800          41.600
 113873445.611 8  88732632.07546  21669405.648                    21669411.949
     -2421.672       -1886.879          51.500          39.800
 109465870.367 9  85298130.81347  20830663.445                    20830669.805
      1712.480        1334.590          54.600          42.700
 116904972.152 8  91094809.21645  22246286.117                    22246287.277
     -1625.687       -1266.525          48.400          34.900
 123355054.522 7  96120868.54444  23473697.797                    23473705.344
     -3538.371       -2757.061          44.200          26.900
 18  2 20  9 13 30.0000000  0  7G05G13G07G09G30G02G06
 112519904.297 8  87677881.76046  21411832.883                    21411836.648
      2209.406        1721.845          53.700          39.900
 127599543.079 6  99428235.93743  24281391.055                    24281395.410
      3245.367        2528.985          41.100          22.300
 108857479.177 8  84824063.56146  20714894.586                    20714899.254
       -77.684         -60.260          51.700          41.900
 113946204.794 8  88789327.52846  21683251.031                    21683257.961
     -2429.000       -1892.602          51.300          40.100
 109414748.643 8  85258295.72247  20820935.016                    20820941.848
      1695.691        1321.547          53.900          43.100
 116953977.421 8  91132995.12145  22255611.008                    22255612.473
     -1641.449       -1278.764          48.800          35.400
 123461283.252 7  96203644.12244  23493912.188                    23493919.594
     -3543.602       -2761.148          44.000          27.500
 18  2 20  9 14  0.0000000  0  7G05G13G07G09G30G02G06
 112453804.049 8  87626375.07046  21399254.281                    21399258.027
      2197.113        1712.216          53.200          39.700
 127502228.778 6  99352406.65643  24262872.195                    24262876.594
      3242.090        2526.344          40.800          21.700
 108860067.577 8  84826080.50646  20715387.133                    20715391.637
       -94.953         -73.771          53.400          41.800
 114019182.484 8  88846193.23846  21697138.320                    21697145.191
     -2436.191       -1898.263          50.000          39.200
 109364128.226 8  85218851.26447  20811302.242                    20811308.648
      1679.102        1308.513          53.800          43.200
 117003452.286 7  91171546.94945  22265025.477                    22265027.422
     -1656.934       -1290.956          47.000          35.000
 123567665.840 7  96286539.58444  23514156.031                    23514164.027
     -3548.676       -2765.084          43.600          26.100
 18  2 20  9 14 30.0000000  0  7G05G13G07G09G30G02G06
 112388074.708 9  87575157.39646  21386746.086                    21386750.234
      2184.750        1702.558          54.700          39.200
 127405015.047 6  99276655.73343  24244373.117                    24244377.410
      3238.703        2523.760          41.700          21.700
 108863174.867 8  84828501.77147  20715978.633                    20715982.770
      -112.172         -87.214          51.900          42.400
 114092377.350 8  88903228.17646  21711066.883                    21711073.582
     -2443.437       -1903.897          50.300          38.900
 109314009.936 8  85179798.06547  20801764.734                    20801771.578
      1662.242        1295.457          53.100          42.500
 117053394.394 8  91210462.83245  22274529.516                    22274531.258
     -1672.508       -1303.042          48.300          34.900
 123674198.978 7  96369552.37844  23534428.734                    23534436.383
     -3553.598       -2768.964          44.200          26.800
 18  2 20  9 15  0.0000000  0  7G05G13G07G09G30G02G06
 112322720.259 8  87524231.85646  21374309.773                    21374313.828
      2172.254        1692.826          53.100          39.300
 127307902.340 6  99200983.51343  24225893.508                    24225898.066
      3235.313        2521.133          40.400          22.600
 108866801.062 8  84831327.38247  20716668.555                    20716673.027
      -129.602        -100.678          52.700          42.000
 114165788.705 8  88960431.81446  21725036.297                    21725042.820
     -2450.687       -1909.469          49.100          37.900
 109264395.286 8  85141137.30747  20792323.242                    20792329.844
      1645.332        1282.387          52.800          43.000
 117103802.143 7  91249741.55045  22284121.883                    22284123.793
     -1688.105       -1315.112          47.900          35.100
 123780880.123 7  96452680.50044  23554729.383                    23554737.020
     -3558.473       -2772.748          44.600          26.700
 18  2 20  9 15 30.0000000  0  7G05G13G07G09G30G02G06
 112257741.794 8  87473599.29846  21361944.852                    21361949.313
      2159.652        1683.015          53.000          39.000
 127210893.276 6  99125392.08643  24207433.367                    24207437.445
      3231.922        2518.402          41.600          21.700
 108870945.241 8  84834556.61846  20717456.984                    20717461.324
      -146.734        -114.141          53.400          41.800
 114239415.535 8  89017803.35046  21739046.875                    21739053.523
     -2457.848       -1915.066          48.100          38.300
 109215285.313 8  85102869.82547  20782977.938                    20782984.715
      1628.617        1269.239          53.000          43.600
 117154673.786 7  91289381.75345  22293802.438                    22293804.688
     -1703.332       -1327.130          47.400          35.200
 123887706.255 7  96535921.58344  23575057.313                    23575066.137
     -3563.246       -2776.505          44.300          27.400
 18  2 20  9 16  0.0000000  0  7G05G13G07G09G30G02G06
 112193141.342 8  87423261.28146  21349651.789                    21349656.082
      2147.105        1673.165          53.000          39.800
 127113987.433 6  99049881.07443  24188992.305                    24188997.188
      3228.688        2515.745          40.400          21.500
 108875606.742 8  84838188.95646  20718344.016                    20718348.484
      -163.867        -127.575          52.600          41.100
 114313256.478 8  89075341.72846  21753098.406                    21753104.418
     -2464.789       -1920.618          49.100          38.500
 109166680.877 8  85064996.24647  20773728.781                    20773735.148
      1611.816        1256.101          53.500          43.500
 117206006.930 7  91329381.57145  22303570.883                    22303572.625
     -1718.707       -1339.112          47.700          35.400
 123994674.057 7  96619273.06544  23595413.000                    23595421.008
     -3567.711       -2780.123          44.600          27.000
 18  2 20  9 16 30.0000000  0  7G05G13G07G09G30G02G06
 112128921.005 8  87373219.45946  21337431.367                    21337435.031
      2134.305        1663.286          53.000          39.600
 127017185.402 6  98974450.93043  24170571.477                    24170576.688
      3224.996        2513.047          40.500          21.500
 108880785.144 8  84842224.08446  20719329.695                    20719333.754
      -181.230        -140.985          52.900          41.100
 114387310.613 7  89133046.22046  21767190.906                    21767196.660
     -2471.992       -1926.137          47.900          37.700
 109118583.136 9  85027517.49047  20764576.305                    20764582.426
      1594.852        1242.946          54.000          42.600
 117257799.649 7  91369739.51745  22313427.023                    22313427.836
     -1734.016       -1350.992          47.200          34.800
 124101780.736 7  96702732.77744  23615795.031                    23615802.836
     -3572.281       -2783.668          44.200          28.700
 18  2 20  9 17  0.0000000  0  7G05G13G07G09G30G02G06
 112065083.093 8  87323475.62346  21325282.953                    21325287.055
      2121.578        1653.321          53.100          39.800
 126920488.445 6  98899102.70343  24152171.117                    24152175.746
      3221.543        2510.292          40.600          21.700
 108886480.378 8  84846661.93046  20720413.391                    20720417.742
      -198.301        -154.390          52.700          41.500
 114461577.267 8  89190916.31446  21781323.023                    21781329.203
     -2478.961       -1931.649          48.200          37.700
 109070993.494 8  84990434.65947  20755520.742                    20755526.859
      1577.953        1229.711          52.600          43.500
 117310050.327 7  91410454.29445  22323369.813                    22323371.090
     -1749.199       -1362.873          46.800          34.700
 124209023.665 7  96786298.64844  23636202.180                    23636210.090
     -3576.887       -2787.206          44.000          28.900
 18  2 20  9 17 30.0000000  0  7G05G13G07G09G30G02G06
 112001629.468 8  87274031.24346  21313208.211                    21313211.758
      2108.637        1643.263          53.700          39.400
 126823897.514 6  98823837.08843  24133790.414                    24133795.020
      3217.848        2507.487          41.600          23.000
 108892691.418 8  84851501.69946  20721595.227                    20721599.184
      -215.727        -167.817          52.200          41.200
 114536055.501 8  89248951.26546  21795495.836                    21795502.262
     -2486.176       -1937.166          48.400          38.600
 109023913.027 8  84953748.60347  20746561.266                    20746567.652
      1560.758        1216.433          53.500          43.500
 117362757.109 7  91451524.49645  22333399.422                    22333401.074
     -1764.543       -1374.740          47.600          34.000
 124316399.940 7  96869968.40244  23656635.227                    23656644.207
     -3581.410       -2790.667          44.500          26.900
 18  2 20  9 18  0.0000000  0  7G05G13G07G09G30G02G06
 111938562.275 8  87224887.97046  21301207.000                    21301210.703
      2095.875        1633.263          53.800          39.800
 126727412.915 7  98748654.31143  24115430.273                    24115434.816
      3214.609        2504.782          44.000          22.000
 108899417.396 8  84856742.72046  20722875.164                    20722879.566
      -232.687        -181.149          52.300          41.400
 114610743.913 8  89307150.00046  21809708.641                    21809715.203
     -2493.000       -1942.570          48.700          38.600
 108977342.441 8  84917459.84247  20737699.289                    20737705.422
      1543.895        1203.236          53.500          43.100
 117415917.743 7  91492948.34745  22343515.305                    22343517.234
     -1779.520       -1386.467          46.900          34.400
 124423906.221 7  96953739.47544  23677092.758                    23677101.691
     -3585.504       -2793.970          42.300          27.300
 18  2 20  9 18 30.0000000  0  7G05G13G07G09G30G02G06
 111875883.102 8  87176047.04546  21289279.445                    21289283.375
      2082.879        1623.153          53.000          39.400
 126631035.757 7  98673555.26343  24097089.891                    24097094.414
      3210.816        2501.942          42.700          22.000
 108906657.674 8  84862384.49446  20724253.156                    20724256.938
      -249.914        -194.512          52.600          41.200
 114685641.566 8  89365511.77346  21823960.945                    21823967.613
     -2500.086       -1948.007          48.800          38.500
 108931282.757 8  84881569.18447  20728934.445                    20728940.859
      1526.813        1189.940          53.700          43.000
 117469530.046 7  91534724.15345  22353717.641                    22353719.410
     -1794.633       -1398.174          46.600          34.100
 124531539.576 6  97037609.56844  23697574.891                    23697583.648
     -3589.836       -2797.234          41.100          26.300
 18  2 20  9 19  0.0000000  0  7G05G13G07G09G30G02G06
 111813593.931 8  87127510.02446  21277426.211                    21277430.031
      2069.711        1613.000          53.500          39.300
 126534766.453 7  98598540.24243  24078770.508                    24078774.164
      3207.145        2499.169          42.600          21.500
 108914411.341 8  84868426.30946  20725728.539                    20725732.371
      -267.090        -207.818          53.200          41.400
 114760747.150 8  89424035.58746  21838253.336                    21838259.949
     -2507.066       -1953.375          50.000          38.100
 108885734.735 9  84846077.25547  20720266.391                    20720273.887
      1509.703        1176.649          54.100          43.200
 117523591.750 7  91576850.13645  22364004.984                    22364007.000
     -1809.512       -1409.782          47.200          34.300
 124639296.859 6  97121576.21344  23718080.914                    23718088.988
     -3593.961       -2800.403          41.900          27.200
 18  2 20  9 19 30.0000000  0  7G05G13G07G09G30G02G06
 111751697.399 8  87079278.96146  21265647.648                    21265651.387
      2056.645        1602.726          52.800          39.200
 126438605.675 7  98523609.79043  24060471.164                    24060475.266
      3203.563        2496.289          42.100          21.100
 108922678.064 8  84874867.91046  20727301.852                    20727305.934
      -284.105        -221.162          53.400          41.600
 114836060.102 8  89482720.98546  21852585.180                    21852591.410
     -2513.812       -1958.796          49.500          38.200
 108840699.768 8  84810985.09047  20711696.930                    20711703.516
      1492.621        1163.275          53.700          43.600
 117578101.260 7  91619325.05645  22374378.406                    22374379.973
     -1824.426       -1421.441          47.600          34.300
 124747175.431 6  97205637.38444  23738609.406                    23738617.441
     -3597.941       -2803.540          41.100          26.900
 18  2 20  9 20  0.0000000  0  7G05G13G07G09G30G02G06
 111690195.435 8  87031355.35246  21253944.055                    21253948.391
      2043.418        1592.453          52.700          39.800
 126342554.538 6  98448764.81243  24042193.172                    24042197.473
      3199.848        2493.429          41.700          20.100
 108931456.828 8  84881708.50746  20728972.344                    20728976.203
      -301.207        -234.474          53.000          41.600
 114911579.251 8  89541567.05446  21866955.555                    21866962.160
     -2520.785       -1964.147          49.600          38.100
 108796178.655 8  84776293.31547  20703224.648                    20703231.098
      1475.352        1149.903          53.400          43.100
 117633056.269 7  91662147.10845  22384835.438                    22384837.930
     -1839.277       -1433.007          46.300          33.900
 124855172.336 6  97289790.77144  23759160.625                    23759169.074
     -3601.949       -2806.590          41.000          26.000
 18  2 20  9 20 30.0000000  0  7G05G13G07G09G30G02G06
 111629089.598 8  86983740.40846  21242316.133                    21242320.332
      2030.262        1582.181          52.700          38.700
 126246613.879 7  98374005.88843  24023936.281                    24023940.199
      3196.188        2490.552          42.900          21.100
 108940746.927 8  84888947.53846  20730739.992                    20730744.250
      -318.145        -247.705          53.400          41.600
 114987303.475 8  89600572.91646  21881365.813                    21881371.691
     -2527.480       -1969.422          50.100          38.100
 108752172.154 8  84742002.54447  20694850.648                    20694857.430
      1458.336        1136.568          53.800          43.500
 117688454.720 7  91705314.70845  22395377.578                    22395379.242
     -1853.898       -1444.455          46.900          33.800
 124963284.329 6  97374033.86044  23779733.500                    23779741.617
     -3605.617       -2809.508          40.200          25.500
 18  2 20  9 21  0.0000000  0  7G05G13G07G09G30G02G06
 111568381.592 8  86936435.47446  21230763.781                    21230767.785
      2016.988        1571.824          52.800          38.800
 126150784.368 7  98299333.54943  24005701.320                    24005704.629
      3192.566        2487.699          42.200          19.600
 108950547.628 8  84896584.44346  20732604.914                    20732609.027
      -335.246        -260.981          53.400          41.600
 115063231.598 8  89659737.65646  21895814.719                    21895820.848
     -2534.293       -1974.716          49.900          38.000
 108708681.122 9  84708113.44947  20686574.883                    20686581.297
      1441.078        1123.157          55.100          44.200
 117744294.141 8  91748825.93145  22406003.727                    22406005.805
     -1868.582       -1455.898          48.000          34.000
 125071508.407 6  97458364.27544  23800327.852                    23800336.523
     -3609.324       -2812.398          41.800          24.400
 18  2 20  9 21 30.0000000  0  7G05G13G07G09G30G02G06
 111508074.232 8  86889442.73046  21219287.414                    21219291.555
      2003.473        1561.368          52.600          39.500
 126055066.925 7  98224748.55243  23987486.406                    23987490.023
      3188.641        2484.743          42.600          19.000
 108960858.506 8  84904618.89346  20734567.008                    20734571.113
      -352.254        -274.211          53.500          41.400
 115139363.225 8  89719060.96846  21910301.914                    21910307.691
     -2541.227       -1979.999          48.300          37.700
 108665707.011 8  84674627.12947  20678396.625                    20678403.023
      1423.836        1109.719          53.300          42.800
 117800573.113 7  91792679.65045  22416713.313                    22416715.148
     -1883.367       -1467.301          47.300          34.400
 125179842.153 7  97542780.13544  23820942.734                    23820951.426
     -3613.078       -2815.213          42.000          25.000
 18  2 20  9 22  0.0000000  0  7G05G13G07G09G30G02G06
 111448169.254 8  86842763.52846  21207887.750                    21207892.582
      1990.004        1550.846          52.900          39.200
 125959462.243 7  98150251.38843  23969293.352                    23969297.348
      3184.844        2481.777          42.300          20.100
 108971678.509 8  84913050.06246  20736625.773                    20736629.938
      -369.160        -287.465          53.500          41.400
 115215696.936 8  89778541.74946  21924827.281                    21924833.938
     -2547.828       -1985.256          48.400          37.400
 108623250.288 8  84641543.97347  20670317.516                    20670323.918
      1406.496        1096.203          53.300          43.200
 117857289.002 7  91836873.82945  22427505.375                    22427507.723
     -1897.961       -1478.667          46.300          33.800
 125288282.263 7  97627278.89744  23841578.742                    23841587.027
     -3616.324       -2817.969          42.300          26.400
 18  2 20  9 22 30.0000000  0  7G05G13G07G09G30G02G06
 111388668.488 8  86796399.30646  21196565.508                    21196569.609
      1976.582        1540.362          52.700          39.400
 125863970.924 7  98075842.57143  23951122.148                    23951126.496
      3181.141        2478.849          43.300          20.600
 108983006.765 8  84921877.27346  20738781.555                    20738785.492
      -386.035        -300.617          53.300          41.400
 115292231.828 8  89838179.29846  21939391.445                    21939397.441
     -2554.539       -1990.455          48.600          37.900
 108581311.890 8  84608864.70547  20662337.125                    20662343.926
      1389.297        1082.770          53.600          43.800
 117914439.819 7  91881406.90145  22438381.250                    22438382.809
     -1912.285       -1489.890          46.700          32.800
 125396825.849 7  97711858.27544  23862233.875                    23862242.121
     -3619.883       -2820.608          44.000          24.900
 18  2 20  9 23  0.0000000  0  7G05G13G07G09G30G02G06
 111329574.367 8  86750351.94846  21185320.289                    21185324.215
      1962.941        1529.789          52.400          39.700
 125768593.948 7  98001522.89943  23932972.313                    23932976.535
      3177.289        2475.901          43.500          21.500
 108994842.560 8  84931099.96646  20741033.805                    20741037.957
      -403.031        -313.790          53.500          41.900
 115368967.042 8  89897972.92846  21953993.711                    21954000.219
     -2561.148       -1995.617          48.500          37.500
 108539892.805 8  84576590.12147  20654455.172                    20654461.531
      1371.910        1069.298          53.200          43.800
 117972023.527 7  91926277.29645  22449338.961                    22449340.711
     -1926.727       -1501.099          47.000          33.600
 125505470.099 7  97796516.09744  23882908.688                    23882916.703
     -3623.187       -2823.156          44.300          24.600
 18  2 20  9 23 30.0000000  0  7G05G13G07G09G30G02G06
 111270888.345 8  86704622.57946  21174152.445                    21174156.613
      1949.496        1519.194          52.300          39.800
 125673332.104 7  97927292.90743  23914844.945                    23914848.676
      3173.566        2472.921          42.700          19.900
 109007185.188 8  84940717.59946  20743382.922                    20743386.551
      -419.703        -326.910          53.400          41.000
 115445901.445 8  89957921.79046  21968634.461                    21968641.082
     -2567.648       -2000.752          48.000          38.300
 108498993.711 9  84544720.70647  20646672.211                    20646678.613
      1354.781        1055.813          54.000          42.900
 118030037.779 7  91971483.17745  22460378.633                    22460380.926
     -1940.883       -1512.234          45.500          33.100
 125614211.937 7  97881249.96244  23903601.414                    23903610.059
     -3626.258       -2825.664          42.900          26.500
 18  2 20  9 24  0.0000000  0  7G05G13G07G09G30G02G06
 111212612.475 8  86659212.80946  21163062.789                    21163067.047
      1935.633        1508.477          52.800          39.200
 125578186.141 7  97853153.23543  23896739.070                    23896743.184
      3169.527        2469.850          42.900          19.300
 109020033.433 8  84950729.20846  20745827.898                    20745831.805
      -436.734        -340.066          53.000          41.400
 115523033.964 8  90018025.03146  21983311.891                    21983319.324
     -2574.418       -2005.927          49.200          38.800
 108458615.367 8  84513257.05647  20638988.531                    20638995.023
      1337.191        1042.240          53.600          43.500
 118088480.203 7  92017022.68345  22471499.766                    22471501.922
     -1955.207       -1523.330          46.000          32.200
 125723048.345 6  97966057.49644  23924311.836                    23924321.094
     -3629.621       -2828.117          41.600          24.600
 18  2 20  9 24 30.0000000  0  7G05G13G07G09G30G02G06
 111154749.190 8  86614124.53246  21152052.141                    21152056.227
      1921.820        1497.745          52.800          39.900
 125483156.739 7  97779104.37743  23878655.570                    23878659.785
      3165.629        2466.815          44.100          19.900
 109033386.516 8  84961134.20146  20748368.594                    20748372.660
      -453.535        -353.159          51.400          41.700
 115600363.716 7  90078281.96146  21998027.422                    21998034.887
     -2580.949       -2011.026          47.600          39.600
 108418758.654 8  84482199.91047  20631403.828                    20631410.914
      1319.848        1028.685          53.000          43.300
 118147348.850 7  92062894.33245  22482702.313                    22482704.660
     -1969.336       -1534.379          45.700          32.400
 125831976.470 6  98050936.51244  23945040.430                    23945048.684
     -3632.512       -2830.421          41.000          25.700
 18  2 20  9 25  0.0000000  0  7G05G13G07G09G30G02G06
 111097300.368 8  86569359.21846  21141120.219                    21141123.918
      1908.051        1486.919          53.500          40.300
 125388245.100 7  97705147.24243  23860594.477                    23860598.586
      3161.645        2463.701          43.000          20.900
 109047243.817 8  84971932.09446  20751005.680                    20751009.797
      -470.367        -366.294          52.100          41.000
 115677889.925 8  90138691.97546  22012780.203                    22012787.555
     -2587.516       -2016.156          48.100          39.800
 108379424.542 8  84451549.97047  20623919.133                    20623925.648
      1302.340        1015.065          53.700          43.500
 118206641.561 7  92109096.41845  22493985.477                    22493987.445
     -1983.551       -1545.416          46.400          32.700
 125940993.645 6  98135884.88244  23965785.758                    23965794.598
     -3635.348       -2832.729          39.900          24.800
 18  2 20  9 25 30.0000000  0  7G05G13G07G09G30G02G06
 111040268.002 8  86524918.41546  21130267.094                    21130271.094
      1894.152        1476.118          52.300          40.000
 125293452.049 6  97631282.52143  23842556.070                    23842560.566
      3157.746        2460.638          41.800          20.900
 109061604.642 8  84983122.34346  20753738.688                    20753742.332
      -487.059        -379.315          52.200          40.800
 115755611.836 8  90199254.49446  22027570.195                    22027577.652
     -2593.953       -2021.190          48.800          40.000
 108340614.039 8  84421308.01047  20616533.703                    20616539.605
      1284.941        1001.485          53.900          43.800
 118266356.357 7  92155627.40345  22505348.703                    22505351.090
     -1997.449       -1556.299          45.500          33.300
 126050097.102 6  98220900.51444  23986547.805                    23986556.238
     -3638.203       -2834.919          39.400          24.400
 18  2 20  9 26  0.0000000  0  7G05G13G07G09G30G02G06
 110983653.800 8  86480803.44846  21119493.609                    21119497.773
      1880.113        1465.269          52.500          41.100
 125198778.037 6  97557510.61643  23824539.531                    23824544.559
      3153.758        2457.567          41.100          21.800
 109076467.896 8  84994704.10546  20756567.016                    20756570.523
      -503.859        -392.362          51.400          41.400
 115833528.104 8  90259968.46246  22042396.961                    22042404.566
     -2600.449       -2026.212          48.300          38.800
 108302327.471 9  84391474.32747  20609247.906                    20609254.703
      1267.449         987.904          54.100          43.700
 118326490.635 7  92202485.24545  22516792.438                    22516794.070
     -2011.484       -1567.144          47.000          33.300
 126159283.601 6  98305980.84244  24007324.984                    24007333.664
     -3640.910       -2837.007          40.500          25.700
 18  2 20  9 26 30.0000000  0  7G05G13G07G09G30G02G06
 110927459.782 8  86437015.90946  21108800.344                    21108804.633
      1866.063        1454.264          52.700          40.000
 125104223.902 6  97483832.11343  23806546.320                    23806551.168
      3149.805        2454.384          41.100          21.700
 109091832.538 8  85006676.55046  20759490.906                    20759494.605
      -520.566        -405.409          50.300          41.000
 115911637.773 7  90320833.12146  22057260.633                    22057267.973
     -2606.848       -2031.263          47.600          38.100
 108264565.595 9  84362049.50747  20602062.078                    20602068.824
      1249.914         974.192          54.700          43.400
 118387041.998 7  92249668.09445  22528314.586                    22528316.773
     -2025.316       -1578.012          46.000          32.400
 126268550.189 6  98391123.58144  24028117.992                    24028127.004
     -3643.520       -2839.114          39.600          25.900
 18  2 20  9 27  0.0000000  0  7G05G13G07G09G30G02G06
 110871687.790 8  86393557.20946  21098187.516                    21098191.613
      1851.895        1443.271          53.400          40.300
 125009790.245 6  97410247.49043  23788576.141                    23788581.426
      3145.629        2451.253          41.100          22.600
 109107697.376 8  85019038.75746  20762509.695                    20762513.590
      -537.316        -418.399          51.600          41.100
 115989939.770 8  90381847.65246  22072161.234                    22072168.816
     -2613.391       -2036.254          48.400          38.300
 108227328.965 9  84333033.94747  20594976.055                    20594982.082
      1232.332         960.563          54.100          43.200
 118448008.169 7  92297174.16945  22539916.078                    22539918.223
     -2039.172       -1588.755          46.200          32.700
 126377893.865 6  98476326.37244  24048925.703                    24048934.246
     -3646.156       -2841.072          39.400          24.700
 18  2 20  9 27 30.0000000  0  7G05G13G07G09G30G02G06
 110816340.184 8  86350429.20346  21087655.234                    21087659.012
      1837.730        1432.262          53.100          40.200
 124915478.163 6  97336757.57143  23770629.188                    23770633.965
      3141.523        2448.137          41.600          21.700
 109124061.991 8  85031790.38947  20765623.938                    20765627.738
      -553.934        -431.306          51.200          42.000
 116068433.251 8  90443011.40046  22087098.156                    22087105.180
     -2619.738       -2041.177          48.700          36.600
 108190618.511 9  84304428.40147  20587990.164                    20587996.566
      1214.813         946.917          54.100          43.000
 118509386.999 7  92345001.78445  22551596.305                    22551598.148
     -2052.941       -1599.408          44.900          31.800
 126487311.916 6  98561587.13544  24069746.945                    24069755.539
     -3648.652       -2842.922          40.600          25.500
 18  2 20  9 28  0.0000000  0  7G05G13G07G09G30G02G06
 110761418.376 8  86307632.98046  21077203.891                    21077207.945
      1823.566        1421.184          53.400          41.100
 124821288.262 6  97263362.84243  23752706.086                    23752710.340
      3137.617        2444.941          41.500          21.500
 109140924.819 8  85044930.25846  20768833.133                    20768836.449
      -570.410        -444.255          52.300          41.100
 116147117.079 8  90504323.45945  22102071.195                    22102077.879
     -2626.047       -2046.109          48.500          35.900
 108154434.618 8  84276233.16747  20581104.992                    20581111.602
      1197.348         933.245          53.800          43.700
 118571175.886 7  92393148.94745  22563353.836                    22563355.727
     -2066.445       -1610.028          44.400          30.900
 126596801.152 6  98646903.36544  24090581.977                    24090590.910
     -3650.777       -2844.732          41.000          25.200
 18  2 20  9 28 30.0000000  0  7G05G13G07G09G30G02G06
 110706924.504 8  86265170.22446  21066834.172                    21066838.063
      1809.223        1410.073          53.600          41.400
 124727220.996 6  97190063.67243  23734805.477                    23734809.977
      3133.426        2441.781          41.600          22.600
 109158285.354 8  85058457.94646  20772136.586                    20772139.867
      -587.039        -457.110          51.800          41.200
 116225990.464 8  90565783.20345  22117080.008                    22117086.004
     -2632.336       -2050.990          48.400          34.700
 108118778.205 8  84248448.96747  20574319.570                    20574326.145
      1179.680         919.549          53.400          43.800
 118633372.878 7  92441614.10445  22575189.719                    22575191.703
     -2080.164       -1620.575          43.900          31.000
 126706358.930 6  98732272.98644  24111430.625                    24111438.906
     -3653.281       -2846.458          41.200          25.000
 18  2 20  9 29  0.0000000  0  7G05G13G07G09G30G02G06
 110652859.763 9  86223041.85246  21056546.000                    21056549.754
      1795.047        1398.925          54.200          41.500
 124633277.254 7  97116860.81443  23716928.469                    23716932.660
      3129.332        2438.555          44.000          22.500
 109176141.547 8  85072371.85846  20775534.617                    20775538.219
      -603.437        -469.979          52.600          41.700
 116305051.793 8  90627389.39445  22132124.813                    22132129.859
     -2638.480       -2055.863          49.000          34.100
 108083649.183 9  84221075.71447  20567634.602                    20567640.930
      1162.184         905.846          54.800          43.000
 118695974.879 7  92490394.85745  22587102.406                    22587104.492
     -2093.508       -1631.062          45.700          30.500
 126815981.612 7  98817693.19344  24132291.305                    24132299.406
     -3655.109       -2848.081          42.500          24.000
 18  2 20  9 29 30.0000000  0  7G05G13G07G09G30G02G06
 110599226.891 9  86181250.00046  21046339.977                    21046343.605
      1780.516        1387.595          54.300          41.100
 124539457.956 7  97043754.89843  23699075.594                    23699079.875
      3125.238        2435.258          44.500          23.800
 109194493.482 8  85086672.05946  20779026.633                    20779030.340
      -619.973        -482.910          53.400          41.400
 116384300.879 8  90689141.85345  22147205.898                    22147210.406
     -2644.797       -2060.785          49.100          33.600
 108049048.910 9  84194114.46247  20561050.602                    20561056.938
      1144.555         892.042          55.000          43.800
 118758980.196 7  92539489.87845  22599091.984                    22599094.223
     -2106.918       -1641.573          45.200          31.500
 126925667.161 7  98903162.43043  24153163.578                    24153171.316
     -3657.277       -2849.789          43.000          23.300
 18  2 20  9 30  0.0000000  0  7G05G13G07G09G30G02G06
 110546027.757 9  86139796.13446  21036216.578                    21036220.348
      1766.129        1376.380          54.300          41.200
 124445764.320 7  96970746.93644  23681245.922                    23681250.379
      3121.059        2432.044          45.300          25.200
 109213339.771 8  85101357.48246  20782612.906                    20782616.605
      -636.352        -495.676          53.600          41.300
 116463736.611 8  90751039.77245  22162322.320                    22162327.031
     -2650.941       -2065.563          49.100          34.300
 108014977.877 9  84167565.60547  20554566.930                    20554573.887
      1126.949         878.352          55.000          44.200
 118822386.419 7  92588897.29145  22611158.078                    22611160.246
     -2120.090       -1651.890          45.300          31.800
 127035412.407 7  98988678.15243  24174047.133                    24174055.590
     -3659.137       -2851.199          43.400          23.600
 18  2 20  9 30 30.0000000  0  7G05G13G07G09G30G02G06
 110493264.450 8  86098681.87546  21026175.875                    21026180.109
      1751.387        1364.907          53.200          41.800
 124352197.220 7  96897837.53744  23663440.672                    23663445.266
      3116.777        2428.682          45.100          24.200
 109232680.010 8  85116427.79046  20786293.094                    20786297.023
      -652.945        -508.579          52.700          40.700
 116543358.301 8  90813082.59545  22177473.391                    22177479.031
     -2657.348       -2070.505          49.600          34.200
 107981436.882 9  84141429.78947  20548184.414                    20548191.109
      1109.117         864.480          55.100          44.200
 118886191.535 7  92638615.52745  22623299.711                    22623302.277
     -2133.555       -1662.335          45.500          30.600
 127145214.835 7  99074238.42943  24194942.273                    24194950.152
     -3661.000       -2852.772          44.000          22.800
 18  2 20  9 31  0.0000000  0  7G05G13G07G09G30G02G06
 110440939.194 8  86057908.94746  21016218.867                    21016222.727
      1736.809        1353.560          53.900          41.700
 124258757.116 7  96825027.12744  23645659.125                    23645664.051
      3112.352        2425.406          44.800          25.600
 109252512.883 8  85131881.97946  20790067.500                    20790071.461
      -669.402        -521.343          53.500          41.800
 116623164.966 8  90875269.55945  22192659.813                    22192665.984
     -2663.355       -2075.241          49.700          34.400
 107948426.491 9  84115707.41147  20541902.797                    20541908.547
      1091.348         850.726          54.900          43.700
 118950393.006 7  92688642.61445  22635516.836                    22635519.109
     -2146.695       -1672.545          45.300          31.500
 127255071.435 7  99159840.93043  24215847.586                    24215855.758
     -3662.848       -2854.083          43.900          22.900
 18  2 20  9 31 30.0000000  0  7G05G13G07G09G30G02G06
 110389052.891 9  86017478.06146  21006345.148                    21006349.141
      1722.188        1342.121          54.100          41.600
 124165444.407 7  96752315.95544  23627902.609                    23627907.422
      3108.113        2422.053          43.600          25.000
 109272836.936 8  85147718.89546  20793934.828                    20793939.148
      -685.617        -534.084          52.500          41.600
 116703155.352 8  90937599.69645  22207882.164                    22207888.461
     -2669.367       -2080.007          48.200          35.200
 107915946.911 9  84090398.63447  20535722.344                    20535727.910
      1073.828         836.920          54.600          43.700
 119014988.059 7  92738976.37845  22647808.625                    22647811.266
     -2159.684       -1682.747          45.100          31.300
 127364979.149 7  99245483.23943  24236761.945                    24236769.793
     -3664.406       -2855.390          43.200          22.000
 18  2 20  9 32  0.0000000  0  7G05G13G07G09G30G02G06
 110337607.565 9  85977390.79646  20996555.523                    20996559.426
      1707.320        1330.653          54.500          41.800
 124072260.362 7  96679705.03944  23610170.219                    23610175.285
      3103.945        2418.734          42.100          25.600
 109293650.975 8  85163937.63146  20797895.633                    20797899.473
      -702.109        -546.797          53.100          41.800
 116783328.545 8  91000072.29045  22223138.344                    22223145.504
     -2675.578       -2084.736          48.200          35.700
 107883998.682 8  84065503.92047  20529642.859                    20529649.414
      1055.965         823.124          53.900          44.400
 119079974.460 7  92789615.09645  22660175.523                    22660177.973
     -2172.840       -1692.867          44.900          32.200
 127474935.044 7  99331163.13843  24257685.852                    24257693.809
     -3666.039       -2856.597          42.100          22.000
 18  2 20  9 32 30.0000000  0  7G05G13G07G09G30G02G06
 110286605.765 8  85937649.12446  20986850.125                    20986854.043
      1692.691        1319.096          53.900          41.700
 123979205.825 7  96607195.03244  23592463.125                    23592468.121
      3099.645        2415.321          43.800          28.000
 109314954.450 8  85180537.73146  20801949.781                    20801953.461
      -718.336        -559.523          53.900          41.400
 116863683.828 8  91062686.76845  22238429.273                    22238436.699
     -2681.555       -2089.469          48.400          35.800
 107852582.509 9  84041023.79047  20523664.281                    20523670.906
      1038.301         809.266          54.400          43.900
 119145349.793 7  92840556.87545  22672616.328                    22672618.543
     -2185.609       -1702.989          45.900          31.300
 127584936.461 7  99416878.46243  24278618.492                    24278627.043
     -3667.406       -2857.773          42.200          22.200
 18  2 20  9 33  0.0000000  0  7G05G13G07G09G30G02G06
 110236049.481 9  85898254.62246  20977229.750                    20977233.566
      1677.738        1307.539          54.800          41.700
 123886281.365 7  96534786.36944  23574779.828                    23574784.500
      3095.258        2411.970          43.500          27.400
 109336746.080 8  85197518.23046  20806096.203                    20806100.031
      -734.488        -572.147          51.500          41.300
 116944220.314 7  91125442.44146  22253755.031                    22253762.496
     -2687.656       -2094.150          46.700          37.000
 107821698.976 8  84016958.69647  20517787.359                    20517793.309
      1020.555         795.474          53.800          44.000
 119211112.009 7  92891800.13145  22685130.539                    22685132.273
     -2198.512       -1712.968          46.100          30.100
 127694980.598 6  99502627.09343  24299559.547                    24299567.844
     -3668.820       -2858.808          39.900          21.800
 18  2 20  9 33 30.0000000  0  7G05G13G07G09G30G02G06
 110185940.111 9  85859208.34946  20967694.133                    20967697.750
      1663.043        1295.948          54.600          41.800
 123793487.939 7  96462479.82444  23557122.281                    23557126.758
      3091.160        2408.591          43.000          27.200
 109359024.603 8  85214878.11546  20810336.016                    20810339.922
      -750.461        -584.727          51.300          41.300
 117024936.866 7  91188338.42146  22269114.969                    22269122.527
     -2693.316       -2098.758          47.000          37.300
 107791348.331 8  83993308.84247  20512011.477                    20512018.254
      1002.965         781.656          52.800          43.700
 119277258.413 7  92943342.74745  22697717.391                    22697720.055
     -2211.039       -1722.846          44.700          30.600
 127805064.431 6  99588406.62243  24320507.063                    24320515.824
     -3669.918       -2859.760          39.700          22.300
 18  2 20  9 34  0.0000000  0  7G05G13G07G09G30G02G06
 110136279.412 9  85820511.70146  20958243.891                    20958247.719
      1647.789        1284.196          54.100          41.300
 123700826.302 7  96390275.99144  23539489.156                    23539493.906
      3086.496        2405.095          43.000          26.900
 109381789.041 8  85232616.63846  20814667.992                    20814671.629
      -766.891        -597.417          52.000          41.100
 117105832.669 7  91251374.07946  22284508.891                    22284516.523
     -2699.508       -2103.474          47.200          36.700
 107761531.084 9  83970074.63447  20506337.758                    20506344.500
       984.941         767.744          54.100          43.900
 119343786.414 7  92995182.71245  22710377.414                    22710379.379
     -2223.867       -1732.810          45.200          30.800
 127915185.145 6  99674214.91943  24341462.398                    24341471.434
     -3671.352       -2860.773          40.500          21.800
 18  2 20  9 34 30.0000000  0  7G05G13G07G09G30G02G06
 110087068.687 9  85782165.68046  20948879.242                    20948883.094
      1632.813        1272.520          54.100          40.900
 123608296.795 7  96318175.07744  23521881.148                    23521885.023
      3082.152        2401.694          44.100          25.300
 109405037.936 8  85250732.65446  20819091.883                    20819095.766
      -782.937        -609.945          52.500          40.900
 117186906.338 8  91314548.33646  22299937.125                    22299944.277
     -2705.367       -2108.046          48.200          36.700
 107732247.304 9  83947256.11147  20500765.266                    20500771.434
       967.258         753.898          54.100          44.300
 119410693.141 7  93047317.76345  22723109.406                    22723111.609
     -2236.410       -1742.587          46.200          30.600
 128025339.451 6  99760049.40843  24362424.227                    24362433.227
     -3672.305       -2861.577          39.400          21.500
 18  2 20  9 35  0.0000000  0  7G05G13G07G09G30G02G06
 110038310.403 9  85744172.21446  20939601.016                    20939604.750
      1617.637        1260.757          54.700          40.800
 123515900.516 7  96246177.96844  23504298.898                    23504302.863
      3077.680        2398.254          43.700          26.700
 109428770.294 8  85269225.40246  20823607.938                    20823611.746
      -799.160        -622.475          52.200          41.300
 117268157.465 7  91377860.87546  22315398.234                    22315406.000
     -2711.387       -2112.616          47.600          36.700
 107703497.837 8  83924853.94147  20495294.250                    20495300.469
       949.320         740.042          53.900          43.700
 119477976.558 7  93099746.35145  22735913.328                    22735915.160
     -2248.984       -1752.297          46.700          30.400
 128135525.034 6  99845908.18943  24383391.609                    24383401.375
     -3673.465       -2862.279          39.400          21.700
 18  2 20  9 35 30.0000000  0  7G05G13G07G09G30G02G06
 109990005.999 9  85706532.41246  20930408.961                    20930412.961
      1602.574        1248.937          54.100          41.500
 123423638.433 7  96174285.43244  23486741.859                    23486746.359
      3073.211        2394.727          44.100          29.200
 109452984.910 8  85288093.93246  20828215.898                    20828218.938
      -815.168        -635.002          52.200          40.600
 117349584.856 7  91441310.76146  22330893.313                    22330900.434
     -2717.156       -2117.204          47.900          36.500
 107675282.859 9  83902868.22947  20489925.195                    20489931.723
       931.633         726.129          54.500          44.200
 119545633.828 7  93152466.26545  22748787.961                    22748789.910
     -2261.422       -1762.027          47.000          30.700
 128245738.809 6  99931788.98443  24404365.273                    24404374.344
     -3674.211       -2863.020          40.900          22.800
 18  2 20  9 36  0.0000000  0  7G05G13G07G09G30G02G06
 109942158.425 9  85669248.58746  20921303.711                    20921307.598
      1587.273        1237.071          54.300          41.300
 123331511.736 7  96102498.39844  23469210.633                    23469215.352
      3068.586        2391.221          43.300          27.900
 109477681.092 8  85307337.70846  20832915.438                    20832918.211
      -831.254        -647.463          52.900          40.200
 117431187.978 8  91504897.56846  22346421.727                    22346429.480
     -2723.051       -2121.737          48.300          36.400
 107647603.061 8  83881299.56647  20484657.867                    20484664.324
       913.715         712.253          53.800          44.300
 119613663.055 7  93205476.02244  22761733.242                    22761735.371
     -2273.781       -1771.625          46.600          29.800
 128355978.232 6 100017689.74643  24425343.695                    24425352.172
     -3674.926       -2863.644          40.600          21.800
 18  2 20  9 36 30.0000000  0  7G05G13G07G09G30G02G06
 109894768.950 9  85632321.72146  20912285.797                    20912289.938
      1571.926        1225.118          54.300          41.100
 123239520.548 7  96030816.97244  23451705.344                    23451710.117
      3064.172        2387.666          43.600          26.800
 109502857.129 8  85326955.41546  20837706.297                    20837709.438
      -847.227        -659.960          52.400          40.400
 117512965.714 7  91568620.42146  22361984.133                    22361991.527
     -2728.848       -2126.287          47.500          37.300
 107620458.677 9  83860148.10147  20479492.602                    20479499.133
       895.805         698.295          54.800          44.500
 119682061.469 7  93258773.45744  22774749.227                    22774751.371
     -2286.109       -1781.214          45.800          29.100
 128466240.381 6 100103608.24943  24446325.883                    24446334.191
     -3675.879       -2864.227          40.900          22.000
 18  2 20  9 37  0.0000000  0  7G05G13G07G09G30G02G06
 109847839.570 8  85595753.37546  20903355.750                    20903359.797
      1556.570        1213.154          53.700          41.400
 123147666.005 7  95959241.98244  23434226.242                    23434230.188
      3059.402        2384.094          44.300          26.900
 109528512.340 8  85346946.49846  20842587.820                    20842591.684
      -863.242        -672.365          52.200          40.700
 117594917.479 8  91632478.87646  22377579.055                    22377586.641
     -2734.629       -2130.779          49.300          37.000
 107593850.324 9  83839414.31347  20474429.453                    20474435.840
       877.918         684.408          54.600          44.500
 119750827.038 7  93312356.97144  22787834.484                    22787837.176
     -2298.297       -1790.697          45.600          29.800
 128576522.619 6 100189542.39543  24467311.469                    24467320.613
     -3676.328       -2864.694          41.100          23.000
 18  2 20  9 37 30.0000000  0  7G05G13G07G09G30G02G06
 109801371.368 9  85559544.38246  20894513.117                    20894517.285
      1541.152        1201.140          54.500          41.100
 123055948.999 7  95887774.18344  23416772.547                    23416777.383
      3054.813        2380.517          44.600          27.900
 109554644.681 8  85367309.35246  20847560.844                    20847565.043
      -879.141        -684.766          51.800          40.200
 117677041.760 8  91696471.80146  22393207.109                    22393213.898
     -2740.418       -2135.271          48.700          36.800
 107567777.737 9  83819098.01447  20469467.891                    20469474.207
       860.109         670.464          55.000          44.500
 119819956.483 7  93366224.02544  22800989.695                    22800992.129
     -2310.449       -1800.131          46.500          29.900
 128686821.695 6 100275489.64543  24488301.094                    24488310.086
     -3676.945       -2865.120          41.300          23.400
 18  2 20  9 38  0.0000000  0  7G05G13G07G09G30G02G06
 109755366.439 9  85523696.38646  20885758.609                    20885762.277
      1525.859        1189.107          54.100          40.500
 122964370.048 7  95816413.97344  23399345.727                    23399350.297
      3050.422        2376.934          44.300          27.300
 109581253.191 8  85388043.23946  20852624.180                    20852628.746
      -894.832        -697.098          51.500          40.500
 117759337.798 8  91760598.57246  22408867.391                    22408873.582
     -2745.996       -2139.707          50.300          36.900
 107542241.371 9  83799199.54647  20464608.406                    20464614.969
       842.250         656.554          55.300          44.100
 119889447.357 7  93420372.71745  22814213.477                    22814215.828
     -2322.230       -1809.472          47.100          30.200
 128797134.804 6 100361447.84543  24509292.695                    24509301.816
     -3677.227       -2865.443          40.600          23.800
 18  2 20  9 38 30.0000000  0  7G05G13G07G09G30G02G06
 109709826.593 8  85488210.78546  20877092.391                    20877096.688
      1510.211        1177.008          53.800          40.600
 122872929.859 7  95745161.84344  23381946.180                    23381949.746
      3045.559        2373.325          45.200          27.700
 109608336.901 8  85409147.42646  20857778.008                    20857782.707
      -910.730        -709.434          52.100          40.600
 117841804.806 8  91824858.54246  22424559.922                    22424567.422
     -2751.785       -2144.132          49.400          36.900
 107517241.568 9  83779719.18847  20459850.930                    20459857.141
       824.379         642.607          54.300          44.100
 119959297.504 7  93474801.37145  22827505.773                    22827507.773
     -2334.391       -1818.792          46.800          31.500
 128907459.286 7 100447414.91643  24530286.719                    24530295.445
     -3677.715       -2865.665          42.000          23.000
 18  2 20  9 39  0.0000000  0  7G05G13G07G09G30G02G06
 109664753.437 8  85453088.84446  20868515.320                    20868519.211
      1494.488        1164.880          53.500          40.300
 122781629.234 7  95674018.49944  23364571.219                    23364575.797
      3040.953        2369.725          44.900          29.100
 109635894.139 8  85430620.59146  20863021.586                    20863026.316
      -926.562        -721.687          51.400          40.300
 117924441.702 8  91889250.89846  22440285.625                    22440292.930
     -2757.402       -2148.504          49.100          36.900
 107492778.520 9  83760657.06547  20455196.023                    20455202.188
       806.426         628.691          54.600          44.200
 120029503.939 7  93529507.65545  22840865.469                    22840868.117
     -2346.172       -1827.960          46.700          30.300
 129017792.194 7 100533388.54943  24551282.727                    24551291.699
     -3678.031       -2865.854          42.600          23.200
 18  2 20  9 39 30.0000000  0  7G05G13G07G09G28G30G02
 109620149.175 9  85418332.28046  20860027.383                    20860031.211
      1479.102        1152.650          54.400          40.500
 122690469.153 7  95602984.70444  23347224.617                    23347228.668
      3036.363        2366.025          45.700          29.200
 109663923.997 8  85452462.01246  20868355.758                    20868360.465
      -942.082        -733.971          51.500          39.700
 118007247.883 8  91953775.14046  22456043.234                    22456050.609
     -2762.895       -2152.932          50.000          36.900
 127609653.590 6  99436147.85242  24283315.969                    24283322.219
      3238.797        2523.700          39.700          17.400
 107468852.667 9  83742013.54747  20450643.016                    20450649.203
       788.609         614.695          54.600          44.400
 120100064.104 7  93584489.57145  22854292.828                    22854295.164
     -2357.742       -1837.139          46.300          30.600
 18  2 20  9 40  0.0000000  0  7G05G13G07G09G28G30G02
 109576015.166 8  85383942.13146  20851628.938                    20851632.938
      1463.246        1140.388          52.800          40.600
 122599450.498 7  95532061.08044  23329903.938                    23329908.930
      3031.469        2362.302          46.800          29.200
 109692425.113 8  85474670.66346  20873779.430                    20873783.852
      -957.922        -746.218          51.600          39.400
 118090222.239 8  92018430.45146  22471832.406                    22471839.934
     -2768.656       -2157.309          48.300          36.100
 127512523.591 6  99360462.13642  24264833.500                    24264838.855
      3236.617        2521.996          38.100          15.600
 107445464.137 8  83723788.72347  20446192.164                    20446198.301
       770.688         600.727          53.600          44.400
 120170975.704 7  93639745.32845  22867786.578                    22867788.926
     -2369.527       -1846.258          45.900          30.200
 18  2 20  9 40 30.0000000  0  7G05G13G07G09G28G30G02
 109532353.391 8  85349919.96746  20843320.484                    20843324.609
      1447.445        1128.096          52.900          40.800
 122508573.936 7  95461248.17244  23312611.047                    23312615.184
      3026.754        2358.596          46.400          28.400
 109721396.144 8  85497245.48346  20879292.656                    20879296.707
      -973.586        -758.421          52.400          39.800
 118173363.974 8  92083216.19646  22487653.445                    22487660.688
     -2774.285       -2161.656          49.300          36.100
 127415457.664 6  99284826.41743  24246361.320                    24246368.609
      3234.363        2520.323          39.000          18.600
 107422613.121 9  83705982.74347  20441844.063                    20441850.152
       752.691         586.743          54.500          44.200
 120242235.842 7  93695272.66645  22881347.008                    22881349.098
     -2381.199       -1855.308          44.500          30.100
 18  2 20  9 41  0.0000000  0  7G05G13G07G09G28G30G02
 109489165.068 8  85316266.73146  20835101.938                    20835106.141
      1431.723        1115.825          53.200          40.700
 122417840.249 7  95390546.56744  23295345.023                    23295349.023
      3022.004        2354.912          45.600          27.100
 109750835.585 8  85520185.29546  20884895.234                    20884898.906
      -989.098        -770.527          51.800          40.800
 118256672.104 8  92148131.57345  22503506.656                    22503513.461
     -2779.699       -2165.921          49.300          35.800
 127318458.626 6  99209242.82743  24227903.625                    24227910.262
      3232.113        2518.582          41.200          21.800
 107400299.701 9  83688595.66047  20437597.781                    20437603.621
       734.828         572.826          54.700          44.100
 120313841.943 7  93751069.58945  22894973.117                    22894975.168
     -2392.664       -1864.212          46.000          30.000
 18  2 20  9 41 30.0000000  0  7G05G13G07G09G28G30G02
 109446452.548 8  85282984.24546  20826974.016                    20826978.168
      1415.762        1103.431          53.200          40.200
 122327250.594 7  95319957.23444  23278106.484                    23278110.645
      3017.219        2351.154          45.900          27.700
 109780742.608 8  85543489.45746  20890586.273                    20890589.504
     -1004.750        -782.683          52.800          40.500
 118340145.902 8  92213176.06145  22519391.727                    22519397.969
     -2785.254       -2170.240          48.000          35.700
 127221529.658 6  99133713.81943  24209459.094                    24209464.918
      3229.656        2516.725          41.100          20.900
 107378524.339 9  83671627.85447  20433454.055                    20433460.172
       716.848         558.837          54.500          44.400
 120385791.902 7  93807134.45945  22908665.039                    22908666.930
     -2404.062       -1873.118          44.600          30.000
 18  2 20  9 42  0.0000000  0  7G05G13G07G09G28G30G02
 109404216.835 8  85250073.30246  20818937.078                    20818941.230
      1400.031        1091.034          52.900          40.600
 122236805.260 7  95249480.37644  23260895.188                    23260899.578
      3012.578        2347.424          45.400          28.500
 109811115.441 8  85567156.59546  20896366.516                    20896369.453
     -1020.020        -794.739          53.200          40.900
 118423784.192 8  92278348.70945  22535307.172                    22535314.160
     -2790.484       -2174.456          48.700          35.700
 127124673.612 6  99058241.65143  24191027.516                    24191033.434
      3227.555        2514.808          38.400          18.300
 107357286.829 9  83655079.14147  20429412.938                    20429418.961
       699.129         544.897          54.500          44.300
 120458082.504 7  93863464.76644  22922421.352                    22922423.656
     -2415.102       -1881.905          45.200          29.500
 18  2 20  9 42 30.0000000  0  7G05G13G07G09G28G30G02
 109362460.651 8  85217536.01646  20810990.953                    20810994.875
      1383.957        1078.579          53.200          39.600
 122146505.323 7  95179116.79644  23243711.523                    23243715.457
      3007.637        2343.676          44.600          28.700
 109841953.370 8  85591186.14446  20902234.945                    20902237.934
     -1035.555        -806.775          53.800          41.100
 118507586.479 8  92343649.13646  22551254.609                    22551261.738
     -2796.020       -2178.686          49.400          36.000
 127027893.471 6  98982828.60842  24172610.469                    24172616.219
      3224.824        2512.811          37.200          16.300
 107336587.675 9  83638949.93547  20425473.680                    20425480.238
       681.113         530.910          54.100          43.900
 120530711.328 7  93920058.62845  22936242.383                    22936244.469
     -2426.453       -1890.653          44.000          30.800
 18  2 20  9 43  0.0000000  0  7G05G13G07G09G28G30G02
 109321185.085 8  85185373.23646  20803136.539                    20803141.012
      1367.828        1066.056          53.000          40.300
 122056351.899 7  95108867.38244  23226556.156                    23226560.297
      3002.648        2339.814          43.200          28.700
 109873254.945 9  85615576.98246  20908191.313                    20908194.242
     -1051.113        -818.821          54.100          41.100
 118591551.840 8  92409076.64246  22567232.930                    22567239.805
     -2801.520       -2182.948          49.200          36.300
 126931191.822 6  98907476.68343  24154209.539                    24154214.602
      3222.066        2510.755          40.200          19.300
 107316426.986 9  83623240.30447  20421637.313                    20421643.848
       663.023         516.917          54.200          44.000
 120603675.909 7  93976914.10644  22950126.938                    22950129.480
     -2437.703       -1899.364          43.900          29.700
 18  2 20  9 43 30.0000000  0  7G05G13G07G09G28G30G02
 109280391.843 8  85153586.28346  20795373.734                    20795377.777
      1351.680        1053.497          53.100          40.300
 121966345.128 7  95038732.24944  23209428.297                    23209432.605
      2997.766        2335.980          43.800          28.100
 109905017.998 8  85640327.40547  20914235.531                    20914239.055
     -1066.344        -830.800          53.700          42.100
 118675679.168 8  92474630.37245  22583241.555                    22583248.539
     -2806.891       -2187.146          48.400          35.300
 126834571.884 6  98832188.46643  24135823.445                    24135828.598
      3219.297        2508.562          39.600          20.400
 107296804.628 9  83607950.15347  20417903.438                    20417909.652
       645.082         502.912          54.200          44.600
 120676973.461 7  94034029.05745  22964074.969                    22964077.648
     -2448.656       -1907.966          43.600          30.000
 18  2 20  9 44  0.0000000  0  7G05G13G07G09G28G30G02
 109240082.754 8  85122176.60546  20787703.086                    20787706.848
      1335.441        1040.889          52.100          40.200
 121876486.419 7  94968712.50544  23192328.797                    23192332.922
      2992.617        2332.091          44.200          28.100
 109937241.827 8  85665436.87046  20920367.609                    20920370.969
     -1081.840        -842.760          53.100          41.300
 118759967.726 8  92540309.74045  22599280.797                    22599288.371
     -2812.309       -2191.340          49.100          35.500
 126738036.713 6  98756966.33743  24117453.078                    24117458.953
      3216.320        2506.309          38.200          20.400
 107277720.788 8  83593079.62547  20414271.883                    20414278.281
       627.098         488.910          53.800          44.200
 120750601.229 7  94091401.31544  22978085.828                    22978088.137
     -2459.852       -1916.557          43.200          29.200
 18  2 20  9 44 30.0000000  0  7G05G13G07G09G28G30G02
 109200259.395 8  85091145.41946  20780125.148                    20780129.027
      1319.254        1028.211          53.200          40.800
 121786776.427 7  94898808.61944  23175257.383                    23175261.594
      2987.746        2328.218          43.900          27.900
 109969924.803 8  85690904.12146  20926586.914                    20926589.871
     -1097.180        -854.722          53.800          41.400
 118844416.585 8  92606113.99345  22615351.250                    22615358.355
     -2817.645       -2195.534          49.000          35.800
 126641588.420 6  98681811.95643  24099098.516                    24099105.020
      3213.207        2503.962          36.700          19.900
 107259175.488 9  83578628.74647  20410742.797                    20410749.223
       609.203         474.884          54.500          44.100
 120824556.740 7  94149028.96244  22992159.430                    22992161.676
     -2470.715       -1925.086          43.300          29.700
 18  2 20  9 45  0.0000000  0  7G05G13G07G09G28G30G02
 109160922.885 8  85060493.58646  20772639.570                    20772643.277
      1303.133        1015.634          52.500          40.500
 121697215.741 7  94829021.10044  23158214.516                    23158218.941
      2982.883        2324.396          44.700          28.600
 110003065.213 8  85716727.81546  20932893.328                    20932896.332
     -1112.234        -866.494          53.200          41.300
 118929024.653 8  92672042.32045  22631451.867                    22631459.031
     -2822.875       -2199.577          48.000          35.900
 126545230.033 6  98606727.58143  24080762.883                    24080768.773
      3210.477        2501.683          38.200          20.100
 107241168.580 8  83564597.37947  20407316.164                    20407322.648
       591.309         460.997          53.700          44.300
 120898837.050 7  94206909.68044  23006294.438                    23006296.555
     -2481.277       -1933.365          44.000          29.600
 18  2 20  9 45 30.0000000  0  7G05G13G07G09G28G30G02
 109122075.455 8  85030222.86046  20765246.953                    20765250.582
      1286.832        1002.878          52.000          40.000
 121607805.502 7  94759350.78944  23141200.313                    23141204.973
      2977.871        2320.458          44.500          28.600
 110036662.568 8  85742907.56647  20939286.367                    20939289.500
     -1127.391        -878.378          53.200          42.000
 119013791.382 8  92738094.30646  22647582.039                    22647589.719
     -2828.090       -2203.707          48.400          36.000
 126448965.273 6  98531716.11043  24062444.484                    24062449.168
      3207.254        2499.182          39.500          19.900
 107223700.381 8  83550985.80147  20403992.055                    20403997.973
       573.445         446.968          53.700          44.500
 120973439.777 7  94265041.65445  23020490.859                    23020493.125
     -2491.984       -1941.726          45.700          30.000
 18  2 20  9 46  0.0000000  0  7G05G13G07G09G28G30G02
 109083718.948 8  85000334.66546  20757948.352                    20757952.289
      1270.398         990.105          52.500          40.600
 121518546.097 7  94689798.00444  23124214.547                    23124218.848
      2972.723        2316.534          44.700          28.000
 110070714.733 8  85769441.69946  20945766.367                    20945770.301
     -1142.633        -890.176          52.700          41.000
 119098715.930 7  92804269.24345  22663742.852                    22663749.883
     -2833.305       -2207.794          47.000          34.600
 126352796.884 6  98456779.70043  24044144.156                    24044149.059
      3204.094        2496.643          39.200          20.400
 107206770.967 9  83537794.04647  20400770.453                    20400776.805
       555.305         432.957          54.300          44.100
 121048362.093 7  94323422.66144  23034747.852                    23034750.406
     -2502.727       -1950.030          44.900          29.600
 18  2 20  9 46 30.0000000  0  7G05G13G07G09G28G30G02
 109045854.767 8  84970830.10246  20750742.805                    20750746.949
      1253.875         977.239          52.300          40.800
 121429438.545 7  94620363.56744  23107257.984                    23107262.613
      2967.629        2312.510          44.100          28.100
 110105220.539 8  85796329.32746  20952331.961                    20952336.281
     -1157.820        -901.990          53.200          41.100
 119183797.479 7  92870566.49545  22679933.289                    22679940.363
     -2838.715       -2211.926          46.700          35.300
 126256727.321 6  98381920.34143  24025862.773                    24025867.977
      3200.582        2494.005          40.000          21.100
 107190380.244 8  83525022.05747  20397651.430                    20397657.395
       537.340         418.922          53.600          44.500
 121123601.437 7  94382050.69444  23049066.000                    23049067.957
     -2513.211       -1958.269          45.800          29.900
 18  2 20  9 47  0.0000000  0  7G05G13G07G09G28G30G02
 109008484.672 8  84941710.54946  20743631.539                    20743635.684
      1237.367         964.431          52.800          41.300
 121340484.065 7  94551048.41244  23090330.734                    23090335.297
      2962.465        2308.549          45.500          28.800
 110140178.372 8  85823569.18946  20958984.242                    20958988.199
     -1172.785        -913.667          52.600          40.600
 119269034.940 7  92936985.25045  22696153.867                    22696160.801
     -2843.961       -2215.909          46.700          35.100
 126160759.581 6  98307140.40543  24007600.484                    24007606.242
      3197.219        2491.353          39.400          23.200
 107174528.138 9  83512669.75347  20394634.797                    20394640.840
       519.395         404.988          54.600          43.900
 121199154.912 7  94440923.50744  23063443.289                    23063445.402
     -2523.691       -1966.359          45.200          29.800
 18  2 20  9 47 30.0000000  0  7G05G13G07G09G28G30G02
 108971609.599 8  84912976.71746  20736614.578                    20736618.590
      1220.895         951.554          52.000          41.400
 121251683.182 7  94481852.91844  23073432.086                    23073436.586
      2957.523        2304.558          45.600          26.700
 110175586.881 8  85851160.22846  20965721.945                    20965726.441
     -1187.746        -925.373          52.300          40.100
 119354427.433 7  93003524.81945  22712403.586                    22712410.270
     -2848.953       -2219.947          46.700          35.000
 126064896.453 6  98232441.95643  23989357.922                    23989363.609
      3193.602        2488.573          40.300          21.500
 107159214.460 9  83500737.02447  20391720.648                    20391727.223
       501.535         390.979          54.000          44.700
 121275019.770 7  94500038.93345  23077880.016                    23077882.121
     -2534.070       -1974.434          45.700          30.700
 18  2 20  9 48  0.0000000  0  7G05G13G07G09G28G30G02
 108935231.419 8  84884630.08447  20729691.961                    20729696.141
      1204.242         938.597          52.600          42.100
 121163036.591 7  94412777.65344  23056563.234                    23056567.660
      2952.230        2300.533          46.700          27.900
 110211444.635 8  85879101.32046  20972544.930                    20972549.750
     -1202.848        -937.027          51.500          39.500
 119439974.139 7  93070184.56845  22728682.148                    22728688.766
     -2854.277       -2223.961          47.100          34.800
 125969141.078 6  98157827.43943  23971136.797                    23971141.961
      3189.984        2485.726          40.400          19.600
 107144439.199 9  83489223.83947  20388908.977                    20388915.539
       483.477         376.980          54.500          44.400
 121351193.468 7  94559395.02044  23092374.945                    23092377.492
     -2544.512       -1982.431          43.600          29.400
 18  2 20  9 48 30.0000000  0  7G05G13G07G09G28G30G02
 108899351.821 8  84856671.94947  20722864.406                    20722868.664
      1187.664         925.685          52.800          42.100
 121074545.113 7  94343823.26344  23039723.992                    23039728.309
      2947.121        2296.542          46.000          28.500
 110247750.328 8  85907391.45046  20979453.594                    20979459.070
     -1217.613        -948.599          50.800          39.400
 119525674.257 7  93136963.84845  22744990.805                    22744997.133
     -2859.121       -2227.883          46.300          33.700
 125873496.438 6  98083299.14543  23952936.289                    23952940.938
      3186.602        2482.922          39.000          18.600
 107130202.379 8  83478130.20647  20386199.859                    20386206.016
       465.555         363.038          53.800          44.300
 121427673.050 7  94618989.46744  23106928.805                    23106930.648
     -2554.293       -1990.284          45.000          29.800
 18  2 20  9 49  0.0000000  0  7G05G13G07G09G28G30G02
 108863972.313 8  84829103.50046  20716131.844                    20716136.004
      1171.078         912.649          53.200          41.900
 120986209.780 7  94274990.55544  23022914.563                    23022919.246
      2941.992        2292.450          46.700          28.000
 110284502.572 8  85936029.55046  20986447.875                    20986452.254
     -1232.422        -960.196          51.300          39.400
 119611527.060 7  93203862.09345  22761327.477                    22761334.754
     -2864.145       -2231.861          46.500          33.900
 125777965.242 6  98008859.36142  23934756.625                    23934762.391
      3182.406        2479.868          38.600          17.800
 107116503.908 9  83467456.08147  20383592.984                    20383599.746
       447.738         349.035          55.100          44.600
 121504456.151 7  94678820.39944  23121540.336                    23121542.137
     -2564.383       -1998.161          45.000          28.900
 18  2 20  9 49 30.0000000  0  7G05G13G07G09G28G30G02
 108829094.781 9  84801926.19347  20709495.078                    20709499.211
      1154.180         899.571          54.100          42.000
 120898031.329 7  94206280.09044  23006134.555                    23006138.988
      2936.586        2288.348          46.400          28.300
 110321699.526 8  85965014.19446  20993526.336                    20993530.473
     -1247.359        -971.747          50.700          39.200
 119697531.656 7  93270878.59745  22777693.438                    22777700.473
     -2869.477       -2235.801          46.800          34.400
 125682550.720 6  97934510.47843  23916599.586                    23916605.535
      3178.379        2476.769          38.800          21.100
 107103343.758 9  83457201.40547  20381088.945                    20381095.238
       429.625         335.054          54.900          44.700
 121581539.902 7  94738885.61544  23136208.625                    23136210.902
     -2574.523       -2005.948          45.700          29.100
 18  2 20  9 50  0.0000000  0  7G05G13G07G09G28G30G02
 108794720.481 9  84775141.01547  20702953.922                    20702957.906
      1137.363         886.511          54.000          42.400
 120810010.664 7  94137692.57444  22989384.742                    22989389.145
      2931.473        2284.280          46.300          28.100
 110359339.920 8  85994344.35346  21000689.211                    21000692.980
     -1262.121        -983.242          51.600          39.600
 119783687.228 7  93338012.76145  22794089.141                    22794095.441
     -2874.441       -2239.709          47.600          34.100
 125587255.522 6  97860254.59043  23898465.695                    23898471.754
      3174.477        2473.659          40.700          22.200
 107090721.721 9  83447366.05947  20378686.914                    20378693.484
       411.801         321.093          54.800          44.200
 121658921.312 7  94799182.77945  23150933.836                    23150936.348
     -2584.328       -2013.645          46.100          30.000
 18  2 20  9 50 30.0000000  0  7G05G13G07G09G28G30G02
 108760850.822 9  84748749.06947  20696508.844                    20696512.918
      1120.527         873.357          54.100          42.500
 120722148.414 7  94069228.50144  22972665.156                    22972669.629
      2926.055        2280.103          47.500          28.900
 110397422.043 8  86024018.72746  21007936.555                    21007940.141
     -1276.727        -994.698          52.500          39.800
 119869992.693 7  93405263.74445  22810511.813                    22810518.613
     -2879.344       -2243.604          47.900          33.100
 125492082.760 6  97786094.07343  23880354.688                    23880360.672
      3170.297        2470.429          39.400          20.600
 107078637.460 9  83437949.76147  20376387.141                    20376393.887
       393.840         307.096          54.600          44.300
 121736597.807 7  94859709.87944  23165715.508                    23165717.438
     -2594.148       -2021.287          44.300          29.300
 18  2 20  9 51  0.0000000  0  7G05G13G07G09G28G30G02
 108727487.398 8  84722751.59647  20690159.695                    20690163.770
      1103.727         860.267          53.000          42.200
 120634445.604 7  94000888.65744  22955975.664                    22955980.012
      2920.770        2276.017          47.000          27.500
 110435944.482 8  86054036.19346  21015267.633                    21015271.316
     -1291.332       -1006.036          53.400          40.700
 119956447.530 7  93472631.12845  22826963.828                    22826970.848
     -2884.340       -2247.396          47.100          33.700
 125397035.337 6  97712031.20943  23862268.734                    23862273.055
      3166.199        2467.228          40.800          19.600
 107067091.074 9  83428952.57447  20374190.266                    20374196.715
       375.988         293.210          54.200          43.800
 121814566.767 7  94920464.86544  23180552.328                    23180554.988
     -2603.867       -2028.774          44.600          27.600
 18  2 20  9 51 30.0000000  0  7G05G13G07G09G28G30G02
 108694631.823 9  84697149.84747  20683907.539                    20683911.621
      1086.672         847.009          54.000          42.800
 120546902.805 7  93932673.49944  22939316.461                    22939321.438
      2915.344        2271.827          47.100          27.600
 110474906.010 8  86084395.82146  21022682.031                    21022685.285
     -1306.051       -1017.475          53.900          41.600
 120043050.740 7  93540114.10145  22843444.344                    22843451.141
     -2889.250       -2251.282          46.800          33.100
 125302116.297 6  97638068.38043  23844206.320                    23844210.027
      3161.672        2463.781          40.500          21.100
 107056082.244 9  83420374.26847  20372095.203                    20372101.551
       357.996         279.207          54.100          44.200
 121892825.314 7  94981445.50944  23195444.391                    23195447.336
     -2613.406       -2036.295          44.300          29.300
 18  2 20  9 52  0.0000000  0  7G05G13G07G09G28G30G02
 108662285.485 8  84671944.90547  20677752.250                    20677756.617
      1069.609         833.756          52.300          42.700
 120459521.246 7  93864583.99044  22922688.836                    22922692.883
      2910.031        2267.623          47.600          26.000
 110514304.876 9  86115096.23746  21030179.375                    21030182.465
     -1320.664       -1028.830          54.300          41.300
 120129801.480 7  93607712.02345  22859952.734                    22859959.363
     -2894.141       -2255.106          47.500          33.700
 125207328.320 6  97564207.70143  23826169.805                    23826173.125
      3157.227        2460.329          41.300          22.200
 107045610.709 8  83412214.63747  20370102.398                    20370109.184
       340.066         265.246          53.500          44.000
 121971370.644 7  95042649.62144  23210391.023                    23210393.949
     -2623.074       -2043.709          42.800          28.900
 18  2 20  9 52 30.0000000  0  7G05G13G07G09G28G30G02
 108630449.448 8  84647137.59847  20671694.320                    20671698.219
      1052.609         820.480          52.200          42.400
 120372301.162 7  93796620.27944  22906091.641                    22906095.082
      2904.578        2263.385          47.200          26.100
 110554139.463 9  86146136.17146  21037759.438                    21037762.891
     -1335.035       -1040.131          54.500          41.000
 120216698.646 7  93675424.06445  22876488.633                    22876495.598
     -2899.051       -2258.942          47.000          34.000
 125112674.177 6  97490451.30243  23808157.313                    23808160.945
      3152.848        2456.837          40.400          22.000
 107035676.073 8  83404473.37547  20368211.805                    20368218.227
       322.191         251.292          53.500          43.700
 122050199.718 7  95104074.81644  23225391.766                    23225394.844
     -2632.348       -2051.078          42.000          28.200
 18  2 20  9 53  0.0000000  0  7G05G13G07G09G28G30G02
 108599125.099 8  84622729.01147  20665733.102                    20665737.539
      1035.652         807.160          52.800          42.600
 120285243.793 7  93728783.37344  22889525.117                    22889528.520
      2899.238        2259.154          47.700          26.400
 110594407.848 9  86177514.13246  21045422.148                    21045425.500
     -1349.473       -1051.395          54.100          41.400
 120303741.436 7  93743249.56445  22893052.133                    22893058.844
     -2903.664       -2262.690          46.000          33.400
 125018156.715 6  97416801.46743  23790171.039                    23790175.258
      3148.250        2453.206          39.200          19.300
 107026278.076 8  83397150.26447  20366423.266                    20366430.004
       304.344         237.332          53.200          44.100
 122129309.820 7  95165718.98944  23240445.734                    23240448.633
     -2641.613       -2058.337          42.700          28.500
 18  2 20  9 53 30.0000000  0  7G05G13G07G09G28G30G02
 108568314.566 8  84598720.80147  20659870.109                    20659874.047
      1018.301         793.809          52.600          42.600
 120198350.052 7  93661073.97044  22872989.523                    22872993.473
      2893.652        2254.922          47.500          27.500
 110635109.084 8  86209229.37746  21053167.094                    21053170.504
     -1363.902       -1062.585          53.700          40.600
 120390929.378 7  93811188.19145  22909643.492                    22909650.215
     -2908.754       -2266.435          45.400          33.200
 124923779.100 6  97343260.57142  23772211.117                    23772215.344
      3143.559        2449.574          37.200          17.400
 107017416.726 8  83390245.32147  20364736.898                    20364744.141
       286.344         223.422          53.800          43.700
 122208698.487 7  95227580.23344  23255553.359                    23255556.086
     -2650.957       -2065.526          43.100          28.300
 18  2 20  9 54  0.0000000  0  7G05G13G07G09G28G30G02
 108538018.899 8  84575113.78247  20654105.188                    20654109.219
      1001.301         780.417          52.700          42.100
 120111620.495 7  93593492.50544  22856485.719                    22856489.000
      2888.309        2250.642          47.800          26.500
 110676241.439 8  86241280.56246  21060993.844                    21060997.688
     -1378.199       -1073.786          53.800          40.400
 120478261.392 7  93879239.06845  22926262.086                    22926268.930
     -2913.352       -2270.184          46.300          33.300
 124829544.115 5  97269830.75342  23754278.148                    23754282.617
      3138.695        2445.863          34.900          17.800
 107009091.577 8  83383758.19347  20363152.828                    20363159.699
       268.617         209.500          53.700          43.900
 122288362.720 7  95289656.22344  23270712.195                    23270715.352
     -2659.973       -2072.634          42.100          28.100
 18  2 20  9 54 30.0000000  0  7G05G13G07G09G28G30G02
 108508239.571 8  84551909.11147  20648438.508                    20648442.031
       983.984         766.993          51.900          42.500
 120025056.116 7  93526039.76044  22840012.688                    22840016.590
      2882.703        2246.320          46.500          27.500
 110717803.363 8  86273666.47346  21068902.758                    21068906.508
     -1392.551       -1084.916          53.200          40.400
 120565736.733 7  93947401.61545  22942908.242                    22942915.188
     -2918.266       -2273.857          46.300          32.200
 124735454.799 6  97196514.53142  23736373.422                    23736376.980
      3133.707        2442.002          36.000          17.800
 107001302.402 8  83377688.70747  20361670.758                    20361677.078
       250.711         195.593          53.500          44.000
 122368299.765 7  95351944.78144  23285924.602                    23285926.930
     -2669.137       -2079.691          42.000          27.700
 18  2 20  9 55  0.0000000  0  7G05G13G07G09G28G30G02
 108478977.919 8  84529107.82446  20642870.117                    20642873.813
       966.719         753.568          52.800          41.900
 119938657.725 7  93458716.33244  22823571.469                    22823574.477
      2877.148        2242.061          45.100          26.300
 110759792.968 8  86306385.64246  21076893.523                    21076897.188
     -1406.785       -1095.956          53.800          40.400
 120653354.528 7  94015675.17045  22959581.195                    22959588.223
     -2923.027       -2277.531          45.300          32.500
 124641514.030 5  97123314.00742  23718496.430                    23718500.609
      3128.957        2438.171          35.500          17.400
 106994048.774 8  83372036.53847  20360290.195                    20360297.309
       232.824         181.714          53.200          43.600
 122448506.688 6  95414443.63744  23301186.930                    23301189.652
     -2678.078       -2086.623          41.300          28.100
 18  2 20  9 55 30.0000000  0  7G05G13G07G09G28G30G02
 108450235.535 8  84506711.16147  20637400.602                    20637404.531
       949.246         740.002          52.700          42.700
 119852426.254 7  93391522.99744  22807162.242                    22807166.184
      2871.480        2237.653          45.900          27.000
 110802209.171 8  86339437.23146  21084965.047                    21084968.461
     -1421.035       -1107.070          53.800          40.500
 120741114.135 7  94084059.22645  22976281.875                    22976288.602
     -2927.746       -2281.232          46.400          32.400
 124547724.998 6  97050231.72343  23700647.594                    23700653.625
      3123.691        2434.171          37.000          19.000
 106987330.643 8  83366801.64547  20359011.758                    20359018.766
       214.910         167.774          52.700          43.700
 122528980.912 6  95477150.78444  23316500.914                    23316503.652
     -2687.004       -2093.585          41.900          28.200
 18  2 20  9 56  0.0000000  0  8G05G13G07G09G28G30G20G02
 108422013.752 8  84484720.16547  20632030.281                    20632034.117
       931.754         726.462          52.900          42.100
 119766362.963 7  93324460.71044  22790785.320                    22790789.051
      2865.781        2233.270          45.600          28.100
 110845050.165 8  86372819.83146  21093117.367                    21093120.770
     -1435.316       -1118.092          53.500          40.200
 120829014.851 7  94152553.26845  22993009.078                    22993015.098
     -2932.645       -2284.925          46.800          32.300
 124454090.566 6  96977269.92343  23682829.570                    23682835.355
      3118.301        2430.067          39.200          19.600
 106981147.722 8  83361983.77947  20357835.289                    20357841.867
       196.953         153.861          52.200          43.900
 128372228.237 7 100030363.15243  24428433.055                    24428436.664
      3552.832        2768.686          43.500          22.500
 122609719.748 7  95540064.11744  23331865.000                    23331867.793
     -2695.980       -2100.423          42.600          24.700
 18  2 20  9 56 30.0000000  0  8G05G13G07G09G28G30G20G02
 108394314.805 8  84463136.56947  20626759.281                    20626763.145
       914.598         712.873          53.000          42.500
 119680469.004 7  93257530.36844  22774440.172                    22774443.617
      2860.289        2228.883          46.400          27.600
 110888315.304 8  86406532.91146  21101350.023                    21101354.172
     -1449.250       -1129.089          53.000          40.400
 120917056.501 7  94221157.12545  23009762.344                    23009769.355
     -2937.102       -2288.563          45.500          32.000
 124360614.454 6  96904431.45043  23665042.789                    23665047.383
      3113.180        2425.911          41.100          19.900
 106975500.295 8  83357583.19947  20356760.289                    20356767.191
       179.348         139.961          52.800          43.200
 128265705.903 7  99947358.73143  24408162.953                    24408166.684
      3548.570        2765.059          43.200          22.000
 122690720.872 7  95603181.82144  23347279.383                    23347282.047
     -2704.324       -2107.180          42.900          27.000
 18  2 20  9 57  0.0000000  0  8G05G13G07G09G28G30G20G02
 108367138.746 8  84441960.41947  20621587.656                    20621591.676
       897.172         699.252          53.400          42.400
 119594744.198 7  93190731.81744  22758127.008                    22758131.094
      2854.609        2224.434          46.800          28.200
 110932002.012 8  86440574.49146  21109663.383                    21109667.965
     -1463.223       -1140.049          53.800          40.700
 121005237.187 7  94289869.30645  23026542.000                    23026549.734
     -2941.750       -2292.192          45.500          32.900
 124267298.461 7  96831717.70843  23647286.617                    23647290.152
      3107.707        2421.707          43.600          20.600
 106970386.882 8  83353598.72547  20355787.234                    20355794.332
       161.469         126.072          53.000          43.300
 128159322.700 7  99864462.74143  24387918.805                    24387922.086
      3543.520        2761.365          43.000          22.000
 122771980.659 7  95666501.07544  23362742.273                    23362744.953
     -2713.035       -2113.917          42.700          27.100
 18  2 20  9 57 30.0000000  0  8G05G13G07G09G28G30G20G02
 108340487.079 8  84421192.88347  20616516.148                    20616520.078
       879.645         685.625          53.100          42.300
 119509189.334 7  93124065.70644  22741846.578                    22741850.570
      2849.020        2220.029          47.400          28.700
 110976108.762 8  86474943.36846  21118056.617                    21118061.254
     -1477.184       -1150.912          53.400          40.700
 121093556.110 7  94358689.18545  23043349.289                    23043356.340
     -2946.238       -2295.760          45.800          31.500
 124174145.399 7  96759130.93743  23629560.664                    23629563.273
      3102.340        2417.449          44.600          21.300
 106965807.096 8  83350030.06947  20354915.758                    20354923.063
       143.734         112.235          53.200          43.500
 128053080.854 7  99781676.90743  24367701.195                    24367704.801
      3539.152        2757.721          42.800          22.000
 122853496.154 7  95730019.59944  23378254.156                    23378257.191
     -2721.395       -2120.495          43.700          27.700
 18  2 20  9 58  0.0000000  0  8G05G13G07G09G28G30G20G02
 108314361.142 8  84400835.03247  20611544.180                    20611548.734
       862.000         671.929          53.000          42.400
 119423805.550 8  93057532.89944  22725598.531                    22725602.512
      2843.168        2215.561          48.000          29.300
 111020633.443 8  86509637.91846  21126529.180                    21126533.543
     -1491.164       -1161.769          53.200          39.900
 121182012.593 7  94427616.24545  23060182.594                    23060189.457
     -2950.891       -2299.340          46.100          32.100
 124081158.541 7  96686673.70643  23611866.461                    23611869.074
      3096.699        2413.086          43.700          22.600
 106961760.620 8  83346876.98447  20354145.867                    20354152.789
       125.980          98.361          52.100          43.800
 127946983.040 7  99699003.30043  24347511.828                    24347515.289
      3534.102        2753.935          43.200          22.300
 122935264.399 7  95793735.04144  23393814.711                    23393816.805
     -2729.797       -2127.049          44.800          27.600
 18  2 20  9 58 30.0000000  0  8G05G13G07G09G28G30G20G02
 108288762.197 9  84380887.78147  20606673.445                    20606677.121
       844.473         658.279          54.500          42.500
 119338593.079 8  92991133.56745  22709383.305                    22709387.902
      2837.563        2211.146          48.400          30.100
 111065574.615 8  86544657.01346  21135081.703                    21135085.395
     -1505.004       -1172.521          53.400          40.200
 121270605.553 7  94496649.66645  23077041.266                    23077047.594
     -2955.348       -2302.824          46.300          31.900
 123988340.483 7  96614348.00643  23594204.141                    23594205.902
      3091.148        2408.727          45.000          22.500
 106958246.826 8  83344138.95347  20353477.344                    20353484.141
       108.316          84.599          53.000          43.800
 127841030.977 6  99616443.24543  24327350.047                    24327353.508
      3529.297        2750.161          41.700          22.500
 123017282.814 7  95857645.44844  23409421.656                    23409424.914
     -2738.070       -2133.449          45.100          27.000
 18  2 20  9 59  0.0000000  0  8G05G13G07G09G28G30G20G02
 108263691.348 8  84361352.04347  20601902.875                    20601906.230
       826.961         644.543          53.000          42.400
 119253553.557 7  92924869.00944  22693200.758                    22693205.160
      2831.805        2206.625          47.700          28.500
 111110930.880 8  86579999.58346  21143712.852                    21143716.020
     -1518.742       -1183.292          53.800          40.200
 121359334.319 7  94565788.91945  23093925.477                    23093931.660
     -2959.809       -2306.349          44.700          30.800
 123895694.181 7  96542156.14343  23576574.000                    23576575.516
      3085.344        2404.221          45.100          22.900
 106955265.272 8  83341815.67647  20352910.102                    20352917.176
        90.559          70.744          52.800          43.400
 127735227.553 6  99533999.04943  24307216.008                    24307220.059
      3524.301        2746.226          41.200          22.600
 123099548.247 7  95921748.31344  23425076.695                    23425079.531
     -2746.164       -2139.843          45.200          28.400
 18  2 20  9 59 30.0000000  0  8G05G13G07G09G28G30G20G02
 108239150.029 8  84342228.94646  20597232.219                    20597236.281
       809.230         630.777          52.300          41.400
 119168687.804 7  92858739.87244  22677051.125                    22677055.000
      2825.969        2202.120          46.700          29.000
 111156700.294 9  86615664.04746  21152422.727                    21152425.516
     -1532.445       -1193.995          55.000          39.800
 121448198.117 7  94635033.40245  23110835.336                    23110841.953
     -2964.379       -2309.863          43.900          30.000
 123803222.684 7  96470100.47543  23558977.172                    23558979.195
      3079.383        2399.612          44.100          22.300
 106952815.645 8  83339906.87347  20352443.656                    20352450.652
        72.844          56.955          53.400          43.800
 127629575.053 6  99451672.44543  24287111.000                    24287115.051
      3519.305        2742.312          41.400          21.800
 123182057.885 7  95986041.48544  23440777.727                    23440780.707
     -2754.270       -2146.156          45.100          28.900
                            4  1
RINEX FILE SPLICE; other post-header comments skipped       COMMENT
 18  2 20 10  0  0.0000000  0  8G05G13G07G09G28G30G20G02
 108215139.665 8  84323519.58246  20592662.945                    20592667.035
       791.367                          52.300          41.700
 119083996.313 8  92792746.50245  22660934.789                    22660939.141
      2820.039                          48.400          30.200
 111202881.403 9  86651649.33546  21161210.500                    21161213.395
     -1546.285                          54.000          40.100
 121537196.146 7  94704382.51844  23127770.352                    23127777.148
     -2969.035                          43.900          28.500
 123710929.017 7  96398183.42343  23541413.859                    23541415.809
      3073.406                          43.000          20.100
 106950897.459 8  83338412.18347  20352078.859                    20352085.855
        54.980                          52.700          43.800
 127524075.790 6  99369465.23043  24267035.375                    24267039.000
      3514.023                          39.900          22.300
 123264809.365 7  96050523.09244  23456524.852                    23456528.242
     -2762.453                          45.400          27.100
 18  2 20 10  0 30.0000000  0  8G05G13G07G09G28G30G20G02
 108191661.356 8  84305224.80746  20588195.234                    20588199.699
       773.535         603.106          52.800          41.500
 118999480.259 7  92726889.85544  22644852.563                    22644856.227
      2814.137        2192.978          47.600          29.600
 111249472.406 9  86687954.02346  21170076.727                    21170080.063
     -1559.977       -1215.319          54.400          40.500
 121626327.733 7  94773835.70444  23144730.898                    23144738.801
     -2973.473       -2316.822          45.100          29.900
 123618815.972 6  96326407.08543  23523884.266                    23523887.180
      3067.172        2390.221          41.700          21.100
 106949510.261 8  83337331.25547  20351814.945                    20351821.430
        37.227          29.344          53.400          43.600
 127418732.138 6  99287379.28543  24246989.258                    24246992.191
      3508.648        2734.171          40.000          21.500
 123347799.406 7  96115190.59644  23472317.102                    23472320.922
     -2770.516       -2158.586          45.100          27.300
 18  2 20 10  1  0.0000000  0  8G05G13G07G09G28G30G20G02
 108168716.259 8  84287345.51446  20583828.859                    20583833.441
       755.906         589.287          52.500          41.600
 118915140.498 7  92661170.57745  22628802.938                    22628806.813
      2808.398        2188.441          45.200          30.100
 111296472.017 8  86724577.10146  21179019.992                    21179024.102
     -1573.410       -1225.881          53.800          40.300
 121715592.037 7  94843392.28245  23161718.055                    23161725.512
     -2977.582       -2320.201          46.300          30.800
 123526886.487 6  96254773.75343  23506391.914                    23506393.316
      3061.199        2385.440          41.800          21.800
 106948653.517 8  83336663.66147  20351651.766                    20351658.492
        19.605          15.608          53.000          43.400
 127313546.482 6  99205416.44143  24226972.227                    24226976.109
      3503.559        2730.086          38.900          22.000
 123431025.418 7  96180041.99644  23488154.609                    23488158.164
     -2778.129       -2164.651          45.200          26.700
 18  2 20 10  1 30.0000000  0  8G05G13G07G09G28G30G20G02
 108146305.393 9  84269882.50847  20579564.375                    20579568.688
       738.273         575.376          54.000          42.300
 118830977.330 7  92595588.91645  22612786.820                    22612791.363
      2802.641        2183.813          47.500          30.700
 111343878.230 8  86761517.01146  21188041.047                    21188045.195
     -1586.797       -1236.439          53.700          40.600
 121804988.263 8  94913051.62745  23178730.359                    23178737.176
     -2981.957       -2323.634          48.100          31.400
 123435143.391 6  96183285.67543  23488933.398                    23488935.852
      3055.035        2380.552          40.500          21.700
 106948326.647 8  83336408.95847  20351589.539                    20351595.863
         2.211           1.831          53.500          43.900
 127208521.197 6  99123578.56543  24206987.531                    24206990.766
      3498.199        2725.873          38.500          21.500
 123514484.365 7  96245074.89444  23504036.773                    23504039.746
     -2785.758       -2170.672          44.300          26.000
 18  2 20 10  2  0.0000000  0  8G05G13G07G09G28G30G20G02
 108124430.424 8  84252837.07647  20575401.742                    20575405.816
       720.363         561.471          53.400          42.700
 118746992.343 7  92530146.06245  22596806.000                    22596809.527
      2796.660        2179.208          47.500          31.400
 111391689.671 8  86798772.66646  21197139.273                    21197143.641
     -1600.395       -1246.910          53.800          39.700
 121894515.675 8  94982813.18645  23195767.164                    23195773.934
     -2986.348       -2327.007          49.000          32.600
 123343589.658 6  96111945.17743  23471511.125                    23471513.719
      3048.625        2375.631          37.300          18.300
 106948529.146 8  83336566.74747  20351628.414                    20351634.988
       -15.434         -11.888          53.200          43.900
 127103658.774 6  99041867.60243  24187032.531                    24187036.262
      3492.738        2721.659          39.300          22.900
 123598173.424 7  96310287.09744  23519961.742                    23519964.660
     -2793.289       -2176.580          44.600          24.800
 18  2 20 10  2 30.0000000  0  8G05G13G07G09G28G30G20G02
 108103092.461 8  84236210.09047  20571341.242                    20571345.469
       702.375         547.491          53.200          42.100
 118663186.249 7  92464842.62145  22580857.648                    22580861.637
      2790.574        2174.533          46.400          31.200
 111439904.438 8  86836342.60846  21206314.195                    21206317.875
     -1613.836       -1257.367          52.300          39.400
 121984173.407 8  95052676.29345  23212829.664                    23212835.129
     -2990.738       -2330.388          48.200          33.300
 123252227.776 5  96040754.20442  23454123.523                    23454127.688
      3042.379        2370.618          35.200          16.900
 106949260.434 8  83337136.58347  20351767.453                    20351774.059
       -33.113         -25.616          52.400          43.900
 126998961.557 6  98960285.37243  24167109.469                    24167113.004
      3487.059        2717.328          39.700          22.600
 123682089.712 7  96375676.34244  23535930.531                    23535933.695
     -2801.004       -2182.480          44.000          25.800
 18  2 20 10  3  0.0000000  0  8G05G13G07G09G28G30G20G02
 108082292.551 8  84220002.36047  20567383.242                    20567387.148
       684.340         533.447          52.700          42.600
 118579559.702 7  92399679.10445  22564943.867                    22564948.137
      2784.543        2169.815          47.000          31.200
 111488520.884 8  86874225.55446  21215565.734                    21215569.348
     -1627.262       -1267.842          53.000          39.500
 122073960.636 7  95122640.30245  23229915.641                    23229920.676
     -2995.074       -2333.793          46.800          31.900
 123161061.384 6  95969715.46643  23436774.648                    23436778.816
      3035.453        2365.451          38.600          19.900
 106950519.849 8  83338117.94747  20352007.758                    20352013.586
       -50.816         -39.391          51.100          43.900
 126894431.803 6  98878833.64843  24147218.070                    24147221.148
      3481.492        2712.895          38.400          20.600
 123766230.510 7  96441240.54544  23551942.344                    23551945.477
     -2808.418       -2188.314          44.100          24.100
 18  2 20 10  3 30.0000000  0  8G05G13G07G09G28G30G20G02
 108062031.843 8  84204214.79547  20563527.867                    20563531.512
       666.215         519.438          53.000          42.100
 118496113.704 7  92334656.28045  22549064.359                    22549068.586
      2778.484        2165.145          46.900          32.400
 111537537.294 8  86912420.16946  21224892.969                    21224896.598
     -1640.621       -1278.185          52.500          39.200
 122163876.533 7  95192704.57845  23247026.383                    23247031.270
     -2999.418       -2337.112          47.600          32.200
 123070093.297 6  95898831.24843  23419464.227                    23419469.059
      3028.883        2360.274          38.200          20.400
 106952306.806 8  83339510.37947  20352347.305                    20352353.527
       -68.437         -53.057          52.900          43.600
 126790071.859 6  98797514.22043  24127358.695                    24127362.242
      3475.688        2708.438          38.900          21.700
 123850592.722 7  96506977.29044  23567996.227                    23567998.867
     -2815.785       -2193.989          44.500          25.100
 18  2 20 10  4  0.0000000  0  8G05G13G07G09G28G30G20G02
 108042311.312 8  84188848.13647  20559775.305                    20559779.352
       648.367         505.458          53.500          42.000
 118412849.080 7  92269774.75045  22533219.938                    22533223.938
      2772.449        2160.436          47.400          31.400
 111586951.754 8  86950924.94946  21234296.234                    21234300.230
     -1653.699       -1288.469          53.100          39.600
 122253920.351 7  95262868.55145  23264161.273                    23264165.887
     -3003.684       -2340.394          47.000          31.900
 122979325.998 6  95828103.53043  23402191.805                    23402196.801
      3022.164        2355.047          37.400          19.000
 106954620.692 8  83341313.41247  20352787.531                    20352794.051
       -85.871         -66.701          52.800          44.300
 126685884.245 6  98716329.09643  24107532.680                    24107535.793
      3470.047        2703.992          40.900          21.800
 123935173.548 7  96572884.36144  23584091.758                    23584094.152
     -2822.969       -2199.612          45.200          25.400
 18  2 20 10  4 30.0000000  0  8G05G13G07G09G28G30G20G02
 108023131.949 8  84173903.18246  20556125.188                    20556129.449
       630.230         491.381          53.000          41.800
 118329766.392 7  92205035.01745  22517409.633                    22517413.879
      2766.324        2155.731          47.300          31.900
 111636763.167 8  86989739.02946  21243774.930                    21243778.969
     -1667.027       -1298.761          52.900          39.400
 122344091.155 7  95333131.47945  23281320.070                    23281324.660
     -3007.867       -2343.653          46.300          30.700
 122888762.518 5  95757534.65643  23384956.797                    23384963.000
      3015.328        2349.736          35.000          19.000
 106957460.705 8  83343526.41047  20353328.086                    20353334.363
      -103.395         -80.332          52.900          44.300
 126581871.115 6  98635279.89843  24087739.367                    24087743.125
      3464.059        2699.450          40.800          22.200
 124019969.956 7  96638959.43144  23600227.258                    23600229.824
     -2830.086       -2205.144          44.100          24.800
 18  2 20 10  5  0.0000000  0  8G05G13G07G09G28G30G20G02
 108004494.987 8  84159380.87346  20552578.859                    20552583.070
       612.074         477.222          52.900          41.700
 118246866.906 7  92140438.04945  22501634.586                    22501639.414
      2760.156        2150.875          47.500          32.100
 111686969.967 8  87028861.21446  21253328.820                    21253333.020
     -1680.266       -1309.060          51.400          39.000
 122434388.366 7  95403492.89245  23298502.570                    23298508.273
     -3012.090       -2347.006          44.100          30.900
 122798405.789 6  95687126.87843  23367762.922                    23367768.488
      3008.270        2344.297          37.500          19.600
 106960826.457 8  83346149.07247  20353968.539                    20353974.785
      -121.105         -94.058          52.800          44.400
 126478035.387 6  98554368.96643  24067980.297                    24067983.926
      3458.000        2694.722          41.600          22.900
 124104979.231 7  96705200.39244  23616404.672                    23616407.477
     -2837.195       -2210.734          43.900          24.100
 18  2 20 10  5 30.0000000  0  8G05G13G07G09G28G30G20G02
 107986401.192 8  84145281.80746  20549135.609                    20549139.660
       594.109         463.165          52.400          41.600
 118164151.262 7  92075984.31645  22485893.930                    22485898.383
      2754.141        2146.162          46.600          31.100
 111737569.162 8  87068289.14746  21262957.703                    21262961.793
     -1693.172       -1319.161          51.200          38.700
 122524811.002 7  95473952.01945  23315709.148                    23315715.082
     -3016.098       -2350.174          44.800          30.400
 122708258.624 6  95616882.34843  23350608.758                    23350613.332
      3001.555        2338.870          39.700          20.400
 106964717.027 8  83349180.68747  20354708.945                    20354715.098
      -138.449        -107.632          52.800          43.800
 126374379.056 6  98473597.85443  24048255.055                    24048259.102
      3452.188        2690.108          41.400          23.300
 124190198.268 7  96771604.77344  23632620.984                    23632623.762
     -2844.008       -2216.074          45.400          24.900
 18  2 20 10  6  0.0000000  0  8G05G13G07G09G28G30G20G02
 107968852.320 8  84131607.38946  20545795.906                    20545800.137
       575.766         448.932          52.700          41.100
 118081620.411 7  92011674.57745  22470188.859                    22470193.176
      2747.820        2141.281          46.600          31.500
 111788559.961 8  87108022.22246  21272660.859                    21272665.121
     -1706.328       -1329.373          52.600          39.000
 122615358.658 7  95544508.55444  23332939.781                    23332945.559
     -3020.461       -2353.488          45.000          28.100
 122618324.280 6  95546803.63943  23333494.203                    23333499.457
      2994.207        2333.234          39.500          19.300
 106969132.043 8  83352620.96747  20355549.164                    20355555.250
      -155.996        -121.284          53.900          44.200
 126270904.526 7  98392968.36143  24028564.125                    24028568.285
      3446.039        2685.306          42.400          23.800
 124275624.729 7  96838170.82044  23648877.188                    23648879.668
     -2851.012       -2221.465          44.700          25.500
 18  2 20 10  6 30.0000000  0  8G05G13G07G09G28G30G20G02
 107951849.287 8  84118358.26746  20542560.281                    20542564.449
       557.625         434.799          53.500          41.500
 117999275.850 7  91947509.99045  22454519.086                    22454523.473
      2741.684        2136.490          46.500          32.300
 111839940.585 8  87148059.05646  21282438.836                    21282442.852
     -1719.270       -1339.430          52.700          39.900
 122706030.341 7  95615161.78344  23350194.750                    23350199.520
     -3024.586       -2356.650          45.000          27.000
 122528605.517 6  95476892.95243  23316421.125                    23316426.988
      2986.957        2327.638          39.900          21.300
 106974070.711 8  83356469.27547  20356489.242                    20356495.285
      -173.398        -134.828          53.800          44.500
 126167614.735 7  98312482.83644  24008908.984                    24008913.168
      3439.762        2680.517          42.300          24.400
 124361255.241 7  96904895.84744  23665171.781                    23665174.535
     -2857.805       -2226.704          43.100          25.300
 18  2 20 10  7  0.0000000  0  8G05G13G07G09G28G30G20G02
 107935393.034 8  84105535.21046  20539428.852                    20539433.102
       539.344         420.533          51.800          41.500
 117917118.002 7  91883490.92845  22438885.016                    22438889.785
      2735.449        2131.589          46.600          31.600
 111891709.244 8  87188398.26846  21292289.984                    21292294.305
     -1732.082       -1349.530          53.200          39.600
 122796825.375 7  95685911.15944  23367471.648                    23367477.328
     -3028.586       -2359.879          44.500          29.300
 122439105.209 6  95407152.44843  23299390.023                    23299395.863
      2979.633        2321.903          41.400          21.800
 106979532.391 9  83360725.13147  20357528.594                    20357534.398
      -190.781        -148.446          54.500          44.300
 126064511.904 7  98232142.98844  23989289.234                    23989292.926
      3433.582        2675.589          42.000          25.300
 124447087.146 7  96971777.80244  23681505.461                    23681507.855
     -2864.352       -2231.952          43.500          24.300
 18  2 20 10  7 30.0000000  0  8G05G13G07G09G28G30G20G02
 107919484.244 8  84093138.76246  20536401.930                    20536405.879
       521.125         406.304          53.100          41.600
 117835147.533 7  91819617.85145  22423286.594                    22423291.145
      2729.145        2126.695          46.600          32.000
 111943864.123 8  87229038.42046  21302214.586                    21302218.547
     -1744.965       -1359.535          53.000          39.000
 122887742.789 7  95756755.86544  23384772.203                    23384779.309
     -3032.695       -2363.047          44.500          27.300
 122349825.897 7  95337584.18743  23282400.641                    23282406.676
      2972.277        2316.131          43.100          23.200
 106985516.107 9  83365387.77047  20358667.328                    20358673.566
      -208.199        -162.004          55.000          44.700
 125961598.265 7  98151950.55144  23969705.633                    23969708.859
      3427.230        2670.670          42.800          24.200
 124533117.503 7  97038814.40044  23697876.477                    23697878.973
     -2871.043       -2237.035          43.400          24.000
 18  2 20 10  8  0.0000000  0  8G05G13G07G09G28G30G20G02
 107904124.347 8  84081169.99447  20533478.953                    20533483.324
       502.785         392.092          53.000          42.300
 117753365.592 7  91755891.65345  22407724.250                    22407728.680
      2722.828        2121.850          46.000          32.100
 111996403.832 8  87269978.45246  21312212.648                    21312216.297
     -1757.820       -1369.477          52.700          39.200
 122978782.045 6  95827695.49544  23402095.031                    23402103.574
     -3036.789       -2366.168          41.800          27.000
 122260770.881 7  95268190.69843  23265454.477                    23265459.699
      2964.719        2310.286          44.100          22.500
 106992021.355 9  83370456.79547  20359905.305                    20359911.047
      -225.625        -175.493          55.000          44.600
 125858876.428 6  98071907.57444  23950158.805                    23950161.578
      3420.734        2665.701          41.700          24.600
 124619343.245 6  97106003.22643  23714284.727                    23714287.121
     -2877.434       -2242.038          41.800          22.900
 18  2 20 10  8 30.0000000  0  8G05G13G07G09G28G30G20G02
 107889314.107 8  84069629.55647  20530660.930                    20530665.008
       484.523         377.751          52.600          42.100
 117671773.063 7  91692313.08345  22392197.680                    22392202.047
      2716.637        2116.875          45.900          32.800
 112049326.377 8  87311216.78646  21322283.164                    21322287.344
     -1770.469       -1379.422          53.300          38.900
 123069942.267 7  95898729.36844  23419442.875                    23419450.398
     -3040.570       -2369.336          42.200          26.200
 122171942.954 7  95198974.12044  23248552.227                    23248556.359
      2957.145        2304.330          45.200          25.400
 106999047.256 9  83375931.52347  20361242.320                    20361248.270
      -242.824        -189.038          54.800          44.900
 125756348.865 7  97992015.99744  23930648.148                    23930651.238
      3414.266        2660.554          43.600          26.100
 124705761.479 6  97173342.04844  23730729.891                    23730731.895
     -2883.852       -2247.040          40.900          24.400
 18  2 20 10  9  0.0000000  0  8G05G13G07G09G28G30G20G02
 107875054.337 8  84058518.04947  20527947.063                    20527951.281
       466.074         363.472          53.400          42.300
 117590370.661 7  91628882.66745  22376707.477                    22376711.492
      2710.250        2111.967          47.500          33.300
 112102630.146 8  87352752.17646  21332427.063                    21332430.844
     -1783.078       -1389.277          52.500          39.900
 123161222.413 7  95969856.74644  23436812.695                    23436820.066
     -3044.652       -2372.407          44.000          25.900
 122083344.942 7  95129936.73444  23231692.602                    23231697.277
      2949.328        2298.329          44.400          24.300
 107006592.816 9  83381811.19047  20362677.898                    20362683.910
      -260.234        -202.519          55.000          45.300
 125654017.669 7  97912277.42144  23911175.461                    23911178.793
      3407.781        2655.469          43.000          25.100
 124792369.348 6  97240828.64743  23747210.492                    23747213.316
     -2890.098       -2251.904          41.700          22.200
