     2.11           OBSERVATION DATA    G (GPS)             RINEX VERSION / TYPE
teqc  2016Nov7                          20180328 12:23:34UTCPGM / RUN BY / DATE
Linux 2.4.21-27.ELsmp|Opteron|gcc|Linux x86_64|=+           COMMENT
teqc  2016Nov7                          20180328 12:23:33UTCCOMMENT
     2.11           OBSERVATION DATA    M (MIXED)           COMMENT
teqc  2016Nov7                          20180328 12:23:31UTCCOMMENT
teqc  2016Nov7      IGN-RGP             20180220 09:14:31UTCCOMMENT
teqc  2015Jun23     IGN-RGP             20180220 09:06:52UTCCOMMENT
Linux2.4.20-8|i386|gcc|Win32-MinGW32|=                      COMMENT
   0.000      (antenna height)                              COMMENT
 +48.74122643 (latitude)                                    COMMENT
  +3.11041611 (longitude)                                   COMMENT
0219.653      (elevation)                                   COMMENT
BIT 2 OF LLI FLAGS DATA COLLECTED UNDER A/S CONDITION       COMMENT
19602M001 (COGO code)                                       COMMENT
SXJ1                                                        MARKER NAME
19602M001                                                   MARKER NUMBER
Automatic           GIE COOP&TECH                           OBSERVER / AGENCY
4909K60865          TRIMBLE NETR5       4.70                REC # / TYPE / VERS
99999               TRM57971.00     NONE                    ANT # / TYPE
  4208047.3850   228666.9550  4771795.1550                  APPROX POSITION XYZ
        1.3000        0.0000        0.0000                  ANTENNA: DELTA H/E/N
     1     1                                                WAVELENGTH FACT L1/2
     7    L1    L2    C1    P1    P2    S1    S2            # / TYPES OF OBSERV
    30.0000                                                 INTERVAL
    18                                                      LEAP SECONDS
 SNR is mapped to RINEX snr flag value [0-9]                COMMENT
  L1 & L2: min(max(int(snr_dBHz/6), 0), 9)                  COMMENT
teqc_2016 edited: GLONASS # 25 - 30 excluded                COMMENT
Forced Modulo Decimation to 30 seconds                      COMMENT
teqc_2016 edited: all GLONASS satellites excluded           COMMENT
teqc_2016 edited: all SBAS satellites excluded              COMMENT
teqc_2016 edited: all Galileo satellites excluded           COMMENT
  2018     2    20     8     0    0.0000000     GPS         TIME OF FIRST OBS
                                                            END OF HEADER
 18  2 20  8  0  0.0000000  0  8G23G09G30G06G07G16G05G02
 118019821.996 8  91963545.43945  22458432.922                    22458435.496
        49.300          35.900
 106188944.531 8  82744691.16747  20207089.547                    20207095.766
        53.000          45.800
 121338626.703 7  94549630.74045  23089975.703                    23089983.020
        47.300          33.900
 111002811.618 8  86495758.76746  21123143.789                    21123151.332
        49.400          41.700
 113995775.106 8  88827940.82846  21692684.594                    21692689.293
        50.300          39.900
 127421950.255 6  99289883.30743  24247597.461                    24247601.379
        36.300          19.900
 125271608.664 7  97614275.42144  23838400.711                    23838405.227
        42.500          24.800
 115454976.771 7  89964957.97646  21970363.227                    21970364.469
        47.500          37.500
 18  2 20  8  0 30.0000000  0  8G23G09G30G06G07G16G05G02
 118094394.880 8  92021654.16545  22472623.492                    22472626.383
        50.000          35.600
 106217622.590 8  82767037.70547  20212546.711                    20212552.934
        52.300          46.400
 121233868.366 7  94468000.89745  23070040.656                    23070048.137
        47.200          34.400
 111056009.011 8  86537211.26546  21133266.711                    21133274.281
        48.900          41.800
 113925848.198 8  88773452.34346  21679377.609                    21679382.078
        50.200          39.200
 127393228.370 6  99267502.61443  24242132.594                    24242135.789
        37.100          20.400
 125172436.877 7  97536998.70044  23819529.453                    23819533.645
        42.300          25.600
 115425422.370 7  89941928.56846  21964738.953                    21964740.398
        45.700          37.700
 18  2 20  8  1  0.0000000  0  8G23G09G30G06G07G16G05G02
 118169153.813 8  92079907.86245  22486849.922                    22486852.234
        50.300          35.100
 106246684.698 8  82789683.49847  20218077.195                    20218083.305
        53.400          45.700
 121129315.378 7  94386531.06545  23050145.023                    23050152.555
        47.200          34.000
 111109742.339 8  86579081.37246  21143492.070                    21143499.266
        50.300          41.900
 113856332.032 8  88719283.91446  21666148.789                    21666153.684
        51.200          39.900
 127365071.520 6  99245562.21143  24236773.953                    24236777.438
        38.200          20.400
 125073357.360 7  97459793.89944  23800674.555                    23800679.223
        42.600          25.400
 115396392.706 7  89919308.04846  21959214.219                    21959215.977
        46.500          37.100
 18  2 20  8  1 30.0000000  0  8G23G09G30G06G07G16G05G02
 118244097.888 8  92138305.82945  22501111.078                    22501113.820
        48.100          34.300
 106276130.127 8  82812627.98547  20223680.656                    20223686.617
        52.400          46.200
 121024970.649 7  94305223.51445  23030288.672                    23030296.164
        47.500          34.400
 111164010.310 8  86621368.08546  21153818.820                    21153826.457
        48.500          41.700
 113787229.160 8  88665437.54146  21652999.414                    21653004.203
        50.100          39.500
 127337481.993 6  99224063.83143  24231523.563                    24231527.938
        37.600          21.500
 124974371.674 7  97382662.17944  23781838.992                    23781842.922
        42.900          26.000
 115367889.391 7  89897097.66246  21953790.375                    21953792.426
        46.700          37.600
 18  2 20  8  2  0.0000000  0  8G23G09G30G06G07G16G05G02
 118319225.681 8  92196846.94045  22515407.961                    22515409.910
        49.400          34.300
 106305957.464 8  82835870.05947  20229356.477                    20229362.629
        52.300          45.800
 120920836.367 7  94224079.95645  23010472.844                    23010480.301
        47.800          34.700
 111218810.826 8  86664069.77046  21164247.109                    21164254.586
        49.100          41.900
 113718540.886 8  88611914.22746  21639928.523                    21639932.969
        51.500          40.100
 127310461.155 6  99203008.68743  24226382.742                    24226386.414
        36.300          20.400
 124875481.236 7  97305604.68644  23763020.609                    23763024.855
        43.100          26.200
 115339912.766 7  89875297.69446  21948466.617                    21948468.340
        46.400          37.800
 18  2 20  8  2 30.0000000  0  8G23G09G30G06G07G16G05G02
 118394535.941 8  92255530.24845  22529738.422                    22529741.383
        49.500          34.100
 106336165.576 8  82859408.84047  20235104.805                    20235111.324
        52.500          45.900
 120816915.070 7  94143102.36045  22990696.992                    22990704.695
        47.800          34.400
 111274142.111 8  86707185.03946  21174775.695                    21174783.473
        49.500          41.400
 113650269.250 8  88558715.56346  21626937.242                    21626941.020
        51.600          39.800
 127284010.626 6  99182397.88643  24221348.258                    24221352.730
        39.900          21.500
 124776688.402 7  97228623.24844  23744220.734                    23744225.555
        44.000          27.600
 115312464.392 7  89853909.33946  21943243.469                    21943245.426
        47.200          37.600
 18  2 20  8  3  0.0000000  0  8G23G09G30G06G07G16G05G02
 118470027.778 8  92314355.04845  22544104.148                    22544106.645
        49.500          34.300
 106366753.539 8  82883243.60947  20240925.711                    20240932.254
        51.300          45.800
 120713209.460 8  94062292.82545  22970962.641                    22970969.602
        48.100          34.000
 111330002.555 8  86750712.64346  21185405.844                    21185413.945
        49.400          41.100
 113582416.348 8  88505843.18746  21614024.727                    21614028.957
        50.800          40.500
 127258132.089 5  99162232.75143  24216423.469                    24216427.836
        35.800          20.100
 124677994.437 7  97151718.86944  23725440.664                    23725444.648
        43.900          27.100
 115285545.711 7  89832933.73346  21938121.125                    21938122.691
        45.200          37.400
 18  2 20  8  3 30.0000000  0  8G23G09G30G06G07G16G05G02
 118545700.108 8  92373320.46945  22558504.383                    22558506.145
        48.600          33.900
 106397720.370 8  82907373.59847  20246818.563                    20246824.738
        52.700          46.100
 120609722.136 8  93981653.37045  22951269.383                    22951276.781
        48.300          34.400
 111386390.440 8  86794651.24946  21196136.406                    21196143.789
        49.200          41.600
 113514983.988 8  88453298.51746  21601192.406                    21601196.980
        52.200          40.500
 127232826.789 6  99142514.40343  24211607.922                    24211613.254
        37.900          20.900
 124579401.011 7  97074892.81744  23706678.539                    23706683.086
        44.100          27.800
 115259157.402 7  89812371.40546  21933099.281                    21933101.250
        47.500          37.400
 18  2 20  8  4  0.0000000  0  8G23G09G30G06G07G16G05G02
 118621551.438 8  92432425.38845  22572938.219                    22572940.578
        49.300          32.800
 106429064.774 8  82931797.80747  20252783.109                    20252789.621
        51.600          45.900
 120506455.485 8  93901185.88045  22931618.313                    22931625.641
        48.100          34.400
 111443303.802 8  86838999.29946  21206966.469                    21206973.695
        49.000          41.600
 113447973.851 8  88401082.84546  21588440.969                    21588445.426
        51.700          40.800
 127208096.233 6  99123243.83943  24206902.828                    24206906.230
        39.800          22.300
 124480908.857 7  96998145.67444  23687935.836                    23687940.441
        45.300          27.200
 115233300.502 8  89792223.16746  21928179.102                    21928180.949
        48.300          37.300
 18  2 20  8  4 30.0000000  0  8G23G09G30G06G07G16G05G02
 118697580.871 8  92491669.08345  22587406.023                    22587408.254
        48.300          32.900
 106460785.767 8  82956515.45847  20258819.336                    20258825.672
        52.100          46.000
 120403412.148 7  93820892.40045  22912010.023                    22912017.000
        47.200          34.200
 111500740.882 8  86883755.44746  21217896.320                    21217904.027
        48.400          41.700
 113381387.931 8  88349197.71746  21575770.297                    21575774.625
        52.300          40.200
 127183942.368 6  99104422.63043  24202306.094                    24202310.387
        40.900          22.000
 124382519.833 7  96921478.89144  23669213.211                    23669217.375
        43.900          27.100
 115207976.183 8  89772489.92846  21923359.836                    21923361.363
        48.600          37.700
 18  2 20  8  5  0.0000000  0  8G23G09G30G06G07G16G05G02
 118773786.834 7  92551050.32945  22601907.156                    22601909.492
        47.900          33.000
 106492882.016 8  82981525.52247  20264927.016                    20264933.223
        52.900          45.800
 120300594.459 7  93740774.74645  22892444.117                    22892451.520
        47.500          34.100
 111558699.639 8  86928918.09246  21228925.742                    21228933.395
        50.000          41.700
 113315227.823 8  88297644.40246  21563180.313                    21563184.313
        52.100          40.600
 127160366.368 6  99086051.69443  24197820.273                    24197824.063
        40.400          21.700
 124284235.829 7  96844893.95844  23650510.875                    23650514.891
        44.200          28.000
 115183185.460 7  89753172.47446  21918642.414                    21918644.008
        47.800          37.800
 18  2 20  8  5 30.0000000  0  8G23G09G30G06G07G16G05G02
 118850168.628 8  92610568.58145  22616442.570                    22616444.629
        48.500          32.600
 106525352.596 8  83006827.26247  20271106.133                    20271112.160
        52.700          45.800
 120198005.126 7  93660835.03745  22872922.484                    22872929.832
        47.800          34.800
 111617178.377 8  86974485.91546  21240053.727                    21240061.418
        49.700          41.600
 113249495.495 8  88246424.41246  21550672.289                    21550676.383
        52.300          40.500
 127137369.575 6  99068132.15943  24193444.055                    24193447.922
        39.600          22.200
 124186058.382 7  96768392.05944  23631828.047                    23631832.539
        44.500          28.300
 115158929.359 8  89734271.60646  21914026.172                    21914028.371
        48.400          37.600
 18  2 20  8  6  0.0000000  0  8G23G09G30G06G07G16G05G02
 118926724.886 8  92670222.78345  22631010.492                    22631012.609
        48.300          32.400
 106558196.147 8  83032419.63647  20277355.891                    20277362.262
        52.400          45.200
 120095646.412 7  93581075.03145  22853443.891                    22853451.500
        47.500          34.400
 111676174.957 8  87020457.25547  21251280.703                    21251288.199
        48.900          42.100
 113184192.430 8  88195538.92146  21538244.984                    21538249.535
        52.300          40.400
 127114953.314 6  99050664.94443  24189177.852                    24189181.859
        41.200          21.800
 124087988.294 7  96691973.81544  23613165.656                    23613170.328
        44.100          27.600
 115135208.886 7  89715788.11546  21909513.219                    21909514.895
        47.800          37.600
 18  2 20  8  6 30.0000000  0  8G23G09G30G06G07G16G05G02
 119003454.474 7  92730012.04445  22645611.719                    22645614.105
        47.800          31.600
 106591411.530 8  83058301.74247  20283676.539                    20283682.418
        52.500          45.800
 119993520.804 7  93501496.66645  22834010.273                    22834017.332
        47.300          34.300
 111735687.475 8  87066830.62147  21262605.484                    21262612.938
        49.600          42.000
 113119320.451 8  88144989.33746  21525900.297                    21525904.680
        51.400          40.000
 127093119.055 7  99033651.20843  24185023.031                    24185026.668
        42.200          23.000
 123990028.041 7  96615641.13544  23594524.305                    23594528.855
        43.400          28.400
 115112024.551 7  89697722.38746  21905100.977                    21905102.570
        47.800          37.700
 18  2 20  8  7  0.0000000  0  8G23G09G30G06G07G16G05G02
 119080356.017 8  92789935.29345  22660245.906                    22660247.707
        48.400          32.800
 106624997.696 8  83084472.77247  20290068.078                    20290074.258
        52.800          45.800
 119891630.915 7  93422101.97445  22814620.648                    22814628.156
        47.000          34.500
 111795714.010 8  87113604.51647  21274028.195                    21274036.164
        49.800          42.400
 113054881.141 8  88094776.89346  21513637.867                    21513642.234
        52.300          39.400
 127071868.096 6  99017092.03143  24180979.156                    24180983.016
        39.900          21.700
 123892178.738 7  96539394.93344  23575904.875                    23575908.797
        43.500          28.000
 115089377.590 8  89680075.39546  21900791.289                    21900793.348
        48.000          37.500
 18  2 20  8  7 30.0000000  0  8G23G09G30G06G07G16G05G02
 119157428.328 7  92849991.61345  22674912.406                    22674914.359
        47.900          32.300
 106658953.484 8  83110931.81947  20296529.273                    20296535.754
        53.200          45.800
 119789979.189 7  93342892.85345  22795277.586                    22795284.793
        46.700          34.700
 111856252.648 8  87160777.44747  21285548.367                    21285556.184
        50.200          42.200
 112990876.512 8  88044903.15146  21501458.328                    21501462.785
        51.800          40.200
 127051201.861 6  99000988.47443  24177046.938                    24177049.777
        40.400          22.000
 123794442.321 7  96463236.67844  23557305.750                    23557309.898
        42.400          27.100
 115067268.845 7  89662847.78646  21896584.188                    21896585.844
        47.900          37.700
 18  2 20  8  8  0.0000000  0  8G23G09G30G06G07G16G05G02
 119234670.660 7  92910180.42445  22689611.047                    22689613.586
        47.700          32.300
 106693277.835 8  83137678.06347  20303061.461                    20303067.375
        52.100          45.700
 119688568.260 7  93263871.37545  22775979.680                    22775986.637
        46.700          35.500
 111917301.501 8  87208347.96946  21297165.961                    21297173.133
        49.000          41.500
 112927308.657 8  87995369.76046  21489361.555                    21489365.941
        51.200          40.100
 127031121.630 6  98985341.56743  24173225.609                    24173228.723
        41.200          21.100
 123696820.206 7  96387167.49744  23538728.539                    23538733.086
        43.200          28.200
 115045699.355 7  89646040.38446  21892479.828                    21892481.379
        47.000          37.700
 18  2 20  8  8 30.0000000  0  8G23G09G30G06G07G16G05G02
 119312082.329 7  92970501.16445  22704342.320                    22704344.230
        47.900          32.600
 106727969.729 8  83164710.69847  20309662.797                    20309669.418
        53.700          46.000
 119587400.722 8  93185039.54046  22756727.758                    22756735.531
        48.300          36.200
 111978858.653 8  87256314.55546  21308879.883                    21308887.348
        50.700          41.500
 112864178.918 8  87946177.76146  21477348.539                    21477352.770
        52.000          39.400
 127011628.794 6  98970152.34543  24169516.883                    24169520.289
        41.000          21.700
 123599313.297 7  96311188.10044  23520173.828                    23520178.480
        44.800          27.300
 115024670.423 8  89629654.18646  21888478.141                    21888479.852
        48.400          37.500
 18  2 20  8  9  0.0000000  0  8G23G09G30G06G07G16G05G02
 119389661.557 8  93030952.48945  22719105.016                    22719107.043
        48.300          33.000
 106763027.957 8  83192028.78647  20316334.031                    20316340.621
        52.500          45.800
 119486478.999 7  93106399.26845  22737522.570                    22737530.504
        47.100          35.800
 112040922.104 8  87304675.67947  21320690.047                    21320697.465
        50.900          42.400
 112801489.214 8  87897328.63746  21465419.141                    21465423.266
        51.500          39.300
 126992724.540 7  98955421.74543  24165918.469                    24165922.906
        42.000          22.300
 123501924.119 7  96235300.44344  23501641.156                    23501645.563
        43.400          27.300
 115004182.637 7  89613689.66646  21884579.570                    21884581.148
        47.200          37.600
 18  2 20  8  9 30.0000000  0  8G23G09G30G06G07G16G05G02
 119467407.011 8  93091533.33745  22733899.547                    22733901.875
        48.100          32.100
 106798451.189 8  83219631.29247  20323075.070                    20323081.715
        53.000          46.400
 119385805.353 8  93027952.27945  22718365.828                    22718373.063
        48.500          35.700
 112103489.549 8  87353429.52047  21332596.266                    21332603.914
        50.800          42.200
 112739240.739 8  87848823.34146  21453573.586                    21453577.910
        52.400          39.400
 126974409.880 7  98941150.57843  24162432.922                    24162437.086
        42.000          22.000
 123404654.544 7  96159505.97244  23483131.430                    23483135.367
        45.600          28.400
 114984236.324 8  89598147.07246  21880784.000                    21880785.293
        48.400          38.200
 18  2 20  8 10  0.0000000  0  8G23G09G30G06G07G16G05G02
 119545317.242 8  93152242.57945  22748725.586                    22748727.789
        48.300          32.400
 106834237.765 8  83247516.93447  20329884.719                    20329891.250
        51.500          45.700
 119285381.811 8  92949700.17646  22699255.602                    22699262.992
        48.500          37.300
 112166558.481 8  87402574.12247  21344597.930                    21344605.328
        48.600          42.500
 112677434.953 8  87800662.99246  21441812.313                    21441816.770
        51.900          38.900
 126956685.748 6  98927339.54843  24159061.555                    24159064.410
        41.700          21.500
 123307504.716 7  96083804.79644  23464644.453                    23464648.430
        45.700          28.800
 114964832.058 8  89583026.85146  21877091.469                    21877093.152
        48.800          37.500
 18  2 20  8 10 30.0000000  0  8G23G09G30G06G07G16G05G02
 119623391.826 7  93213079.88145  22763582.656                    22763584.602
        47.100          32.400
 106870387.183 8  83275685.30147  20336764.039                    20336770.547
        51.400          46.000
 119185211.466 8  92871645.37946  22680194.180                    22680201.148
        48.100          36.300
 112230127.456 8  87452108.36647  21356694.789                    21356702.254
        49.000          42.400
 112616073.958 8  87752849.23046  21430135.727                    21430139.930
        51.500          38.800
 126939553.859 6  98913990.02943  24155800.789                    24155804.504
        40.500          22.600
 123210477.114 7  96008198.88244  23446180.422                    23446185.137
        46.000          29.100
 114945971.234 8  89568330.09046  21873502.383                    21873504.000
        48.600          38.000
 18  2 20  8 11  0.0000000  0  8G23G09G30G06G07G16G05G02
 119701629.850 7  93274044.54845  22778470.773                    22778473.059
        47.100          32.700
 106906898.571 8  83304135.72447  20343711.906                    20343718.043
        52.800          45.900
 119085297.135 8  92793790.05346  22661180.992                    22661188.277
        48.400          37.200
 112294194.704 8  87502030.85847  21368886.063                    21368894.098
        50.200          42.300
 112555159.738 8  87705383.61046  21418544.047                    21418547.910
        52.600          39.300
 126923015.582 7  98901103.12343  24152654.547                    24152658.270
        42.000          21.800
 123113573.049 7  95932689.23344  23427740.656                    23427744.820
        46.800          28.900
 114927654.996 8  89554057.68946  21870017.039                    21870018.035
        49.000          37.600
 18  2 20  8 11 30.0000000  0  8G23G09G30G06G07G16G05G02
 119780029.874 7  93335135.44745  22793389.414                    22793392.027
        47.500          33.600
 106943770.397 8  83332867.00947  20350728.609                    20350734.719
        53.400          45.600
 118985640.894 8  92716135.84346  22642216.836                    22642224.277
        48.100          37.100
 112358757.733 8  87552339.66747  21381172.453                    21381180.223
        51.000          42.000
 112494693.610 8  87658267.15846  21407037.859                    21407042.043
        52.100          39.500
 126907071.664 6  98888679.26343  24149619.695                    24149623.859
        40.900          22.800
 123016795.023 7  95857277.78844  23409323.945                    23409328.055
        45.800          29.200
 114909883.531 8  89540209.77946  21866635.008                    21866636.461
        48.000          37.600
 18  2 20  8 12  0.0000000  0  8G23G09G30G06G07G16G05G02
 119858590.948 7  93396351.83545  22808339.484                    22808341.652
        47.800          32.200
 106981001.658 8  83361878.37647  20357813.148                    20357819.559
        52.900          45.600
 118886245.335 8  92638684.76846  22623302.586                    22623310.086
        48.600          36.900
 112423814.660 8  87603033.36546  21393552.172                    21393559.578
        49.100          41.600
 112434677.399 8  87611501.29546  21395617.336                    21395621.379
        52.200          39.600
 126891723.240 6  98876719.44343  24146699.250                    24146702.563
        41.100          20.600
 122920144.550 7  95781965.73845  23390932.031                    23390936.742
        47.200          30.100
 114892658.014 8  89526787.28146  21863357.297                    21863358.820
        48.800          37.900
 18  2 20  8 12 30.0000000  0  8G23G09G30G06G07G16G05G02
 119937312.038 7  93457692.92845  22823319.438                    22823322.578
        47.000          32.800
 107018591.198 8  83391168.91347  20364966.258                    20364972.457
        52.500          45.200
 118787112.976 8  92561438.77546  22604438.438                    22604445.848
        48.500          37.000
 112489363.342 8  87654110.25146  21406025.852                    21406033.414
        48.300          41.500
 112375112.623 8  87565087.19346  21384282.492                    21384286.605
        52.700          40.200
 126876971.593 6  98865224.66843  24143891.766                    24143896.066
        39.600          20.900
 122823623.123 7  95706754.24244  23372565.148                    23372569.023
        46.500          28.800
 114875979.109 8  89513790.72746  21860183.055                    21860184.930
        48.500          37.300
 18  2 20  8 13  0.0000000  0  8G23G09G30G06G07G16G05G02
 120016191.853 7  93519157.69445  22838330.172                    22838332.719
        47.900          32.700
 107056537.692 8  83420737.60347  20372187.133                    20372193.340
        52.400          45.900
 118688246.100 8  92484399.66046  22585624.570                    22585631.941
        49.400          37.600
 112555401.443 8  87705568.48846  21418592.258                    21418599.941
        48.300          41.600
 112316000.533 8  87519025.83346  21373033.563                    21373037.699
        53.000          40.500
 126862817.459 6  98854195.47443  24141198.227                    24141202.156
        39.000          21.300
 122727231.863 7  95631644.16744  23354222.547                    23354226.434
        46.600          29.400
 114859847.305 7  89501220.47646  21857113.391                    21857115.262
        47.600          37.800
 18  2 20  8 13 30.0000000  0  8G23G09G30G06G07G16G05G02
 120095229.051 7  93580745.09145  22853370.375                    22853373.289
        46.000          33.300
 107094839.850 8  83450583.43347  20379476.047                    20379482.215
        51.200          45.700
 118589647.056 7  92407569.24246  22566861.484                    22566869.520
        47.100          37.700
 112621926.629 7  87757406.24446  21431251.289                    21431258.945
        47.300          41.000
 112257342.799 8  87473318.51846  21361871.602                    21361876.035
        53.000          40.600
 126849261.828 6  98843632.64543  24138618.367                    24138623.391
        40.200          20.400
 122630972.808 7  95556637.10045  23335904.508                    23335909.160
        43.100          30.000
 114844263.272 8  89489077.05646  21854147.930                    21854149.590
        48.200          37.800
 18  2 20  8 14  0.0000000  0  8G23G09G30G06G07G16G05G02
 120174423.186 7  93642454.77945  22868440.063                    22868442.906
        47.400          32.800
 107133496.974 9  83480705.85347  20386832.203                    20386838.242
        54.300          45.500
 118491318.728 8  92330949.77546  22548150.703                    22548157.570
        49.700          38.100
 112688937.276 8  87809622.28946  21444003.391                    21444010.723
        49.500          41.000
 112199141.471 8  87427966.84446  21350796.078                    21350800.293
        52.600          41.100
 126836306.193 6  98833537.37443  24136153.492                    24136157.375
        39.900          20.900
 122534847.337 7  95481734.14045  23317612.336                    23317616.922
        46.600          30.200
 114829227.972 8  89477361.22646  21851286.672                    21851288.406
        48.200          37.300
 18  2 20  8 14 30.0000000  0  8G23G09G30G06G07G16G05G02
 120253772.965 7  93704285.75445  22883539.984                    22883542.957
        45.700          32.800
 107172507.769 8  83511103.86947  20394255.547                    20394261.848
        53.400          45.500
 118393263.456 8  92254543.08046  22529491.250                    22529498.953
        49.400          38.700
 112756431.055 8  87862214.81846  21456847.070                    21456854.125
        49.800          40.500
 112141398.064 8  87382971.99546  21339808.125                    21339812.402
        52.800          41.000
 126823951.379 6  98823910.24343  24133802.516                    24133805.539
        39.800          20.100
 122438857.335 7  95406936.73345  23299346.266                    23299350.727
        45.700          30.400
 114814742.251 8  89466073.64046  21848529.891                    21848531.578
        48.000          37.100
 18  2 20  8 15  0.0000000  0  8G23G09G30G06G07G16G05G02
 120333276.905 7  93766236.85445  22898669.109                    22898671.840
        45.800          32.700
 107211870.716 9  83541776.28447  20401746.242                    20401752.625
        54.700          45.500
 118295483.353 8  92178350.80146  22510883.875                    22510891.586
        49.800          38.400
 112824405.381 8  87915181.79146  21469782.133                    21469789.430
        51.000          41.200
 112084113.553 8  87338334.73546  21328907.133                    21328911.504
        52.300          40.600
 126812197.886 6  98814751.69743  24131564.984                    24131569.277
        39.400          20.900
 122343004.968 7  95332246.57845  23281106.227                    23281110.727
        45.900          30.400
 114800805.717 8  89455213.99346  21845878.531                    21845879.547
        48.800          37.300
 18  2 20  8 15 30.0000000  0  8G23G09G30G06G07G16G05G02
 120412934.329 7  93828307.55645  22913827.344                    22913830.199
        45.800          32.400
 107251585.118 8  83572722.56347  20409303.727                    20409309.789
        53.600          45.300
 118197981.294 8  92102375.17646  22492330.109                    22492337.406
        49.800          38.600
 112892858.540 8  87968521.88746  21482808.500                    21482815.711
        50.300          40.700
 112027290.052 8  87294056.70346  21318093.508                    21318097.969
        52.100          40.800
 126801047.260 7  98806062.82143  24129444.117                    24129447.859
        42.300          20.100
 122247291.193 7  95257664.42044  23262892.766                    23262897.004
        45.200          29.700
 114787419.773 7  89444783.37846  21843330.977                    21843332.633
        47.800          37.100
 18  2 20  8 16  0.0000000  0  8G23G09G30G06G07G16G05G02
 120492743.678 7  93890496.63445  22929014.469                    22929017.734
        45.500          32.800
 107291649.091 8  83603941.23547  20416927.891                    20416933.871
        53.600          45.900
 118100759.037 8  92026617.58746  22473829.438                    22473836.691
        48.500          38.100
 112961787.526 8  88022232.75246  21495925.516                    21495932.895
        49.500          40.500
 111970928.008 8  87250138.25146  21307368.094                    21307372.910
        52.400          40.700
 126790499.474 6  98797843.81643  24127436.820                    24127440.039
        40.400          20.100
 122151717.854 7  95183191.69445  23244705.680                    23244710.070
        45.000          30.500
 114774584.566 7  89434781.90346  21840888.547                    21840890.207
        47.600          36.900
 18  2 20  8 16 30.0000000  0  8G23G09G30G06G07G16G05G02
 120572704.309 7  93952803.58545  22944231.070                    22944233.602
        45.100          32.100
 107332062.123 9  83635431.90247  20424617.789                    20424624.234
        54.000          45.900
 118003819.629 8  91951080.40246  22455382.469                    22455389.719
        49.900          38.000
 113031190.792 8  88076313.18546  21509132.078                    21509139.164
        49.800          40.400
 111915029.777 8  87206581.20846  21296731.125                    21296735.574
        52.500          40.800
 126780556.066 6  98790095.73643  24125544.492                    24125548.371
        36.900          19.900
 122056287.233 7  95108830.17145  23226545.250                    23226549.793
        46.700          30.200
 114762300.855 7  89425210.17246  21838551.164                    21838552.848
        47.100          36.800
 18  2 20  8 17  0.0000000  0  8G23G09G30G06G07G16G05G02
 120652815.149 7  94015227.59845  22959474.906                    22959477.660
        45.800          32.100
 107372822.661 9  83667193.35347  20432374.484                    20432380.688
        54.100          45.500
 117907165.230 8  91875765.30246  22436989.914                    22436997.020
        49.900          38.000
 113101065.748 8  88130761.16846  21522429.039                    21522436.238
        48.900          40.300
 111859596.355 8  87163386.34646  21286182.828                    21286186.887
        51.900          41.200
 126771217.809 6  98782819.18343  24123767.383                    24123771.125
        39.200          19.300
 121960999.792 7  95034580.22745  23208413.375                    23208418.109
        46.100          30.100
 114750569.148 7  89416068.57746  21836318.789                    21836319.918
        47.300          36.900
 18  2 20  8 17 30.0000000  0  8G23G09G30G06G07G16G05G02
 120733075.387 7  94077768.01945  22974748.281                    22974750.930
        46.400          31.900
 107413929.791 8  83699224.87647  20440196.625                    20440203.441
        53.900          45.900
 117810798.397 8  91800674.27546  22418651.898                    22418659.125
        48.300          38.200
 113171410.309 8  88185575.09246  21535815.156                    21535822.324
        50.200          40.500
 111804629.608 8  87120555.12346  21275722.594                    21275727.188
        52.600          40.900
 126762485.396 6  98776014.68843  24122105.547                    24122109.363
        40.200          21.500
 121865858.196 7  94960443.93145  23190308.008                    23190312.738
        44.900          31.400
 114739390.315 7  89407357.78446  21834191.211                    21834193.164
        47.000          37.300
 18  2 20  8 18  0.0000000  0  8G23G09G30G06G07G16G05G02
 120813483.268 7  94140423.47045  22990049.266                    22990051.984
        45.800          32.100
 107455382.167 9  83731525.43347  20448084.805                    20448091.164
        54.100          45.300
 117714721.462 8  91725809.14046  22400368.547                    22400375.824
        49.600          37.400
 113242222.022 8  88240753.03146  21549289.875                    21549297.652
        49.800          40.200
 111750130.968 8  87078088.65246  21265352.008                    21265356.418
        53.200          41.100
 126754359.544 6  98769682.85443  24120559.000                    24120562.113
        40.800          20.400
 121770864.367 7  94886422.76745  23172231.453                    23172235.789
        47.600          31.400
 114728764.296 7  89399077.76646  21832168.797                    21832170.625
        46.900          37.500
 18  2 20  8 18 30.0000000  0  8G23G09G30G06G07G16G05G02
 120894038.017 7  94203193.38645  23005378.289                    23005380.969
        46.300          30.900
 107497178.607 9  83764094.08047  20456038.438                    20456044.801
        54.100          45.500
 117618936.783 8  91651171.75046  22382141.398                    22382148.676
        49.700          37.400
 113313498.579 8  88296293.18246  21562853.461                    21562860.926
        49.900          40.400
 111696101.576 8  87035987.85146  21255070.820                    21255074.832
        52.700          41.100
 126746840.906 6  98763824.18643  24119128.328                    24119131.211
        40.200          20.900
 121676019.704 7  94812517.83845  23154182.844                    23154187.551
        47.800          31.100
 114718691.979 7  89391229.19846  21830252.305                    21830254.484
        47.300          37.500
 18  2 20  8 19  0.0000000  0  8G23G09G30G06G07G16G05G02
 120974738.555 7  94266076.88045  23020735.133                    23020737.465
        46.100          30.900
 107539317.794 9  83796929.80547  20464057.406                    20464063.625
        54.500          44.600
 117523446.655 8  91576763.86846  22363970.289                    22363977.707
        49.400          37.100
 113385237.493 8  88352193.61646  21576505.289                    21576512.691
        50.200          40.100
 111642542.827 8  86994253.78046  21244878.773                    21244883.207
        53.400          41.000
 126739930.184 6  98758439.18743  24117813.258                    24117816.426
        37.900          19.900
 121581325.863 7  94738730.43245  23136163.563                    23136168.129
        47.500          31.400
 114709173.253 7  89383812.00346  21828441.305                    21828443.293
        46.600          37.100
 18  2 20  8 19 30.0000000  0  8G23G09G30G06G07G16G05G02
 121055583.822 7  94329073.16845  23036119.391                    23036121.949
        45.800          31.700
 107581798.619 9  83830031.74047  20472141.016                    20472147.762
        54.500          45.300
 117428253.555 8  91502587.44846  22345855.547                    22345862.406
        49.700          37.400
 113457436.593 8  88408452.63446  21590244.406                    21590251.711
        50.300          40.300
 111589456.230 8  86952887.62846  21234776.672                    21234780.645
        53.400          41.600
 126733628.150 6  98753528.49743  24116614.203                    24116617.836
        38.600          21.800
 121486784.206 7  94665061.60645  23118172.484                    23118176.766
        47.600          31.600
 114700208.710 7  89376826.64046  21826734.773                    21826737.066
        46.500          37.300
 18  2 20  8 20  0.0000000  0  8G23G09G30G06G07G16G05G02
 121136573.393 7  94392181.89745  23051531.172                    23051533.984
        46.900          31.700
 107624620.286 9  83863399.26747  20480289.633                    20480295.957
        54.100          45.200
 117333360.235 8  91428644.61546  22327798.141                    22327805.488
        49.000          37.500
 113530093.789 8  88465068.60746  21604070.516                    21604078.215
        49.600          39.900
 111536843.595 8  86911890.78646  21224765.070                    21224769.035
        53.000          41.300
 126727935.811 6  98749092.92043  24115530.461                    24115534.336
        40.200          21.100
 121392396.471 7  94591512.73645  23100211.430                    23100215.945
        47.100          30.900
 114691799.456 7  89370273.97246  21825135.086                    21825137.063
        47.000          37.400
 18  2 20  8 20 30.0000000  0  8G23G09G30G06G07G16G05G02
 121217705.732 7  94455401.86645  23066970.570                    23066972.805
        46.800          31.800
 107667781.276 9  83897031.20147  20488503.047                    20488509.363
        54.300          45.300
 117238768.777 8  91354937.00946  22309797.625                    22309805.141
        49.800          37.300
 113603206.458 8  88522039.50246  21617983.406                    21617990.859
        49.200          39.900
 111484705.737 8  86871263.89946  21214843.539                    21214847.578
        53.300          41.100
 126722853.442 6  98745132.65143  24114563.633                    24114567.488
        40.200          22.200
 121298164.537 7  94518085.25845  23082279.641                    23082283.898
        47.500          31.800
 114683945.370 7  89364153.89846  21823640.406                    21823642.418
        47.000          37.400
 18  2 20  8 21  0.0000000  0  8G23G09G30G06G07G16G05G02
 121298979.618 7  94518732.14445  23082436.297                    23082439.242
        46.600          30.400
 107711280.342 8  83930926.56747  20496780.734                    20496787.309
        53.800          45.400
 117144481.485 8  91281466.40446  22291855.453                    22291862.945
        49.500          37.000
 113676772.179 8  88579363.42446  21631982.352                    21631989.824
        49.400          39.400
 111433044.013 8  86831008.02246  21205012.594                    21205016.668
        52.600          41.500
 126718381.821 6  98741648.26243  24113712.422                    24113716.395
        41.300          22.200
 121204091.138 7  94444781.30945  23064377.984                    23064382.324
        47.200          31.200
 114676646.652 7  89358466.58346  21822251.648                    21822253.395
        46.300          37.100
 18  2 20  8 21 30.0000000  0  8G23G09G30G06G07G16G05G02
 121380394.147 7  94582171.99345  23097929.250                    23097932.051
        46.800          31.500
 107755116.473 8  83965084.58947  20505122.461                    20505128.734
        53.900          44.500
 117050500.899 8  91208234.78746  22273971.438                    22273978.777
        48.700          37.500
 113750788.639 8  88637038.56246  21646067.086                    21646074.484
        48.700          38.600
 111381859.852 8  86791124.28146  21195272.484                    21195276.758
        52.300          41.600
 126714521.590 6  98738640.30343  24112978.422                    24112982.988
        40.700          22.800
 121110177.591 7  94371601.91245  23046506.797                    23046511.125
        47.000          30.800
 114669903.896 7  89353212.48446  21820968.727                    21820970.242
        45.700          37.000
 18  2 20  8 22  0.0000000  0  8G23G09G30G06G07G16G05G02
 121461948.434 7  94645720.75745  23113448.648                    23113450.570
        46.300          30.700
 107799288.500 8  83999504.34347  20513528.406                    20513534.535
        53.400          45.000
 116956829.447 8  91135244.05446  22256146.656                    22256153.414
        49.700          37.800
 113825253.507 8  88695063.11246  21660237.156                    21660244.715
        49.700          39.500
 111331154.758 8  86751613.83746  21185623.586                    21185628.301
        52.600          41.600
 126711273.429 7  98736109.25343  24112359.586                    24112364.301
        42.200          22.900
 121016425.634 7  94298548.45245  23028666.414                    23028671.031
        47.300          32.000
 114663717.439 7  89348391.85546  21819791.438                    21819793.402
        45.700          37.100
 18  2 20  8 22 30.0000000  0  8G23G09G30G06G07G16G05G02
 121543641.460 7  94709377.61645  23128994.414                    23128996.375
        46.300          30.800
 107843795.185 8  84034184.87047  20521997.664                    20522004.027
        53.600          45.300
 116863469.379 8  91062495.96346  22238380.875                    22238387.563
        49.400          38.000
 113900164.269 8  88753435.11446  21674492.305                    21674499.941
        49.300          39.300
 111280929.712 8  86712477.44846  21176065.852                    21176070.230
        52.600          41.400
 126708637.413 6  98734055.18844  24111858.836                    24111862.609
        39.100          24.200
 120922836.208 7  94225621.63545  23010857.070                    23010861.777
        46.500          31.200
 114658087.331 7  89344004.75346  21818719.789                    21818721.727
        45.500          37.300
 18  2 20  8 23  0.0000000  0  8G23G09G30G06G07G16G05G02
 121625472.243 7  94773141.82745  23144565.844                    23144568.613
        47.200          30.900
 107888635.256 8  84069125.18247  20530530.313                    20530536.906
        53.800          45.300
 116770423.019 8  90989992.30946  22220674.578                    22220681.570
        49.000          37.500
 113975518.455 8  88812152.63346  21688831.914                    21688839.301
        49.100          39.500
 111231186.112 8  86673716.21446  21166600.125                    21166604.426
        51.900          41.300
 126706614.585 6  98732478.96943  24111474.164                    24111477.879
        40.400          22.500
 120829411.378 7  94152823.07045  22993078.961                    22993083.477
        46.400          32.000
 114653014.099 7  89340051.58246  21817754.211                    21817756.223
        46.300          37.200
 18  2 20  8 23 30.0000000  0  8G23G09G30G06G07G16G05G02
 121707439.717 7  94837012.55244  23160163.789                    23160166.477
        46.700          29.700
 107933807.576 8  84104324.38847  20539126.242                    20539132.789
        53.300          44.500
 116677692.786 8  90917734.99946  22203028.734                    22203035.742
        48.900          37.900
 114051313.688 8  88871213.82746  21703254.953                    21703263.328
        49.700          39.000
 111181925.231 8  86635331.12546  21157226.117                    21157230.770
        51.900          40.800
 126705204.907 6  98731380.52543  24111205.305                    24111209.602
        39.400          22.300
 120736154.073 7  94080155.03145  22975332.094                    22975336.906
        47.200          31.900
 114648497.876 7  89336532.43546  21816895.133                    21816897.199
        46.300          37.100
 18  2 20  8 24  0.0000000  0  8G23G09G30G06G07G16G05G02
 121789542.795 7  94900988.92444  23175787.805                    23175790.043
        47.800          29.900
 107979311.095 8  84139781.67247  20547785.078                    20547791.535
        53.000          44.500
 116585281.115 8  90845725.92046  22185443.414                    22185450.355
        48.900          37.900
 114127547.604 8  88930616.85846  21717762.031                    21717769.859
        49.100          39.700
 111133148.536 8  86597323.32446  21147943.891                    21147948.246
        51.800          40.600
 126704408.948 6  98730760.25943  24111054.703                    24111057.820
        40.600          22.300
 120643065.179 7  94007618.25145  22957618.445                    22957622.656
        47.100          31.600
 114644539.262 7  89333447.80546  21816141.383                    21816143.863
        47.400          36.900
 18  2 20  8 24 30.0000000  0  8G23G09G30G06G07G16G05G02
 121871780.559 7  94965070.25845  23191437.813                    23191438.945
        46.700          30.000
 108025144.368 8  84175495.90347  20556507.188                    20556513.391
        53.400          44.800
 116493190.147 8  90773966.74546  22167919.000                    22167926.270
        49.500          38.100
 114204217.533 8  88990359.63446  21732351.703                    21732359.723
        49.000          40.100
 111084857.184 8  86559693.70646  21138754.531                    21138758.883
        51.500          41.200
 126704227.180 6  98730618.62243  24111020.203                    24111023.574
        38.400          22.900
 120550146.276 7  93935213.91745  22939936.266                    22939941.063
        47.000          31.900
 114641137.690 7  89330797.22346  21815494.508                    21815496.293
        46.200          37.400
 18  2 20  8 25  0.0000000  0  8G23G09G30G06G07G16G05G02
 121954152.775 7  95029256.37044  23207111.977                    23207114.563
        47.400          29.900
 108071306.999 8  84211466.77947  20565291.266                    20565297.605
        52.800          44.700
 116401422.945 8  90702459.86846  22150456.078                    22150463.117
        48.900          38.100
 114281321.691 8  89050440.76846  21747024.336                    21747032.465
        49.200          39.500
 111037052.422 8  86522443.26646  21129657.391                    21129661.469
        50.300          41.100
 126704661.067 6  98730956.72243  24111101.813                    24111106.570
        41.000          22.600
 120457399.254 7  93862943.52645  22922286.961                    22922291.758
        47.600          32.700
 114638294.477 7  89328581.72646  21814953.570                    21814955.309
        45.800          37.500
 18  2 20  8 25 30.0000000  0  8G23G09G30G06G07G16G05G02
 122036657.471 7  95093545.69544  23222812.383                    23222814.285
        46.900          28.900
 108117797.044 8  84247692.78647  20574137.914                    20574144.832
        52.900          44.300
 116309981.119 7  90631206.52646  22133055.164                    22133062.578
        47.900          38.400
 114358856.881 8  89110857.77346  21761778.992                    21761786.723
        48.800          39.900
 110989735.394 8  86485572.87546  21120653.266                    21120657.488
        50.800          40.800
 126705709.957 6  98731774.04043  24111301.727                    24111305.906
        41.400          22.600
 120364827.052 7  93790809.36045  22904671.773                    22904675.867
        45.300          32.300
 114636008.871 7  89326800.72746  21814518.398                    21814520.586
        47.500          37.500
 18  2 20  8 26  0.0000000  0  8G23G09G30G06G07G16G05G02
 122119293.672 7  95157937.49444  23238537.914                    23238539.855
        47.700          28.900
 108164613.247 8  84284172.92847  20583046.914                    20583053.363
        52.800          44.500
 116218866.894 8  90560208.46146  22115717.039                    22115724.168
        49.500          38.400
 114436820.536 8  89171608.65646  21776614.875                    21776622.707
        48.200          39.100
 110942906.980 8  86449083.21946  21111742.148                    21111746.473
        50.200          40.100
 126707373.808 6  98733070.54543  24111618.508                    24111622.441
        40.500          22.800
 120272429.734 7  93718811.45945  22887088.789                    22887093.277
        47.000          32.600
 114634281.300 7  89325454.56246  21814189.320                    21814191.828
        47.000          36.900
 18  2 20  8 26 30.0000000  0  8G23G09G30G06G07G16G05G02
 122202060.638 7  95222431.17944  23254287.703                    23254289.816
        46.300          29.500
 108211754.477 8  84320906.34747  20592017.820                    20592024.195
        51.000          44.300
 116128082.692 8  90489467.55546  22098441.305                    22098448.680
        50.300          38.900
 114515210.177 7  89232691.47246  21791532.102                    21791539.691
        46.800          39.200
 110896568.660 8  86412975.44546  21102924.367                    21102928.773
        50.000          40.900
 126709653.132 6  98734846.64343  24112052.422                    24112056.184
        38.100          22.000
 120180210.531 7  93646952.33745  22869540.258                    22869544.465
        47.200          32.800
 114633111.901 7  89324543.32846  21813967.117                    21813969.008
        46.300          37.300
 18  2 20  8 27  0.0000000  0  8G23G09G30G06G07G16G05G02
 122284957.080 7  95287025.76544  23270062.289                    23270064.785
        45.500          29.200
 108259219.593 8  84357892.13447  20601050.297                    20601056.148
        52.000          44.300
 116037630.787 8  90418985.58746  22081229.570                    22081236.078
        49.100          39.200
 114594023.365 8  89294104.32146  21806529.523                    21806537.203
        48.200          38.900
 110850721.335 8  86377250.27646  21094199.695                    21094204.281
        49.300          40.600
 126712548.639 6  98737102.89443  24112603.852                    24112607.379
        39.000          22.900
 120088170.673 7  93575232.97845  22852025.242                    22852030.082
        45.000          33.100
 114632500.678 7  89324067.03746  21813849.859                    21813852.359
        46.800          37.300
 18  2 20  8 27 30.0000000  0  8G23G09G30G06G07G16G05G02
 122367982.390 7  95351720.78245  23285861.109                    23285864.176
        46.200          30.200
 108307007.484 8  84395129.44647  20610143.828                    20610149.563
        51.900          44.400
 115947513.599 8  90348764.42946  22064080.297                    22064087.063
        50.000          38.600
 114673257.573 7  89355845.24446  21821607.289                    21821615.027
        47.600          38.800
 110805366.184 8  86341908.62046  21085569.055                    21085573.340
        50.000          41.100
 126716060.282 6  98739839.23343  24113271.328                    24113275.867
        41.400          22.000
 119996311.531 7  93503654.42745  22834545.281                    22834549.707
        46.300          33.200
 114632447.642 7  89324025.71246  21813840.445                    21813842.672
        45.500          36.400
 18  2 20  8 28  0.0000000  0  8G23G09G30G06G07G16G05G02
 122451135.396 7  95416515.27144  23301684.906                    23301687.766
        46.400          29.300
 108355116.835 8  84432617.24647  20619298.750                    20619304.828
        50.800          44.000
 115857733.344 8  90278805.82246  22046995.500                    22047002.363
        50.700          38.400
 114752910.199 7  89417912.20146  21836764.750                    21836772.484
        46.600          38.500
 110760504.346 8  86306951.34546  21077031.859                    21077036.449
        50.000          40.600
 126720188.011 6  98743055.64643  24114056.867                    24114061.238
        39.300          22.300
 119904635.563 7  93432218.61245  22817100.297                    22817104.250
        47.300          33.700
 114632952.976 7  89324419.47246  21813937.164                    21813938.996
        46.300          37.500
 18  2 20  8 28 30.0000000  0  8G23G09G30G06G07G16G05G02
 122534415.143 7  95481408.53544  23317532.750                    23317534.543
        43.400          29.100
 108403546.422 8  84470354.57647  20628514.742                    20628520.750
        52.000          44.000
 115768292.196 8  90209111.45146  22029975.336                    22029982.109
        50.300          38.200
 114832978.549 7  89480303.09646  21852001.188                    21852009.180
        46.500          37.700
 110716137.068 8  86272379.46346  21068589.117                    21068593.563
        50.600          41.200
 126724932.295 6  98746752.47743  24114959.430                    24114963.488
        41.200          21.800
 119813144.597 7  93360926.94945  22799689.969                    22799694.293
        47.500          33.600
 114634016.599 7  89325248.26446  21814139.242                    21814141.215
        47.200          37.100
 18  2 20  8 29  0.0000000  0  8G23G09G30G06G07G16G05G02
 122617820.782 7  95546399.90744  23333403.852                    23333407.191
        45.700          28.600
 108452295.164 8  84508340.59347  20637791.031                    20637797.598
        50.900          43.900
 115679192.571 8  90139683.19746  22013020.031                    22013026.816
        49.700          38.900
 114913460.259 7  89543016.09146  21867316.664                    21867324.477
        46.300          38.000
 110672265.076 8  86238193.51746  21060240.578                    21060244.754
        50.200          41.600
 126730293.295 6  98750929.86543  24115979.969                    24115984.121
        41.700          22.200
 119721839.822 7  93289780.37445  22782315.398                    22782319.539
        47.200          34.600
 114635638.758 7  89326512.27846  21814448.008                    21814450.133
        46.200          37.500
 18  2 20  8 29 30.0000000  0  8G23G09G30G06G07G16G05G02
 122701351.053 7  95611488.35744  23349299.781                    23349302.652
        43.800          28.900
 108501361.862 8  84546574.37647  20647128.492                    20647134.770
        51.500          44.300
 115590436.727 8  90070522.83146  21996130.813                    21996137.395
        48.100          38.900
 114994352.672 7  89606049.11546  21882709.898                    21882717.512
        46.600          38.200
 110628889.581 8  86204394.43746  21051986.625                    21051990.730
        50.700          41.600
 126736271.295 6  98755588.03743  24117116.945                    24117121.367
        41.900          21.500
 119630723.859 7  93218780.92545  22764976.117                    22764980.875
        45.700          33.900
 114637819.105 7  89328211.24646  21814862.727                    21814865.098
        45.600          37.500
 18  2 20  8 30  0.0000000  0  8G23G09G30G06G07G16G05G02
 122785005.549 7  95676673.64844  23365218.484                    23365221.301
        45.400          28.900
 108550745.354 8  84585055.00647  20656525.836                    20656532.027
        51.200          44.100
 115502026.944 8  90001632.12246  21979306.797                    21979313.648
        50.000          39.200
 115075653.108 7  89669400.07846  21898180.531                    21898188.953
        46.300          38.100
 110586011.713 8  86170983.12846  21043827.367                    21043831.730
        50.700          41.300
 126742866.408 7  98760727.06143  24118372.945                    24118376.539
        42.500          20.900
 119539798.526 8  93147930.02445  22747674.117                    22747678.035
        48.200          34.300
 114640557.762 7  89330345.25746  21815383.805                    21815386.270
        46.500          37.500
 18  2 20  8 30 30.0000000  0  8G23G09G30G06G07G16G05G02
 122868782.833 6  95741954.61444  23381160.305                    23381163.684
        41.500          27.800
 108600444.320 8  84623781.46747  20665982.977                    20665989.000
        51.300          44.100
 115413965.336 8  89933012.72446  21962549.461                    21962556.234
        49.900          40.200
 115157359.062 7  89733067.03646  21913728.984                    21913737.043
        46.800          37.900
 110543632.232 8  86137960.16446  21035762.844                    21035767.035
        49.600          41.700
 126750078.337 6  98766346.76343  24119744.242                    24119748.426
        40.600          21.300
 119449065.238 8  93077228.76445  22730408.117                    22730412.121
        48.300          33.500
 114643854.671 7  89332914.26846  21816011.750                    21816013.695
        46.400          38.400
 18  2 20  8 31  0.0000000  0  8G23G09G30G06G07G16G05G02
 122952682.225 7  95807330.70144  23397126.336                    23397129.125
        42.400          28.000
 108650457.706 8  84662752.92947  20675500.398                    20675506.492
        50.000          43.500
 115326254.314 8  89864666.49846  21945858.461                    21945865.418
        50.500          39.900
 115239467.955 7  89797047.96346  21929353.664                    21929361.645
        45.800          38.400
 110501752.705 8  86105326.78046  21027793.273                    21027798.211
        49.900          41.500
 126757907.934 7  98772447.71843  24121234.633                    24121238.250
        42.700          20.100
 119358525.869 8  93006678.61445  22713179.000                    22713183.129
        48.900          33.600
 114647709.658 7  89335918.15046  21816745.250                    21816747.523
        45.900          37.500
 18  2 20  8 31 30.0000000  0  8G23G09G30G06G07G16G05G02
 123036702.409 7  95872800.93044  23413114.805                    23413117.590
        45.100          28.700
 108700784.189 8  84701968.35247  20685077.352                    20685083.445
        51.500          43.800
 115238895.944 8  89796595.05746  21929234.547                    21929241.238
        50.800          40.200
 115321977.018 7  89861340.72246  21945054.922                    21945062.602
        46.800          38.400
 110460373.695 8  86073083.41246  21019919.117                    21019923.371
        51.100          41.800
 126766354.667 7  98779029.59943  24122840.805                    24122845.234
        42.900          20.400
 119268182.951 8  92936281.53845  22695987.125                    22695991.184
        48.000          34.500
 114652122.715 7  89339356.88846  21817585.180                    21817587.379
        47.200          38.400
 18  2 20  8 32  0.0000000  0  8G23G09G30G06G07G16G05G02
 123120842.612 7  95938364.69344  23429126.070                    23429128.805
        43.700          29.100
 108751422.639 8  84741426.86947  20694713.227                    20694719.695
        51.300          44.000
 115151892.518 8  89728800.20846  21912678.422                    21912685.297
        51.000          40.500
 115404883.650 7  89925943.27646  21960831.070                    21960839.172
        46.000          38.300
 110419496.241 8  86041230.85946  21012140.172                    21012144.352
        51.200          41.200
 126775418.320 6  98786092.18243  24124566.133                    24124570.000
        40.600          20.100
 119178037.895 8  92866038.64245  22678833.203                    22678837.680
        48.700          34.000
 114657093.741 7  89343230.41146  21818530.891                    21818532.688
        45.900          37.900
 18  2 20  8 32 30.0000000  0  8G23G09G30G06G07G16G05G02
 123205102.280 7  96004021.55244  23445160.063                    23445163.559
        43.200          27.300
 108802372.162 8  84781127.78947  20704408.734                    20704415.313
        51.000          44.500
 115065246.596 8  89661283.92746  21896189.914                    21896197.285
        50.700          40.800
 115488185.374 7  89990853.68946  21976682.766                    21976691.254
        45.400          37.900
 110379121.937 8  86009770.37946  21004457.219                    21004461.512
        51.300          41.400
 126785099.404 6  98793635.86343  24126408.609                    24126412.297
        40.500          19.300
 119088092.767 8  92795951.53845  22661716.461                    22661721.270
        48.700          33.200
 114662622.840 7  89347538.78946  21819583.563                    21819585.336
        44.900          38.300
 18  2 20  8 33  0.0000000  0  8G23G09G30G06G07G16G05G02
 123289480.404 6  96069770.67744  23461216.828                    23461220.449
        41.900          28.700
 108853631.257 8  84821069.93047  20714163.328                    20714169.453
        51.300          44.400
 114978960.011 8  89594047.64846  21879770.289                    21879777.625
        51.000          41.300
 115571879.497 7  90056069.85846  21992609.813                    21992617.684
        46.800          38.100
 110339251.269 8  85978702.33746  20996870.352                    20996874.879
        50.700          41.700
 126795397.733 6  98801660.50743  24128368.711                    24128372.023
        40.200          19.300
 118998349.285 7  92726021.54745  22644639.070                    22644643.809
        47.800          34.000
 114668709.574 7  89352281.68646  21820741.711                    21820743.785
        47.000          37.700
 18  2 20  8 33 30.0000000  0  8G23G09G30G06G07G16G05G02
 123373975.891 6  96135611.26944  23477295.969                    23477299.063
        41.500          28.600
 108905198.839 8  84861252.44447  20723976.281                    20723982.496
        51.200          44.800
 114893035.101 8  89527093.19846  21863419.234                    21863426.652
        50.800          41.100
 115655963.311 7  90121589.68546  22008610.281                    22008618.395
        46.700          38.800
 110299884.870 8  85948027.22747  20989379.195                    20989383.547
        51.700          42.100
 126806313.330 7  98810166.12843  24130445.742                    24130448.813
        42.000          20.100
 118908809.558 7  92656250.33245  22627600.383                    22627604.918
        47.900          33.600
 114675353.823 7  89357459.01246  21822005.961                    21822007.883
        46.900          38.000
 18  2 20  8 34  0.0000000  0  8G23G09G30G06G07G16G05G02
 123458587.679 6  96201542.49844  23493396.984                    23493400.227
        41.200          28.300
 108957073.630 8  84901674.35047  20733847.477                    20733853.664
        51.900          43.900
 114807473.966 8  89460422.20346  21847137.539                    21847144.914
        49.900          41.600
 115740433.997 7  90187410.98346  22024684.469                    22024692.625
        47.200          39.200
 110261023.662 8  85917745.77947  20981984.070                    20981988.430
        51.200          42.000
 126817845.457 7  98819152.16543  24132640.102                    24132643.578
        42.800          19.600
 118819475.305 7  92586639.22045  22610600.539                    22610605.270
        46.800          34.300
 114682555.162 7  89363070.42446  21823376.188                    21823378.230
        47.100          38.100
 18  2 20  8 34 30.0000000  0  8G23G09G30G06G07G16G05G02
 123543315.084 6  96267563.82144  23509519.914                    23509523.199
        41.600          26.700
 109009254.374 8  84942334.65647  20743777.164                    20743783.273
        52.500          44.300
 114722278.717 8  89394036.31646  21830925.508                    21830932.859
        49.200          41.400
 115825288.890 7  90253531.64946  22040831.828                    22040839.500
        47.400          39.100
 110222668.399 8  85887858.57147  20974685.141                    20974689.281
        51.000          42.300
 126829994.356 7  98828618.86043  24134951.883                    24134956.172
        42.300          20.100
 118730348.068 7  92517189.44045  22593640.141                    22593644.855
        45.800          33.500
 114690313.336 7  89369115.73946  21824852.211                    21824854.719
        47.200          37.600
 18  2 20  8 35  0.0000000  0  8G23G09G30G06G07G16G05G02
 123628157.014 7  96333674.37344  23525664.547                    23525668.324
        42.200          27.400
 109061740.169 8  84983232.66747  20753764.906                    20753771.250
        52.600          44.400
 114637451.777 8  89327937.42246  21814783.156                    21814790.887
        49.800          40.900
 115910525.514 7  90319949.76846  22057051.602                    22057059.980
        46.700          39.200
 110184820.350 8  85858366.59547  20967482.961                    20967487.363
        51.000          42.000
 126842760.292 6  98838566.34043  24137381.352                    24137384.855
        41.300          20.400
 118641430.202 7  92447902.79645  22576719.992                    22576724.414
        46.900          34.400
 114698628.517 7  89375595.09646  21826434.852                    21826436.945
        46.300          38.100
 18  2 20  8 35 30.0000000  0  8G23G09G30G06G07G16G05G02
 123713112.513 6  96399873.42144  23541831.563                    23541834.828
        41.400          27.400
 109114529.638 8  85024367.30947  20763810.336                    20763817.219
        52.100          43.900
 114552995.156 8  89262127.08846  21798711.430                    21798719.367
        49.300          41.400
 115996140.953 7  90386663.08046  22073343.805                    22073352.172
        47.300          38.300
 110147480.450 8  85829270.58046  20960377.383                    20960381.711
        51.400          41.800
 126856142.992 6  98848994.39543  24139928.258                    24139931.398
        40.900          20.900
 118552724.125 7  92378781.18245  22559839.891                    22559844.324
        46.700          35.000
 114707500.193 7  89382508.06246  21828122.844                    21828124.578
        47.000          38.000
 18  2 20  8 36  0.0000000  0  8G23G09G30G06G07G16G05G02
 123798180.887 6  96466160.42244  23558019.055                    23558022.949
        41.000          27.200
 109167621.684 8  85065737.72547  20773913.352                    20773919.824
        52.200          43.900
 114468911.098 8  89196607.05446  21782710.727                    21782718.574
        49.900          41.100
 116082132.604 7  90453669.52546  22089707.953                    22089715.941
        46.600          39.000
 110110649.428 8  85800571.09647  20953368.492                    20953372.688
        51.600          42.000
 126870141.753 6  98859902.48543  24142592.477                    24142595.734
        41.600          21.100
 118464230.792 8  92309825.34345  22542999.641                    22543004.445
        48.400          34.900
 114716928.082 8  89389854.46246  21829917.445                    21829919.215
        48.100          37.500
 18  2 20  8 36 30.0000000  0  8G23G09G30G06G07G16G05G02
 123883361.211 6  96532534.63544  23574229.516                    23574232.301
        41.900          28.100
 109221015.085 8  85107342.96347  20784073.836                    20784080.527
        51.900          44.500
 114385201.708 8  89131378.97146  21766781.336                    21766789.211
        50.700          40.700
 116168497.748 7  90520967.00646  22106142.547                    22106150.320
        46.700          38.800
 110074327.944 8  85772268.65347  20946456.555                    20946461.238
        52.100          42.400
 126884756.534 7  98871290.60743  24145372.930                    24145376.598
        42.100          21.800
 118375952.743 8  92241037.25645  22526201.141                    22526205.852
        48.700          35.000
 114726911.767 8  89397633.95346  21831816.867                    21831818.605
        48.200          38.000
 18  2 20  8 37  0.0000000  0  8G23G09G30G06G07G16G05G02
 123968652.444 7  96598995.29344  23590459.922                    23590462.715
        43.000          27.300
 109274708.488 8  85149181.96347  20794291.352                    20794297.652
        52.300          43.900
 114301868.986 8  89066444.39146  21750923.750                    21750931.434
        50.700          41.200
 116255233.420 7  90588553.23046  22122647.547                    22122655.629
        46.400          38.200
 110038516.652 8  85744363.75347  20939642.156                    20939646.559
        51.500          42.400
 126899987.160 6  98883158.61243  24148271.672                    24148275.699
        41.300          20.900
 118287892.064 8  92172418.55145  22509443.930                    22509448.547
        49.200          35.500
 114737451.144 8  89405846.43246  21833822.492                    21833824.621
        48.500          38.000
 18  2 20  8 37 30.0000000  0  8G23G09G30G06G07G16G05G02
 124054053.742 6  96665541.73344  23606711.117                    23606713.730
        41.100          28.200
 109328700.928 8  85191253.98747  20804565.891                    20804572.191
        52.700          44.700
 114218915.248 8  89001805.12146  21735138.398                    21735145.891
        51.700          40.300
 116342337.120 7  90656426.20246  22139223.430                    22139231.094
        47.000          38.800
 110003216.694 8  85716857.30247  20932924.867                    20932929.270
        51.400          42.300
 126915833.291 6  98895506.24443  24151286.672                    24151290.844
        41.300          21.100
 118200050.388 8  92103970.48445  22492728.266                    22492732.559
        49.500          35.100
 114748545.495 8  89414491.37146  21835933.461                    21835935.586
        48.900          38.300
 18  2 20  8 38  0.0000000  0  8G23G09G30G06G07G16G05G02
 124139564.038 7  96732173.08644  23622983.266                    23622985.250
        42.900          28.000
 109382991.219 8  85233558.09847  20814896.805                    20814903.684
        51.200          44.200
 114136342.628 8  88937462.82746  21719425.188                    21719432.145
        51.300          40.400
 116429806.084 7  90724583.79946  22155868.484                    22155875.871
        46.400          38.400
 109968429.016 8  85689750.02547  20926305.125                    20926309.691
        51.300          42.700
 126932294.454 6  98908333.13243  24154419.609                    24154423.055
        41.500          20.100
 118112429.585 8  92035694.53845  22476054.508                    22476058.934
        48.400          35.200
 114760194.367 8  89423568.40846  21838150.477                    21838152.449
        49.100          38.700
 18  2 20  8 38 30.0000000  0  8G23G09G30G06G07G16G05G02
 124225182.923 7  96798889.06644  23639275.414                    23639278.289
        43.600          29.100
 109437578.225 8  85276093.41747  20825284.633                    20825290.867
        50.700          43.900
 114054153.294 8  88873419.19946  21703785.242                    21703792.102
        50.800          40.500
 116517637.624 7  90793023.95446  22172581.828                    22172589.629
        46.200          38.600
 109934154.396 8  85663042.54147  20919783.117                    20919787.230
        49.600          42.400
 126949370.799 6  98921639.39443  24157668.695                    24157672.270
        41.900          20.400
 118025031.274 8  91967591.96145  22459423.359                    22459427.488
        49.400          34.700
 114772397.859 8  89433077.60946  21840472.914                    21840474.754
        48.800          37.900
 18  2 20  8 39  0.0000000  0  8G23G09G30G06G07G16G05G02
 124310909.045 7  96865688.59744  23655588.250                    23655592.164
        44.300          27.500
 109492460.541 8  85318858.84147  20835728.469                    20835734.480
        50.800          44.200
 113972349.071 8  88809675.65346  21688218.453                    21688225.746
        51.400          39.900
 116605828.745 8  90861744.28246  22189364.422                    22189371.895
        48.100          38.600
 109900392.770 8  85636734.79047  20913358.547                    20913362.652
        49.800          42.200
 126967061.193 6  98935424.13043  24161034.734                    24161039.148
        40.400          20.100
 117937857.993 8  91899664.73545  22442834.688                    22442838.648
        49.400          35.700
 114785154.971 8  89443018.21646  21842900.188                    21842902.035
        49.200          37.800
 18  2 20  8 39 30.0000000  0  8G23G09G30G06G07G16G05G02
 124396741.976 7  96932571.34744  23671922.250                    23671925.531
        43.900          27.900
 109547637.197 8  85361853.62847  20846228.219                    20846234.262
        50.600          44.200
 113890932.255 8  88746233.99446  21672725.477                    21672732.480
        51.300          40.200
 116694376.855 7  90930742.79246  22206214.297                    22206222.012
        46.100          38.500
 109867145.388 8  85610827.75147  20907031.469                    20907036.199
        50.200          42.500
 126985365.755 6  98949687.42743  24164518.414                    24164522.793
        40.800          20.600
 117850910.496 8  91831913.45145  22426289.016                    22426293.086
        49.400          35.400
 114798465.540 8  89453390.07646  21845433.477                    21845434.883
        49.100          37.300
 18  2 20  8 40  0.0000000  0  8G23G09G30G06G07G16G05G02
 124482680.453 6  96999536.34444  23688275.570                    23688278.617
        41.700          29.000
 109603106.746 8  85405076.64947  20856783.609                    20856789.840
        51.500          43.600
 113809904.699 8  88683095.64846  21657306.055                    21657312.840
        52.000          40.200
 116783278.930 7  91000017.13246  22223131.406                    22223139.324
        46.200          38.600
 109834412.609 8  85585321.68847  20900802.695                    20900806.703
        50.400          42.200
 127004284.082 7  98964428.96143  24168119.164                    24168122.934
        42.000          20.900
 117764192.447 8  91764340.95145  22409786.828                    22409791.371
        50.000          35.200
 114812328.932 8  89464192.71346  21848071.547                    21848072.648
        48.900          38.100
 18  2 20  8 40 30.0000000  0  8G23G09G30G06G07G16G05G02
 124568723.674 7  97066582.97144  23704649.453                    23704652.836
        42.900          28.300
 109658868.345 8  85448527.23047  20867394.516                    20867401.094
        51.100          44.700
 113729268.767 8  88620262.46846  21641961.883                    21641968.527
        52.400          40.600
 116872532.502 7  91069565.34346  22240116.008                    22240123.809
        47.600          38.100
 109802195.432 8  85560217.41047  20894671.664                    20894676.512
        50.000          42.000
 127023815.545 7  98979648.26543  24171834.563                    24171839.773
        42.300          21.500
 117677705.395 8  91696948.45545  22393329.391                    22393333.203
        49.800          35.400
 114826745.067 8  89475426.06446  21850814.422                    21850816.258
        49.500          37.700
 18  2 20  8 41  0.0000000  0  8G23G09G30G06G07G16G05G02
 124654870.697 7  97133710.48444  23721042.977                    23721046.027
        43.100          28.200
 109714920.497 8  85492204.22647  20878060.906                    20878067.391
        50.400          43.400
 113649026.190 8  88557735.79246  21626692.313                    21626699.047
        51.500          40.000
 116962134.429 7  91139385.00546  22257166.836                    22257174.797
        46.100          37.500
 109770494.063 8  85535515.04647  20888639.234                    20888643.648
        49.800          42.200
 127043959.531 6  98995344.92043  24175668.016                    24175672.594
        41.800          21.100
 117591450.799 8  91629737.09145  22376915.406                    22376919.543
        49.800          35.500
 114841712.884 8  89487089.30046  21853662.859                    21853664.965
        49.600          38.100
 18  2 20  8 41 30.0000000  0  8G23G09G30G06G07G16G05G02
 124741120.868 6  97200918.36544  23737456.188                    23737458.523
        40.900          27.400
 109771262.251 8  85536106.87947  20888782.375                    20888788.918
        49.900          43.500
 113569179.299 8  88495517.45046  21611497.969                    21611504.707
        52.300          39.800
 117052082.168 7  91209474.13046  22274283.203                    22274291.168
        46.700          38.500
 109739309.652 8  85511215.50847  20882705.031                    20882709.262
        49.100          42.600
 127064715.577 6  99011518.44843  24179618.109                    24179622.660
        39.900          21.500
 117505430.500 8  91562708.29545  22360546.336                    22360550.387
        50.600          35.500
 114857232.199 8  89499182.25646  21856615.766                    21856618.164
        49.100          37.900
 18  2 20  8 42  0.0000000  0  8G23G09G30G06G07G16G05G02
 124827473.091 7  97268205.78444  23753888.039                    23753891.117
        43.600          28.100
 109827892.482 8  85580234.32447  20899558.813                    20899565.258
        49.800          43.700
 113489730.137 8  88433609.03446  21596378.945                    21596385.945
        51.500          40.300
 117142372.946 7  91279830.54646  22291465.242                    22291473.180
        46.200          37.600
 109708642.839 8  85487319.29947  20876869.414                    20876873.840
        49.400          42.300
 127086083.040 6  99028168.41643  24183684.711                    24183688.449
        41.200          20.400
 117419646.776 8  91495863.84446  22344222.141                    22344226.918
        49.200          36.300
 114873302.483 8  89511704.53846  21859674.102                    21859676.375
        48.800          38.000
 18  2 20  8 42 30.0000000  0  8G23G09G30G06G07G16G05G02
 124913926.793 7  97335572.24444  23770339.734                    23770342.699
        43.100          27.300
 109884809.946 8  85624585.58447  20910389.844                    20910396.441
        51.200          43.200
 113410680.668 8  88372012.06546  21581336.102                    21581343.355
        52.100          39.500
 117233003.862 7  91350452.01646  22308711.508                    22308719.086
        46.800          37.900
 109678493.988 8  85463826.69647  20871131.930                    20871136.707
        50.500          42.500
 127108061.844 6  99045294.75343  24187866.984                    24187870.828
        41.800          22.300
 117334102.335 8  91429205.83545  22327943.547                    22327947.918
        49.300          35.300
 114889922.745 8  89524655.38446  21862836.781                    21862839.074
        48.700          37.400
 18  2 20  8 43  0.0000000  0  8G23G09G30G06G07G16G05G02
 125000481.153 7  97403017.15444  23786811.172                    23786813.434
        44.700          27.900
 109942013.591 8  85669159.84447  20921275.391                    20921281.859
        51.400          43.700
 113332033.035 8  88310728.21146  21566369.945                    21566376.762
        51.500          40.100
 117323972.215 7  91421336.42046  22326022.430                    22326030.250
        47.000          38.000
 109648863.890 8  85440738.30747  20865494.117                    20865498.043
        50.300          42.300
 127130651.135 6  99062896.79543  24192164.219                    24192170.051
        41.900          22.500
 117248798.373 8  91362735.22045  22311710.461                    22311715.098
        49.000          35.200
 114907092.715 8  89538034.56246  21866104.008                    21866106.480
        48.400          37.300
 18  2 20  8 43 30.0000000  0  8G23G09G30G06G07G16G05G02
 125087135.254 7  97470539.79844  23803299.727                    23803302.430
        43.600          28.500
 109999501.923 8  85713955.93947  20932215.234                    20932221.563
        51.400          44.100
 113253788.889 8  88249758.76846  21551480.711                    21551487.586
        52.700          40.600
 117415274.865 7  91492481.31446  22343397.000                    22343405.172
        47.000          38.100
 109619752.732 8  85418054.29947  20859954.000                    20859957.953
        50.100          42.600
 127153850.129 7  99080973.94443  24196580.188                    24196583.703
        42.100          21.300
 117163736.919 7  91296453.57745  22295523.977                    22295528.703
        47.600          35.700
 114924811.554 8  89551841.43446  21869475.859                    21869478.320
        48.500          37.400
 18  2 20  8 44  0.0000000  0  8G23G09G30G06G07G16G05G02
 125173887.963 7  97538139.25244  23819808.883                    23819811.176
        42.900          26.900
 110057273.991 8  85758973.12547  20943208.758                    20943215.637
        52.700          43.900
 113175950.439 8  88189105.44746  21536668.586                    21536675.582
        53.000          40.500
 117506909.147 7  91563884.62946  22360834.305                    22360842.152
        47.200          37.700
 109591161.412 8  85395775.36147  20854513.656                    20854517.797
        51.100          42.100
 127177658.312 6  99099525.74243  24201110.258                    24201114.293
        40.100          21.500
 117078920.102 8  91230362.54446  22279383.867                    22279388.625
        48.000          36.100
 114943078.431 8  89566075.34646  21872952.023                    21872954.059
        49.000          37.700
 18  2 20  8 44 30.0000000  0  8G23G09G30G06G07G16G05G02
 125260739.575 7  97605815.78444  23836335.914                    23836338.625
        42.500          27.500
 110115329.847 8  85804211.43147  20954256.727                    20954263.066
        51.800          43.800
 113098520.955 8  88128770.79146  21521934.383                    21521941.711
        52.500          41.700
 117598873.494 7  91635545.13046  22378334.469                    22378342.621
        46.700          37.900
 109563091.800 8  85373902.94947  20849171.844                    20849176.117
        50.000          42.200
 127202076.470 6  99118552.86543  24205757.320                    24205761.117
        39.800          21.100
 116994350.007 8  91164463.77345  22263290.656                    22263295.414
        48.200          35.500
 114961894.159 8  89580736.93646  21876532.828                    21876534.961
        48.400          37.900
 18  2 20  8 45  0.0000000  0  8G23G09G30G06G07G16G05G02
 125347689.054 7  97673568.55644  23852882.539                    23852884.656
        43.100          26.900
 110173667.752 8  85849669.53347  20965357.875                    20965364.074
        52.300          43.700
 113021501.746 8  88068755.83546  21507277.906                    21507284.910
        53.200          41.400
 117691164.425 7  91707460.12346  22395896.797                    22395904.910
        45.500          38.000
 109535543.356 8  85352436.64547  20843929.531                    20843934.012
        51.000          42.100
 127227102.952 6  99138053.98743  24210520.109                    24210523.672
        40.400          21.700
 116910029.781 7  91098759.70945  22247244.742                    22247249.723
        47.800          35.800
 114981257.510 8  89595825.25446  21880217.781                    21880219.496
        48.400          37.400
 18  2 20  8 45 30.0000000  0  8G23G09G30G06G07G16G05G02
 125434734.658 7  97741396.26444  23869446.180                    23869449.172
        42.300          26.500
 110232285.574 8  85895345.75047  20976512.766                    20976519.004
        52.100          43.700
 112944893.830 8  88009061.36746  21492700.094                    21492706.863
        51.700          41.800
 117783778.157 7  91779626.64646  22413520.805                    22413528.930
        46.000          37.500
 109508515.746 8  85331376.17346  20838786.258                    20838790.191
        50.700          41.600
 127252735.963 6  99158027.74043  24215397.086                    24215401.488
        37.600          20.100
 116825960.472 7  91033251.14845  22231247.086                    22231251.977
        47.600          35.400
 115001166.493 8  89611338.74346  21884005.805                    21884007.730
        48.500          37.800
 18  2 20  8 46  0.0000000  0  8G23G09G30G06G07G16G05G02
 125521875.801 7  97809298.40144  23886028.516                    23886031.512
        43.200          26.500
 110291182.411 8  85941239.38747  20987720.219                    20987726.293
        52.500          44.200
 112868699.421 8  87949689.12746  21478200.750                    21478207.832
        52.800          41.600
 117876712.070 7  91852042.67046  22431205.063                    22431213.680
        46.500          37.500
 109482009.794 8  85310722.20346  20833742.273                    20833746.371
        50.000          41.800
 127278975.292 6  99178473.98043  24220390.633                    24220394.406
        40.300          20.400
 116742143.477 7  90967939.21046  22215297.133                    22215301.926
        47.000          36.100
 115021620.780 8  89627277.13546  21887898.344                    21887900.426
        49.300          38.000
 18  2 20  8 46 30.0000000  0  8G23G09G30G06G07G16G05G02
 125609111.252 7  97877274.02744  23902629.531                    23902632.238
        42.600          26.500
 110350356.832 8  85987349.30947  20998980.844                    20998986.848
        52.500          43.900
 112792920.259 8  87890640.45146  21463780.430                    21463787.496
        52.700          41.800
 117969963.041 7  91924705.74546  22448950.188                    22448958.574
        46.000          36.600
 109456025.738 8  85290474.90147  20828797.422                    20828802.250
        50.200          42.200
 127305819.899 6  99199391.81143  24225498.484                    24225502.539
        40.600          20.600
 116658580.661 7  90902825.32646  22199396.125                    22199400.633
        47.900          36.200
 115042619.334 7  89643639.62946  21891894.258                    21891896.266
        47.700          38.100
 18  2 20  8 47  0.0000000  0  8G23G09G30G06G07G16G05G02
 125696440.249 7  97945322.53944  23919247.641                    23919250.180
        42.100          26.300
 110409808.027 8  86033674.91247  21010293.953                    21010300.109
        53.100          43.500
 112717558.520 8  87831917.02747  21449439.648                    21449446.559
        52.700          42.000
 118063528.539 7  91997613.91446  22466755.164                    22466763.035
        47.000          36.600
 109430564.140 8  85270634.71646  20823952.203                    20823956.754
        49.800          41.800
 127333269.245 6  99220780.90043  24230722.867                    24230726.402
        40.300          21.100
 116575273.914 8  90837910.97146  22183543.352                    22183547.691
        48.200          36.500
 115064161.613 8  89660425.81046  21895993.477                    21895995.781
        48.500          37.900
 18  2 20  8 47 30.0000000  0  8G23G09G30G06G07G16G05G02
 125783862.081 7  98013443.41744  23935882.805                    23935885.801
        42.800          25.600
 110469534.584 8  86080215.07247  21021659.305                    21021665.848
        53.000          43.800
 112642615.885 8  87773520.18147  21435178.328                    21435185.574
        52.400          42.000
 118157405.345 7  92070764.66346  22484619.758                    22484627.328
        46.100          36.200
 109405625.278 8  85251201.85247  20819206.617                    20819211.012
        50.100          42.100
 127361322.108 6  99242640.24143  24236060.625                    24236064.758
        40.200          20.100
 116492225.219 7  90773197.70846  22167739.531                    22167744.031
        47.200          36.700
 115086246.729 8  89677634.97946  21900196.406                    21900198.352
        49.000          37.700
 18  2 20  8 48  0.0000000  0  8G23G09G30G06G07G16G05G02
 125871375.921 6  98081635.95644  23952536.008                    23952539.484
        40.200          26.100
 110529535.407 8  86126968.95047  21033077.250                    21033083.668
        52.800          43.600
 112568094.323 8  87715451.44747  21420997.273                    21421004.840
        52.900          42.600
 118251590.762 7  92144155.88046  22502542.617                    22502550.297
        45.900          36.000
 109381209.830 8  85232176.83747  20814560.844                    20814565.016
        50.700          42.100
 127389978.170 6  99264969.63343  24241514.398                    24241518.113
        40.300          21.300
 116409437.926 8  90708688.12546  22151985.672                    22151990.477
        48.700          36.400
 115108873.957 8  89695266.56246  21904502.180                    21904503.707
        48.300          37.100
 18  2 20  8 48 30.0000000  0  8G23G09G30G06G07G16G05G02
 125958981.063 6  98149899.63844  23969207.203                    23969210.262
        41.500          25.100
 110589809.283 8  86173935.60247  21044546.805                    21044553.277
        52.300          43.500
 112493995.677 8  87657712.27147  21406896.945                    21406904.094
        51.900          42.500
 118346081.774 7  92217785.21846  22520523.211                    22520531.387
        45.500          36.000
 109357317.813 8  85213559.69246  20810014.055                    20810018.449
        49.900          41.800
 127419236.387 6  99287768.22343  24247081.547                    24247085.426
        41.100          21.700
 116326913.029 7  90644383.01346  22136282.164                    22136286.559
        47.900          37.200
 115132042.491 8  89713319.95646  21908910.898                    21908912.898
        48.800          37.200
 18  2 20  8 49  0.0000000  0  8G23G09G30G06G07G16G05G02
 126046676.454 6  98218233.65244  23985895.906                    23985897.559
        40.900          26.000
 110650355.421 8  86221114.39847  21056068.617                    21056075.145
        51.900          43.800
 112420322.180 8  87600304.37347  21392877.305                    21392884.289
        53.100          42.600
 118440875.806 7  92291650.67245  22538562.258                    22538570.098
        44.300          35.000
 109333950.238 8  85195351.20546  20805567.305                    20805571.484
        51.100          41.800
 127449095.777 6  99311035.24743  24252763.516                    24252768.031
        40.700          20.900
 116244653.021 8  90580284.30446  22120628.391                    22120632.699
        49.500          37.400
 115155751.256 8  89731794.30246  21913422.656                    21913424.359
        48.800          37.100
 18  2 20  8 49 30.0000000  0  8G23G09G30G06G07G16G05G02
 126134461.468 7  98286637.50844  24002600.102                    24002602.898
        42.000          25.200
 110711172.443 8  86268504.28247  21067641.375                    21067647.957
        52.800          43.400
 112347075.469 8  87543229.03147  21378939.023                    21378945.961
        52.400          42.600
 118535969.796 7  92365749.86045  22556657.984                    22556665.941
        45.200          35.500
 109311106.837 8  85177551.16047  20801220.633                    20801224.898
        50.500          42.400
 127479555.461 7  99334770.05943  24258560.063                    24258564.473
        42.000          21.800
 116162659.188 8  90516393.00746  22105025.289                    22105029.746
        50.200          36.600
 115179999.320 8  89750688.87746  21918036.813                    21918038.578
        48.700          36.500
 18  2 20  8 50  0.0000000  0  8G23G09G30G06G07G16G05G02
 126222335.602 6  98355110.79544  24019322.227                    24019324.375
        40.500          25.600
 110772259.302 8  86316104.42147  21079265.930                    21079272.074
        53.000          43.900
 112274257.451 8  87486487.73447  21365082.344                    21365089.246
        52.900          42.700
 118631360.942 7  92440080.58845  22574810.055                    22574818.207
        44.700          35.200
 109288788.233 8  85160160.05347  20796973.664                    20796977.922
        50.300          42.500
 127510614.438 6  99358971.86243  24264470.172                    24264474.418
        40.200          21.700
 116080933.991 8  90452711.04746  22089473.727                    22089477.965
        49.600          37.500
 115204785.730 8  89770002.96246  21922753.469                    21922755.285
        48.500          37.000
 18  2 20  8 50 30.0000000  0  8G23G09G30G06G07G16G05G02
 126310297.898 7  98423652.79244  24036060.922                    24036063.438
        42.300          26.400
 110833614.873 8  86363913.95347  21090941.570                    21090947.816
        53.600          43.800
 112201870.048 8  87430081.99347  21351307.336                    21351314.277
        53.000          42.400
 118727046.330 7  92514640.59745  22593018.789                    22593026.543
        43.900          34.900
 109266994.752 8  85143178.12647  20792826.609                    20792830.684
        51.400          42.500
 127542271.689 6  99383639.82143  24270494.500                    24270498.852
        41.400          21.800
 115999479.157 8  90389239.75846  22073973.102                    22073977.328
        49.300          37.300
 115230109.893 8  89789736.06646  21927572.609                    21927574.426
        48.000          36.000
 18  2 20  8 51  0.0000000  0  8G23G09G30G06G07G16G05G02
 126398347.509 6  98492262.83144  24052816.172                    24052818.523
        41.800          25.300
 110895237.980 8  86411931.95547  21102668.508                    21102674.898
        53.200          43.400
 112129915.010 8  87374013.14947  21337614.805                    21337621.262
        52.600          42.000
 118823022.985 7  92589427.57245  22611282.094                    22611290.461
        44.300          34.500
 109245726.489 8  85126605.46647  20788779.383                    20788783.730
        51.700          42.400
 127574526.408 6  99408773.39043  24276632.070                    24276636.734
        40.400          21.500
 115918297.825 8  90325981.58146  22058524.648                    22058529.023
        49.900          36.600
 115255970.617 7  89809887.27346  21932493.461                    21932495.262
        47.800          36.600
 18  2 20  8 51 30.0000000  0  8G23G09G30G06G07G16G05G02
 126486483.519 6  98560940.16744  24069587.594                    24069590.684
        40.400          26.000
 110957127.412 8  86460157.48647  21114445.391                    21114451.672
        52.700          43.300
 112058394.145 8  87318282.62147  21324004.914                    21324011.324
        52.400          42.400
 118919288.039 7  92664439.26645  22629600.891                    22629609.035
        45.200          34.200
 109224983.888 8  85110442.40847  20784831.875                    20784836.414
        51.800          42.400
 127607377.322 6  99434371.50043  24282883.578                    24282888.199
        39.700          21.700
 115837391.477 8  90262937.67646  22043128.445                    22043132.820
        49.900          36.900
 115282366.814 7  89830455.74445  21937516.484                    21937518.449
        46.800          35.400
 18  2 20  8 52  0.0000000  0  8G23G09G30G06G07G16G05G02
 126574705.438 7  98629684.45844  24086375.531                    24086378.605
        42.400          24.700
 111019282.180 8  86508589.76247  21126273.211                    21126279.535
        52.800          43.800
 111987309.353 8  87262891.89847  21310477.820                    21310484.590
        51.800          42.000
 119015838.583 7  92739673.41845  22647974.109                    22647982.270
        45.400          35.400
 109204767.164 8  85094689.12347  20780984.789                    20780989.012
        51.400          42.600
 127640823.854 6  99460433.75243  24289248.305                    24289252.965
        38.100          21.500
 115756761.878 8  90200109.43246  22027785.352                    22027789.934
        49.600          36.800
 115309297.793 7  89851440.91345  21942641.438                    21942643.211
        47.000          35.300
 18  2 20  8 52 30.0000000  0  8G23G09G30G06G07G16G05G02
 126663012.674 7  98698495.21144  24103180.180                    24103183.105
        43.000          24.700
 111081701.226 8  86557227.97447  21138151.320                    21138157.797
        53.400          43.500
 111916662.499 8  87207842.43147  21297033.984                    21297040.672
        52.700          42.400
 119112671.825 7  92815127.85945  22666400.891                    22666408.926
        45.500          35.100
 109185076.888 8  85079346.05547  20777238.023                    20777241.895
        51.600          42.600
 127674864.166 6  99486958.66443  24295725.875                    24295730.617
        37.500          21.800
 115676411.616 8  90137498.84046  22012495.211                    22012499.648
        48.900          37.500
 115336762.771 7  89872842.18045  21947867.555                    21947869.699
        47.800          34.900
 18  2 20  8 53  0.0000000  0  8G23G09G30G06G07G16G05G02
 126751403.769 7  98767371.30644  24120000.422                    24120003.559
        43.200          25.300
 111144383.297 8  86606071.13447  21150078.914                    21150085.512
        52.900          43.700
 111846455.255 8  87153135.51647  21283673.898                    21283680.609
        52.000          42.600
 119209784.713 7  92890800.20645  22684880.625                    22684888.785
        44.900          35.100
 109165912.823 8  85064413.02047  20773591.219                    20773595.344
        52.000          42.000
 127709497.714 6  99513945.81843  24302316.344                    24302321.273
        37.500          20.600
 115596341.903 8  90075106.85946  21997258.391                    21997263.059
        49.000          37.100
 115364760.011 7  89894658.21445  21953194.898                    21953197.121
        47.700          34.700
 18  2 20  8 53 30.0000000  0  8G23G09G30G06G07G16G05G02
 126839878.445 7  98836312.55744  24136836.672                    24136839.211
        42.400          24.800
 111207327.327 8  86655118.42547  21162056.953                    21162063.250
        53.500          43.600
 111776689.510 8  87098772.62647  21270397.906                    21270404.836
        52.200          42.600
 119307174.391 7  92966688.22945  22703413.531                    22703420.930
        46.300          35.100
 109147275.348 8  85049890.32047  20770044.789                    20770048.961
        51.100          42.700
 127744723.601 6  99541394.60643  24309019.547                    24309023.238
        37.800          20.900
 115516555.323 8  90012935.49946  21982075.570                    21982080.293
        48.800          37.700
 115393288.843 7  89916888.46045  21958624.281                    21958626.129
        47.500          35.300
 18  2 20  8 54  0.0000000  0  8G23G09G30G06G07G16G05G02
 126928435.764 7  98905318.16844  24153689.148                    24153691.320
        43.300          26.000
 111270532.019 8  86704368.82947  21174084.117                    21174090.859
        52.300          43.600
 111707366.766 8  87044754.93147  21257205.977                    21257213.047
        52.200          42.100
 119404837.740 7  93042789.50045  22721998.141                    22722006.199
        45.700          34.300
 109129164.431 8  85035777.91947  20766598.313                    20766602.543
        50.600          42.000
 127780540.404 6  99569303.79543  24315835.711                    24315840.156
        37.500          20.600
 115437053.956 8  89950986.38346  21966946.836                    21966951.449
        48.700          38.100
 115422347.810 7  89939531.80645  21964153.805                    21964155.855
        47.800          35.600
 18  2 20  8 54 30.0000000  0  8G23G09G30G06G07G16G05G02
 127017074.882 7  98974387.55144  24170556.680                    24170559.133
        43.700          25.300
 111333996.268 8  86753821.47747  21186161.031                    21186167.969
        52.000          42.800
 111638488.852 8  86991083.86447  21244098.992                    21244106.293
        52.300          43.100
 119502771.903 7  93119101.79645  22740634.219                    22740642.328
        45.500          33.800
 109111580.250 8  85022075.95947  20763252.164                    20763256.359
        51.200          42.500
 127816946.223 6  99597671.98643  24322762.398                    24322767.754
        36.600          20.100
 115357839.469 8  89889260.81346  21951872.766                    21951877.543
        48.600          38.100
 115451936.142 7  89962587.64245  21969785.016                    21969786.520
        47.200          35.000
 18  2 20  8 55  0.0000000  0  8G23G09G30G06G07G16G05G02
 127105794.881 7  99043519.92343  24187439.125                    24187441.977
        43.000          23.000
 111397718.989 8  86803475.53647  21198287.172                    21198293.930
        52.100          43.100
 111570057.463 8  86937760.72547  21231076.891                    21231084.113
        53.000          42.800
 119600973.906 7  93195622.80045  22759321.688                    22759329.371
        46.200          34.100
 109094523.013 8  85008784.61547  20760006.195                    20760010.488
        51.100          42.100
 127853940.755 6  99626498.88443  24329802.594                    24329807.262
        37.300          19.600
 115278914.389 8  89827760.75146  21936854.320                    21936858.367
        49.800          38.100
 115482052.440 7  89986054.85545  21975515.602                    21975517.375
        46.400          35.800
 18  2 20  8 55 30.0000000  0  8G23G09G30G06G07G16G05G02
 127194595.313 7  99112714.98044  24204337.633                    24204340.453
        43.000          24.300
 111461698.974 8  86853330.06647  21210462.203                    21210468.758
        52.200          43.300
 111502074.312 8  86884786.85647  21218140.422                    21218146.980
        53.200          43.400
 119699440.777 7  93272350.19145  22778059.367                    22778067.316
        45.100          33.600
 109077992.874 8  84995903.98647  20756860.617                    20756864.758
        51.300          42.000
 127891522.049 6  99655783.00743  24336953.859                    24336958.965
        37.900          19.300
 115200280.114 8  89766487.29046  21921890.758                    21921895.105
        49.600          38.300
 115512695.492 7  90009932.53546  21981346.602                    21981348.543
        45.900          36.200
 18  2 20  8 56  0.0000000  0  8G23G09G30G06G07G16G05G02
 127283475.556 7  99181972.24044  24221250.578                    24221254.207
        43.100          26.000
 111525935.448 8  86903384.44747  21222685.977                    21222692.582
        52.700          43.500
 111434541.370 8  86832163.79347  21205289.305                    21205296.250
        52.800          43.400
 119798169.874 7  93349281.91545  22796846.750                    22796854.934
        44.400          33.100
 109061990.486 8  84983434.60346  20753815.383                    20753819.184
        50.900          41.900
 127929689.684 6  99685524.03343  24344217.594                    24344221.891
        37.300          19.300
 115121939.437 8  89705442.60346  21906983.156                    21906987.316
        49.700          38.400
 115543864.260 7  90034219.87445  21987278.117                    21987280.379
        46.500          35.500
 18  2 20  8 56 30.0000000  0  8G23G09G30G06G07G16G05G02
 127372434.580 7  99251290.88044  24238178.672                    24238182.488
        43.000          25.200
 111590426.959 8  86953637.56147  21234958.172                    21234964.754
        53.200          42.900
 111367460.001 8  86779892.61047  21192524.117                    21192530.906
        53.400          43.700
 119897157.985 7  93426415.45445  22815683.602                    22815691.648
        45.500          33.000
 109046514.967 8  84971375.75647  20750870.414                    20750874.770
        50.900          42.000
 127968441.991 6  99715720.64043  24351590.648                    24351596.152
        38.400          20.600
 115043894.131 8  89644628.08246  21892131.352                    21892135.715
        49.600          39.000
 115575557.433 7  90058915.83645  21993309.016                    21993311.094
        46.800          35.800
 18  2 20  8 57  0.0000000  0  8G23G09G30G06G07G16G05G02
 127461471.605 7  99320670.28144  24255121.922                    24255125.102
        43.800          25.900
 111655172.686 8  87004088.76547  21247279.125                    21247285.695
        52.400          43.500
 111300832.210 8  86727974.86847  21179845.219                    21179852.352
        53.900          43.700
 119996402.318 7  93503748.64345  22834569.328                    22834577.523
        44.700          33.100
 109031567.063 8  84959728.04347  20748025.961                    20748030.102
        50.900          42.000
 128007777.798 6  99746371.88543  24359076.484                    24359081.586
        38.200          19.300
 114966146.440 8  89584045.46346  21877336.656                    21877340.906
        50.500          38.400
 115607774.465 7  90084019.99546  21999439.633                    21999441.797
        45.800          36.000
 18  2 20  8 57 30.0000000  0  9G23G13G09G30G06G07G16G05G02
 127550586.109 7  99390110.06744  24272080.617                    24272083.848
        42.800          24.900
 130787222.075 6 101912185.29042  24887990.961                    24887997.336
        38.400          17.800
 111720171.313 8  87054737.03747  21259647.953                    21259654.367
        52.500          43.200
 111234659.471 8  86676411.70347  21167252.930                    21167259.906
        53.200          43.900
 120095899.798 7  93581279.10445  22853502.906                    22853511.105
        44.700          33.600
 109017146.652 8  84948491.35647  20745282.000                    20745285.949
        50.400          42.200
 128047695.415 6  99777476.55443  24366673.656                    24366677.492
        40.000          20.400
 114888698.629 8  89523696.51046  21862598.891                    21862603.309
        49.400          39.000
 115640513.516 7  90109530.94546  22005669.797                    22005672.152
        45.500          36.200
 18  2 20  8 58  0.0000000  0  9G23G13G09G30G06G07G16G05G02
 127639777.418 7  99459609.68744  24289053.117                    24289056.844
        43.700          27.400
 130687313.093 6 101834334.18542  24868979.883                    24868985.008
        38.500          17.400
 111785421.837 8  87105581.58247  21272064.609                    21272071.199
        52.900          42.900
 111168943.431 8  86625204.41647  21154747.625                    21154754.906
        53.400          44.100
 120195647.486 7  93659004.52345  22872484.375                    22872492.527
        44.700          32.500
 109003253.586 8  84937665.60047  20742638.000                    20742641.910
        51.800          42.200
 128088193.743 6  99809033.67843  24374379.586                    24374384.434
        39.200          20.400
 114811552.369 8  89463582.54846  21847918.414                    21847922.516
        49.900          38.400
 115673773.243 7  90135447.61546  22011998.984                    22012001.090
        46.500          36.000
 18  2 20  8 58 30.0000000  0  9G23G13G09G30G06G07G16G05G02
 127729044.479 7  99529168.36944  24306039.758                    24306043.164
        44.100          25.800
 130587479.251 6 101756541.57642  24849982.141                    24849987.777
        39.400          16.900
 111850923.058 8  87156621.48147  21284528.977                    21284535.555
        53.000          43.200
 111103685.738 8  86574354.29047  21142329.414                    21142336.961
        53.000          43.800
 120295642.463 7  93736922.65445  22891513.063                    22891521.316
        45.400          32.300
 108989887.926 8  84927250.80647  20740094.344                    20740098.738
        51.500          42.600
 128129271.545 6  99841042.32443  24382196.172                    24382200.984
        39.200          20.600
 114734710.105 8  89403705.46146  21833295.719                    21833299.699
        50.300          39.200
 115707552.531 7  90161769.12746  22018426.680                    22018429.059
        46.600          37.000
 18  2 20  8 59  0.0000000  0  9G23G13G09G30G06G07G16G05G02
 127818386.743 7  99598785.61344  24323041.820                    24323045.555
        43.100          26.700
 130487721.090 6 101678808.02343  24830998.695                    24831003.609
        38.400          18.600
 111916673.915 8  87207855.89747  21297040.984                    21297047.219
        53.300          42.500
 111038888.003 8  86523862.56347  21129998.781                    21130006.199
        52.100          43.200
 120395881.733 7  93815031.13445  22910587.977                    22910595.734
        45.700          32.500
 108977049.822 8  84917247.09347  20737651.445                    20737655.809
        51.300          42.100
 128170926.954 6  99873501.08643  24390123.773                    24390127.480
        40.100          20.900
 114658173.528 8  89344066.57246  21818731.422                    21818735.805
        50.300          38.300
 115741850.053 7  90188494.45046  22024953.523                    22024955.594
        46.600          36.400
 18  2 20  8 59 30.0000000  0  9G23G13G09G30G06G07G16G05G02
 127907803.091 7  99668460.60544  24340057.680                    24340060.832
        43.200          26.700
 130388040.126 6 101601134.56943  24812030.641                    24812034.922
        40.000          19.600
 111982673.188 8  87259283.88647  21309600.477                    21309606.766
        52.900          43.200
 110974551.704 8  86473730.39447  21117756.188                    21117763.102
        51.900          43.700
 120496362.239 7  93893327.59645  22929708.945                    22929716.570
        44.900          32.900
 108964739.062 8  84907654.30247  20735308.883                    20735313.117
        51.600          42.200
 128213158.933 6  99906409.10543  24398160.070                    24398163.891
        39.900          19.600
 114581944.575 8  89284667.39546  21804225.367                    21804229.344
        51.700          38.600
 115776664.330 7  90215622.41845  22031578.336                    22031580.934
        46.300          35.600
                            4  1
RINEX FILE SPLICE; other post-header comments skipped       COMMENT
 18  2 20  9  0  0.0000000  0  9G23G13G09G30G06G07G16G05G02
 127997293.420 6  99738193.24144  24357085.961                    24357090.504
        41.400          25.700
 130288437.110 6 101523521.85743  24793076.563                    24793081.098
        38.600          19.600
 112048920.107 8  87310904.85547  21322206.719                    21322213.164
        53.200          43.600
 110910678.798 8  86423959.31247  21105601.328                    21105608.590
        52.600          43.800
 120597081.354 7  93971809.99445  22948875.070                    22948882.863
        45.500          32.600
 108952956.045 8  84898472.73547  20733066.578                    20733070.578
        52.400          42.000
 128255966.259 6  99939765.42243  24406306.234                    24406309.742
        41.200          21.100
 114506025.809 8  89225509.92946  21789778.750                    21789782.281
        51.500          38.800
 115811994.389 7  90243152.29346  22038301.734                    22038303.852
        47.100          36.000
 18  2 20  9  0 30.0000000  0  9G23G13G09G30G06G07G16G05G02
 128086856.338 7  99807982.42244  24374129.797                    24374133.828
        42.400          25.500
 130188912.323 6 101445970.11243  24774137.305                    24774142.227
        39.200          20.100
 112115413.107 8  87362717.57247  21334859.945                    21334866.215
        52.400          42.900
 110847270.389 8  86374550.17447  21093535.273                    21093542.184
        52.200          43.800
 120698035.628 7  94050475.62645  22968085.586                    22968094.180
        45.400          32.700
 108941700.103 8  84889701.87347  20730924.867                    20730929.227
        51.900          42.400
 128299347.376 7  99973568.88743  24414561.148                    24414564.957
        42.400          20.100
 114430418.585 8  89166595.21446  21775390.688                    21775394.969
        51.200          38.700
 115847838.397 7  90271082.66045  22045122.070                    22045124.645
        47.500          35.500
 18  2 20  9  1  0.0000000  0  9G23G13G09G30G06G07G16G05G02
 128176491.897 6  99877828.23244  24391186.344                    24391190.418
        41.100          24.300
 130089466.608 6 101368479.97343  24755213.359                    24755218.684
        38.100          19.000
 112182151.797 8  87414721.72847  21347560.211                    21347566.242
        52.700          42.800
 110784328.669 8  86325504.69547  21081557.547                    21081564.906
        51.900          43.400
 120799222.772 7  94129322.72345  22987340.930                    22987349.137
        44.700          32.400
 108930971.727 8  84881342.10947  20728883.070                    20728887.059
        51.800          42.800
 128343300.671 6 100007818.16443  24422925.539                    24422928.855
        41.800          21.700
 114355126.163 8  89107925.80746  21761062.992                    21761067.520
        51.400          38.600
 115884195.752 7  90299413.06845  22052041.117                    22052043.332
        46.900          35.700
 18  2 20  9  1 30.0000000  0  9G23G13G09G30G06G07G16G05G02
 128266199.078 6  99947729.84844  24408257.133                    24408261.563
        40.200          24.300
 129990101.287 6 101291052.51343  24736304.766                    24736310.023
        39.000          20.400
 112249134.525 8  87466916.04847  21360306.547                    21360312.910
        53.200          42.900
 110721854.706 8  86276823.69347  21069669.188                    21069676.266
        52.600          43.900
 120900639.288 7  94208348.54445  23006639.828                    23006648.250
        44.200          32.700
 108920770.266 8  84873392.92547  20726941.914                    20726946.047
        52.700          42.900
 128387824.370 6 100042511.94143  24431397.898                    24431401.434
        40.900          20.400
 114280150.036 8  89049502.86946  21746795.383                    21746799.875
        50.600          38.400
 115921064.213 7  90328141.73945  22059056.406                    22059059.082
        47.900          35.800
 18  2 20  9  2  0.0000000  0  9G23G13G09G30G06G07G16G05G02
 128355976.918 6 100017686.50244  24425342.195                    24425345.695
        41.600          24.200
 129890816.493 6 101213687.78643  24717410.883                    24717417.168
        39.300          18.600
 112316360.205 8  87519299.68647  21373099.297                    21373105.273
        52.100          42.300
 110659850.052 8  86228508.38047  21057870.266                    21057877.211
        51.900          44.100
 121002282.234 7  94287550.80345  23025982.203                    23025990.637
        45.000          32.100
 108911095.907 8  84865854.46947  20725100.961                    20725105.516
        52.800          42.600
 128432917.266 7 100077649.24643  24439978.844                    24439982.000
        42.600          19.000
 114205491.725 8  88991327.56646  21732588.438                    21732593.172
        51.700          39.000
 115958442.668 7  90357267.81545  22066170.063                    22066171.953
        47.300          35.200
 18  2 20  9  2 30.0000000  0  9G23G13G09G30G06G07G16G05G02
 128445824.914 6 100087697.88444  24442439.070                    24442443.160
        40.900          25.400
 129791613.674 6 101136386.89943  24698533.227                    24698538.793
        38.100          18.300
 112383827.996 8  87571871.97747  21385937.570                    21385943.992
        51.900          43.000
 110598316.401 8  86180560.10547  21046160.922                    21046167.828
        51.900          43.400
 121104148.821 7  94366927.30945  23045366.906                    23045375.215
        45.000          32.400
 108901948.907 8  84858726.94247  20723360.109                    20723364.668
        52.400          42.900
 128478577.967 6 100113229.00343  24448668.250                    24448671.457
        41.400          19.900
 114131153.893 8  88933401.98846  21718442.727                    21718446.871
        51.800          38.600
 115996329.647 8  90386790.12046  22073379.508                    22073381.574
        48.800          36.000
 18  2 20  9  3  0.0000000  0  9G23G13G09G30G06G07G16G05G02
 128535741.955 6 100157763.04744  24459549.953                    24459554.695
        41.800          24.900
 129692493.158 6 101059150.18543  24679671.773                    24679676.797
        39.700          20.900
 112451536.392 8  87624631.75847  21398821.820                    21398828.582
        52.800          43.000
 110537254.887 8  86132979.72047  21034540.930                    21034548.035
        51.900          43.800
 121206235.696 7  94446475.47945  23064793.227                    23064801.688
        44.300          33.200
 108893328.061 8  84852009.40047  20721719.734                    20721724.273
        52.100          42.700
 128524804.348 6 100149249.53843  24457464.977                    24457467.691
        41.300          19.600
 114057138.105 8  88875727.35846  21704357.766                    21704362.148
        51.800          39.000
 116034723.561 8  90416707.44646  22080685.805                    22080687.590
        48.500          36.800
 18  2 20  9  3 30.0000000  0  9G23G13G09G30G06G07G16G05G02
 128625727.814 7 100227881.82744  24476673.617                    24476678.152
        42.100          24.200
 129593455.561 6 100981978.08143  24660824.914                    24660830.934
        37.900          19.300
 112519484.496 8  87677578.31647  21411752.430                    21411758.793
        52.000          42.400
 110476667.129 8  86085768.49747  21023011.336                    21023018.586
        52.700          43.600
 121308540.058 7  94526193.11745  23084260.695                    23084269.738
        43.800          32.000
 108885233.638 8  84845702.05847  20720179.641                    20720183.879
        52.500          42.800
 128571594.826 6 100185709.64243  24466368.555                    24466371.453
        39.900          18.300
 113983446.889 8  88818305.63146  21690334.852                    21690339.031
        51.900          39.500
 116073622.928 7  90447018.63746  22088088.492                    22088089.793
        47.500          36.300
 18  2 20  9  4  0.0000000  0  9G23G13G09G30G06G07G16G05G02
 128715781.534 7 100298053.46444  24493809.750                    24493814.602
        42.400          24.700
 129494501.484 6 100904871.04943  24641994.367                    24642000.285
        36.800          18.600
 112587671.449 8  87730710.99647  21424727.703                    21424734.297
        52.600          42.500
 110416554.843 8  86038927.76647  21011572.727                    21011579.852
        52.900          43.000
 121411059.063 7  94606078.00045  23103769.688                    23103778.273
        44.300          31.900
 108877665.836 8  84839805.07547  20718739.555                    20718743.531
        52.600          43.200
 128618947.988 6 100222608.15043  24475379.797                    24475382.637
        40.400          19.000
 113910082.405 8  88761138.50246  21676374.227                    21676378.691
        51.900          39.300
 116113026.497 7  90477722.72246  22095586.742                    22095588.078
        47.900          37.100
 18  2 20  9  4 30.0000000  0  9G23G13G09G30G06G07G16G05G02
 128805902.346 7 100368277.41544  24510960.672                    24510963.871
        43.600          25.400
 129395632.510 6 100827830.28643  24623181.148                    24623185.746
        37.500          20.400
 112656095.912 8  87784028.75047  21437748.492                    21437754.809
        51.500          42.500
 110356919.253 8  85992458.48647  21000224.156                    21000231.250
        52.900          43.800
 121513789.633 7  94686127.73645  23123318.523                    23123327.324
        45.200          31.000
 108870624.171 8  84834318.05547  20717399.523                    20717403.680
        53.000          42.500
 128666862.624 6 100259944.25943  24484496.586                    24484500.371
        37.900          19.000
 113837046.741 8  88704227.59846  21662475.922                    21662480.441
        51.800          39.500
 116152932.404 7  90508818.23846  22103180.203                    22103181.621
        47.100          37.000
 18  2 20  9  5  0.0000000  0  9G23G13G09G30G06G07G16G05G02
 128896089.590 6 100438553.13843  24528122.445                    24528125.855
        41.800          23.600
 129296849.015 6 100750856.20543  24604382.422                    24604387.242
        36.200          19.000
 112724756.830 8  87837530.74647  21450814.250                    21450820.398
        52.000          42.600
 110297761.796 8  85946361.77247  20988967.008                    20988973.938
        52.800          43.900
 121616728.715 7  94766339.95745  23142907.789                    23142915.934
        44.700          31.900
 108864108.290 8  84829240.75547  20716159.633                    20716163.422
        53.000          42.300
 128715336.616 6 100297716.15743  24493721.719                    24493724.824
        39.200          18.600
 113764341.420 8  88647574.11446  21648640.672                    21648644.867
        51.300          39.600
 116193339.099 7  90540303.97646  22110869.406                    22110871.086
        47.400          37.000
 18  2 20  9  5 30.0000000  0  9G23G13G09G30G06G07G16G05G02
 128986342.910 6 100508880.33744  24545296.813                    24545301.070
        41.600          24.400
 129198151.818 6 100673949.32443  24585601.359                    24585606.168
        39.100          20.400
 112793653.248 8  87891216.25447  21463925.023                    21463931.563
        51.400          43.400
 110239084.021 8  85900638.84847  20977801.125                    20977807.586
        52.700          43.900
 121719873.422 7  94846712.41445  23162535.711                    23162543.770
        44.300          32.300
 108858118.025 8  84824573.01047  20715019.938                    20715023.840
        53.000          42.700
 128764368.017 6 100335922.42043  24503051.242                    24503055.141
        38.300          18.600
 113691969.126 8  88591180.12046  21634868.805                    21634872.727
        51.500          39.600
 116234245.340 7  90572178.98146  22118653.766                    22118655.359
        46.100          37.300
 18  2 20  9  6  0.0000000  0  9G23G13G09G30G06G07G16G05G02
 129076661.025 6 100579258.01143  24562484.414                    24562487.793
        41.500          23.600
 129099541.469 6 100597110.08643  24566836.609                    24566841.297
        37.800          20.600
 112862783.998 8  87945084.35747  21477080.086                    21477086.656
        52.100          42.700
 110180887.174 8  85855290.66447  20966726.656                    20966733.645
        52.600          43.700
 121823220.708 7  94927242.70945  23182202.039                    23182210.160
        43.500          31.600
 108852653.094 8  84820314.62047  20713979.852                    20713983.813
        52.100          43.000
 128813955.578 6 100374562.03343  24512487.734                    24512491.613
        37.200          19.000
 113619931.369 8  88535046.81346  21621160.594                    21621164.316
        51.300          39.900
 116275649.042 7  90604441.58746  22126532.563                    22126534.516
        45.800          37.200
 18  2 20  9  6 30.0000000  0  9G23G13G09G30G06G07G16G05G02
 129167043.858 6 100649686.14443  24579683.375                    24579687.117
        41.100          23.600
 129001019.510 6 100520339.74143  24548087.742                    24548092.957
        37.900          20.600
 112932148.424 8  87999134.54547  21490279.758                    21490286.309
        51.500          42.600
 110123173.135 8  85810318.69947  20955743.805                    20955750.703
        53.200          43.600
 121926768.041 7  95007928.89645  23201906.961                    23201914.570
        44.500          31.800
 108847714.109 8  84816466.05747  20713039.781                    20713043.758
        53.300          42.800
 128864097.625 6 100413633.76443  24522029.992                    24522033.238
        37.700          19.600
 113548231.076 8  88479176.45846  21607516.242                    21607520.633
        52.000          40.400
 116317549.392 7  90637091.18646  22134505.773                    22134507.848
        47.000          37.100
 18  2 20  9  7  0.0000000  0  9G23G13G09G30G06G07G16G05G02
 129257490.333 6 100720163.83244  24596895.602                    24596898.742
        41.900          24.300
 128902585.995 6 100443638.32443  24529357.508                    24529361.629
        38.000          20.400
 113001745.066 8  88053365.68447  21503523.586                    21503529.953
        52.100          42.300
 110065942.902 8  85765723.72347  20944853.531                    20944860.055
        52.400          43.300
 122030511.980 7  95088768.28745  23221648.859                    23221656.785
        45.700          32.200
 108843299.720 8  84813026.27447  20712200.016                    20712203.805
        53.200          42.700
 128914792.085 6 100453135.86143  24531677.086                    24531680.504
        38.800          19.900
 113476869.970 8  88423570.41846  21593936.688                    21593940.922
        51.800          39.100
 116359944.343 7  90670126.18346  22142573.516                    22142575.559
        47.500          37.900
 18  2 20  9  7 30.0000000  0  9G23G13G09G30G06G07G16G05G02
 129347999.512 6 100790690.40644  24614118.742                    24614121.965
        39.800          25.100
 128804241.618 6 100367006.37943  24510642.992                    24510647.648
        37.900          20.600
 113071572.634 8  88107776.75946  21516811.398                    21516817.414
        51.500          41.800
 110009197.573 8  85721506.59447  20934055.016                    20934061.781
        52.900          43.500
 122134449.384 7  95169758.43545  23241426.969                    23241435.367
        46.000          31.900
 108839409.382 8  84809994.84147  20711459.625                    20711463.789
        52.500          43.100
 128966037.439 6 100493067.32843  24541427.531                    24541432.254
        37.400          19.000
 113405849.595 8  88368229.86646  21580422.023                    21580426.500
        51.200          39.900
 116402831.953 7  90703545.09446  22150734.656                    22150736.320
        47.000          36.800
 18  2 20  9  8  0.0000000  0  9G23G13G09G30G06G07G16G05G02
 129438571.109 7 100861265.62244  24631353.930                    24631357.793
        42.200          24.800
 128705987.572 6 100290444.78343  24491945.594                    24491950.109
        38.500          20.600
 113141630.343 8  88162367.16647  21530143.188                    21530149.508
        52.100          42.500
 109952938.753 8  85677668.56347  20923349.336                    20923355.930
        53.000          43.200
 122238577.480 7  95250897.18445  23261241.805                    23261250.371
        45.000          32.400
 108836043.348 8  84807371.95747  20710819.000                    20710822.961
        51.000          42.600
 129017831.903 6 100533426.56643  24551284.555                    24551287.730
        38.600          19.900
 113335172.273 8  88313156.63346  21566972.609                    21566976.590
        51.600          39.700
 116446210.866 7  90737346.83246  22158989.344                    22158991.168
        47.000          36.900
 18  2 20  9  8 30.0000000  0  9G23G13G09G30G06G07G16G05G02
 129529204.432 7 100931888.94943  24648600.016                    24648603.715
        42.000          22.600
 128607824.315 6 100213953.94043  24473265.938                    24473269.930
        39.100          21.100
 113211917.196 8  88217136.13247  21543517.758                    21543524.285
        51.400          42.400
 109897167.875 8  85634210.74347  20912736.281                    20912743.012
        52.800          43.500
 122342893.393 7  95332182.27345  23281092.555                    23281100.836
        44.700          31.900
 108833201.272 8  84805157.35847  20710278.234                    20710282.309
        51.500          43.000
 129070173.049 6 100574211.85743  24561245.336                    24561248.277
        39.400          19.600
 113264840.094 8  88258352.34646  21553588.500                    21553592.824
        52.000          40.200
 116490079.470 7  90771530.15346  22167337.336                    22167339.035
        47.200          36.600
 18  2 20  9  9  0.0000000  0  9G23G13G09G30G06G07G16G05G02
 129619898.871 6 101002559.85043  24665859.156                    24665863.223
        39.600          23.800
 128509753.118 6 100137534.82943  24454603.289                    24454607.750
        39.400          21.100
 113282432.124 8  88272082.80947  21556936.523                    21556942.957
        52.200          42.300
 109841886.236 8  85591134.16847  20902216.875                    20902223.559
        53.000          43.600
 122447394.090 7  95413611.34745  23300978.242                    23300986.949
        44.700          31.800
 108830882.825 8  84803350.78147  20709836.859                    20709841.441
        51.600          43.000
 129123059.801 6 100615422.30443  24571308.148                    24571312.809
        37.400          18.600
 113194855.602 8  88203818.97646  21540270.906                    21540275.250
        51.900          39.900
 116534435.900 7  90806093.59346  22175777.984                    22175779.805
        47.200          37.000
 18  2 20  9  9 30.0000000  0  9G23G13G09G30G06G07G16G05G02
 129710653.598 6 101073277.72943  24683129.156                    24683132.727
        41.200          22.900
 128411773.988 6 100061187.49243  24435958.117                    24435963.313
        39.800          21.700
 113353173.880 8  88327206.22847  21570398.352                    21570404.805
        51.900          42.000
 109787094.947 8  85548439.68247  20891790.477                    20891797.203
        53.200          44.000
 122552076.449 7  95495181.98045  23320898.781                    23320907.230
        44.700          32.300
 108829087.289 8  84801951.66147  20709494.922                    20709499.133
        52.000          43.000
 129176490.284 6 100657056.40843  24581476.742                    24581480.059
        39.400          20.100
 113125220.622 8  88149557.94846  21527019.773                    21527024.176
        51.700          39.800
 116579278.287 7  90841035.70146  22184311.063                    22184313.402
        47.100          36.700
 18  2 20  9 10  0.0000000  0  9G23G13G09G30G06G07G16G05G02
 129801467.934 6 101144042.10443  24700410.438                    24700414.695
        40.400          22.000
 128313888.626 6  99984913.19643  24417331.875                    24417336.348
        40.100          22.000
 113424141.670 8  88382505.79546  21583903.016                    21583909.055
        52.200          41.800
 109732795.462 8  85506128.41047  20881457.430                    20881463.969
        53.200          43.400
 122656937.621 7  95576891.94145  23340853.500                    23340861.578
        44.900          31.900
 108827814.369 8  84800959.77647  20709253.148                    20709257.270
        52.500          42.900
 129230462.099 6 100699112.33643  24591745.922                    24591751.105
        37.900          19.300
 113055937.320 8  88095570.96046  21513835.703                    21513840.125
        51.400          39.300
 116624604.930 7  90876355.12946  22192936.188                    22192938.852
        46.900          36.500
 18  2 20  9 10 30.0000000  0  9G23G13G09G30G06G07G16G05G02
 129892341.532 7 101214852.62643  24717703.180                    24717707.094
        42.600          22.900
 128216097.048 6  99908711.98343  24398722.500                    24398727.195
        40.400          22.900
 113495334.442 8  88437980.66646  21597450.398                    21597456.973
        51.700          41.100
 109678989.111 8  85464201.39547  20871218.469                    20871224.840
        52.900          43.800
 122761974.743 7  95658738.99845  23360841.000                    23360849.813
        44.700          32.800
 108827063.822 8  84800374.94747  20709110.227                    20709114.449
        52.000          42.900
 129284974.095 6 100741589.20543  24602119.781                    24602124.473
        38.800          20.100
 112987007.574 8  88041859.47146  21500719.008                    21500723.137
        51.600          39.500
 116670414.218 7  90912050.65546  22201653.539                    22201656.219
        47.600          36.200
 18  2 20  9 11  0.0000000  0  9G23G13G09G30G06G07G16G05G02
 129983272.993 6 101285708.23543  24735006.883                    24735011.199
        41.200          22.200
 128118400.326 6  99832584.68943  24380131.391                    24380136.441
        41.300          23.300
 113566750.856 8  88493629.81046  21611040.273                    21611046.723
        51.400          41.600
 109625676.853 8  85422659.39147  20861073.328                    20861080.016
        53.100          43.100
 122867184.521 7  95740720.59245  23380862.070                    23380870.344
        45.200          31.200
 108826834.827 8  84800196.51847  20709066.586                    20709070.863
        53.000          43.400
 129340023.992 6 100784485.15843  24612595.641                    24612600.219
        38.100          19.000
 112918432.872 8  87988424.64246  21487669.445                    21487673.547
        51.600          39.400
 116716704.805 8  90948121.18746  22210462.719                    22210465.121
        48.300          36.900
 18  2 20  9 11 30.0000000  0  9G23G13G09G30G06G07G16G05G02
 130074262.332 7 101356608.95243  24752322.313                    24752326.223
        42.400          21.700
 128020799.441 6  99756532.05443  24361559.031                    24361563.223
        40.800          22.900
 113638390.137 8  88549452.60246  21624672.836                    21624679.617
        50.800          41.300
 109572860.163 8  85381503.53647  20851022.648                    20851029.430
        53.100          43.900
 122972564.168 7  95822834.54045  23400915.148                    23400923.297
        43.900          31.200
 108827127.322 8  84800424.43747  20709122.469                    20709126.566
        52.900          42.600
 129395609.743 6 100827798.75343  24623172.438                    24623178.301
        38.200          20.400
 112850215.871 8  87935268.53246  21474688.297                    21474692.512
        51.000          40.100
 116763474.650 7  90984565.18446  22219362.727                    22219365.340
        47.400          37.200
 18  2 20  9 12  0.0000000  0  9G23G13G09G30G06G07G16G05G02
 130165308.523 7 101427553.96743  24769647.227                    24769651.070
        42.300          22.000
 127923294.908 7  99680554.51544  24343003.953                    24343009.223
        42.900          24.700
 113710251.197 8  88605448.21046  21638347.523                    21638354.551
        50.900          41.700
 109520540.237 8  85340734.78347  20841066.375                    20841073.051
        52.300          43.900
 123078110.728 7  95905078.55745  23420999.563                    23421008.766
        44.600          31.000
 108827940.997 8  84801058.47947  20709277.484                    20709281.195
        53.200          42.600
 129451729.496 6 100871528.45043  24633851.813                    24633857.367
        39.800          21.700
 112782359.214 8  87882393.22346  21461775.563                    21461779.859
        51.800          39.700
 116810721.611 7  91021380.95946  22228353.641                    22228355.949
        47.900          36.900
 18  2 20  9 12 30.0000000  0  9G23G13G09G30G06G07G16G05G02
 130256411.005 6 101498542.82943  24786984.367                    24786987.871
        41.000          22.600
 127825887.734 7  99604652.82744  24324467.539                    24324472.977
        42.500          25.300
 113782333.088 8  88661615.90246  21652064.672                    21652071.012
        51.600          41.400
 109468718.333 8  85300354.09147  20831205.109                    20831211.566
        52.700          44.700
 123183821.254 7  95987450.33945  23441115.867                    23441124.734
        44.500          30.700
 108829275.348 8  84802098.23847  20709531.125                    20709535.023
        52.300          42.900
 129508381.165 6 100915672.51543  24644633.688                    24644638.230
        37.500          18.300
 112714864.450 8  87829799.89846  21448932.055                    21448936.035
        51.800          39.900
 116858444.175 7  91058567.36746  22237435.039                    22237436.914
        47.500          36.700
 18  2 20  9 13  0.0000000  0  9G23G13G09G30G06G07G16G05G02
 130347569.045 6 101569575.00643  24804330.453                    24804334.727
        41.400          21.800
 127728578.560 7  99528827.53243  24305950.922                    24305955.516
        42.500          23.200
 113854634.662 8  88717954.77846  21665823.109                    21665829.734
        50.800          41.000
 109417395.526 8  85260362.30647  20821438.977                    20821445.742
        52.400          44.100
 123289692.652 7  96069947.47445  23461262.969                    23461271.309
        43.900          30.900
 108831129.621 8  84803543.13347  20709883.703                    20709887.656
        51.600          43.000
 129565562.905 6 100960229.81343  24655512.258                    24655519.801
        36.900          20.900
 112647733.351 8  87777489.95546  21436157.008                    21436161.320
        51.900          39.900
 116906640.608 7  91096123.00446  22246606.555                    22246608.172
        47.300          37.100
 18  2 20  9 13 30.0000000  0  9G23G13G09G30G06G07G16G05G02
 130438782.297 6 101640650.14443  24821687.844                    24821692.230
        40.900          22.600
 127631368.248 7  99453079.24944  24287451.813                    24287457.336
        42.500          24.400
 113927154.904 8  88774464.04446  21679622.844                    21679629.555
        50.000          41.500
 109366572.946 8  85220760.30947  20811767.648                    20811774.426
        52.900          44.400
 123395721.964 7  96152567.66845  23481439.414                    23481447.844
        43.800          30.800
 108833503.157 8  84805392.64847  20710335.680                    20710339.699
        50.300          42.600
 129623272.770 6 101005198.47643  24666495.852                    24666501.348
        39.600          19.900
 112580968.431 8  87725465.35646  21423452.156                    21423456.465
        51.800          40.000
 116955308.605 7  91134046.08546  22255868.023                    22255869.414
        47.000          36.000
 18  2 20  9 14  0.0000000  0  9G23G13G09G30G06G07G16G05G02
 130530049.830 6 101711767.64643  24839055.227                    24839059.273
        38.800          21.500
 127534257.620 7  99377408.62944  24268972.375                    24268977.613
        42.200          24.600
 113999892.841 8  88831142.92446  21693464.836                    21693471.500
        50.700          41.800
 109316251.889 8  85181549.10347  20802192.141                    20802198.367
        53.000          44.600
 123501906.321 7  96235308.66545  23501645.586                    23501653.969
        44.100          30.000
 108836395.643 8  84807646.53647  20710886.125                    20710890.148
        51.800          43.000
 129681508.649 6 101050577.04143  24677578.195                    24677584.590
        39.300          22.500
 112514571.684 8  87673727.63046  21410817.203                    21410821.617
        51.800          39.600
 117004446.683 7  91172335.46446  22265218.500                    22265220.105
        47.200          36.500
 18  2 20  9 14 30.0000000  0  9G23G13G09G30G06G07G16G05G02
 130621370.935 6 101782926.85843  24856433.445                    24856437.438
        40.400          21.700
 127437247.051 6  99301816.02243  24250512.422                    24250517.121
        40.900          22.300
 114072847.241 8  88887990.49247  21707347.656                    21707354.156
        49.100          42.100
 109266433.237 8  85142729.38947  20792711.844                    20792718.496
        51.600          44.300
 123608242.497 7  96318167.96944  23521880.844                    23521889.445
        43.500          29.100
 108839806.201 8  84810304.12047  20711535.055                    20711539.320
        52.700          43.000
 129740268.507 6 101096363.98543  24688759.633                    24688764.641
        38.300          19.600
 112448544.145 8  87622277.61546  21398252.664                    21398257.418
        52.000          40.400
 117054052.645 7  91210989.41045  22274657.789                    22274660.059
        47.200          35.600
 18  2 20  9 15  0.0000000  0  9G23G13G09G30G06G07G16G05G02
 130712745.091 6 101854127.41043  24873821.188                    24873825.770
        39.500          22.200
 127340336.716 6  99226301.48743  24232069.758                    24232075.363
        40.800          22.800
 114146017.229 8  88945006.04946  21721271.297                    21721277.836
        49.700          41.900
 109217118.265 8  85104302.14247  20783327.391                    20783334.105
        52.100          44.100
 123714727.676 7  96401143.39644  23542144.867                    23542152.785
        44.900          29.900
 108843734.542 8  84813365.16947  20712282.688                    20712286.633
        51.300          42.900
 129799550.294 6 101142557.54543  24700039.703                    24700047.496
        40.200          22.000
 112382889.521 8  87571118.17446  21385758.828                    21385763.523
        52.000          40.500
 117104124.684 7  91250006.55745  22284186.414                    22284188.398
        46.600          35.800
 18  2 20  9 15 30.0000000  0  8G13G09G30G06G07G16G05G02
 127243529.123 6  99150867.04743  24213648.789                    24213653.551
        40.300          22.800
 114219401.583 8  89002188.64547  21735235.773                    21735242.281
        50.100          42.000
 109168307.866 8  85066268.07647  20774039.188                    20774045.852
        52.700          45.000
 123821358.711 7  96484232.46144  23562435.930                    23562444.016
        43.600          28.900
 108848179.623 8  84816828.87347  20713128.172                    20713132.574
        52.400          42.600
 129859351.959 6 101189156.28343  24711420.625                    24711425.363
        40.900          21.300
 112317608.775 8  87520250.05746  21373336.594                    21373340.797
        52.400          40.400
 117154660.848 7  91289385.35945  22293803.320                    22293805.086
        47.300          35.600
 18  2 20  9 16  0.0000000  0  8G13G09G30G06G07G16G05G02
 127146824.352 6  99075512.71643  24195246.234                    24195251.594
        40.800          23.200
 114292999.599 8  89059537.71346  21749241.578                    21749247.781
        50.900          41.600
 109120003.423 8  85028628.26147  20764846.883                    20764853.602
        52.700          44.800
 123928132.888 7  96567433.06244  23582754.133                    23582762.563
        43.700          28.300
 108853141.298 8  84820695.12347  20714072.492                    20714076.555
        52.100          43.400
 129919671.215 6 101236158.22843  24722900.063                    24722904.250
        40.600          19.600
 112252704.534 8  87469675.33046  21360985.633                    21360989.707
        52.100          40.400
 117205659.340 7  91329124.44046  22303508.031                    22303509.770
        47.000          36.400
 18  2 20  9 16 30.0000000  0  8G13G09G30G06G07G16G05G02
 127050222.758 6  99000238.76544  24176863.398                    24176868.320
        41.000          25.600
 114366810.102 8  89117052.37246  21763286.891                    21763293.371
        49.800          41.600
 109072205.864 8  84991383.42047  20755751.672                    20755758.117
        53.000          44.700
 124035047.117 7  96650742.80744  23603099.398                    23603107.406
        42.500          28.700
 108858618.925 8  84824963.40747  20715115.094                    20715118.922
        52.800          43.300
 129980505.992 6 101283561.97143  24734475.570                    24734479.973
        39.400          20.600
 112188178.649 8  87419395.41346  21348706.734                    21348711.063
        52.300          40.800
 117257117.993 7  91369222.08645  22313300.195                    22313302.164
        46.600          35.400
 18  2 20  9 17  0.0000000  0  8G13G09G30G06G07G16G05G02
 126953725.428 6  98925046.09143  24158500.250                    24158505.359
        41.600          22.900
 114440832.269 8  89174731.95246  21777373.094                    21777379.590
        50.700          41.800
 109024916.420 8  84954534.51647  20746752.406                    20746759.371
        52.900          45.200
 124142098.602 7  96734159.46844  23623470.594                    23623478.781
        42.100          28.000
 108864612.257 8  84829633.54647  20716255.508                    20716259.770
        52.000          43.000
 130041854.540 6 101331366.04642  24746149.016                    24746153.590
        39.500          17.400
 112124033.280 8  87369411.99946  21336500.266                    21336504.766
        52.100          40.700
 117309035.027 7  91409676.89745  22323179.680                    22323181.605
        46.600          35.200
 18  2 20  9 17 30.0000000  0  8G13G09G30G06G07G16G05G02
 126857333.060 6  98849935.19544  24140157.680                    24140163.004
        40.000          24.900
 114515064.908 8  89232575.53546  21791499.141                    21791505.699
        51.100          41.600
 108978135.903 8  84918082.17447  20737850.633                    20737857.102
        53.700          45.200
 124249284.185 7  96817680.66744  23643866.906                    23643875.508
        42.200          27.800
 108871119.979 8  84834704.50647  20717493.578                    20717497.875
        53.000          43.000
 130103714.547 6 101379568.63143  24757921.188                    24757926.609
        41.100          21.300
 112060270.023 8  87319726.35146  21324366.516                    21324371.141
        52.500          40.100
 117361408.308 7  91450487.22245  22333145.625                    22333147.871
        45.800          35.000
 18  2 20  9 18  0.0000000  0  8G13G09G30G06G07G16G05G02
 126761046.325 6  98774906.61044  24121835.180                    24121839.938
        40.300          25.400
 114589507.032 8  89290582.35646  21805665.086                    21805671.629
        51.000          41.400
 108931865.360 8  84882027.21747  20729045.602                    20729052.414
        53.800          45.000
 124356600.937 6  96901304.05644  23664289.422                    23664297.527
        41.100          27.900
 108878141.585 8  84840175.89947  20718829.469                    20718833.941
        52.800          43.000
 130166083.722 6 101428167.99343  24769790.945                    24769793.195
        41.000          18.600
 111996891.435 8  87270340.42646  21312306.148                    21312310.949
        51.300          40.200
 117414236.004 7  91491651.63645  22343198.547                    22343201.199
        45.500          35.200
 18  2 20  9 18 30.0000000  0  8G13G09G30G06G07G16G05G02
 126664866.375 6  98699961.21744  24103532.766                    24103537.125
        41.700          24.900
 114664157.675 8  89348751.67246  21819870.656                    21819876.973
        52.100          41.200
 108886105.840 8  84846370.45847  20720337.883                    20720344.871
        53.200          45.100
 124464045.901 7  96985027.35344  23684735.773                    23684743.414
        42.500          28.900
 108885676.492 8  84846047.26247  20720263.547                    20720268.074
        53.500          42.600
 130228960.096 6 101477162.48842  24781754.828                    24781760.301
        38.200          17.400
 111933899.131 8  87221255.51146  21300319.320                    21300323.473
        51.900          39.900
 117467516.040 7  91533168.53345  22353337.492                    22353339.793
        45.800          35.000
 18  2 20  9 19  0.0000000  0  8G13G09G30G06G07G16G05G02
 126568793.828 6  98625099.52344  24085250.063                    24085255.234
        41.100          24.800
 114739015.902 8  89407082.73246  21834115.469                    21834122.090
        50.600          40.800
 108840858.423 8  84811112.74347  20711727.742                    20711734.324
        53.200          44.700
 124571616.233 6  97068848.34244  23705205.078                    23705213.648
        41.300          27.800
 108893724.054 8  84852318.09547  20721794.828                    20721798.996
        53.600          43.000
 130292341.085 6 101526550.36743  24793815.313                    24793819.051
        38.400          19.000
 111871295.364 8  87172473.35946  21288405.906                    21288410.141
        51.300          40.400
 117521246.341 7  91575036.27445  22363561.734                    22363564.641
        45.000          34.400
 18  2 20  9 19 30.0000000  0  8G13G09G30G06G07G16G05G02
 126472829.175 6  98550321.90144  24066989.039                    24066994.012
        41.400          26.100
 114814080.903 8  89465574.91446  21848399.867                    21848406.477
        51.200          41.000
 108796124.160 8  84776254.88247  20703215.063                    20703221.504
        53.200          44.600
 124679309.092 7  97152764.79044  23725698.563                    23725707.137
        42.600          29.400
 108902283.644 8  84858987.90147  20723423.961                    20723428.250
        52.900          43.300
 130356225.201 6 101576330.19043  24805972.500                    24805976.949
        38.800          19.300
 111809082.560 8  87123995.84346  21276567.422                    21276571.594
        52.300          40.700
 117575425.055 7  91617253.42645  22373871.992                    22373874.273
        44.900          34.800
 18  2 20  9 20  0.0000000  0  7G13G09G30G06G07G05G02
 126376973.232 6  98475628.98244  24048748.219                    24048753.160
        41.800          25.600
 114889351.184 8  89524227.06046  21862723.156                    21862729.555
        51.200          40.100
 108751903.591 8  84741797.30447  20694799.617                    20694806.563
        53.800          44.600
 124787121.143 6  97236774.15544  23746214.148                    23746222.984
        41.800          28.600
 108911353.978 8  84866055.69547  20725150.164                    20725153.766
        53.000          42.500
 111747262.371 8  87075824.26946  21264803.344                    21264807.551
        51.700          40.800
 117630049.645 7  91659818.00745  22384266.836                    22384268.730
        45.500          33.900
 18  2 20  9 20 30.0000000  0  7G13G09G30G06G07G05G02
 126281226.899 6  98401021.49844  24030528.492                    24030533.625
        41.800          24.300
 114964825.877 8  89583038.48846  21877085.617                    21877092.199
        50.500          40.400
 108708197.639 8  84707740.73647  20686482.844                    20686489.188
        52.500          44.100
 124895049.385 6  97320874.05444  23766752.828                    23766760.977
        41.300          28.900
 108920934.509 8  84873521.04147  20726973.367                    20726977.082
        53.100          43.400
 111685836.517 8  87027959.96946  21253114.320                    21253118.379
        51.500          41.100
 117685118.261 7  91702728.58445  22394746.063                    22394747.961
        45.200          34.200
 18  2 20  9 21  0.0000000  0  7G13G09G30G06G07G05G02
 126185591.312 7  98326500.28444  24012329.500                    24012334.379
        42.100          25.300
 115040504.119 8  89642008.52246  21891486.633                    21891493.324
        48.300          39.700
 108665007.493 8  84674086.08847  20678264.070                    20678270.359
        51.500          45.000
 125003091.162 6  97405062.41344  23787312.398                    23787320.746
        40.900          28.100
 108931024.841 9  84881383.63547  20728893.195                    20728897.176
        54.100          43.300
 111624807.088 8  86980404.56946  21241500.984                    21241505.156
        52.100          40.500
 117740628.718 7  91745983.46645  22405309.289                    22405311.422
        45.400          34.400
 18  2 20  9 21 30.0000000  0  7G13G09G30G06G07G05G02
 126090067.128 7  98252065.87744  23994152.586                    23994156.977
        43.000          24.600
 115116385.348 8  89701136.72846  21905926.500                    21905933.246
        49.100          39.800
 108622334.362 8  84640834.31247  20670143.734                    20670150.520
        52.300          44.500
 125111243.805 6  97489337.15144  23807892.750                    23807901.445
        41.500          27.100
 108941624.349 8  84889642.97847  20730910.773                    20730914.414
        53.500          42.600
 111564176.671 8  86933160.09546  21229963.492                    21229967.227
        51.800          40.700
 117796579.480 7  91789581.44145  22415956.359                    22415958.324
        45.000          34.400
 18  2 20  9 22  0.0000000  0  7G13G09G30G06G07G05G02
 125994654.780 7  98177718.60744  23975995.117                    23976000.254
        42.800          24.900
 115192467.914 8  89760421.82746  21920404.781                    21920410.996
        49.700          39.700
 108580178.494 8  84607985.59647  20662121.445                    20662127.766
        52.400          45.000
 125219503.800 7  97573695.55144  23828493.828                    23828502.621
        43.300          27.000
 108952731.702 8  84898298.05447  20733024.203                    20733028.242
        53.200          43.200
 111503946.797 8  86886227.73546  21218502.156                    21218505.992
        52.200          40.100
 117852967.586 7  91833520.20845  22426686.727                    22426689.078
        44.600          34.100
 18  2 20  9 22 30.0000000  0  7G13G09G30G06G07G05G02
 125899355.374 7  98103459.34444  23957860.367                    23957865.508
        42.600          25.100
 115268751.407 8  89819863.48946  21934920.805                    21934927.363
        50.000          39.400
 108538541.290 8  84575541.02747  20654198.414                    20654204.770
        52.700          44.000
 125327868.717 6  97658135.69544  23849115.641                    23849124.082
        41.300          27.200
 108964346.528 8  84907348.56947  20735234.672                    20735238.285
        52.600          42.500
 111444119.828 8  86839609.32246  21207117.117                    21207121.523
        51.900          39.700
 117909791.616 7  91877798.64545  22437499.680                    22437502.148
        44.900          34.400
 18  2 20  9 23  0.0000000  0  7G13G09G30G06G07G05G02
 125804169.806 7  98029288.80044  23939748.164                    23939751.910
        43.600          26.700
 115345234.877 8  89879460.97346  21949475.188                    21949481.988
        49.100          39.400
 108497423.680 8  84543501.34447  20646373.703                    20646380.555
        52.000          44.300
 125436335.699 7  97742655.37144  23869756.047                    23869764.297
        42.200          27.300
 108976468.019 8  84916793.88847  20737540.992                    20737545.332
        52.800          42.900
 111384698.033 8  86793306.63146  21195809.484                    21195813.512
        52.000          40.600
 117967049.427 7  91922415.09945  22448395.781                    22448398.098
        45.000          33.600
 18  2 20  9 23 30.0000000  0  7G13G09G30G06G07G05G02
 125709098.544 7  97955207.31144  23921656.070                    23921660.238
        43.500          26.400
 115421916.924 8  89939213.18746  21964067.227                    21964074.020
        48.100          39.600
 108456825.982 8  84511866.78347  20638648.250                    20638655.051
        52.300          44.700
 125544901.312 6  97827251.90144  23890415.461                    23890423.488
        40.300          26.500
 108989095.149 8  84926633.19847  20739944.031                    20739947.910
        53.300          42.900
 111325682.627 8  86747320.60346  21184578.969                    21184583.293
        51.700          40.200
 118024738.399 7  91967367.50645  22459373.422                    22459375.828
        44.900          34.500
 18  2 20  9 24  0.0000000  0  7G13G09G30G06G07G05G02
 125614142.159 7  97881215.36344  23903586.453                    23903590.832
        44.300          26.800
 115498796.346 8  89999119.19746  21978697.203                    21978703.367
        50.000          39.500
 108416748.770 8  84480637.79847  20631021.898                    20631028.457
        52.700          44.700
 125653562.409 6  97911922.83344  23911092.813                    23911101.488
        41.400          27.100
 109002226.505 8  84936865.42347  20742442.703                    20742446.867
        53.500          43.000
 111267075.507 8  86701652.71846  21173426.633                    21173430.656
        51.300          40.300
 118082855.983 7  92012653.90145  22470433.313                    22470435.418
        45.100          33.700
 18  2 20  9 24 30.0000000  0  7G13G09G30G06G07G05G02
 125519301.523 7  97807313.61044  23885539.398                    23885543.266
        44.300          27.000
 115575872.487 8  90059178.51746  21993363.922                    21993370.691
        49.400          39.200
 108377193.195 8  84449815.28547  20623494.688                    20623501.457
        53.200          44.300
 125762316.448 6  97996666.19044  23931788.531                    23931796.559
        40.200          25.600
 109015861.609 8  84947490.18147  20745037.125                    20745041.258
        51.700          42.400
 111208879.361 8  86656305.07846  21162352.391                    21162356.539
        51.700          40.700
 118141400.464 7  92058272.94545  22481573.758                    22481575.660
        46.000          33.800
 18  2 20  9 25  0.0000000  0  7G13G09G30G06G07G05G02
 125424577.548 7  97733502.72344  23867514.008                    23867517.531
        44.000          26.300
 115653144.246 8  90119390.25746  22008068.500                    22008075.590
        48.800          39.200
 108338159.869 8  84419399.72047  20616066.789                    20616073.578
        52.500          44.700
 125871160.294 6  98081479.53344  23952501.305                    23952509.094
        40.300          26.200
 109029999.433 8  84958506.65947  20747727.594                    20747731.570
        51.700          42.400
 111151095.755 8  86611278.89346  21151356.367                    21151360.242
        51.000          40.200
 118200369.350 7  92104222.70645  22492795.266                    22492797.598
        45.600          33.900
 18  2 20  9 25 30.0000000  0  7G13G09G30G06G07G05G02
 125329970.951 7  97659783.31644  23849510.945                    23849514.688
        42.800          26.100
 115730610.828 8  90179753.79746  22022810.445                    22022816.984
        48.000          39.200
 108299649.668 8  84389391.78047  20608738.609                    20608745.340
        52.900          44.400
 125980091.139 6  98166360.66044  23973229.539                    23973237.863
        40.400          26.600
 109044639.224 8  84969914.28647  20750513.117                    20750517.469
        50.700          42.700
 111093726.600 8  86566575.64946  21140439.313                    21140443.688
        51.800          40.500
 118259760.649 7  92150501.61145  22504097.055                    22504098.840
        45.000          34.900
 18  2 20  9 26  0.0000000  0  7G13G09G30G06G07G05G02
 125235482.725 7  97586156.14044  23831530.711                    23831534.402
        43.900          27.800
 115808271.375 8  90240268.47746  22037588.266                    22037594.930
        48.700          39.400
 108261663.425 8  84359792.12247  20601509.789                    20601516.586
        53.000          44.600
 126089106.224 6  98251307.42144  23993973.734                    23993983.117
        40.000          25.000
 109059780.328 8  84981712.55247  20753394.695                    20753398.703
        50.500          42.300
 111036774.076 8  86522197.06046  21129601.461                    21129606.250
        50.800          40.500
 118319572.149 7  92197107.94345  22515479.305                    22515481.438
        45.800          33.700
 18  2 20  9 26 30.0000000  0  7G13G09G30G06G07G05G02
 125141113.340 7  97512621.59244  23813572.102                    23813576.395
        42.500          26.400
 115886124.645 8  90300933.34746  22052403.023                    22052409.348
        49.600          39.400
 108224201.596 8  84330601.08947  20594381.070                    20594387.660
        52.900          44.200
 126198202.394 6  98336317.37144  24014734.180                    24014743.262
        40.100          25.900
 109075421.460 8  84993900.45247  20756371.086                    20756375.230
        50.900          42.800
 110980239.959 8  86478144.50246  21118843.453                    21118847.797
        51.300          41.000
 118379801.261 7  92244039.68745  22526940.180                    22526942.641
        46.100          34.100
 18  2 20  9 27  0.0000000  0  7G13G09G30G06G07G05G02
 125046863.656 7  97439180.30744  23795637.586                    23795641.578
        43.000          26.000
 115964169.827 8  90361747.76046  22067254.875                    22067261.453
        49.800          38.900
 108187265.008 8  84301819.34047  20587352.406                    20587359.055
        52.800          43.800
 126307376.770 6  98421388.26144  24035509.961                    24035518.461
        40.700          26.300
 109091561.658 8  85006477.21947  20759442.758                    20759446.355
        51.900          42.800
 110924126.373 8  86434419.61946  21108165.602                    21108169.949
        50.900          40.800
 118440445.938 7  92291295.23945  22538480.219                    22538482.621
        45.100          34.800
 18  2 20  9 27 30.0000000  0  7G13G09G30G06G07G05G02
 124952734.797 7  97365833.17044  23777725.078                    23777729.508
        42.700          27.500
 116042406.138 8  90422711.08746  22082142.852                    22082149.395
        50.200          39.000
 108150854.532 8  84273447.54747  20580423.703                    20580430.309
        53.500          44.100
 126416626.722 6  98506518.05444  24056299.391                    24056308.344
        40.600          26.500
 109108200.468 8  85019442.52347  20762608.531                    20762612.965
        52.800          42.300
 110868435.620 8  86391024.23346  21097567.945                    21097572.367
        52.200          41.500
 118501504.043 7  92338872.95245  22550099.305                    22550101.746
        45.300          34.600
 18  2 20  9 28  0.0000000  0  7G13G09G30G06G07G05G02
 124858727.258 7  97292580.56944  23759836.313                    23759840.594
        43.000          26.500
 116120832.347 8  90483822.38346  22097067.078                    22097073.461
        51.300          39.200
 108114970.507 8  84245485.97847  20573595.102                    20573601.887
        53.700          44.100
 126525949.006 6  98591704.18544  24077102.813                    24077111.816
        41.300          28.300
 109125336.300 8  85032795.11847  20765869.586                    20765873.383
        52.000          42.200
 110813169.110 8  86347959.41846  21087050.852                    21087055.473
        51.300          41.300
 118562972.927 7  92386770.75145  22561796.625                    22561798.344
        46.700          33.700
 18  2 20  9 28 30.0000000  0  7G13G09G30G06G07G05G02
 124764841.586 7  97219422.94844  23741969.617                    23741974.730
        43.000          25.800
 116199447.770 8  90545081.13346  22112026.781                    22112033.301
        50.800          38.700
 108079613.890 8  84217935.37647  20566866.711                    20566873.633
        53.400          44.100
 126635340.940 6  98676944.60444  24097919.844                    24097928.203
        41.700          26.200
 109142968.686 8  85046534.63547  20769224.797                    20769229.078
        52.300          42.800
 110758329.048 8  86305226.89246  21076615.547                    21076619.582
        52.100          41.300
 118624850.689 7  92434987.16345  22573571.141                    22573573.473
        46.000          33.100
 18  2 20  9 29  0.0000000  0  7G13G09G30G06G07G05G02
 124671078.901 7  97146361.11144  23724126.766                    23724131.875
        42.900          26.400
 116278251.140 8  90606486.34346  22127022.477                    22127029.168
        50.700          39.000
 108044784.969 8  84190795.96047  20560239.430                    20560246.023
        53.500          43.800
 126744799.394 6  98762236.84044  24118749.422                    24118757.637
        41.700          26.600
 109161095.909 8  85060659.73147  20772674.438                    20772678.375
        52.100          42.700
 110703917.049 8  86262827.93146  21066261.219                    21066265.648
        52.700          41.300
 118687134.591 7  92483520.04045  22585423.680                    22585426.195
        45.900          33.500
 18  2 20  9 29 30.0000000  0  7G13G09G30G06G07G05G02
 124577440.166 7  97073395.90944  23706308.688                    23706313.254
        43.600          25.800
 116357242.183 8  90668037.76946  22142054.031                    22142060.621
        50.100          38.600
 108010484.937 8  84164068.67347  20553712.484                    20553718.379
        53.400          44.900
 126854322.093 7  98847579.17244  24139590.664                    24139599.316
        42.600          25.300
 109179717.957 8  85075170.40847  20776218.164                    20776221.832
        51.500          42.600
 110649935.644 8  86220764.50146  21055988.883                    21055993.012
        52.300          41.500
 118749822.912 7  92532368.04145  22597352.805                    22597354.762
        45.600          33.400
 18  2 20  9 30  0.0000000  0  7G13G09G30G06G07G05G02
 124483926.326 7  97000528.03444  23688513.313                    23688517.953
        44.300          27.100
 116436419.604 8  90729734.41246  22157121.789                    22157127.926
        50.900          38.300
 107976714.070 8  84137753.71347  20547286.109                    20547292.199
        53.400          44.600
 126963905.698 7  98932968.93944  24160443.430                    24160452.605
        43.300          26.000
 109198833.183 8  85090065.39046  20779855.586                    20779859.852
        53.100          41.800
 110596386.585 8  86179037.95246  21045798.992                    21045803.094
        52.500          41.000
 118812912.921 7  92581529.05945  22609358.555                    22609360.801
        45.700          32.800
 18  2 20  9 30 30.0000000  0  7G13G09G30G06G07G05G02
 124390537.845 7  96927757.81344  23670742.445                    23670746.656
        43.600          24.200
 116515782.333 8  90791575.49146  22172223.039                    22172229.855
        50.600          39.000
 107943472.808 9  84111851.43447  20540960.469                    20540967.105
        54.100          44.400
 127073547.346 7  99018403.93644  24181308.234                    24181316.426
        43.100          26.000
 109218440.857 8  85105344.09347  20783586.906                    20783590.652
        53.000          42.600
 110543271.584 8  86137649.63846  21035691.586                    21035695.648
        52.600          41.600
 118876402.286 7  92631001.25545  22621440.000                    22621442.121
        45.500          32.700
 18  2 20  9 31  0.0000000  0  7G13G09G30G06G07G05G02
 124297275.399 7  96855085.83144  23652994.828                    23652999.617
        43.400          26.200
 116595329.659 8  90853560.37646  22187360.547                    22187367.406
        48.700          38.600
 107910761.904 8  84086362.41847  20534735.875                    20534741.969
        53.000          45.100
 127183244.280 7  99103882.01544  24202182.852                    24202191.633
        42.600          24.900
 109238539.849 8  85121005.64447  20787411.500                    20787415.445
        51.800          42.600
 110490593.117 8  86096601.48246  21025667.047                    21025670.926
        52.800          41.000
 118940288.692 7  92680782.84545  22633597.734                    22633599.633
        45.300          32.700
 18  2 20  9 31 30.0000000  0  7G13G09G30G06G07G05G02
 124204139.375 7  96782512.36044  23635271.039                    23635275.980
        43.400          26.000
 116675060.276 8  90915688.09446  22202533.180                    22202539.703
        49.100          37.900
 107878581.510 8  84061286.79147  20528611.852                    20528618.273
        53.500          44.900
 127292993.231 6  99189400.61244  24223066.969                    24223076.297
        40.800          25.500
 109259128.675 8  85137048.87747  20791329.492                    20791333.621
        52.200          42.600
 110438352.010 8  86055894.11846  21015726.000                    21015730.309
        52.300          40.900
 119004569.376 7  92730871.65845  22645829.773                    22645831.473
        45.800          32.300
 18  2 20  9 32  0.0000000  0  7G13G09G30G06G07G05G02
 124111131.147 6  96710038.47544  23617572.352                    23617577.027
        41.100          25.900
 116754973.325 8  90977957.97346  22217740.070                    22217746.207
        48.300          38.100
 107846932.221 8  84036625.01247  20522589.195                    20522595.730
        53.100          45.100
 127402791.416 6  99274957.59444  24243961.047                    24243969.434
        40.900          25.400
 109280206.132 8  85153472.87347  20795340.734                    20795344.410
        51.500          42.800
 110386550.385 8  86015529.21646  21005868.180                    21005872.656
        52.500          41.000
 119069242.106 7  92781265.95745  22658136.758                    22658138.883
        45.500          33.100
 18  2 20  9 32 30.0000000  0  7G13G09G30G06G07G05G02
 124018251.362 6  96637664.65944  23599897.953                    23599902.926
        41.300          25.800
 116835068.004 8  91040369.37446  22232981.555                    22232988.234
        48.000          38.600
 107815814.642 8  84012377.55747  20516667.695                    20516674.570
        53.200          45.000
 127512636.138 6  99360550.82644  24264863.391                    24264872.469
        39.200          25.500
 109301771.638 8  85170277.16247  20799444.445                    20799448.098
        51.900          42.900
 110335190.711 8  85975508.68746  20996095.016                    20996099.133
        52.500          40.900
 119134304.439 7  92831963.83845  22670517.844                    22670520.102
        45.400          33.600
 18  2 20  9 33  0.0000000  0  7G13G09G30G06G07G05G02
 123925500.554 6  96565391.33644  23582247.977                    23582252.594
        41.300          26.200
 116915343.479 8  91102921.66446  22248257.563                    22248263.988
        48.200          37.900
 107785229.341 8  83988544.85147  20510847.555                    20510854.352
        52.500          45.200
 127622524.560 6  99446178.08644  24285775.289                    24285783.863
        39.900          24.400
 109323823.874 8  85187460.71847  20803640.656                    20803644.652
        51.300          42.500
 110284274.980 8  85935834.09246  20986406.000                    20986410.137
        52.000          40.600
 119199754.295 7  92882963.69545  22682972.266                    22682974.984
        45.100          33.700
 18  2 20  9 33 30.0000000  0  7G13G09G30G06G07G05G02
 123832879.777 7  96493219.31944  23564622.453                    23564627.496
        42.000          27.400
 116995798.701 8  91165614.00846  22263567.328                    22263574.039
        48.500          37.700
 107755176.632 8  83965127.16247  20505128.828                    20505135.113
        53.400          45.000
 127732453.674 6  99531837.09544  24306693.742                    24306702.418
        39.200          25.800
 109346361.647 8  85205022.61147  20807929.156                    20807933.234
        51.500          43.000
 110233804.687 8  85896506.58746  20976801.680                    20976805.750
        52.700          40.900
 119265589.042 7  92934263.45945  22695500.820                    22695502.910
        45.100          34.400
 18  2 20  9 34  0.0000000  0  8G28G13G09G30G06G07G05G02
 128575666.710 6 100188858.17043  24467138.820                    24467145.520
        39.600          20.900
 123740389.574 7  96421149.04344  23547022.469                    23547027.563
        42.700          27.700
 117076432.577 8  91228445.56246  22278911.367                    22278918.391
        48.500          37.900
 107725656.769 8  83942124.67347  20499511.391                    20499517.855
        53.500          44.900
 127842420.494 6  99617525.47244  24327620.102                    24327628.180
        40.900          25.400
 109369383.723 8  85222961.89347  20812310.570                    20812314.176
        52.300          42.100
 110183781.362 8  85857527.36946  20967282.641                    20967286.770
        52.100          40.900
 119331805.904 7  92985860.98045  22708101.188                    22708103.746
        45.700          34.200
 18  2 20  9 34 30.0000000  0  8G28G13G09G30G06G07G05G02
 128478083.638 6 100112819.33843  24448570.531                    24448576.324
        37.300          19.300
 123648030.511 7  96349180.94544  23529447.172                    23529451.785
        42.100          26.500
 117157244.061 8  91291415.51246  22294289.422                    22294296.324
        49.100          37.400
 107696670.044 8  83919537.61147  20493995.375                    20494002.031
        53.900          45.500
 127952421.993 6  99703240.82644  24348552.352                    24348560.852
        39.400          25.500
 109392888.883 8  85241277.59047  20816783.375                    20816787.137
        51.400          42.100
 110134206.544 8  85818897.64746  20957848.766                    20957853.363
        52.900          41.600
 119398402.187 7  93037754.14045  22720773.867                    22720776.551
        46.200          34.700
 18  2 20  9 35  0.0000000  0  8G28G13G09G30G06G07G05G02
 128380534.479 6 100036807.05342  24430006.852                    24430012.617
        39.000          16.300
 123555803.648 7  96277315.88644  23511897.055                    23511901.613
        44.100          26.800
 117238232.612 8  91354523.44146  22309700.969                    22309707.621
        48.400          37.300
 107668217.237 8  83897366.59647  20488580.953                    20488587.465
        53.700          45.300
 128062455.688 6  99788981.31144  24369490.234                    24369500.348
        41.200          25.600
 109416876.105 8  85259968.92847  20821348.133                    20821351.758
        51.800          42.200
 110085082.706 8  85780619.33046  20948501.008                    20948505.063
        52.300          41.200
 119465375.859 7  93089941.38445  22733518.453                    22733521.117
        46.100          34.300
 18  2 20  9 35 30.0000000  0  8G28G13G09G30G06G07G05G02
 128283022.425 5  99960823.51942  24411450.898                    24411456.098
        35.600          17.400
 123463709.952 7  96205554.55944  23494372.180                    23494377.039
        42.400          27.000
 117319397.168 8  91417768.50946  22325146.492                    22325153.109
        49.900          37.200
 107640298.574 8  83875611.80047  20483268.500                    20483274.859
        53.900          45.500
 128172518.634 6  99874744.56343  24390436.313                    24390444.418
        41.600          23.800
 109441344.154 8  85279034.94047  20826003.969                    20826007.750
        52.300          42.500
 110036411.271 8  85742693.53246  20939239.023                    20939243.535
        52.700          41.300
 119532724.101 7  93142420.49945  22746334.352                    22746337.078
        46.200          34.200
 18  2 20  9 36  0.0000000  0  8G28G13G09G30G06G07G05G02
 128185550.391 6  99884871.44643  24392901.844                    24392907.734
        38.400          22.800
 123371750.484 7  96133897.85344  23476873.414                    23476877.254
        43.000          28.400
 117400737.041 8  91481150.19446  22340624.789                    22340631.602
        49.300          37.000
 107612914.614 8  83854273.64447  20478057.461                    20478064.098
        53.500          45.400
 128282608.125 6  99960528.53744  24411384.383                    24411392.988
        41.100          25.900
 109466292.277 8  85298475.03647  20830751.367                    20830755.148
        52.000          42.300
 109988195.152 8  85705122.52646  20930063.938                    20930068.250
        52.600          41.300
 119600444.978 7  93195189.97245  22759221.305                    22759224.375
        45.800          33.900
 18  2 20  9 36 30.0000000  0  8G28G13G09G30G06G07G05G02
 128088121.108 6  99808952.63343  24374361.914                    24374368.531
        37.900          19.300
 123279925.465 7  96062345.89544  23459399.055                    23459403.508
        42.200          27.300
 117482251.247 8  91544667.70946  22356136.703                    22356142.949
        50.900          37.500
 107586065.646 8  83833352.37447  20472948.148                    20472954.746
        53.900          45.600
 128392721.337 7 100046330.95044  24432339.586                    24432347.305
        42.400          24.500
 109491718.821 8  85318287.92446  20835589.781                    20835594.090
        52.200          41.700
 109940435.684 8  85667907.35646  20920975.305                    20920979.668
        52.300          41.400
 119668535.730 7  93248247.67145  22772178.445                    22772181.184
        45.700          34.000
 18  2 20  9 37  0.0000000  0  8G28G13G09G30G06G07G05G02
 127990737.823 6  99733069.58343  24355830.625                    24355836.328
        39.600          19.600
 123188235.745 7  95990899.35444  23441951.234                    23441955.906
        42.900          27.300
 117563938.934 8  91608320.41246  22371681.031                    22371687.727
        50.500          36.300
 107559752.034 8  83812848.26647  20467940.734                    20467947.480
        53.800          45.000
 128502855.396 6 100132149.63044  24453296.695                    24453305.551
        41.600          25.600
 109517622.834 8  85338472.86047  20840519.133                    20840523.324
        52.000          42.400
 109893134.620 8  85631049.37947  20911974.313                    20911978.500
        53.000          42.100
 119736994.130 7  93301591.84245  22785205.648                    22785208.309
        45.000          32.700
 18  2 20  9 37 30.0000000  0  8G28G13G09G30G06G07G05G02
 127893402.897 6  99657224.26442  24337307.719                    24337313.082
        38.100          17.400
 123096682.543 7  95919559.19544  23424528.875                    23424533.734
        42.700          27.800
 117645798.972 8  91672107.40446  22387258.820                    22387265.430
        49.600          36.400
 107533973.820 8  83792761.35547  20463035.422                    20463041.828
        53.200          45.100
 128613007.272 7 100217982.16744  24474258.195                    24474267.805
        42.700          27.600
 109544002.612 8  85359028.53047  20845538.891                    20845543.027
        51.800          42.000
 109846293.370 8  85594549.70047  20903060.961                    20903065.379
        52.900          42.100
 119805817.177 7  93355220.15045  22798301.852                    22798304.898
        44.500          31.600
 18  2 20  9 38  0.0000000  0  8G28G13G09G30G06G07G05G02
 127796119.486 6  99581419.08643  24318796.109                    24318801.176
        40.400          20.400
 123005266.437 7  95848325.85344  23407132.703                    23407137.910
        43.600          28.000
 117727830.624 8  91736028.13346  22402868.945                    22402875.410
        50.500          37.100
 107508731.514 9  83773092.02147  20458231.781                    20458238.391
        54.100          45.200
 128723174.369 6 100303826.58343  24495221.531                    24495230.820
        41.200          23.900
 109570857.232 8  85379954.20647  20850649.383                    20850653.586
        52.400          42.100
 109799914.170 8  85558410.06047  20894235.219                    20894239.473
        53.400          42.200
 119875002.529 7  93409130.76545  22811467.695                    22811471.086
        43.400          30.400
 18  2 20  9 38 30.0000000  0  8G28G13G09G30G06G07G05G02
 127698890.535 6  99505656.39143  24300293.469                    24300299.176
        39.900          21.700
 122913988.207 7  95777199.97044  23389763.484                    23389767.734
        43.900          27.400
 117810033.169 8  91800082.02646  22418511.586                    22418517.945
        49.700          37.100
 107484025.499 8  83753840.58647  20453530.219                    20453537.172
        53.700          45.400
 128833353.967 7 100389680.80144  24516188.555                    24516197.109
        42.700          25.700
 109598185.752 8  85401249.15147  20855849.555                    20855853.668
        52.800          42.700
 109753998.790 8  85522631.84146  20885497.984                    20885502.180
        52.800          41.800
 119944548.056 7  93463322.04845  22824701.359                    22824704.707
        42.100          30.300
 18  2 20  9 39  0.0000000  0  8G28G13G09G30G06G07G05G02
 127601718.699 6  99429938.16543  24281802.195                    24281807.984
        41.600          22.200
 122822848.423 7  95706181.94144  23372420.617                    23372424.336
        43.700          28.600
 117892405.421 8  91864268.15646  22434186.414                    22434192.891
        50.000          36.900
 107459855.776 8  83735007.03947  20448931.016                    20448938.020
        53.700          45.900
 128943543.030 7 100475542.32344  24537157.859                    24537165.426
        42.000          27.200
 109625986.347 8  85422911.95147  20861140.008                    20861144.023
        52.500          42.500
 109708548.788 8  85487216.25847  20876848.836                    20876853.121
        52.100          42.100
 120014450.635 7  93517791.55244  22838003.617                    22838006.090
        43.300          29.600
 18  2 20  9 39 30.0000000  0  8G28G13G09G30G06G07G05G02
 127504606.926 6  99354266.74543  24263322.539                    24263328.652
        41.600          21.700
 122731848.171 7  95635272.63944  23355103.406                    23355108.176
        44.400          27.800
 117974946.838 8  91928586.10046  22449893.766                    22449900.027
        50.200          37.000
 107436222.899 8  83716591.81847  20444433.938                    20444440.445
        53.300          45.000
 129053739.008 6 100561409.24044  24558126.680                    24558135.828
        41.400          26.900
 109654258.250 8  85444942.00446  20866520.039                    20866523.922
        53.000          41.900
 109663566.436 8  85452165.05947  20868288.914                    20868293.199
        52.900          42.000
 120084707.854 7  93572537.39545  22851373.648                    22851375.789
        43.900          31.100
 18  2 20  9 40  0.0000000  0  8G28G13G09G30G06G07G05G02
 127407558.092 6  99278644.29543  24244854.531                    24244859.898
        40.900          20.100
 122640988.199 7  95564472.65944  23337813.336                    23337817.926
        44.900          27.300
 118057656.263 8  91993034.95046  22465632.898                    22465639.988
        49.100          36.700
 107413126.832 8  83698594.88547  20440038.688                    20440045.922
        53.600          45.400
 129163938.886 6 100647279.18144  24579097.977                    24579106.531
        41.100          26.300
 109682999.866 8  85467338.06347  20871989.375                    20871993.488
        52.600          42.000
 109619052.954 8  85417479.23446  20859818.313                    20859822.828
        53.000          41.200
 120155317.198 7  93627557.64544  22864810.172                    22864812.477
        43.100          29.800
 18  2 20  9 40 30.0000000  0  8G28G13G09G30G06G07G05G02
 127310575.291 6  99203073.32843  24226399.469                    24226405.301
        40.600          21.700
 122550269.444 7  95493782.72144  23320549.930                    23320554.535
        44.700          26.700
 118140533.035 8  92057614.20646  22481403.867                    22481410.359
        49.700          36.600
 107390567.945 8  83681016.54247  20435745.703                    20435752.730
        53.300          44.900
 129274140.104 6 100733150.22344  24600067.719                    24600076.438
        41.200          24.600
 109712210.099 8  85490099.27847  20877548.188                    20877551.945
        53.200          42.700
 109575010.544 8  85383160.47146  20851437.281                    20851441.406
        52.200          41.600
 120226275.982 7  93682850.18045  22878313.039                    22878315.129
        43.100          30.200
 18  2 20  9 41  0.0000000  0  8G28G13G09G30G06G07G05G02
 127213660.871 6  99127555.67043  24207956.734                    24207962.586
        41.200          22.000
 122459692.349 7  95423203.15244  23303314.344                    23303318.461
        44.200          27.500
 118223575.879 8  92122322.88646  22497206.453                    22497212.988
        50.800          36.900
 107368546.037 8  83663856.61447  20431555.031                    20431562.090
        52.900          45.400
 129384339.422 7 100819019.75744  24621038.289                    24621047.039
        42.100          26.500
 109741887.171 8  85513224.26447  20883195.297                    20883199.352
        52.000          42.200
 109531440.172 8  85349209.53346  20843146.031                    20843150.828
        52.500          41.300
 120297581.398 7  93738412.81445  22891882.313                    22891884.152
        44.400          30.800
 18  2 20  9 41 30.0000000  0  8G28G13G09G30G06G07G05G02
 127116818.368 6  99052094.00243  24189529.109                    24189534.297
        40.400          21.300
 122369258.185 7  95352734.97144  23286104.875                    23286109.527
        43.700          27.700
 118306784.422 8  92187160.66746  22513040.492                    22513047.137
        49.100          36.000
 107347061.809 8  83647115.65347  20427467.203                    20427473.699
        52.700          45.500
 129494534.587 6 100904886.06543  24642007.367                    24642016.258
        39.200          22.900
 109772030.441 8  85536712.51647  20888931.281                    20888935.504
        52.700          42.500
 109488344.419 8  85315628.41946  20834945.141                    20834949.305
        52.100          41.400
 120369231.577 7  93794244.09045  22905516.453                    22905518.832
        44.100          30.900
 18  2 20  9 42  0.0000000  0  8G28G13G09G30G06G07G05G02
 127020050.673 6  98976690.66643  24171114.289                    24171120.047
        40.600          20.100
 122278967.374 7  95282378.48944  23268923.102                    23268927.867
        43.600          27.100
 118390157.489 8  92252126.64846  22528905.758                    22528912.789
        49.100          37.000
 107326115.056 8  83630793.51247  20423480.773                    20423487.797
        53.300          45.300
 129604722.546 6 100990746.73043  24662975.633                    24662985.008
        39.100          23.900
 109802638.230 8  85560562.74047  20894755.883                    20894759.676
        52.500          42.300
 109445724.406 8  85282418.02346  20826835.180                    20826839.016
        52.500          41.700
 120441223.333 7  93850341.52645  22919215.953                    22919218.695
        44.000          31.900
 18  2 20  9 42 30.0000000  0  8G28G13G09G30G06G07G05G02
 126923360.534 6  98901347.75143  24152714.867                    24152720.410
        40.800          22.300
 122188820.776 7  95212134.41344  23251768.539                    23251773.598
        42.900          26.700
 118473694.273 8  92317220.19746  22544802.688                    22544808.609
        49.800          36.000
 107305706.008 8  83614890.35847  20419597.234                    20419604.148
        53.000          45.300
 129714900.595 6 101076599.67743  24683941.672                    24683950.914
        38.700          22.900
 109833709.480 8  85584774.09546  20900668.680                    20900672.348
        52.300          41.800
 109403582.495 8  85249580.16146  20818815.820                    20818819.945
        52.800          41.500
 120513553.995 7  93906703.05345  22932980.297                    22932983.066
        43.100          31.500
 18  2 20  9 43  0.0000000  0  8G28G13G09G30G06G07G05G02
 126826750.429 6  98826067.19043  24134331.031                    24134335.918
        41.900          22.600
 122098819.353 7  95142003.46544  23234641.836                    23234646.648
        43.500          27.500
 118557393.871 8  92382440.62846  22560729.461                    22560736.652
        49.400          36.000
 107285834.701 8  83599406.22447  20415815.844                    20415822.430
        53.500          45.500
 129825065.913 6 101162442.76443  24704905.469                    24704914.637
        39.500          21.800
 109865242.695 8  85609345.41846  20906669.492                    20906673.105
        52.300          41.700
 109361919.768 8  85217115.69846  20810887.680                    20810891.750
        52.800          41.300
 120586221.018 7  93963326.66445  22946808.227                    22946811.602
        43.100          31.500
 18  2 20  9 43 30.0000000  0  8G28G13G09G30G06G07G05G02
 126730223.566 6  98750851.48443  24115961.961                    24115967.266
        38.600          22.600
 122008963.268 7  95071985.76344  23217542.961                    23217547.738
        43.000          26.400
 118641255.182 8  92447787.07246  22576688.461                    22576695.527
        49.000          36.200
 107266500.980 8  83584340.98747  20412136.805                    20412143.777
        53.900          45.500
 129935215.531 6 101248273.59143  24725867.477                    24725875.770
        38.600          22.300
 109897235.728 8  85634275.05047  20912757.570                    20912761.059
        52.500          42.400
 109320737.997 8  85185026.01146  20803051.008                    20803055.180
        52.900          41.700
 120659221.661 7  94020210.23245  22960700.016                    22960702.859
        42.700          32.400
 18  2 20  9 44  0.0000000  0  8G28G13G09G30G06G07G05G02
 126633783.093 6  98675703.18543  24097609.508                    24097615.207
        38.900          21.100
 121919253.958 7  95002082.39944  23200471.867                    23200476.340
        43.100          27.700
 118725277.588 8  92513259.03346  22592676.570                    22592684.219
        48.300          36.300
 107247705.182 9  83569694.91647  20408560.313                    20408567.047
        54.200          45.200
 130045346.865 6 101334090.12843  24746823.602                    24746833.660
        39.200          22.800
 109929687.954 8  85659562.49146  20918932.930                    20918936.332
        52.300          41.800
 109280039.097 8  85153312.57446  20795306.203                    20795310.555
        52.300          41.600
 120732553.249 7  94077351.69445  22974654.430                    22974657.570
        43.000          31.700
 18  2 20  9 44 30.0000000  0  8G28G13G09G30G06G07G05G02
 126537431.212 6  98600623.82543  24079274.539                    24079279.992
        38.600          22.000
 121829692.161 7  94932294.01544  23183428.813                    23183433.645
        43.400          27.700
 118809460.131 8  92578855.77046  22608696.609                    22608703.543
        48.800          36.100
 107229447.238 8  83555467.93947  20405085.852                    20405092.496
        53.400          45.500
 130155457.193 6 101419890.26643  24767777.609                    24767787.438
        39.800          22.500
 109962597.693 8  85685206.43346  20925195.414                    20925198.984
        52.900          41.500
 109239824.615 8  85121976.61347  20787653.750                    20787657.918
        53.200          42.100
 120806213.311 7  94134749.09645  22988671.586                    22988674.492
        43.700          32.000
 18  2 20  9 45  0.0000000  0  7G28G13G09G30G07G05G02
 126441171.208 6  98525616.08743  24060956.828                    24060962.586
        38.100          22.000
 121740278.642 7  94862621.15544  23166414.367                    23166418.660
        45.000          28.600
 118893801.987 8  92644576.66246  22624746.516                    22624753.633
        48.000          36.200
 107211727.241 8  83541660.15047  20401713.922                    20401720.605
        53.800          45.600
 109995963.535 8  85711205.78046  20931544.773                    20931548.484
        52.800          41.700
 109200095.950 8  85091019.21247  20780093.555                    20780098.145
        52.500          42.000
 120880199.149 7  94192400.35645  23002750.859                    23002753.484
        43.900          32.000
 18  2 20  9 45 30.0000000  0  7G28G13G09G30G07G05G02
 126345006.494 6  98450682.61743  24042657.078                    24042663.391
        38.000          20.600
 121651014.330 7  94793064.55744  23149427.727                    23149432.273
        44.400          28.800
 118978302.478 7  92710421.18645  22640825.766                    22640833.633
        47.200          35.000
 107194545.329 9  83528271.63847  20398444.164                    20398450.930
        54.600          45.400
 110029784.767 8  85737559.97046  20937980.586                    20937984.742
        52.200          41.500
 109160855.174 8  85060441.97946  20772626.461                    20772630.816
        52.900          41.800
 120954508.196 7  94250303.46945  23016891.297                    23016893.945
        44.000          31.800
 18  2 20  9 46  0.0000000  0  7G28G13G09G30G07G05G02
 126248939.915 6  98375825.64243  24024376.031                    24024382.184
        38.400          22.900
 121561899.715 7  94723624.60444  23132469.508                    23132474.340
        44.400          28.900
 119062960.734 7  92776388.61145  22656935.930                    22656943.570
        46.800          35.600
 107177901.563 8  83515302.46847  20395276.875                    20395283.855
        53.600          45.500
 110064059.267 8  85764267.34746  20944502.680                    20944506.551
        52.200          41.600
 109122104.161 8  85030246.38946  20765252.266                    20765256.570
        52.300          41.700
 121029137.642 7  94308456.26145  23031093.234                    23031095.363
        44.700          31.400
 18  2 20  9 46 30.0000000  0  7G28G13G09G30G07G05G02
 126152973.790 6  98301046.89043  24006114.797                    24006119.848
        39.500          22.300
 121472935.589 7  94654301.90544  23115540.719                    23115545.250
        45.700          29.400
 119147775.812 7  92842478.24145  22673075.859                    22673082.930
        46.700          35.300
 107161795.754 9  83502752.48047  20392212.016                    20392218.582
        54.100          45.600
 110098785.714 8  85791326.89846  20951111.180                    20951115.348
        52.900          41.300
 109083844.158 8  85000433.39347  20757971.523                    20757976.234
        51.800          42.100
 121104084.748 7  94366856.57845  23045355.086                    23045357.316
        46.000          30.600
 18  2 20  9 47  0.0000000  0  7G28G13G09G30G07G05G02
 126057111.230 6  98226348.83643  23987872.141                    23987877.992
        38.700          21.100
 121384123.222 7  94585097.46644  23098639.914                    23098644.738
        45.200          28.900
 119232746.725 7  92908689.30945  22689245.047                    22689253.250
        46.600          35.100
 107146227.806 8  83490621.61447  20389249.820                    20389256.629
        53.200          45.500
 110133962.552 8  85818737.41746  20957804.938                    20957808.863
        52.300          41.100
 109046077.017 8  84971004.45447  20750784.570                    20750789.055
        52.200          42.400
 121179346.743 7  94425502.24945  23059677.039                    23059679.211
        45.500          30.200
 18  2 20  9 47 30.0000000  0  7G28G13G09G30G07G05G02
 125961354.789 6  98151733.49043  23969650.539                    23969656.219
        39.200          20.400
 121295463.046 7  94516011.62244  23081768.445                    23081773.285
        45.700          28.600
 119317872.544 7  92975021.06445  22705444.266                    22705451.625
        46.200          34.400
 107131197.476 8  83478909.66547  20386389.070                    20386396.305
        53.200          45.900
 110169588.376 8  85846497.78646  20964584.094                    20964588.117
        52.700          41.400
 109008803.632 8  84941960.25746  20743691.727                    20743696.336
        52.700          41.700
 121254920.799 7  94484391.10145  23074058.289                    23074060.430
        46.000          30.400
 18  2 20  9 48  0.0000000  0  7G28G13G09G30G07G05G02
 125865707.905 6  98077203.52343  23951449.516                    23951455.074
        40.900          22.000
 121206955.921 7  94447045.05244  23064926.227                    23064930.957
        46.000          29.300
 119403152.513 7  93041472.95945  22721672.297                    22721680.141
        47.100          34.600
 107116704.842 8  83467616.70247  20383631.844                    20383638.719
        53.900          44.900
 110205661.787 8  85874606.92846  20971448.867                    20971453.035
        53.200          41.300
 108972025.986 8  84913302.34647  20736693.250                    20736697.895
        52.500          42.500
 121330804.460 7  94543521.20845  23088498.703                    23088500.664
        45.800          31.000
 18  2 20  9 48 30.0000000  0  7G28G13G09G30G07G05G02
 125770173.546 6  98002761.23543  23933269.813                    23933275.645
        41.700          22.300
 121118602.634 7  94378198.33444  23048113.016                    23048117.605
        46.100          29.300
 119488585.887 7  93108044.38845  22737929.727                    22737937.172
        46.500          33.900
 107102749.912 8  83456742.73447  20380975.813                    20380982.660
        53.500          45.400
 110242181.566 8  85903063.88846  20978398.383                    20978402.613
        53.300          41.800
 108935745.770 8  84885032.05747  20729789.336                    20729793.527
        51.900          42.100
 121406994.780 7  94602890.25845  23102996.945                    23102999.406
        46.100          30.400
 18  2 20  9 49  0.0000000  0  7G28G13G09G30G07G05G02
 125674754.268 6  97928408.62143  23915112.039                    23915117.855
        41.400          22.200
 121030404.098 7  94309472.21744  23031329.484                    23031334.273
        46.000          28.900
 119574171.906 7  93174734.73445  22754216.484                    22754224.109
        47.000          34.600
 107089332.539 8  83446287.63547  20378422.789                    20378429.664
        53.800          45.500
 110279146.201 8  85931867.49347  20985432.539                    20985436.426
        53.000          42.000
 108899964.448 8  84857150.49847  20722980.211                    20722984.828
        52.700          42.000
 121483489.343 7  94662496.38045  23117552.961                    23117555.609
        45.200          31.500
 18  2 20  9 49 30.0000000  0  7G28G13G09G30G07G05G02
 125579453.281 6  97854148.16143  23896976.211                    23896982.250
        40.900          22.200
 120942361.064 7  94240867.27145  23014575.719                    23014580.176
        45.700          30.800
 119659909.622 7  93241543.30845  22770532.055                    22770539.211
        46.800          34.300
 107076452.630 8  83436251.34247  20375971.602                    20375978.602
        53.000          45.200
 110316553.864 8  85961016.33446  20992550.875                    20992555.324
        53.000          41.400
 108864683.920 8  84829659.17247  20716266.727                    20716271.453
        52.100          42.400
 121560285.309 7  94722337.34845  23132166.852                    23132170.344
        45.200          30.900
 18  2 20  9 50  0.0000000  0  7G28G13G09G30G07G05G02
 125484273.362 6  97779982.03443  23878864.469                    23878870.008
        40.000          22.300
 120854474.518 7  94172384.26345  22997851.375                    22997856.027
        45.900          31.500
 119745798.284 7  93308469.50145  22786875.688                    22786883.332
        46.800          34.400
 107064110.068 8  83426633.76647  20373623.008                    20373630.367
        53.400          45.700
 110354403.281 8  85990509.37946  20999753.672                    20999757.105
        53.600          40.700
 108829905.474 8  84802559.08747  20709648.773                    20709652.852
        52.300          42.400
 121637379.659 7  94782410.82145  23146837.563                    23146840.703
        44.900          31.200
 18  2 20  9 50 30.0000000  0  7G28G13G09G30G07G05G02
 125389217.408 6  97705912.54643  23860775.039                    23860781.730
        37.600          22.200
 120766744.900 7  94104023.53944  22981156.805                    22981161.570
        46.800          29.800
 119831836.795 7  93375512.45245  22803248.852                    22803255.918
        47.700          33.800
 107052304.360 8  83417434.51047  20371376.625                    20371383.227
        53.800          45.700
 110392692.702 8  86020345.29246  21007039.523                    21007043.438
        53.000          41.200
 108795630.474 8  84775851.28847  20703126.250                    20703130.797
        52.900          42.300
 121714769.761 7  94842714.75945  23161564.719                    23161567.719
        44.300          31.400
 18  2 20  9 51  0.0000000  0  8G28G20G13G09G30G07G05G02
 125294288.664 6  97631942.18943  23842712.070                    23842717.219
        40.500          22.200
 129544949.255 6 100944175.85142  24651592.469                    24651597.719
        36.500          17.400
 120679173.447 7  94035786.05144  22964492.758                    22964497.035
        47.100          29.600
 119918024.721 7  93442671.84145  22819649.352                    22819657.059
        47.100          34.000
 107041035.776 8  83408653.79447  20369232.227                    20369239.125
        53.500          45.100
 110431420.825 8  86050523.04146  21014409.328                    21014412.863
        53.000          41.300
 108761860.667 8  84749537.15347  20696700.000                    20696704.301
        52.200          42.500
 121792453.134 7  94903247.20845  23176347.477                    23176350.258
        44.700          32.600
 18  2 20  9 51 30.0000000  0  8G28G20G13G09G30G07G05G02
 125199490.418 6  97558073.49643  23824672.977                    23824677.418
        41.200          22.200
 129437109.425 6 100860144.77343  24631072.422                    24631076.438
        36.300          18.300
 120591761.169 7  93967672.59945  22947859.094                    22947863.344
        47.200          30.900
 120004361.530 7  93509947.22845  22836078.844                    22836085.949
        47.500          33.700
 107030304.385 8  83400291.67347  20367190.063                    20367196.785
        53.400          45.200
 110470586.826 8  86081041.98946  21021862.742                    21021866.289
        53.000          41.400
 108728598.092 8  84723618.25647  20690370.414                    20690374.605
        52.400          42.800
 121870427.357 7  94964006.28845  23191185.414                    23191188.133
        44.300          32.400
 18  2 20  9 52  0.0000000  0  8G28G20G13G09G30G07G05G02
 125104825.171 6  97484308.42943  23806657.719                    23806663.008
        38.300          21.800
 129329384.636 6 100776203.40842  24610571.844                    24610576.508
        36.000          15.600
 120504508.882 7  93899683.81145  22931255.133                    22931259.766
        46.300          31.600
 120090846.065 7  93577337.72945  22852536.453                    22852543.492
        47.000          33.500
 107020109.606 8  83392347.68947  20365250.211                    20365256.785
        52.900          44.800
 110510188.704 8  86111900.58746  21029398.586                    21029402.637
        53.100          41.700
 108695843.819 8  84698095.44047  20684137.617                    20684141.898
        52.100          42.300
 121948689.288 7  95024989.56245  23206078.227                    23206081.289
        43.500          31.700
 18  2 20  9 52 30.0000000  0  8G28G20G13G09G30G07G05G02
 125010295.478 6  97410649.04743  23788669.906                    23788674.613
        38.600          22.200
 129221776.861 5 100692353.12442  24590095.594                    24590099.215
        35.800          17.400
 120417416.695 7  93831819.77744  22914682.406                    22914686.148
        46.200          29.800
 120177477.106 7  93644842.39545  22869021.922                    22869028.500
        46.500          33.900
 107010450.900 8  83384821.42947  20363412.023                    20363418.797
        52.800          45.200
 110550224.590 8  86143097.37546  21037016.836                    21037020.891
        52.700          41.400
 108663598.819 8  84672969.46747  20678001.555                    20678006.070
        51.400          43.000
 122027235.700 7  95086194.52445  23221024.836                    23221027.828
        42.900          31.000
 18  2 20  9 53  0.0000000  0  8G28G20G13G09G30G07G05G02
 124915904.383 6  97337097.63643  23770707.898                    23770712.195
        40.600          22.600
 129114288.248 5 100608595.83242  24569641.664                    24569645.008
        35.900          17.400
 120330485.986 7  93764081.56645  22898139.406                    22898144.227
        47.000          30.400
 120264253.943 7  93712460.67345  22885534.945                    22885542.441
        46.600          33.400
 107001328.055 8  83377712.71947  20361676.211                    20361683.008
        53.000          45.500
 110590692.715 8  86174630.96446  21044717.906                    21044721.746
        52.800          40.800
 108631864.578 8  84648241.48547  20671962.836                    20671967.141
        50.900          42.700
 122106064.076 7  95147619.16545  23236025.703                    23236028.668
        42.700          30.500
 18  2 20  9 53 30.0000000  0  8G28G20G13G09G30G07G05G02
 124821654.740 6  97263656.42343  23752771.891                    23752777.371
        39.400          21.500
 129006921.455 6 100524933.38243  24549209.891                    24549214.457
        36.800          18.300
 120243717.310 7  93696469.62645  22881627.734                    22881632.293
        45.400          30.400
 120351175.831 7  93780191.96645  22902075.484                    22902082.844
        47.000          33.100
 106992740.837 8  83371021.38347  20360041.961                    20360048.813
        53.400          45.400
 110631591.852 8  86206500.41646  21052500.414                    21052504.578
        53.000          41.100
 108600642.974 8  84623912.95147  20666021.375                    20666025.586
        51.300          43.100
 122185171.598 7  95209261.35144  23251078.531                    23251082.262
        42.800          29.400
 18  2 20  9 54  0.0000000  0  8G28G20G13G09G30G07G05G02
 124727549.413 6  97190327.71343  23734864.023                    23734869.852
        38.500          20.400
 128899678.511 6 100441367.53543  24528801.781                    24528806.574
        36.500          19.000
 120157111.414 7  93628984.53144  22865147.570                    22865151.504
        44.900          29.800
 120438241.898 7  93848035.61645  22918643.984                    22918650.738
        46.600          33.400
 106984688.899 8  83364747.15347  20358509.602                    20358516.605
        52.800          44.900
 110672920.372 8  86238704.45246  21060365.617                    21060369.246
        52.500          40.700
 108569935.189 8  84599984.80447  20660177.898                    20660182.297
        51.400          43.200
 122264555.522 7  95271118.89744  23266185.297                    23266187.922
        42.300          27.800
 18  2 20  9 54 30.0000000  0  8G28G20G13G09G30G07G05G02
 124633591.483 6  97117113.82743  23716985.055                    23716989.738
        38.600          21.100
 128792561.721 6 100357899.78643  24508418.469                    24508422.398
        38.500          18.300
 120070669.183 7  93561626.95144  22848697.625                    22848701.766
        46.100          29.900
 120525451.257 7  93915990.92545  22935239.156                    22935245.703
        45.700          33.400
 106977171.946 8  83358889.79647  20357079.250                    20357085.941
        51.600          45.100
 110714676.679 8  86271241.83146  21068311.031                    21068314.891
        52.700          40.600
 108539742.641 8  84576458.14547  20654432.602                    20654437.227
        51.200          43.100
 122344212.870 7  95333189.51144  23281343.961                    23281346.414
        42.000          27.800
 18  2 20  9 55  0.0000000  0  8G28G20G13G09G30G07G05G02
 124539783.785 6  97044016.98843  23699133.445                    23699138.922
        39.400          20.600
 128685573.667 6 100274532.50442  24488059.539                    24488063.172
        38.800          16.900
 119984391.519 7  93494397.61744  22832280.109                    22832283.828
        45.500          29.800
 120612803.151 7  93984057.30645  22951861.625                    22951869.281
        45.100          33.300
 106970189.630 8  83353449.03847  20355750.570                    20355757.309
        52.300          45.300
 110756858.958 8  86304111.13346  21076338.008                    21076342.176
        52.800          41.100
 108510066.797 8  84553334.10947  20648785.570                    20648789.641
        52.200          42.800
 122424140.893 7  95395471.05344  23296553.844                    23296556.051
        42.200          27.200
 18  2 20  9 55 30.0000000  0  8G28G20G13G09G30G07G05G02
 124446129.342 6  96971039.57743  23681310.992                    23681317.066
        38.900          21.500
 128578716.427 6 100191267.06943  24467725.578                    24467729.109
        37.100          19.600
 119898279.128 7  93427297.05744  22815893.375                    22815897.559
        44.700          29.200
 120700296.806 7  94052234.12645  22968511.500                    22968518.090
        46.300          33.600
 106963741.655 8  83348424.65347  20354523.516                    20354530.473
        52.300          45.100
 110799465.886 8  86337311.32846  21084446.156                    21084449.895
        52.900          40.600
 108480909.012 8  84530613.75647  20643236.609                    20643241.160
        51.700          43.400
 122504336.763 7  95457961.30744  23311814.523                    23311817.020
        42.000          27.800
 18  2 20  9 56  0.0000000  0  8G28G20G13G09G30G07G05G02
 124352630.891 6  96898183.69443  23663519.000                    23663524.699
        40.400          22.200
 128471992.047 6 100108105.32943  24447415.773                    24447420.910
        39.400          20.400
 119812333.178 7  93360326.21544  22799537.938                    22799542.355
        43.700          28.600
 120787931.350 7  94120520.75145  22985187.789                    22985194.625
        46.000          33.100
 106957827.628 8  83343816.32847  20353397.992                    20353404.898
        52.700          45.100
 110842495.565 8  86370840.95646  21092633.883                    21092638.258
        52.700          40.900
 108452270.559 8  84508298.07347  20637787.242                    20637791.531
        51.500          43.400
 122584797.684 7  95520658.08744  23327125.883                    23327128.414
        43.400          28.200
 18  2 20  9 56 30.0000000  0  8G28G20G13G09G30G07G05G02
 124259291.594 6  96825451.84443  23645757.500                    23645763.129
        39.500          22.800
 128365403.428 6 100025049.27343  24427132.430                    24427137.078
        40.000          19.300
 119726554.220 7  93293485.47744  22783214.477                    22783218.867
        44.900          27.500
 120875706.112 7  94188916.62745  23001890.938                    23001897.652
        44.600          33.200
 106952447.269 8  83339623.84247  20352374.484                    20352380.969
        52.000          44.900
 110885946.832 8  86404699.05646  21100902.469                    21100906.809
        52.300          40.200
 108424153.123 8  84486388.38047  20632436.523                    20632440.926
        51.500          42.100
 122665520.818 7  95583559.18844  23342486.914                    23342489.402
        44.100          27.600
 18  2 20  9 57  0.0000000  0  8G28G20G13G09G30G07G05G02
 124166114.290 6  96752846.25443  23628026.078                    23628032.008
        40.300          21.500
 128258952.378 6  99942100.40943  24406876.219                    24406880.348
        39.400          18.300
 119640943.054 7  93226775.48944  22766922.586                    22766927.648
        44.100          28.200
 120963620.137 7  94257421.01645  23018620.516                    23018627.141
        45.400          33.600
 106947600.052 8  83335846.80347  20351451.750                    20351458.414
        51.800          45.700
 110929818.013 8  86438884.38846  21109250.922                    21109254.938
        51.800          39.800
 108396557.742 8  84464885.48247  20627185.500                    20627189.559
        51.600          42.700
 122746503.454 7  95646662.49244  23357897.180                    23357899.602
        44.000          28.500
 18  2 20  9 57 30.0000000  0  8G28G20G13G09G30G07G05G02
 124073101.759 6  96680368.95843  23610326.867                    23610331.602
        41.000          22.800
 128152641.283 6  99859260.55243  24386645.305                    24386650.297
        37.900          18.300
 119555500.420 7  93160196.82144  22750664.102                    22750668.305
        43.900          28.600
 121051672.629 7  94326033.31245  23035375.969                    23035383.523
        44.700          33.300
 106943285.564 8  83332484.87147  20350630.891                    20350637.387
        52.700          45.200
 110974107.616 8  86473395.76146  21117679.219                    21117683.543
        52.000          40.600
 108369485.890 8  84443790.53247  20622033.781                    20622038.074
        52.200          42.600
 122827742.679 7  95709965.73044  23373356.891                    23373359.676
        44.300          28.500
 18  2 20  9 58  0.0000000  0  8G28G20G13G09G30G07G05G02
 123980257.210 6  96608022.63443  23592658.461                    23592664.441
        41.400          22.800
 128046472.647 6  99776531.77843  24366442.406                    24366447.371
        39.100          18.600
 119470227.497 7  93093750.40244  22734437.133                    22734441.082
        44.200          28.500
 121139862.910 7  94394752.94045  23052158.867                    23052165.688
        45.000          32.400
 106939503.454 8  83329537.78647  20349910.992                    20349917.941
        52.900          45.400
 111018813.466 8  86508231.49546  21126186.227                    21126190.258
        52.800          41.100
 108342938.965 8  84423104.61847  20616982.203                    20616986.309
        52.400          42.700
 122909235.484 7  95773466.55844  23388864.516                    23388867.426
        44.700          28.500
 18  2 20  9 58 30.0000000  0  8G28G20G13G09G30G07G05G02
 123887583.470 7  96535809.41843  23575023.617                    23575029.063
        42.400          21.700
 127940448.579 6  99693915.60443  24346267.211                    24346271.215
        38.700          19.600
 119385124.652 7  93027436.50744  22718242.602                    22718246.867
        44.200          27.800
 121228190.100 7  94463579.28045  23068966.734                    23068974.078
        46.600          33.700
 106936253.276 8  83327005.19047  20349292.797                    20349299.262
        53.200          45.800
 111063934.309 8  86543390.59746  21134772.609                    21134776.867
        52.300          40.300
 108316918.362 8  84402828.81247  20612030.766                    20612035.004
        51.900          43.400
 122990979.557 7  95837163.17944  23404419.820                    23404422.523
        44.600          28.500
 18  2 20  9 59  0.0000000  0  8G28G20G13G09G30G07G05G02
 123795083.394 7  96463731.48943  23557422.914                    23557426.309
        42.700          22.300
 127834571.623 6  99611414.13743  24326119.664                    24326123.441
        37.900          19.600
 119300193.389 7  92961256.32544  22702080.773                    22702084.566
        44.200          28.100
 121316653.411 7  94532511.69745  23085799.914                    23085807.566
        45.800          32.000
 106933534.482 8  83324886.65147  20348775.406                    20348781.875
        50.800          45.400
 111109468.654 8  86578871.92846  21143437.828                    21143441.328
        52.800          40.600
 108291425.142 8  84382963.96547  20607179.313                    20607183.527
        52.500          42.600
 123072971.498 7  95901052.94844  23420022.461                    23420025.238
        44.200          28.600
 18  2 20  9 59 30.0000000  0  8G28G20G13G09G30G07G05G02
 123702759.940 7  96391791.17143  23539852.938                    23539857.859
        42.000          23.600
 127728844.211 6  99529029.11643  24306000.555                    24306003.797
        39.200          20.600
 119215434.511 7  92895210.45944  22685951.781                    22685955.926
        45.600          27.200
 121405252.085 7  94601549.57245  23102660.406                    23102667.859
        47.000          32.200
 106931346.646 8  83323181.84147  20348359.203                    20348365.547
        52.900          45.700
 111155414.493 8  86614673.85546  21152180.570                    21152185.035
        52.800          40.700
 108266460.675 8  84363511.13247  20602428.867                    20602433.141
        52.700          43.100
 123155208.571 7  95965133.71144  23435672.000                    23435674.242
        43.800          27.800
                            4  1
RINEX FILE SPLICE; other post-header comments skipped       COMMENT
 18  2 20 10  0  0.0000000  0  8G28G20G13G09G30G07G05G02
 123610616.178 7  96319990.91344  23522318.445                    23522323.695
        42.300          24.000
 127623268.461 6  99446762.28943  24285909.141                    24285913.750
        36.300          20.400
 119130848.452 7  92829299.26144  22669855.133                    22669859.473
        45.000          26.800
 121493985.310 7  94670692.30145  23119546.000                    23119552.965
        47.000          31.600
 106929689.294 8  83321890.40147  20348043.625                    20348050.207
        53.800          45.600
 111201770.355 8  86650795.30346  21161002.133                    21161006.105
        52.600          40.600
 108242026.410 8  84344471.44647  20597779.195                    20597783.141
        52.800          43.700
 123237688.272 7  96029403.55044  23451367.055                    23451369.645
        44.800          27.400
 18  2 20 10  0 30.0000000  0  8G28G20G13G09G30G07G05G02
 123518654.796 6  96248332.76043  23504819.031                    23504823.656
        41.300          22.600
 127517846.714 6  99364615.49243  24265849.531                    24265852.508
        38.900          20.600
 119046436.274 7  92763523.55744  22653792.375                    22653795.906
        45.200          27.900
 121582852.245 7  94739939.22845  23136456.508                    23136463.855
        46.200          31.900
 106928561.855 9  83321011.87947  20347829.188                    20347835.703
        54.700          45.800
 111248534.313 8  86687234.74946  21169900.828                    21169905.191
        52.600          40.400
 108218123.317 8  84325845.66147  20593230.547                    20593234.809
        53.000          43.200
 123320407.325 7  96093859.90644  23467107.789                    23467110.887
        43.900          27.200
 18  2 20 10  1  0.0000000  0  8G28G20G13G09G30G07G05G02
 123426878.675 6  96176818.97043  23487353.852                    23487359.094
        41.000          22.900
 127412581.414 6  99282590.56843  24245817.703                    24245821.434
        37.100          19.900
 118962198.858 7  92697884.02044  22637762.695                    22637766.371
        46.200          27.600
 121671852.139 7  94809289.73045  23153392.164                    23153400.008
        46.000          32.100
 106927963.778 8  83320545.85147  20347715.273                    20347721.805
        53.300          45.900
 111295705.115 8  86723991.21946  21178877.188                    21178881.191
        52.700          40.200
 108194752.626 8  84307634.72847  20588783.250                    20588787.512
        52.400          43.100
 123403363.120 7  96158500.73244  23482893.852                    23482896.484
        43.700          27.500
 18  2 20 10  1 30.0000000  0  8G28G20G13G09G30G07G05G02
 123335290.673 6  96105451.75044  23469925.711                    23469930.832
        40.900          25.000
 127307474.865 6  99200689.42143  24225816.008                    24225820.688
        38.300          20.600
 118878136.464 7  92632380.87044  22621766.570                    22621770.211
        45.100          29.000
 121760984.129 7  94878743.19145  23170353.148                    23170361.086
        44.300          31.700
 106927894.454 9  83320491.84147  20347702.133                    20347708.855
        54.300          45.900
 111343280.730 8  86761063.13046  21187930.523                    21187934.547
        52.300          40.200
 108171915.352 8  84289839.45247  20584437.328                    20584441.379
        52.800          42.900
 123486552.593 7  96223323.64344  23498724.086                    23498726.746
        43.600          28.200
 18  2 20 10  2  0.0000000  0  8G28G20G13G09G30G07G05G02
 123243893.889 6  96034233.53343  23452533.336                    23452538.730
        40.600          23.500
 127202529.709 6  99118913.95643  24205845.820                    24205850.426
        37.200          20.900
 118794250.749 7  92567015.39244  22605803.031                    22605807.098
        43.800          28.900
 121850247.569 7  94948299.08345  23187340.352                    23187346.883
        44.600          30.700
 106928353.458 8  83320849.50747  20347789.547                    20347796.027
        53.900          45.500
 111391259.846 8  86798449.45646  21197060.813                    21197064.945
        52.500          40.500
 108149613.203 8  84272461.15147  20580193.328                    20580197.938
        50.900          43.000
 123569972.981 7  96288326.50344  23514598.930                    23514601.648
        43.600          27.800
 18  2 20 10  2 30.0000000  0  8G28G20G13G09G30G07G05G02
 123152690.812 6  95963166.27544  23435178.180                    23435183.039
        39.900          25.300
 127097748.163 6  99037266.01843  24185906.039                    24185910.344
        37.900          19.600
 118710542.400 7  92501788.11245  22589873.875                    22589877.824
        45.700          30.300
 121939641.644 7  95017956.77545  23204351.227                    23204358.805
        42.500          32.100
 106929340.220 8  83321618.41847  20347977.492                    20347984.129
        52.800          45.600
 111439640.566 8  86836148.71346  21206267.461                    21206271.141
        52.800          39.900
 108127847.313 8  84255500.72147  20576051.281                    20576055.336
        52.200          42.600
 123653621.424 7  96353507.03544  23530516.711                    23530519.488
        43.800          27.000
 18  2 20 10  3  0.0000000  0  8G28G20G13G09G30G07G05G02
 123061684.934 6  95892252.64044  23417860.523                    23417865.160
        40.400          24.700
 126993132.528 6  98955747.32443  24165999.203                    24166002.598
        37.600          20.600
 118627012.024 7  92436699.52344  22573979.023                    22573982.754
        44.700          29.800
 122029165.410 7  95087715.50745  23221387.477                    23221395.230
        44.600          31.200
 106930853.953 8  83322797.95147  20348265.367                    20348272.098
        52.800          45.900
 111488421.151 8  86874159.56346  21215550.125                    21215553.570
        52.800          39.900
 108106618.698 8  84238958.95047  20572011.820                    20572016.344
        51.900          42.700
 123737495.154 7  96418863.14644  23546477.125                    23546479.902
        43.600          26.500
 18  2 20 10  3 30.0000000  0  8G28G20G13G09G30G07G05G02
 122970879.108 6  95821494.93544  23400580.180                    23400584.898
        40.200          25.200
 126888685.130 6  98874359.76643  24146122.859                    24146127.320
        38.900          21.100
 118543660.729 7  92371750.47344  22558117.633                    22558121.355
        44.100          29.600
 122118818.223 7  95157574.78445  23238447.344                    23238454.480
        42.400          30.400
 106932894.138 8  83324387.71247  20348653.578                    20348660.316
        51.300          45.700
 111537600.007 8  86912480.75346  21224908.156                    21224912.035
        52.200          39.700
 108085928.604 8  84222836.79747  20568074.625                    20568079.242
        51.700          42.800
 123821591.099 7  96484392.41644  23562480.188                    23562482.988
        43.100          26.900
 18  2 20 10  4  0.0000000  0  8G28G20G13G09G30G07G05G02
 122880275.955 6  95750895.10844  23383339.258                    23383343.926
        41.100          25.800
 126784408.639 6  98793105.36743  24126279.953                    24126283.793
        40.000          21.700
 118460489.257 7  92306941.55244  22542290.711                    22542294.445
        45.100          29.900
 122208599.371 7  95227534.08345  23255532.773                    23255539.801
        43.100          30.500
 106935460.251 8  83326387.27947  20349141.922                    20349148.195
        52.900          45.700
 111587175.223 8  86951110.79846  21234342.180                    21234345.902
        52.700          39.900
 108065778.073 8  84207135.08847  20564239.750                    20564244.371
        51.900          42.500
 123905906.569 7  96550092.71044  23578524.891                    23578528.320
        42.800          26.800
 18  2 20 10  4 30.0000000  0  8G28G20G13G09G30G07G05G02
 122789878.456 6  95680455.53644  23366137.031                    23366141.949
        41.600          26.200
 126680305.076 6  98711985.72243  24106470.055                    24106474.004
        40.200          22.300
 118377498.233 7  92242273.24145  22526497.984                    22526501.578
        45.500          30.500
 122298507.776 7  95297592.54545  23272641.250                    23272649.266
        43.800          31.000
 106938551.349 8  83328795.93247  20349730.031                    20349736.523
        53.300          45.700
 111637145.636 8  86990048.78246  21243851.164                    21243855.293
        52.500          39.500
 108046168.017 8  84191854.52147  20560508.242                    20560512.945
        52.000          42.700
 123990438.472 7  96615961.66944  23594611.156                    23594613.688
        42.300          26.700
 18  2 20 10  5  0.0000000  0  8G28G20G13G09G30G07G05G02
 122699689.353 6  95610178.37344  23348974.359                    23348978.828
        41.400          24.600
 126576377.204 6  98631002.97443  24086692.000                    24086696.621
        40.500          21.100
 118294688.674 7  92177746.33244  22510739.570                    22510743.406
        45.700          29.300
 122388542.846 7  95367749.68845  23289775.078                    23289781.859
        43.100          30.300
 106942166.920 8  83331613.25247  20350418.109                    20350424.723
        53.500          45.400
 111687509.520 8  87029293.36746  21253435.117                    21253439.070
        52.800          39.600
 108027099.580 8  84176996.00347  20556879.766                    20556884.238
        52.300          43.200
 124075183.871 7  96681996.97344  23610737.750                    23610740.422
        42.000          27.900
 18  2 20 10  5 30.0000000  0  8G28G20G13G09G30G07G05G02
 122609711.653 7  95540065.89944  23331852.258                    23331856.770
        43.600          25.300
 126472627.282 6  98550158.90043  24066950.344                    24066953.879
        41.100          22.200
 118212061.424 7  92113361.47045  22495016.008                    22495019.820
        44.700          30.200
 122478703.711 7  95438004.87744  23306931.477                    23306938.914
        44.400          29.900
 106946306.181 8  83334838.65247  20351205.922                    20351211.809
        53.400          45.300
 111738264.086 8  87068842.37946  21263093.117                    21263097.367
        52.400          39.600
 108008573.631 8  84162560.20347  20553354.125                    20553358.840
        52.900          42.800
 124160139.871 6  96748196.41444  23626903.781                    23626907.363
        41.300          27.600
 18  2 20 10  6  0.0000000  0  8G28G20G13G09G30G07G05G02
 122519948.346 7  95470120.49244  23314770.570                    23314775.160
        42.000          24.800
 126369057.438 6  98469455.12643  24047241.172                    24047245.738
        39.500          21.700
 118129617.194 7  92049119.23445  22479327.047                    22479331.551
        44.700          30.200
 122568989.718 7  95508357.55445  23324112.578                    23324120.273
        45.200          31.500
 106950968.591 8  83338471.70147  20352093.063                    20352099.680
        52.300          45.000
 111789408.297 8  87108695.00646  21272825.758                    21272829.836
        52.200          39.400
 107990591.825 8  84148548.40147  20549932.508                    20549937.125
        52.500          42.700
 124245303.937 7  96814557.97644  23643110.969                    23643114.020
        43.200          27.300
 18  2 20 10  6 30.0000000  0  8G28G20G13G09G30G07G05G02
 122430402.326 7  95400344.40844  23297730.109                    23297735.125
        43.600          25.400
 126265670.594 6  98388893.98743  24027567.367                    24027571.945
        40.900          21.800
 118047357.513 7  91985020.79444  22463673.914                    22463678.273
        43.900          29.800
 122659400.055 7  95578807.09945  23341317.492                    23341324.328
        44.900          30.700
 106956153.332 8  83342511.76247  20353079.664                    20353085.836
        52.200          45.000
 111840940.434 8  87148849.91246  21282631.852                    21282635.789
        52.300          39.500
 107973155.090 8  84134961.33547  20546614.273                    20546618.969
        51.800          42.900
 124330672.709 7  96881079.04044  23659355.500                    23659358.777
        42.200          29.100
 18  2 20 10  7  0.0000000  0  8G28G20G13G09G30G07G05G02
 122341076.392 7  95330739.78144  23280732.617                    23280737.063
        43.400          26.800
 126162469.027 6  98308477.18343  24007928.086                    24007932.840
        39.600          21.500
 117965282.850 7  91921066.53245  22448055.313                    22448060.027
        44.600          30.200
 122749934.007 7  95649353.02445  23358544.648                    23358552.367
        44.400          30.200
 106961859.786 8  83346958.34947  20354165.516                    20354172.152
        53.200          45.600
 111892858.727 8  87189305.72046  21292511.648                    21292515.586
        52.400          39.800
 107956264.401 8  84121799.76647  20543400.164                    20543404.535
        51.900          42.800
 124416243.568 6  96947757.57744  23675640.047                    23675642.316
        41.800          27.700
 18  2 20 10  7 30.0000000  0  8G28G20G13G09G30G07G05G02
 122251973.145 7  95261308.71244  23263776.430                    23263781.859
        43.700          27.000
 126059455.089 6  98228206.57343  23988326.164                    23988329.793
        39.900          22.300
 117883393.866 7  91857256.95045  22432472.375                    22432477.086
        45.100          30.900
 122840590.648 7  95719994.51445  23375796.602                    23375804.262
        44.100          30.700
 106968087.007 8  83351810.73147  20355350.617                    20355356.777
        53.800          45.300
 111945161.369 8  87230061.02546  21302464.453                    21302468.223
        52.300          39.400
 107939920.515 8  84109064.26547  20540289.859                    20540294.395
        52.000          43.200
 124502013.557 7  97014591.28244  23691960.539                    23691964.223
        43.800          27.400
 18  2 20 10  8  0.0000000  0  8G28G20G13G09G30G07G05G02
 122163095.859 7  95192053.70144  23246863.602                    23246868.395
        44.200          27.000
 125956631.214 6  98148084.09843  23968758.164                    23968763.086
        38.800          22.300
 117801691.655 7  91793592.90545  22416924.867                    22416929.746
        43.800          31.000
 122931369.379 7  95790731.16345  23393071.422                    23393078.375
        46.400          31.400
 106974834.433 8  83357068.46147  20356634.250                    20356641.289
        53.300          45.700
 111997846.951 8  87271114.71446  21312490.555                    21312494.277
        52.800          39.400
 107924124.793 8  84096755.91147  20537284.109                    20537288.484
        52.300          42.600
 124587979.649 7  97081577.77444  23708320.156                    23708322.875
        43.900          29.400
 18  2 20 10  8 30.0000000  0  8G28G20G13G09G30G07G05G02
 122074447.283 7  95122976.88744  23229995.484                    23229999.719
        43.500          27.600
 125853999.910 6  98068111.67043  23949228.953                    23949233.602
        38.400          22.000
 117720177.106 7  91730075.09045  22401413.164                    22401417.922
        44.800          30.400
 123022269.303 7  95861562.23545  23410368.602                    23410377.086
        45.300          31.400
 106982101.163 9  83362730.85047  20358017.164                    20358024.012
        54.100          45.200
 112050913.435 8  87312465.21046  21322588.398                    21322592.199
        52.400          39.600
 107908878.015 8  84084875.30747  20534382.664                    20534387.246
        52.100          42.600
 124674138.828 7  97148714.74944  23724715.656                    23724718.813
        42.900          29.100
 18  2 20 10  9  0.0000000  0  8G28G20G13G09G30G07G05G02
 121986030.304 7  95054080.57044  23213169.148                    23213174.883
        43.000          27.400
 125751563.397 6  97988291.02843  23929736.102                    23929740.410
        40.600          22.200
 117638850.965 7  91666704.09245  22385937.352                    22385942.324
        45.800          30.600
 123113289.567 7  95932487.07245  23427689.141                    23427696.652
        45.600          30.000
 106989886.249 9  83368797.15147  20359498.930                    20359505.492
        54.200          45.400
 112104359.322 8  87354111.35246  21332758.953                    21332763.078
        52.700          39.600
 107894181.102 8  84073423.17347  20531586.000                    20531590.695
        52.100          43.400
 124760488.460 7  97216000.14144  23741146.906                    23741150.488
        42.800          28.700
 18  2 20 10  9 30.0000000  0  8G28G20G13G09G30G07G05G02
 121897847.718 7  94985366.90344  23196389.117                    23196394.398
        43.700          29.300
 125649324.734 6  97908624.53443  23910280.352                    23910284.602
        38.100          21.300
 117557714.276 7  91603480.70945  22370497.695                    22370502.094
        46.100          30.700
 123204429.661 7  96003505.27745  23445033.031                    23445040.594
        45.600          30.900
 106998189.202 8  83375266.99247  20361078.805                    20361085.480
        53.900          45.200
 112158182.343 8  87396051.35746  21343001.211                    21343005.371
        52.600          40.000
 107880035.093 8  84062400.30647  20528894.133                    20528898.855
        52.300          42.600
 124847025.724 7  97283431.72044  23757614.750                    23757617.629
        43.600          28.700
 18  2 20 10 10  0.0000000  0  8G28G20G13G09G30G07G05G02
 121809902.593 7  94916838.27044  23179653.977                    23179658.645
        43.500          27.700
 125547285.822 6  97829113.71043  23890863.109                    23890867.090
        38.600          21.800
 117476767.648 7  91540405.43045  22355094.047                    22355098.891
        46.000          30.700
 123295688.805 7  96074616.25445  23462399.227                    23462406.785
        45.200          30.400
 107007009.216 8  83382139.73447  20362757.133                    20362763.816
        53.000          45.500
 112212381.055 8  87438284.10946  21353314.961                    21353318.926
        53.000          39.500
 107866440.922 8  84051807.45247  20526307.453                    20526311.656
        52.100          42.500
 124933747.523 7  97351007.09644  23774117.453                    23774120.758
        43.000          28.400
 18  2 20 10 10 30.0000000  0  8G28G20G13G09G30G07G05G02
 121722197.737 7  94848496.86544  23162963.609                    23162968.176
        43.700          28.400
 125445448.783 6  97749760.21043  23871483.930                    23871488.008
        39.400          22.300
 117396012.438 7  91477479.29745  22339726.641                    22339730.914
        46.800          31.200
 123387066.134 7  96145819.31645  23479787.477                    23479794.664
        45.300          30.200
 107016345.262 8  83389414.57847  20364533.727                    20364540.297
        53.500          45.100
 112266953.703 8  87480808.24246  21363699.758                    21363703.750
        52.800          39.600
 107853399.569 8  84041645.36147  20523825.789                    20523830.172
        52.400          42.700
 125020650.893 7  97418723.94944  23790654.680                    23790657.754
        42.600          27.900
 18  2 20 10 11  0.0000000  0  8G28G20G13G09G30G07G05G02
 121634735.786 7  94780344.74344  23146320.297                    23146325.430
        43.700          28.800
 125343816.507 6  97670566.24543  23852144.227                    23852147.953
        40.300          21.800
 117315449.379 7  91414702.90545  22324396.047                    22324400.602
        46.500          30.800
 123478560.907 7  96217113.90045  23497199.328                    23497205.824
        46.000          30.800
 107026196.529 8  83397090.89247  20366408.281                    20366414.621
        53.900          45.300
 112321898.835 8  87523622.61646  21374155.039                    21374159.086
        52.600          39.500
 107840911.875 8  84031914.68747  20521448.984                    20521453.461
        52.500          42.400
 125107733.200 6  97486580.24344  23807225.758                    23807229.238
        41.500          27.400
 18  2 20 10 11 30.0000000  0  8G28G20G13G09G30G07G05G02
 121547519.644 7  94712384.19244  23129723.477                    23129728.348
        43.700          28.100
 125242391.917 6  97591534.10843  23832843.328                    23832847.859
        40.200          22.000
 117235078.835 7  91352076.51345  22309102.383                    22309106.348
        47.200          31.500
 123570172.234 7  96288499.30745  23514631.289                    23514639.117
        44.800          30.300
 107036562.030 8  83405167.90647  20368380.750                    20368387.066
        53.500          45.100
 112377213.931 8  87566725.27446  21384681.664                    21384685.383
        53.000          39.900
 107828978.393 8  84022615.86947  20519177.914                    20519182.816
        51.700          42.000
 125194991.443 6  97554573.61044  23823830.922                    23823834.082
        41.000          27.600
 18  2 20 10 12  0.0000000  0  8G28G20G13G09G30G07G05G02
 121460552.235 7  94644617.41644  23113173.773                    23113178.777
        43.500          28.300
 125141177.212 6  97512665.52144  23813583.188                    23813587.402
        40.300          24.200
 117154902.414 7  91289601.39045  22293845.461                    22293849.270
        46.000          31.200
 123661899.595 7  96359975.09245  23532087.102                    23532094.637
        45.000          31.500
 107047441.064 8  83413645.07847  20370450.852                    20370457.383
        53.200          45.100
 112432897.866 8  87610115.34146  21395277.828                    21395281.922
        53.400          40.000
 107817600.757 8  84013750.18046  20517013.242                    20517017.309
        51.100          41.900
 125282422.662 6  97622701.80144  23840467.703                    23840471.500
        41.500          28.200
 18  2 20 10 12 30.0000000  0  8G28G20G13G09G30G07G05G02
 121373836.481 7  94577046.75544  23096672.734                    23096677.352
        44.100          29.100
 125040174.905 6  97433962.43443  23794362.930                    23794367.367
        41.400          22.800
 117074920.861 8  91227278.10945  22278625.742                    22278629.414
        48.000          31.500
 123753742.159 7  96431540.71645  23549563.758                    23549570.906
        45.600          30.600
 107058832.754 8  83422521.73147  20372618.852                    20372625.242
        53.100          45.300
 112488948.537 8  87653791.17946  21405944.297                    21405947.754
        53.400          39.200
 107806779.320 8  84005317.89447  20514954.023                    20514958.523
        52.300          42.500
 125370024.045 6  97690962.57444  23857137.977                    23857140.906
        41.100          27.700
 18  2 20 10 13  0.0000000  0  8G28G20G13G09G30G07G05G02
 121287375.387 7  94509674.54644  23080219.602                    23080224.234
        44.100          28.700
 124939387.177 6  97355426.54843  23775184.086                    23775188.035
        39.500          22.000
 116995134.762 7  91165107.13445  22263442.734                    22263446.414
        47.500          31.900
 123845699.088 7  96503195.41345  23567062.805                    23567069.652
        44.700          30.400
 107070735.990 8  83431796.98647  20374883.820                    20374890.520
        53.400          44.900
 112545364.319 8  87697751.51246  21416679.609                    21416683.379
        52.700          39.400
 107796514.892 8  83997319.63946  20513000.844                    20513005.254
        52.000          41.900
 125457792.324 6  97759353.40844  23873839.656                    23873843.258
        41.100          27.900
 18  2 20 10 13 30.0000000  0  8G28G20G13G09G30G07G05G02
 121201171.516 7  94442502.74244  23063815.891                    23063819.676
        44.600          28.700
 124838816.879 6  97277060.08943  23756045.805                    23756049.449
        39.900          22.800
 116915545.224 7  91103089.31845  22248297.516                    22248301.098
        47.200          31.800
 123937769.802 7  96574938.76445  23584583.422                    23584591.363
        44.500          30.800
 107083150.048 8  83441470.28647  20377246.344                    20377252.801
        52.700          44.900
 112602143.469 8  87741994.99646  21427484.289                    21427488.426
        52.100          39.700
 107786808.322 8  83989756.07747  20511153.477                    20511157.797
        51.400          42.700
 125545724.731 6  97827872.11144  23890573.258                    23890576.023
        40.000          27.000
 18  2 20 10 14  0.0000000  0  8G28G20G13G09G30G07G05G02
 121115227.308 7  94375533.27244  23047460.898                    23047465.637
        44.100          29.600
 124738465.872 6  97198864.51143  23736950.000                    23736953.785
        40.100          22.600
 116836153.029 7  91041225.27845  22233189.781                    22233193.656
        47.500          31.900
 124029953.269 7  96646769.99245  23602125.258                    23602133.043
        44.200          30.700
 107096073.760 8  83451540.71547  20379705.602                    20379712.426
        52.800          45.500
 112659283.886 8  87786519.97546  21438357.750                    21438362.133
        52.300          40.000
 107777660.243 8  83982627.70347  20509412.891                    20509417.363
        51.400          42.400
 125633818.165 6  97896516.27144  23907336.688                    23907339.949
        41.100          26.300
 18  2 20 10 14 30.0000000  0  8G28G20G13G09G30G07G05G02
 121029546.182 7  94308768.82644  23031156.594                    23031161.281
        44.600          28.900
 124638337.417 6  97120842.35943  23717896.211                    23717899.445
        41.300          22.500
 116756959.356 7  90979515.94145  22218119.703                    22218123.469
        46.400          31.800
 124122248.994 7  96718688.68044  23619689.156                    23619695.559
        43.200          28.900
 107109506.360 8  83462007.67747  20382261.625                    20382268.305
        52.700          45.100
 112716784.100 8  87831325.32546  21449299.867                    21449303.750
        52.200          40.000
 107769071.718 8  83975935.34147  20507778.664                    20507783.402
        52.400          42.300
 125722069.907 6  97965283.78244  23924130.656                    23924133.723
        41.000          25.300
 18  2 20 10 15  0.0000000  0  8G28G20G13G09G30G07G05G02
 120944130.446 7  94242211.13044  23014902.242                    23014906.852
        43.700          27.100
 124538433.550 6  97042995.19444  23698884.641                    23698889.102
        40.200          25.800
 116677964.619 7  90917961.61445  22203087.461                    22203091.559
        47.500          32.600
 124214655.766 7  96790693.93545  23637272.664                    23637280.613
        43.800          30.200
 107123446.492 8  83472870.11647  20384914.414                    20384921.074
        53.000          45.300
 112774642.123 8  87876409.48446  21460309.758                    21460313.848
        52.500          40.100
 107761042.930 8  83969679.14547  20506250.648                    20506255.242
        51.800          42.500
 125810476.774 6  98034172.22344  23940953.664                    23940956.684
        41.300          24.600
 18  2 20 10 15 30.0000000  0  8G28G20G13G09G30G07G05G02
 120858983.360 7  94175862.80844  22998699.359                    22998704.191
        44.100          28.900
 124438756.950 6  96965325.15743  23679917.141                    23679921.129
        40.000          23.000
 116599169.940 7  90856563.17545  22188093.266                    22188097.406
        47.500          32.900
 124307173.281 7  96862785.42445  23654878.422                    23654886.234
        43.600          30.200
 107137893.518 8  83484127.54647  20387663.656                    20387670.301
        53.700          45.200
 112832856.238 8  87921771.12346  21471387.773                    21471391.398
        52.000          40.100
 107753575.094 8  83963860.05247  20504829.711                    20504834.023
        52.100          42.400
 125899036.399 6  98103179.67344  23957805.875                    23957809.145
        41.300          26.700
 18  2 20 10 16  0.0000000  0  8G28G20G13G09G30G07G05G02
 120774107.573 7  94109725.86344  22982548.320                    22982553.098
        44.900          28.900
 124339310.226 6  96887834.22044  23660992.586                    23660997.012
        39.200          24.500
 116520576.340 7  90795321.42145  22173137.305                    22173141.684
        47.800          33.500
 124399800.661 7  96934962.54244  23672505.375                    23672511.773
        43.400          28.100
 107152846.453 8  83495779.18347  20390509.375                    20390515.965
        53.500          45.000
 112891424.345 8  87967408.59846  21482532.781                    21482536.637
        52.900          40.100
 107746668.848 8  83958478.55647  20503515.734                    20503519.832
        52.100          42.800
 125987745.664 7  98172303.72844  23974687.258                    23974689.664
        42.400          24.500
 18  2 20 10 16 30.0000000  0  8G28G20G13G09G30G07G05G02
 120689505.672 7  94043802.35044  22966448.930                    22966453.348
        43.800          27.400
 124240095.740 6  96810524.22643  23642112.328                    23642116.785
        39.400          23.600
 116442184.657 8  90734237.00545  22158219.773                    22158224.617
        48.400          33.900
 124492537.143 7  97007224.70844  23690152.133                    23690159.043
        42.600          27.900
 107168304.075 8  83507824.08447  20393450.797                    20393457.266
        53.600          44.900
 112950344.921 8  88013320.72046  21493744.773                    21493749.020
        52.200          39.300
 107740324.662 8  83953535.03047  20502308.172                    20502312.926
        52.300          42.700
 126076601.402 6  98241541.91744  23991595.477                    23991598.297
        41.600          25.600
 18  2 20 10 17  0.0000000  0  8G28G20G13G09G30G07G05G02
 120605180.944 7  93978094.79644  22950402.203                    22950406.723
        43.900          27.500
 124141115.819 6  96733397.04143  23623277.461                    23623281.680
        40.000          23.200
 116363995.593 8  90673310.47545  22143340.758                    22143345.684
        48.300          34.600
 124585381.977 7  97079571.25744  23707820.672                    23707827.535
        42.000          27.800
 107184265.430 8  83520261.51447  20396487.789                    20396494.289
        53.400          44.900
 113009616.081 8  88059506.03446  21505023.523                    21505027.996
        51.700          40.200
 107734543.172 8  83949029.97347  20501208.180                    20501212.285
        52.100          43.200
 126165600.655 7  98310891.93244  24008532.023                    24008534.945
        42.300          26.200
 18  2 20 10 17 30.0000000  0  8G28G20G13G09G30G07G05G02
 120521135.772 7  93912605.10844  22934408.820                    22934413.703
        43.200          27.900
 124042373.080 6  96656454.65043  23604487.438                    23604491.426
        40.100          23.500
 116286010.376 8  90612542.79045  22128500.680                    22128505.656
        48.100          33.900
 124678334.426 7  97152001.67844  23725507.953                    23725515.668
        43.500          26.800
 107200729.516 8  83533090.67647  20399621.047                    20399627.180
        53.400          44.900
 113069236.013 8  88105963.10346  21516369.094                    21516373.266
        52.400          39.900
 107729325.456 8  83944964.21947  20500215.102                    20500219.246
        51.900          42.900
 126254740.683 7  98380351.66244  24025494.750                    24025497.414
        42.000          25.900
 18  2 20 10 18  0.0000000  0  8G28G20G13G09G30G07G05G02
 120437373.104 7  93847335.52944  22918469.094                    22918473.984
        44.300          26.800
 123943870.578 6  96579699.47543  23585742.875                    23585747.297
        40.100          23.600
 116208229.740 8  90551934.52445  22113699.648                    22113704.348
        48.700          34.100
 124771393.932 7  97224515.53244  23743216.938                    23743223.648
        42.000          25.900
 107217695.439 8  83546310.88247  20402849.172                    20402856.047
        53.500          45.300
 113129203.438 8  88152690.95146  21527780.789                    21527784.598
        52.300          39.400
 107724672.237 8  83941338.33347  20499329.711                    20499334.184
        52.100          43.200
 126344018.740 6  98449918.92644  24042483.391                    24042486.824
        40.400          24.700
 18  2 20 10 18 30.0000000  0  8G28G20G13G09G30G07G05G02
 120353895.603 7  93782288.15944  22902583.805                    22902588.461
        44.100          28.000
 123845610.195 6  96503132.94243  23567043.891                    23567048.691
        40.200          23.800
 116130654.781 8  90491486.52045  22098937.445                    22098942.133
        48.000          34.200
 124864559.650 7  97297112.14244  23760947.242                    23760952.488
        42.200          25.300
 107235161.951 9  83559921.15447  20406173.219                    20406179.586
        54.400          44.700
 113189515.674 8  88199687.49846  21539257.555                    21539262.027
        51.600          39.400
 107720583.831 8  83938152.55947  20498551.586                    20498555.516
        51.500          42.700
 126433431.753 6  98519591.35544  24059498.563                    24059501.367
        41.100          25.100
 18  2 20 10 19  0.0000000  0  8G28G20G13G09G30G07G05G02
 120270706.171 7  93717465.24044  22886753.227                    22886758.250
        44.300          28.600
 123747594.565 6  96426757.13044  23548392.031                    23548397.309
        38.800          24.100
 116053286.270 7  90431199.38145  22084214.875                    22084219.539
        47.800          34.000
 124957830.732 7  97369790.87344  23778694.938                    23778702.457
        43.100          28.900
 107253128.009 8  83573920.69047  20409592.102                    20409598.355
        53.800          45.100
 113250171.588 8  88246951.83846  21550799.805                    21550804.188
        51.200          39.900
 107717060.915 8  83935407.42347  20497881.367                    20497885.512
        51.900          42.900
 126522976.682 6  98589366.59144  24076537.484                    24076541.211
        38.700          24.200
 18  2 20 10 19 30.0000000  0  8G28G20G13G09G30G07G05G02
 120187807.590 7  93652868.96344  22870977.992                    22870983.352
        44.100          28.100
 123649826.711 6  96350574.43044  23529787.852                    23529792.469
        40.300          25.000
 115976125.182 7  90371073.87745  22069531.461                    22069536.313
        47.800          34.400
 125051206.449 6  97442551.07344  23796464.055                    23796470.617
        40.400          27.600
 107271592.400 8  83588308.53047  20413105.570                    20413111.699
        53.800          44.500
 113311168.862 8  88294482.16646  21562407.414                    21562411.453
        50.500          39.900
 107714103.837 8  83933103.20547  20497318.461                    20497322.910
        51.100          42.600
 126612650.832 6  98659242.49044  24093602.422                    24093605.570
        38.800          24.100
 18  2 20 10 20  0.0000000  0  8G28G20G13G09G30G07G05G02
 120105202.441 7  93588501.35044  22855258.945                    22855263.965
        45.100          28.900
 123552308.896 6  96274586.53443  23511231.250                    23511235.559
        39.300          23.300
 115899172.657 8  90311110.88445  22054887.945                    22054892.879
        48.100          33.500
 125144686.153 7  97515392.38044  23814252.070                    23814258.895
        42.800          26.700
 107290554.206 8  83603083.97047  20416713.875                    20416720.203
        53.400          44.700
 113372506.022 8  88342277.34546  21574079.836                    21574083.523
        50.900          39.700
 107711713.330 8  83931240.46947  20496863.750                    20496867.852
        51.700          42.900
 126702451.044 6  98729216.62744  24110690.656                    24110694.613
        39.900          26.900
 18  2 20 10 20 30.0000000  0  8G28G20G13G09G30G07G05G02
 120022893.526 7  93524364.57044  22839596.156                    22839600.688
        44.600          28.400
 123455043.167 6  96198795.07644  23492721.930                    23492726.461
        38.800          24.800
 115822429.156 8  90251310.76045  22040283.547                    22040289.207
        48.400          34.600
 125238268.912 7  97588313.97444  23832061.211                    23832067.398
        43.000          28.500
 107310012.000 8  83618245.88347  20420416.539                    20420423.055
        52.900          44.600
 113434181.046 8  88390335.80846  21585815.719                    21585819.805
        51.000          39.500
 107709889.711 8  83929819.46247  20496516.852                    20496521.035
        50.900          43.400
 126792374.234 6  98799286.56244  24127804.023                    24127806.402
        38.600          25.900
 18  2 20 10 21  0.0000000  0  9G28G20G13G09G30G07G15G05G02
 119940883.781 7  93460460.87444  22823990.070                    22823994.617
        44.900          29.200
 123358032.704 6  96123202.51744  23474261.969                    23474265.652
        40.100          25.300
 115745895.999 8  90191674.54545  22025720.594                    22025725.016
        48.800          35.500
 125331954.276 7  97661315.50444  23849888.086                    23849896.125
        43.200          26.900
 107329965.066 8  83633793.73447  20424213.359                    20424220.152
        53.000          45.000
 113496192.354 8  88438656.30746  21597616.148                    21597620.762
        49.500          40.100
 129906429.843 6 101225829.21743  24720376.203                    24720382.395
        41.600          22.000
 107708633.879 8  83928840.89047  20496277.969                    20496281.738
        51.000          42.700
 126882418.052 6  98869450.54044  24144937.555                    24144941.551
        39.400          26.900
 18  2 20 10 21 30.0000000  0  9G28G20G13G09G30G07G15G05G02
 119859176.017 7  93396792.51544  22808441.508                    22808446.875
        46.100          29.800
 123261279.962 6  96047810.77143  23455849.961                    23455853.902
        40.400          22.500
 115669574.374 8  90132203.16145  22011196.906                    22011201.402
        49.600          35.700
 125425741.656 7  97734396.48444  23867736.172                    23867741.992
        42.300          28.300
 107350412.225 8  83649726.58847  20428104.359                    20428110.895
        53.100          45.000
 113558538.052 8  88487237.36846  21609480.469                    21609484.699
        48.800          39.800
 129805154.786 6 101146913.58343  24701104.031                    24701110.297
        41.700          22.500
 107707946.298 8  83928305.10747  20496146.977                    20496151.266
        50.900          43.000
 126972579.537 6  98939706.17844  24162094.695                    24162098.379
        38.600          24.600
 18  2 20 10 22  0.0000000  0  9G28G20G13G09G30G07G15G05G02
 119777772.680 7  93333361.36444  22792951.266                    22792955.410
        46.000          28.700
 123164786.900 6  95972621.41144  23437488.141                    23437492.621
        38.900          25.300
 115593464.614 8  90072896.86445  21996713.617                    21996718.324
        49.900          35.300
 125519629.806 7  97807556.05044  23885602.008                    23885609.621
        43.100          27.800
 107371352.016 8  83666043.31447  20432089.320                    20432095.410
        53.200          45.000
 113621215.941 8  88536077.26846  21621407.281                    21621411.965
        49.900          39.200
 129703931.337 6 101068038.19043  24681841.648                    24681847.992
        41.600          22.300
 107707827.202 8  83928212.30347  20496124.289                    20496128.457
        51.600          42.700
 127062855.475 6  99010050.99044  24179274.102                    24179277.668
        40.200          25.500
 18  2 20 10 22 30.0000000  0  9G28G20G13G09G30G07G15G05G02
 119696676.517 7  93270169.56745  22777518.961                    22777523.754
        46.400          30.200
 123068556.996 6  95897637.07444  23419175.891                    23419180.324
        39.400          25.600
 115517567.741 8  90013756.45445  21982270.805                    21982275.496
        50.200          35.500
 125613618.185 6  97880793.69844  23903486.875                    23903495.770
        41.400          27.600
 107392783.308 8  83682743.02847  20436167.406                    20436174.035
        52.700          44.900
 113684224.577 8  88585174.90346  21633397.883                    21633401.664
        49.700          39.900
 129602759.902 7 100989203.31343  24662589.945                    24662595.473
        42.400          22.800
 107708277.167 8  83928562.91847  20496209.789                    20496214.289
        50.500          42.900
 127153242.716 6  99080482.57743  24196474.195                    24196477.996
        38.600          23.400
 18  2 20 10 23  0.0000000  0  9G28G20G13G09G30G07G15G05G02
 119615890.364 7  93207219.35545  22762146.500                    22762150.645
        47.200          31.100
 122972592.027 6  95822859.19644  23400914.469                    23400918.824
        40.100          24.700
 115441884.993 8  89954782.88645  21967869.406                    21967873.719
        49.900          35.900
 125707706.186 6  97954108.92944  23921391.805                    23921399.637
        41.200          26.700
 107414705.030 8  83699824.89147  20440338.695                    20440345.207
        53.000          44.600
 113747561.959 8  88634528.71846  21645450.422                    21645454.746
        50.600          39.600
 129501641.923 7 100910410.12543  24643347.188                    24643353.270
        42.600          23.400
 107709296.608 8  83929357.28447  20496403.898                    20496408.289
        49.800          42.600
 127243738.918 6  99150999.00443  24213695.563                    24213698.371
        38.500          23.900
 18  2 20 10 23 30.0000000  0  9G28G20G13G09G30G07G15G05G02
 119535416.583 7  93144512.54245  22746832.461                    22746836.828
        47.300          31.400
 122876894.844 7  95748289.98344  23382703.961                    23382708.398
        42.000          25.800
 115366417.038 8  89895976.70645  21953507.930                    21953512.609
        50.400          35.500
 125801892.783 7  98027501.03644  23939315.156                    23939322.215
        43.000          26.600
 107437115.806 8  83717287.83347  20444603.438                    20444610.254
        53.500          45.000
 113811226.284 8  88684137.28346  21657565.125                    21657569.176
        48.800          39.100
 129400578.754 7 100831659.64544  24624115.773                    24624121.938
        43.400          24.800
 107710885.673 8  83930595.51647  20496706.219                    20496710.613
        50.000          42.900
 127334340.703 6  99221597.75243  24230935.953                    24230939.848
        38.300          23.900
 18  2 20 10 24  0.0000000  0  9G28G20G13G09G30G07G15G05G02
 119455258.211 7  93082051.48645  22731578.930                    22731583.309
        46.600          30.900
 122781467.716 6  95673931.19744  23364544.586                    23364549.328
        41.000          25.500
 115291164.681 8  89837338.52345  21939188.242                    21939192.434
        49.600          35.900
 125896177.327 7  98100969.48844  23957256.836                    23957264.043
        42.600          27.900
 107460014.456 8  83735130.94147  20448961.109                    20448967.133
        53.300          44.900
 113875215.458 8  88733998.98046  21669742.023                    21669746.332
        48.300          39.200
 129299570.521 7 100752951.98944  24604894.930                    24604901.012
        43.600          24.700
 107713044.986 8  83932278.09947  20497116.938                    20497121.063
        50.000          42.700
 127425045.229 6  99292276.54743  24248196.961                    24248199.898
        37.300          23.000
 18  2 20 10 24 30.0000000  0  9G28G20G13G09G30G07G15G05G02
 119375417.563 7  93019838.03545  22716385.578                    22716389.441
        47.900          31.500
 122686313.640 6  95599785.18044  23346437.805                    23346441.965
        40.900          28.000
 115216129.263 8  89778869.38945  21924909.172                    21924913.230
        49.600          35.500
 125990559.237 7  98174513.74844  23975217.742                    23975224.219
        42.100          27.900
 107483399.902 8  83753353.36847  20453411.141                    20453417.660
        53.500          44.500
 113939528.185 8  88784112.78546  21681980.523                    21681984.262
        50.000          39.400
 129198619.191 7 100674288.62943  24585684.680                    24585690.297
        43.600          23.600
 107715775.204 8  83934405.53847  20497636.414                    20497641.117
        50.700          42.600
 127515849.884 6  99363033.36843  24265475.914                    24265479.727
        38.200          22.200
 18  2 20 10 25  0.0000000  0  9G28G20G13G09G30G07G15G05G02
 119295897.874 7  92957874.66845  22701253.734                    22701257.801
        46.900          31.800
 122591435.229 6  95525853.98344  23328382.969                    23328386.813
        41.200          27.700
 115141311.216 8  89720569.63045  21910671.742                    21910676.109
        49.300          35.200
 126085037.683 7  98248133.28044  23993195.766                    23993203.254
        43.600          27.500
 107507270.756 8  83771954.04047  20457953.852                    20457960.285
        53.400          44.800
 114004162.237 8  88834476.98546  21694279.453                    21694283.875
        49.500          39.000
 129097725.165 7 100595669.92444  24566484.625                    24566490.199
        44.000          25.200
 107719076.236 8  83936977.77047  20498264.828                    20498269.004
        49.600          42.600
 127606751.549 6  99433865.76243  24282773.797                    24282778.289
        36.900          22.000
 18  2 20 10 25 30.0000000  0  9G28G20G13G09G30G07G15G05G02
 119216701.427 8  92896163.18745  22686183.383                    22686187.730
        48.500          31.900
 122496834.484 7  95452139.12844  23310381.023                    23310384.910
        42.200          27.000
 115066711.691 8  89662440.15145  21896475.820                    21896480.273
        48.800          35.700
 126179611.701 7  98321827.21144  24011192.742                    24011201.070
        43.700          27.400
 107531625.625 8  83790931.86547  20462588.438                    20462595.102
        53.400          45.000
 114069115.698 8  88885090.07446  21706639.953                    21706644.098
        51.400          39.000
 128996889.336 7 100517096.55944  24547295.656                    24547301.941
        42.300          25.300
 107722948.263 8  83939994.92647  20499001.484                    20499005.984
        50.200          43.000
 127697747.141 6  99504771.32943  24300089.766                    24300093.469
        36.900          22.200
 18  2 20 10 26  0.0000000  0  9G28G20G13G09G30G07G15G05G02
 119137830.997 8  92834705.75545  22671174.945                    22671178.285
        48.300          31.200
 122402514.427 7  95378643.01344  23292432.484                    23292436.676
        42.900          26.400
 114992332.092 8  89604482.04845  21882321.742                    21882326.113
        49.700          35.700
 126274281.015 7  98395595.47744  24029207.344                    24029215.391
        42.200          26.200
 107556463.612 8  83810286.13947  20467314.680                    20467321.129
        53.400          44.600
 114134386.964 8  88935950.80746  21719060.344                    21719064.648
        50.700          38.400
 128896112.928 7 100438569.49344  24528118.391                    24528124.570
        43.300          24.300
 107727391.942 8  83943457.53147  20499846.938                    20499851.789
        50.800          42.500
 127788834.069 6  99575748.10843  24317423.250                    24317426.961
        37.900          23.500
 18  2 20 10 26 30.0000000  0  9G28G20G13G09G30G07G15G05G02
 119059289.295 8  92773504.45845  22656229.031                    22656232.379
        48.200          31.700
 122308477.479 7  95305367.46744  23274537.266                    23274541.816
        42.700          27.100
 114918172.868 8  89546695.65446  21868209.469                    21868213.949
        49.500          36.000
 126369044.614 7  98469437.17644  24047241.156                    24047248.863
        43.800          26.500
 107581783.188 8  83830015.67447  20472133.063                    20472139.219
        53.100          44.400
 114199974.064 8  88987057.63646  21731541.117                    21731545.500
        50.600          39.400
 128795396.802 7 100360089.43644  24508953.047                    24508959.504
        44.200          24.400
 107732407.526 8  83947365.77547  20500801.633                    20500806.238
        51.300          42.300
 127880009.135 6  99646793.51643  24334773.820                    24334777.531
        38.700          22.200
 18  2 20 10 27  0.0000000  0  9G28G20G13G09G30G07G15G05G02
 118981078.641 7  92712561.13445  22641345.305                    22641349.180
        47.200          30.500
 122214725.841 7  95232314.26244  23256697.625                    23256701.781
        42.900          28.900
 114844234.896 8  89489081.66845  21854139.758                    21854144.340
        49.700          35.500
 126463901.635 7  98543351.71744  24065290.789                    24065299.785
        43.700          27.200
 107607583.035 8  83850119.45247  20477042.406                    20477049.191
        53.000          44.500
 114265875.105 8  89038409.08046  21744081.945                    21744086.234
        49.800          38.800
 128694742.249 7 100281657.36444  24489799.094                    24489805.402
        43.400          25.500
 107737995.099 8  83951719.72847  20501864.813                    20501869.809
        51.900          42.300
 127971269.448 6  99717905.38644  24352139.617                    24352143.543
        39.900          24.100
 18  2 20 10 27 30.0000000  0  9G28G20G13G09G30G07G15G05G02
 118903202.067 8  92651878.12345  22626525.883                    22626530.227
        48.200          30.400
 122121262.396 7  95159485.62044  23238911.883                    23238916.430
        43.300          28.700
 114770519.227 8  89431640.89545  21840112.063                    21840116.699
        48.900          35.400
 126558851.479 6  98617338.53944  24083360.398                    24083367.426
        40.100          27.000
 107633861.849 8  83870596.45347  20482043.133                    20482049.875
        53.500          44.800
 114332088.322 8  89090003.78446  21756682.055                    21756685.949
        50.800          38.500
 128594150.287 7 100203274.04344  24470657.297                    24470663.078
        43.700          24.000
 107744154.973 8  83956519.62347  20503036.984                    20503041.590
        51.400          43.100
 128062612.220 6  99789081.49043  24369521.234                    24369525.637
        39.700          22.800
 18  2 20 10 28  0.0000000  0  9G28G20G13G09G30G07G15G05G02
 118825661.985 7  92591457.31545  22611770.734                    22611774.793
        47.600          30.200
 122028090.080 7  95086883.82444  23221182.070                    23221185.902
        42.700          28.700
 114697027.036 8  89374374.27145  21826126.852                    21826131.293
        49.300          35.300
 126653893.627 7  98691397.27444  24101446.414                    24101453.629
        42.000          26.200
 107660618.594 8  83891445.86647  20487134.648                    20487141.430
        52.300          44.400
 114398611.965 8  89141840.38946  21769341.102                    21769345.359
        51.000          39.000
 128493621.858 7 100124940.25144  24451527.188                    24451533.215
        43.400          25.000
 107750887.682 8  83961765.88447  20504318.445                    20504322.883
        51.200          43.000
 128154034.551 6  99860319.57743  24386919.352                    24386922.320
        39.500          22.800
 18  2 20 10 28 30.0000000  0  9G28G20G13G09G30G07G15G05G02
 118748461.035 7  92531300.76045  22597079.828                    22597083.805
        47.100          30.400
 121935211.091 7  95014510.59744  23203507.750                    23203511.816
        43.900          28.800
 114623759.511 8  89317282.69245  21812184.695                    21812188.836
        48.500          35.100
 126749027.174 6  98765527.31744  24119549.180                    24119555.793
        41.500          25.300
 107687851.872 8  83912666.60647  20492316.703                    20492323.758
        52.900          44.300
 114465444.184 8  89193917.44346  21782058.641                    21782062.930
        50.000          39.000
 128393157.946 7 100046656.71244  24432409.453                    24432415.402
        42.700          24.700
 107758193.381 8  83967458.62747  20505708.711                    20505712.824
        52.300          43.200
 128245533.654 6  99931617.51243  24404330.688                    24404334.457
        40.800          22.900
 18  2 20 10 29  0.0000000  0  9G28G20G13G09G30G07G15G05G02
 118671601.999 7  92471410.63645  22582453.625                    22582458.215
        47.000          31.000
 121842627.840 7  94942367.82244  23185889.516                    23185893.680
        43.700          29.100
 114550717.129 8  89260366.55745  21798285.063                    21798289.145
        48.300          34.600
 126844251.446 6  98839727.97644  24137669.961                    24137677.121
        41.200          26.800
 107715560.244 8  83934257.54947  20497589.484                    20497596.520
        53.200          45.000
 114532583.054 8  89246233.42846  21794834.508                    21794838.758
        50.300          38.700
 128292759.439 6  99968424.16443  24413304.859                    24413310.402
        41.700          23.200
 107766071.954 8  83973597.77647  20507207.648                    20507212.395
        51.300          43.000
 128337106.415 6 100002972.83043  24421756.633                    24421760.098
        41.000          22.800
 18  2 20 10 29 30.0000000  0  9G28G20G13G09G30G07G15G05G02
 118595087.483 7  92411788.98544  22567893.711                    22567898.066
        45.900          29.800
 121750342.854 7  94870457.47244  23168328.500                    23168332.621
        43.000          29.100
 114477900.504 8  89203626.33245  21784428.430                    21784432.906
        48.100          34.900
 126939565.385 7  98913998.50944  24155806.875                    24155816.066
        42.200          26.000
 107743742.144 8  83956217.47647  20502952.508                    20502959.500
        52.400          44.900
 114600026.785 8  89298786.96946  21807669.336                    21807673.016
        51.400          38.500
 128192427.636 7  99890243.57344  24394212.227                    24394217.879
        42.800          24.700
 107774523.366 8  83980183.28547  20508816.125                    20508820.551
        51.200          42.600
 128428749.844 6 100074383.19543  24439195.430                    24439199.285
        39.800          22.300
 18  2 20 10 30  0.0000000  0  9G28G20G13G09G30G07G15G05G02
 118518920.414 7  92352438.04444  22553399.078                    22553403.340
        46.000          29.500
 121658358.934 7  94798781.69044  23150824.273                    23150828.344
        43.200          28.600
 114405311.077 8  89147063.13745  21770615.063                    21770619.508
        49.300          35.500
 127034968.612 7  98988338.64544  24173962.484                    24173969.383
        42.600          27.100
 107772396.497 8  83978545.54047  20508405.445                    20508412.039
        52.200          44.600
 114667773.288 8  89351576.44346  21820561.102                    21820564.813
        51.200          39.400
 128092163.499 7  99812115.69944  24375132.719                    24375138.445
        42.400          25.400
 107783548.325 8  83987215.71247  20510533.141                    20510537.617
        49.900          43.700
 128520461.415 6 100145846.69043  24456648.242                    24456651.699
        40.900          22.900
 18  2 20 10 30 30.0000000  0  9G28G20G13G09G30G07G15G05G02
 118443102.740 7  92293359.36045  22538971.242                    22538975.914
        45.800          30.200
 121566678.673 7  94727342.54144  23133378.289                    23133382.371
        43.400          29.400
 114332950.229 8  89090678.06845  21756845.484                    21756849.766
        48.800          35.400
 127130460.419 6  99062747.81443  24192132.898                    24192139.961
        37.500          23.600
 107801522.078 8  84001240.79447  20513947.773                    20513954.309
        52.100          44.500
 114735821.216 8  89404600.79446  21833510.008                    21833514.141
        50.300          38.800
 127991968.217 7  99734041.50944  24356066.195                    24356071.656
        44.100          26.500
 107793146.939 8  83994695.14847  20512360.055                    20512364.535
        51.400          43.000
 128612238.479 6 100217361.18343  24474112.711                    24474116.145
        39.600          23.000
 18  2 20 10 31  0.0000000  0  9G28G20G13G09G30G07G15G05G02
 118367637.062 7  92234554.96645  22524610.695                    22524615.637
        46.000          30.600
 121475304.630 7  94656142.00244  23115990.125                    23115994.484
        43.200          28.900
 114260818.321 8  89034471.38846  21743119.414                    21743123.984
        49.700          36.800
 127226039.942 7  99137225.30144  24210321.969                    24210329.152
        42.000          26.400
 107831117.246 8  84024301.96947  20519579.492                    20519586.219
        52.800          44.500
 114804168.542 8  89457858.42346  21846515.938                    21846519.926
        49.800          38.100
 127891842.588 7  99656021.58944  24337012.813                    24337018.652
        43.800          26.400
 107803319.066 8  84002621.47247  20514295.719                    20514300.063
        51.600          42.800
 128704077.911 6 100288924.32643  24491588.844                    24491592.418
        39.900          22.300
 18  2 20 10 31 30.0000000  0  9G28G20G13G09G30G07G15G05G02
 118292526.280 7  92176027.09445  22510317.555                    22510322.242
        45.600          31.500
 121384239.298 7  94585182.02944  23098661.344                    23098665.004
        43.400          29.300
 114188916.726 8  88978444.18846  21729437.086                    21729441.039
        49.000          36.600
 127321706.691 7  99211770.70343  24228527.031                    24228534.281
        42.700          22.500
 107861180.921 8  84047728.20347  20525300.883                    20525306.742
        53.000          44.400
 114872813.510 8  89511347.98546  21859578.906                    21859583.066
        50.800          38.200
 127791787.913 7  99578056.93844  24317973.656                    24317977.770
        43.500          24.900
 107814065.104 8  84010995.00247  20516340.297                    20516344.766
        52.200          43.200
 128795976.481 6 100360533.50943  24509077.086                    24509080.566
        40.000          21.800
 18  2 20 10 32  0.0000000  0  9G28G20G13G09G30G07G15G05G02
 118217772.992 7  92117777.79645  22496092.508                    22496097.516
        44.800          31.100
 121293485.783 7  94514465.00944  23081391.453                    23081395.137
        43.800          29.700
 114117246.364 8  88922597.16746  21715798.703                    21715802.719
        49.900          37.200
 127417459.825 6  99286383.53343  24246746.258                    24246754.656
        38.800          23.600
 107891711.602 8  84071518.34447  20531110.547                    20531116.828
        52.700          43.900
 114941754.220 8  89565068.01546  21872697.648                    21872702.070
        50.300          38.800
 127691805.236 7  99500148.41044  24298947.063                    24298951.965
        44.300          25.700
 107825384.892 8  84019815.61347  20518494.570                    20518499.180
        50.900          43.300
 128887931.686 6 100432186.85243  24526575.867                    24526579.082
        40.100          22.600
 18  2 20 10 32 30.0000000  0  9G28G20G13G09G30G07G15G05G02
 118143379.573 7  92059808.92645  22481935.859                    22481940.508
        45.700          31.800
 121203046.063 7  94443992.52344  23064181.305                    23064185.199
        43.600          28.800
 114045807.884 8  88866930.83146  21702204.266                    21702208.738
        49.900          37.500
 127513298.440 7  99361062.88544  24264986.820                    24264992.613
        44.500          26.900
 107922707.687 8  84095671.13647  20537008.734                    20537014.934
        52.900          44.700
 115010988.399 8  89619016.70946  21885872.406                    21885876.805
        48.500          38.300
 127591895.367 7  99422296.58044  24279935.023                    24279939.891
        44.100          27.200
 107837278.120 8  84029083.05847  20520757.617                    20520762.191
        50.600          42.600
 128979940.355 6 100503881.86043  24544084.844                    24544087.723
        40.100          22.000
 18  2 20 10 33  0.0000000  0  9G28G20G13G09G30G07G15G05G02
 118069348.431 7  92002122.33445  22467848.453                    22467853.535
        46.100          31.500
 121112922.630 7  94373766.49445  23047031.414                    23047035.188
        42.500          30.600
 113974602.465 8  88811446.11346  21688654.570                    21688658.855
        50.300          37.100
 127609221.859 6  99435808.29644  24283237.914                    24283247.281
        40.700          25.900
 107954167.817 8  84120185.51647  20542995.383                    20543001.703
        53.200          44.000
 115080514.723 8  89673193.04146  21899102.906                    21899106.980
        49.200          38.700
 127492059.605 7  99344502.52044  24260936.680                    24260941.781
        42.700          26.400
 107849745.153 8  84038797.61747  20523130.477                    20523134.859
        51.100          43.200
 129071999.904 6 100575616.50343  24561602.391                    24561606.391
        39.800          21.500
 18  2 20 10 33 30.0000000  0  8G28G20G13G09G30G07G15G05
 117995682.611 7  91944720.41745  22453830.438                    22453835.074
        46.100          31.400
 121023118.710 7  94303789.42045  23029942.398                    23029945.629
        43.200          30.200
 113903631.700 8  88756144.23846  21675148.930                    21675153.527
        49.800          37.600
 127705229.877 7  99510619.64344  24301508.367                    24301516.785
        42.600          26.100
 107986091.056 8  84145060.76147  20549070.102                    20549076.895
        52.100          43.800
 115150331.399 8  89727595.62846  21912388.570                    21912392.707
        50.800          38.200
 127392299.751 7  99266767.60244  24241952.891                    24241957.852
        43.000          24.600
 107862786.510 8  84048959.71247  20525612.266                    20525616.461
        50.900          42.900
 18  2 20 10 34  0.0000000  0  8G28G20G13G09G30G07G15G05
 117922384.390 7  91887604.93145  22439882.063                    22439886.945
        45.200          31.800
 120933636.574 7  94234063.09744  23012914.313                    23012918.004
        43.000          29.700
 113832896.057 8  88701025.57646  21661688.039                    21661692.613
        49.700          38.000
 127801321.534 6  99585496.17244  24319794.719                    24319802.066
        41.400          24.900
 108018475.752 8  84170295.58847  20555233.039                    20555239.641
        51.900          44.300
 115220437.038 8  89782223.38746  21925728.773                    21925733.453
        51.600          38.100
 127292616.221 7  99189092.14444  24222983.578                    24222988.699
        44.100          25.300
 107876401.963 8  84059569.14447  20528202.805                    20528207.512
        52.800          43.100
 18  2 20 10 34 30.0000000  0  8G28G20G13G09G30G07G15G05
 117849456.295 7  91830777.85945  22426003.953                    22426008.734
        44.700          31.900
 120844478.489 7  94164589.26845  22995948.313                    22995951.617
        43.700          30.500
 113762396.683 8  88646091.01946  21648272.688                    21648276.871
        50.300          36.700
 127897496.085 6  99660437.32744  24338095.234                    24338103.754
        41.700          24.800
 108051320.485 8  84195888.88047  20561482.734                    20561489.227
        52.100          43.700
 115290829.085 8  89837074.31646  21939123.922                    21939128.672
        51.700          37.700
 127193010.189 7  99111477.09043  24204028.961                    24204034.008
        43.200          23.000
 107890591.336 8  84070625.79247  20530903.023                    20530907.293
        52.300          43.200
 18  2 20 10 35  0.0000000  0  8G28G20G13G09G30G07G15G05
 117776900.554 7  91774240.95745  22412197.109                    22412201.574
        45.200          31.700
 120755647.238 7  94095370.12944  22979044.414                    22979047.766
        43.100          29.400
 113692133.983 8  88591340.87946  21634902.289                    21634906.539
        50.000          37.600
 127993752.274 7  99735442.01644  24356413.867                    24356421.199
        42.300          27.500
 108084623.198 8  84221839.04847  20567820.273                    20567827.191
        52.300          43.700
 115361505.407 8  89892146.73846  21952573.836                    21952577.758
        50.900          37.900
 127093482.318 7  99033922.92644  24185089.297                    24185093.754
        42.800          25.900
 107905353.686 8  84082128.91647  20533712.016                    20533716.410
        52.300          43.100
 18  2 20 10 35 30.0000000  0  8G28G20G13G09G30G07G15G05
 117704719.906 7  91717996.31545  22398462.031                    22398466.004
        45.100          31.500
 120667145.415 7  94026407.67844  22962202.594                    22962206.465
        43.000          29.800
 113622109.372 8  88536776.25546  21621577.188                    21621580.801
        49.800          36.400
 128090089.909 6  99810510.24644  24374744.102                    24374753.973
        39.900          25.500
 108118383.029 8  84248145.40847  20574244.305                    20574250.926
        52.300          43.900
 115432464.916 8  89947439.85446  21966077.250                    21966081.098
        51.700          38.300
 126994033.559 7  98956430.38543  24166165.055                    24166169.883
        43.200          22.500
 107920690.057 8  84094079.32347  20536630.727                    20536634.750
        51.300          42.600
 18  2 20 10 36  0.0000000  0  8G28G20G13G09G30G07G15G05
 117632916.700 7  91662045.79445  22384798.313                    22384802.508
        46.000          32.100
 120578975.620 7  93957703.95444  22945424.086                    22945428.773
        42.800          29.800
 113552323.815 8  88482397.91046  21608297.414                    21608301.262
        49.300          36.300
 128186508.157 7  99885641.21744  24393093.648                    24393101.535
        42.200          25.100
 108152598.266 8  84274806.63747  20580755.391                    20580762.352
        52.100          44.300
 115503705.322 8  90002951.84546  21979633.492                    21979637.875
        52.000          38.000
 126894665.661 7  98879000.90043  24147255.555                    24147260.496
        42.500          23.200
 107936599.960 8  84106476.64547  20539658.188                    20539662.543
        51.600          42.600
 18  2 20 10 36 30.0000000  0  8G28G20G13G09G30G07G15G05
 117561493.409 7  91606391.31645  22371206.727                    22371210.707
        45.400          31.800
 120491140.217 7  93889260.80544  22928710.023                    22928713.883
        42.300          29.300
 113482778.065 8  88428206.42046  21595062.688                    21595067.031
        49.200          36.700
 128283006.066 6  99960834.34444  24411455.680                    24411464.207
        41.400          26.500
 108187267.400 8  84301821.54847  20587352.398                    20587359.516
        52.700          44.400
 115575224.942 8  90058681.39646  21993243.406                    21993247.375
        52.000          37.800
 126795379.818 7  98801635.33043  24128362.336                    24128367.242
        42.700          22.800
 107953083.240 8  84119320.74947  20542794.883                    20542798.859
        52.600          42.800
