     2.11           OBSERVATION DATA    G (GPS)             RINEX VERSION / TYPE
teqc  2016Nov7                          20180328 12:23:34UTCPGM / RUN BY / DATE
Linux 2.4.21-27.ELsmp|Opteron|gcc|Linux x86_64|=+           COMMENT
teqc  2016Nov7                          20180328 12:23:32UTCCOMMENT
     2.11           OBSERVATION DATA    M (MIXED)           COMMENT
teqc  2016Nov7                          20180328 12:23:29UTCCOMMENT
teqc  2016Nov7      IGN-RGP             20180220 09:11:31UTCCOMMENT
teqc  2015Jun23     IGN-RGP             20180220 09:04:12UTCCOMMENT
Linux2.4.20-8|i386|gcc|Win32-MinGW32|=                      COMMENT
   0.000      (antenna height)                              COMMENT
 +49.05310303 (latitude)                                    COMMENT
  +2.53355530 (longitude)                                   COMMENT
0164.566      (elevation)                                   COMMENT
BIT 2 OF LLI FLAGS DATA COLLECTED UNDER A/S CONDITION       COMMENT
19782M001 (COGO code)                                       COMMENT
SXJ2                                                        MARKER NAME
19782M001                                                   MARKER NUMBER
Automatic           GIE COOP&TECH                           OBSERVER / AGENCY
5010K65924          TRIMBLE NETR5       4.41                REC # / TYPE / VERS
1441009133          TRM55971.00     NONE                    ANT # / TYPE
  4183990.1470   185132.0450  4794555.4040                  APPROX POSITION XYZ
        1.2500        0.0000        0.0000                  ANTENNA: DELTA H/E/N
     1     1                                                WAVELENGTH FACT L1/2
     9    L1    L2    C1    P1    P2    D1    D2    S1    S2# / TYPES OF OBSERV
    30.0000                                                 INTERVAL
    18                                                      LEAP SECONDS
 SNR is mapped to RINEX snr flag value [0-9]                COMMENT
  L1 & L2: min(max(int(snr_dBHz/6), 0), 9)                  COMMENT
teqc_2016 edited: GLONASS # 25 - 30 excluded                COMMENT
Forced Modulo Decimation to 30 seconds                      COMMENT
teqc_2016 edited: all GLONASS satellites excluded           COMMENT
teqc_2016 edited: all SBAS satellites excluded              COMMENT
teqc_2016 edited: all Galileo satellites excluded           COMMENT
  2018     2    20     8     0    0.0000000     GPS         TIME OF FIRST OBS
                                                            END OF HEADER
 18  2 20  8  0  0.0000000  0  8G07G05G23G09G16G30G02G06
 114161928.218 8  88957387.37346  21724296.813                    21724300.840
      2353.914                          50.800          39.800
 125004081.274 7  97405815.30144  23787492.492                    23787496.406
      3300.250                          43.900          29.100
 118125670.946 8  92046027.16745  22478575.750                    22478577.098
     -2500.910                          49.400          35.700
 106213895.274 8  82764136.53947  20211835.852                    20211841.930
      -966.195                          53.300          46.500
 127506301.941 6  99355616.47143  24263651.211                    24263656.172
      1000.352                          38.400          21.800
 121498305.569 7  94674032.84045  23120358.047                    23120365.672
      3503.172                          46.300          34.500
 115268224.697 7  89819424.88246  21934821.734                    21934823.664
       973.348                          47.300          38.200
 110996141.025 8  86490560.55447  21121872.414                    21121880.234
     -1790.672                          49.900          42.800
 18  2 20  8  0 30.0000000  0  8G07G05G23G09G16G30G02G06
 114091514.338 8  88902519.42746  21710897.672                    21710901.695
      2340.277        1823.792          51.300          40.600
 124905122.696 7  97328704.73344  23768661.195                    23768664.871
      3297.090        2569.128          44.100          29.500
 118200793.199 8  92104564.00045  22492870.492                    22492873.281
     -2507.168       -1953.594          49.100          35.900
 106243076.888 8  82786875.46247  20217389.023                    20217394.965
      -979.098        -762.850          53.300          46.500
 127476577.884 6  99332454.87143  24257994.766                    24257999.414
       981.414         764.974          41.000          22.200
 121393310.791 7  94592218.73145  23100378.969                    23100386.078
      3496.457        2724.588          47.300          33.700
 115239284.883 7  89796874.36846  21929314.828                    21929316.445
       955.883         745.089          47.300          38.300
 111050127.928 8  86532628.25047  21132146.133                    21132153.547
     -1808.465       -1408.978          50.000          43.000
 18  2 20  8  1  0.0000000  0  8G07G05G23G09G16G30G02G06
 114021509.532 8  88847970.24346  21697576.195                    21697580.242
      2326.781        1813.174          52.300          40.200
 124806260.890 7  97251669.56144  23749848.391                    23749852.875
      3293.777        2566.609          45.100          29.400
 118276102.990 8  92163246.95145  22507200.820                    22507203.348
     -2513.391       -1958.420          48.200          34.000
 106272646.427 8  82809916.64447  20223015.875                    20223022.117
      -992.082        -772.894          53.000          46.700
 127447417.381 6  99309732.36143  24252445.961                    24252449.973
       962.613         750.345          39.100          22.200
 121288518.575 8  94510562.48245  23080437.039                    23080444.605
      3489.711        2719.328          48.000          33.800
 115210870.916 7  89774733.60746  21923907.797                    21923909.238
       938.406         731.433          46.300          37.900
 111104648.759 8  86575111.99847  21142520.852                    21142528.367
     -1826.207       -1422.799          50.800          42.900
 18  2 20  8  1 30.0000000  0  8G07G05G23G09G16G30G02G06
 113951916.390 8  88793741.84046  21684332.648                    21684337.227
      2312.785        1802.424          52.500          40.300
 124707497.445 7  97174711.02144  23731054.164                    23731058.137
      3290.324        2564.018          45.600          29.900
 118351599.418 8  92222075.29245  22521568.000                    22521571.742
     -2519.676       -1963.279          49.200          35.200
 106302603.119 8  82833259.51847  20228716.703                    20228722.875
     -1005.051        -782.950          52.900          47.100
 127418822.525 6  99287450.68743  24247004.352                    24247007.723
       943.555         735.597          37.700          22.300
 121183931.890 7  94429066.38345  23060534.422                    23060542.457
      3482.633        2713.935          47.600          33.900
 115182984.384 7  89753003.83946  21918600.805                    21918602.625
       920.641         717.689          45.400          37.900
 111159702.117 8  86618010.70947  21152996.820                    21153004.375
     -1844.051       -1436.626          50.700          42.100
 18  2 20  8  2  0.0000000  0  8G07G05G23G09G16G30G02G06
 113882736.174 8  88739835.20246  21671168.297                    21671172.520
      2299.082        1791.674          52.100          39.100
 124608833.735 7  97097830.20744  23712278.594                    23712283.211
      3287.063        2561.420          45.100          28.900
 118427281.000 8  92281047.92646  22535970.422                    22535972.668
     -2525.879       -1968.084          49.700          36.000
 106332945.519 8  82856902.94747  20234490.297                    20234497.074
     -1017.871        -792.966          53.500          46.400
 127390794.918 6  99265611.00643  24241671.125                    24241674.582
       924.715         720.839          39.200          22.000
 121079552.828 7  94347732.07745  23040672.125                    23040679.566
      3475.793        2708.513          47.500          34.500
 115155625.554 7  89731685.25546  21913394.602                    21913396.414
       903.059         703.976          47.200          38.100
 111215285.869 8  86661322.71747  21163573.891                    21163581.453
     -1861.738       -1450.387          50.500          42.200
 18  2 20  8  2 30.0000000  0  8G07G05G23G09G16G30G02G06
 113813970.788 8  88686251.79946  21658082.633                    21658087.203
      2285.398        1780.891          51.200          39.600
 124510271.992 7  97021028.82944  23693522.734                    23693527.375
      3283.730        2558.774          45.000          28.700
 118503146.258 8  92340163.65645  22550406.758                    22550409.875
     -2531.875       -1972.826          50.000          35.800
 106363672.314 8  82880845.89447  20240337.469                    20240343.918
     -1030.555        -802.913          53.500          47.000
 127363335.879 6  99244214.35243  24236446.133                    24236448.914
       906.012         706.078          37.600          21.500
 120975383.869 7  94266561.49145  23020849.391                    23020857.086
      3468.844        2703.032          46.900          34.600
 115128795.890 7  89710778.99646  21908289.406                    21908291.082
       885.559         690.235          46.700          37.800
 111271398.128 8  86705046.53147  21174252.141                    21174259.816
     -1879.129       -1464.078          50.300          42.100
 18  2 20  8  3  0.0000000  0  8G07G05G23G09G16G30G02G06
 113745622.553 8  88632993.44146  21645076.430                    21645080.922
      2271.359        1770.044          52.500          39.700
 124411813.681 7  96944308.05144  23674787.219                    23674791.746
      3280.258        2556.058          45.500          28.300
 118579194.430 8  92399421.97945  22564878.492                    22564880.563
     -2537.918       -1977.546          49.900          35.400
 106394782.723 8  82905087.76347  20246257.688                    20246263.902
     -1043.348        -812.858          52.800          46.300
 127336447.293 6  99223262.20443  24231328.984                    24231332.855
       886.816         691.264          39.600          21.800
 120871427.866 7  94185556.83345  23001067.523                    23001074.996
      3461.695        2697.479          47.200          33.900
 115102496.922 8  89690286.28846  21903284.648                    21903286.383
       867.777         676.435          48.800          38.600
 111328037.389 8  86749181.01047  21185029.891                    21185037.348
     -1896.754       -1477.739          50.200          42.100
 18  2 20  8  3 30.0000000  0  8G07G05G23G09G16G30G02G06
 113677693.091 8  88580061.40646  21632149.781                    21632153.965
      2257.273        1759.120          52.300          40.100
 124313460.238 7  96867669.01144  23656070.945                    23656076.055
      3276.605        2553.283          45.400          29.500
 118655424.339 8  92458821.85146  22579384.602                    22579387.008
     -2544.023       -1982.265          50.300          36.100
 106426275.603 8  82929627.64947  20252250.664                    20252256.879
     -1056.121        -822.792          52.300          46.500
 127310130.479 6  99202755.59043  24226321.219                    24226325.176
       867.660         676.372          39.800          22.500
 120767687.278 7  94104720.04345  22981326.109                    22981333.664
      3454.367        2691.842          47.900          34.000
 115076729.177 7  89670207.51346  21898381.305                    21898383.086
       850.098         662.611          47.200          38.400
 111385201.852 8  86793724.72947  21195908.352                    21195915.848
     -1914.187       -1491.370          49.800          42.000
 18  2 20  8  4  0.0000000  0  8G07G05G23G09G16G30G02G06
 113610184.323 8  88527457.18146  21619302.953                    21619307.566
      2243.223        1748.143          51.800          40.400
 124215212.582 7  96791112.39044  23637374.672                    23637380.082
      3273.035        2550.516          44.900          29.400
 118731834.585 8  92518362.31145  22593924.289                    22593927.117
     -2550.145       -1986.969          49.400          35.100
 106458149.811 8  82954464.69447  20258316.078                    20258322.277
     -1068.875        -832.704          53.400          46.500
 127284386.964 6  99182695.70943  24221422.375                    24221427.000
       848.504         661.438          39.300          22.800
 120664164.625 7  94024053.05445  22961626.180                    22961633.676
      3447.043        2686.120          46.900          34.100
 115051493.890 8  89650543.64746  21893579.078                    21893580.746
       832.234         648.748          48.700          38.000
 111442889.657 8  86838676.26847  21206885.984                    21206893.938
     -1931.703       -1504.960          50.900          42.800
 18  2 20  8  4 30.0000000  0  8G07G05G23G09G16G30G02G06
 113543098.137 8  88475182.23846  21606537.078                    21606541.379
      2229.293        1737.203          52.200          40.200
 124117072.502 7  96714639.60744  23618699.703                    23618704.742
      3269.566        2547.733          44.700          29.000
 118808424.103 8  92578042.41045  22608498.617                    22608501.832
     -2555.840       -1991.567          49.600          34.800
 106490404.181 8  82979597.96047  20264454.234                    20264460.027
     -1081.352        -842.510          51.900          46.400
 127259218.605 6  99163084.01243  24216632.977                    24216637.695
       829.453         646.501          39.000          22.600
 120560862.483 7  93943557.93645  22941968.180                    22941976.367
      3439.887        2680.413          46.700          34.200
 115026792.068 7  89631295.45746  21888878.563                    21888879.645
       814.527         634.934          47.900          37.900
 111501098.880 8  86884034.08247  21217962.625                    21217970.480
     -1948.887       -1518.432          49.000          42.200
 18  2 20  8  5  0.0000000  0  8G07G05G23G09G16G30G02G06
 113476435.602 8  88423237.40346  21593851.695                    21593856.164
      2215.047        1726.163          52.500          40.100
 124019041.205 7  96638251.60745  23600044.398                    23600049.629
      3265.824        2544.888          46.500          30.100
 118885190.811 8  92637860.61445  22623107.336                    22623109.684
     -2561.836       -1996.162          49.800          34.800
 106523036.835 8  83005025.99147  20270663.508                    20270669.730
     -1094.078        -852.342          52.900          47.000
 127234626.023 6  99143920.96043  24211953.547                    24211958.066
       810.125         631.524          38.100          22.500
 120457782.628 7  93863235.98845  22922353.609                    22922360.754
      3432.301        2674.602          47.800          33.800
 115002624.075 7  89612463.25146  21884279.594                    21884281.270
       796.719         621.042          46.800          38.200
 111559826.936 8  86929796.19247  21229138.203                    21229145.977
     -1966.195       -1531.887          51.000          42.600
 18  2 20  8  5 30.0000000  0  8G07G05G23G09G16G30G02G06
 113410199.086 8  88371624.53546  21581247.289                    21581251.563
      2200.738        1715.066          52.100          40.400
 123921120.742 7  96561949.94545  23581411.102                    23581416.406
      3262.238        2542.002          45.700          30.700
 118962134.293 8  92697816.52645  22637749.070                    22637750.516
     -2567.746       -2000.747          48.700          33.800
 106556047.164 8  83030748.32447  20276945.477                    20276951.352
     -1106.594        -862.134          53.900          46.300
 127210611.130 6  99125208.07843  24207383.289                    24207388.141
       790.855         616.486          38.800          22.200
 120354928.149 8  93783089.66645  22902780.742                    22902788.484
      3424.684        2668.691          48.100          35.100
 114978991.447 8  89594048.19646  21879782.523                    21879784.418
       778.789         607.092          48.300          37.600
 111619072.497 8  86975961.53047  21240412.625                    21240420.199
     -1983.523       -1545.336          49.100          42.300
 18  2 20  8  6  0.0000000  0  8G07G05G23G09G16G30G02G06
 113344390.500 8  88320345.11846  21568724.273                    21568728.578
      2186.527        1703.941          51.500          40.000
 123823312.310 7  96485735.57745  23562799.133                    23562804.090
      3258.305        2539.042          44.900          30.200
 119039253.601 8  92757909.49845  22652424.781                    22652427.535
     -2573.523       -2005.287          48.800          34.800
 106589434.277 8  83056764.25547  20283298.719                    20283304.668
     -1119.195        -871.907          52.100          46.100
 127187175.611 6  99106946.64843  24202923.297                    24202927.930
       771.590         601.434          40.400          21.800
 120252301.764 8  93703121.06645  22883251.734                    22883258.770
      3417.004        2662.748          49.600          35.600
 114955895.497 7  89576051.34846  21875387.266                    21875388.902
       761.051         593.170          47.400          37.900
 111678833.842 8  87022528.79247  21251784.359                    21251791.984
     -2000.664       -1558.692          50.300          42.300
 18  2 20  8  6 30.0000000  0  8G07G05G23G09G16G30G02G06
 113279011.685 8  88269400.59946  21556283.008                    21556287.324
      2172.109        1692.751          51.400          39.900
 123725618.281 7  96409610.34745  23544208.195                    23544213.305
      3254.629        2536.086          46.200          30.700
 119116547.505 8  92818138.46845  22667133.477                    22667135.418
     -2579.324       -2009.801          49.800          34.100
 106623196.907 8  83083072.79947  20289723.555                    20289729.938
     -1131.648        -881.648          52.700          46.600
 127164320.906 6  99089137.75843  24198575.016                    24198578.418
       752.133         586.329          39.000          22.900
 120149905.920 8  93623332.10045  22863766.063                    22863773.770
      3409.328        2656.729          50.200          35.700
 114933336.742 8  89558473.08346  21871094.859                    21871096.477
       742.961         579.190          48.200          37.900
 111739109.000 8  87069496.44047  21263254.945                    21263262.273
     -2017.715       -1572.011          49.000          42.300
 18  2 20  8  7  0.0000000  0  8G07G05G23G09G16G30G02G06
 113214064.275 8  88218792.23546  21543923.836                    21543928.117
      2157.738        1681.529          51.600          39.900
 123628039.888 7  96333575.24345  23525639.516                    23525644.992
      3250.691        2533.062          45.600          30.900
 119194014.692 8  92878502.48445  22681874.648                    22681877.832
     -2585.090       -2014.265          48.900          34.300
 106657334.064 8  83109673.18447  20296219.703                    20296225.352
     -1144.094        -891.344          53.000          46.500
 127142048.394 6  99071782.55343  24194335.469                    24194339.914
       732.797         571.198          40.500          22.900
 120047743.276 8  93543724.84845  22844325.250                    22844332.125
      3401.598        2650.657          49.900          35.900
 114911316.411 8  89541314.37646  21866904.516                    21866905.660
       725.063         565.210          48.400          38.000
 111799896.104 8  87116862.98447  21274821.945                    21274829.688
     -2034.723       -1585.267          50.300          42.400
 18  2 20  8  7 30.0000000  0  8G07G05G23G09G16G30G02G06
 113149550.182 8  88168521.52746  21531647.227                    21531651.723
      2143.227        1670.215          51.000          40.400
 123530578.874 7  96257631.58545  23507093.773                    23507098.535
      3246.695        2529.955          44.300          31.600
 119271653.751 8  92939000.43045  22696648.695                    22696650.629
     -2590.773       -2018.760          48.600          34.100
 106691844.395 8  83136564.34447  20302786.617                    20302792.820
     -1156.535        -901.058          53.700          46.000
 127120359.475 7  99054882.09143  24190209.094                    24190213.016
       713.148         556.015          42.100          22.000
 119945816.177 8  93464301.13446  22824929.328                    22824936.410
      3393.547        2644.473          49.400          36.200
 114889835.156 8  89524575.73446  21862816.531                    21862817.809
       707.117         551.197          50.100          38.100
 111861193.069 8  87164626.81747  21286486.633                    21286494.570
     -2051.699       -1598.520          50.400          43.000
 18  2 20  8  8  0.0000000  0  8G07G05G23G09G16G30G02G06
 113085471.447 8  88118590.06846  21519453.492                    21519457.902
      2128.668        1658.877          52.900          40.500
 123433236.611 7  96181780.45945  23488570.305                    23488574.934
      3242.723        2526.839          46.400          30.100
 119349463.902 8  92999631.68345  22711455.891                    22711458.969
     -2596.551       -2023.196          49.500          35.000
 106726726.769 8  83163745.40247  20309424.344                    20309430.785
     -1168.840        -910.704          53.500          46.200
 127099255.298 7  99038437.29243  24186193.102                    24186197.016
       693.668         540.793          42.600          22.800
 119844127.128 8  93385062.93246  22805578.750                    22805585.883
      3385.629        2638.249          49.200          36.700
 114868894.038 8  89508257.97246  21858831.938                    21858833.410
       689.113         537.124          48.800          38.600
 111922997.918 8  87212786.40647  21298247.727                    21298255.059
     -2068.578       -1611.691          50.300          42.300
 18  2 20  8  8 30.0000000  0  8G07G05G23G09G16G30G02G06
 113021829.562 8  88068999.00546  21507343.156                    21507347.484
      2114.047        1647.516          51.500          40.100
 123336014.139 7  96106022.68545  23470069.125                    23470074.121
      3238.688        2523.726          45.500          31.000
 119427444.530 8  93060395.78945  22726295.172                    22726297.238
     -2602.176       -2027.611          48.400          34.200
 106761980.337 8  83191215.71247  20316132.961                    20316139.461
     -1181.379        -920.350          52.500          46.300
 127078737.510 7  99022449.40243  24182288.742                    24182292.695
       673.984         525.551          42.100          23.200
 119742678.986 8  93306012.43946  22786273.242                    22786280.813
      3377.457        2631.955          48.200          37.000
 114848494.411 8  89492362.15646  21854949.938                    21854951.246
       670.941         523.053          49.100          38.100
 111985308.949 8  87261340.42547  21310105.195                    21310112.664
     -2085.453       -1624.823          49.400          42.000
 18  2 20  8  9  0.0000000  0  8G07G05G23G09G16G30G02G06
 112958626.465 8  88019749.84446  21495315.813                    21495320.270
      2099.473        1636.119          52.000          39.400
 123238913.988 7  96030360.23245  23451592.023                    23451596.516
      3234.559        2520.520          46.400          30.400
 119505593.870 8  93121291.36945  22741165.906                    22741169.465
     -2607.793       -2031.966          48.100          33.900
 106797603.766 8  83218974.21247  20322911.844                    20322918.371
     -1193.504        -929.907          53.700          46.000
 127058807.239 6  99006919.35343  24178496.219                    24178500.305
       654.543         510.265          41.700          23.300
 119641474.094 7  93227151.52645  22767014.289                    22767022.590
      3369.430        2625.617          47.700          35.900
 114828636.846 8  89476888.72546  21851170.883                    21851172.723
       652.883         508.973          49.400          37.600
 112048123.997 8  87310287.17747  21322058.633                    21322066.152
     -2102.176       -1637.853          50.000          42.400
 18  2 20  8  9 30.0000000  0  8G07G05G23G09G16G30G02G06
 112895863.395 8  87970843.55746  21483372.430                    21483376.738
      2084.734        1624.669          52.800          39.900
 123141937.969 7  95954794.52445  23433137.969                    23433142.465
      3230.488        2517.281          47.500          31.400
 119583910.577 7  93182317.34945  22756069.297                    22756071.348
     -2613.340       -2036.301          47.300          33.300
 106833595.757 8  83247019.91547  20329761.000                    20329767.223
     -1205.918        -939.479          53.800          46.400
 127039465.588 6  98991847.91544  24174815.656                    24174819.875
       634.855         494.978          40.600          25.100
 119540514.752 7  93148481.93445  22747802.305                    22747810.066
      3361.215        2619.211          47.900          35.800
 114809321.717 8  89461837.95746  21847495.422                    21847496.820
       634.816         494.872          49.100          38.000
 112111440.963 8  87359625.05047  21334107.367                    21334114.863
     -2118.957       -1650.890          50.700          42.500
 18  2 20  8 10  0.0000000  0  8G07G05G23G09G16G30G02G06
 112833542.195 8  87922281.59146  21471513.180                    21471517.098
      2070.027        1613.185          51.800          40.500
 123045086.678 7  95879325.99645  23414707.977                    23414712.027
      3226.320        2514.042          47.400          32.100
 119662393.475 7  93243472.83545  22771003.977                    22771007.133
     -2618.859       -2040.590          47.800          33.900
 106869954.976 8  83275351.77247  20336679.773                    20336685.832
     -1218.035        -948.980          53.400          46.400
 127020713.912 6  98977236.24843  24171246.641                    24171251.500
       615.164         479.629          40.500          22.600
 119439803.379 7  93070005.56945  22728637.352                    22728646.168
      3352.926        2612.758          47.300          35.800
 114790549.894 8  89447210.55046  21843923.570                    21843924.719
       616.707         480.758          49.000          37.800
 112175257.585 8  87409352.26747  21346250.922                    21346258.969
     -2135.570       -1663.833          51.100          42.200
 18  2 20  8 10 30.0000000  0  8G07G05G23G09G16G30G02G06
 112771664.513 8  87874065.22146  21459737.930                    21459742.559
      2055.164        1601.622          52.700          40.400
 122948362.130 7  95803956.22545  23396301.547                    23396305.621
      3221.965        2510.701          47.200          30.800
 119741041.697 7  93304757.14145  22785970.203                    22785973.051
     -2624.422       -2044.884          47.900          33.900
 106906680.467 8  83303969.03347  20343668.695                    20343674.711
     -1230.301        -958.504          51.300          46.300
 127002553.428 7  98963085.26143  24167791.172                    24167795.836
       595.500         464.274          42.000          23.900
 119339342.654 8  92991724.49645  22709520.406                    22709528.367
      3344.520        2606.197          48.300          35.900
 114772322.315 8  89433007.23446  21840455.203                    21840456.559
       598.441         466.578          48.600          38.000
 112239571.957 8  87459467.35646  21358490.164                    21358496.633
     -2152.098       -1676.732          48.500          41.700
 18  2 20  8 11  0.0000000  0  8G07G05G23G09G16G30G02G06
 112710232.427 8  87826196.07146  21448047.719                    21448052.270
      2040.309        1590.047          52.000          40.800
 122851765.593 7  95728686.19645  23377920.125                    23377924.184
      3217.719        2507.377          46.700          30.400
 119819854.335 8  93366169.53845  22800968.406                    22800971.152
     -2629.812       -2049.128          49.200          35.200
 106943771.316 8  83332870.99347  20350726.688                    20350733.129
     -1242.461        -967.962          51.900          46.000
 126984985.693 6  98949396.11443  24164448.008                    24164452.879
       575.699         448.858          41.600          22.300
 119239135.367 7  92913640.89845  22690451.828                    22690459.754
      3336.031        2599.603          47.900          35.100
 114754640.125 8  89419228.90446  21837089.719                    21837091.270
       580.313         452.433          49.400          38.300
 112304382.364 7  87509968.95546  21370823.063                    21370830.098
     -2168.641       -1689.579          47.900          41.700
 18  2 20  8 11 30.0000000  0  8G07G05G23G09G16G30G02G06
 112649247.092 8  87778675.03246  21436443.133                    21436447.492
      2025.355        1578.422          52.200          40.600
 122755299.417 7  95653517.76245  23359562.711                    23359566.871
      3213.422        2503.991          46.000          30.200
 119898829.698 7  93427708.76245  22815996.367                    22815999.289
     -2635.246       -2053.331          47.900          33.800
 106981225.849 9  83362056.33247  20357854.180                    20357860.066
     -1254.598        -977.403          54.300          46.300
 126968011.155 6  98936169.22143  24161217.891                    24161222.359
       555.965         433.470          41.500          23.000
 119139183.523 8  92835756.36145  22671431.477                    22671438.758
      3327.324        2592.930          48.900          34.600
 114737503.367 8  89405875.57446  21833829.094                    21833830.621
       562.082         438.255          49.600          38.300
 112369686.066 8  87560854.94346  21383249.875                    21383256.965
     -2185.016       -1702.367          49.100          41.000
 18  2 20  8 12  0.0000000  0  8G07G05G23G09G16G30G02G06
 112588710.485 8  87731503.64746  21424923.211                    21424927.590
      2010.363        1566.728          51.900          40.000
 122658965.303 7  95578452.20945  23341230.727                    23341235.406
      3208.906        2500.500          44.700          30.400
 119977967.003 8  93489374.15445  22831055.961                    22831059.156
     -2640.645       -2057.549          48.000          33.700
 107019043.107 9  83391524.33347  20365050.578                    20365056.469
     -1266.656        -986.818          54.600          46.300
 126951631.180 7  98923405.60944  24158100.781                    24158105.309
       536.172         417.979          42.400          25.300
 119039489.805 7  92758072.93545  22652460.906                    22652467.902
      3318.820        2586.190          47.300          34.800
 114720913.306 8  89392948.25546  21830672.125                    21830673.840
       543.891         424.033          49.800          38.600
 112435481.321 8  87612123.93646  21395770.125                    21395777.570
     -2201.363       -1715.120          50.400          41.600
 18  2 20  8 12 30.0000000  0  8G07G05G23G09G16G30G02G06
 112528624.111 8  87684683.10946  21413488.797                    21413493.250
      1995.375        1555.028          52.200          40.300
 122562764.607 7  95503490.64145  23322924.742                    23322929.012
      3204.453        2497.030          45.800          30.400
 120057265.142 7  93551164.87745  22846145.273                    22846147.773
     -2646.047       -2061.710          47.500          32.100
 107057221.907 9  83421274.03747  20372315.734                    20372321.961
     -1278.684        -996.179          54.000          45.800
 126935847.146 7  98911106.37443  24155097.180                    24155101.359
       516.195         402.494          42.500          22.600
 118940056.686 8  92680592.58645  22633539.430                    22633546.008
      3310.109        2579.385          48.100          35.000
 114704870.536 8  89380447.38246  21827618.992                    21827621.074
       525.609         409.828          49.500          38.200
 112501765.893 8  87663774.21546  21408383.648                    21408390.801
     -2217.672       -1727.810          49.900          41.100
 18  2 20  8 13  0.0000000  0  8G07G05G23G09G16G30G02G06
 112468989.410 8  87638214.52746  21402140.859                    21402145.488
      1980.270        1543.272          52.800          40.400
 122466698.662 7  95428634.04645  23304644.055                    23304648.184
      3199.910        2493.511          46.600          31.400
 120136722.889 8  93613079.96045  22861266.445                    22861268.477
     -2651.273       -2065.829          48.100          33.200
 107095761.042 8  83451304.52647  20379649.563                    20379655.227
     -1290.668       -1005.542          53.300          46.100
 126920659.781 6  98899272.05743  24152207.836                    24152211.383
       496.199         386.980          41.100          22.600
 118840886.623 8  92603317.21745  22614667.969                    22614674.477
      3301.199        2572.526          48.400          35.200
 114689375.702 8  89368373.49246  21824670.609                    21824672.332
       507.363         395.578          49.200          38.300
 112568537.684 8  87715804.15046  21421090.117                    21421097.516
     -2233.937       -1740.436          48.500          41.100
 18  2 20  8 13 30.0000000  0  8G07G05G23G09G16G30G02G06
 112409808.060 8  87592099.20746  21390879.102                    21390883.730
      1965.141        1531.464          52.200          40.600
 122370769.477 7  95353884.03645  23286389.570                    23286393.961
      3195.379        2489.929          47.200          31.700
 120216338.895 8  93675118.39345  22876416.984                    22876417.844
     -2656.492       -2069.939          48.500          32.400
 107134659.178 8  83481614.75647  20387051.547                    20387057.418
     -1302.543       -1014.831          53.000          45.600
 126906070.244 6  98887903.61843  24149430.352                    24149434.289
       476.324         371.428          41.400          22.000
 118741981.977 8  92526248.67646  22595847.180                    22595853.793
      3292.301        2565.580          49.100          36.600
 114674429.462 8  89356727.04846  21821826.445                    21821827.699
       489.051         381.321          49.300          38.000
 112635794.377 8  87768211.95046  21433888.531                    21433895.629
     -2249.926       -1753.012          48.100          40.700
 18  2 20  8 14  0.0000000  0  8G07G05G23G09G16G30G02G06
 112351081.879 8  87546338.56446  21379703.664                    21379708.391
      1949.914        1519.611          51.900          40.500
 122274978.213 7  95279241.50145  23268160.945                    23268165.355
      3190.680        2486.315          43.700          30.700
 120296112.491 7  93737279.62545  22891597.141                    22891599.195
     -2661.742       -2074.021          47.000          32.100
 107173915.396 8  83512204.00347  20394521.742                    20394527.703
     -1314.484       -1024.138          52.100          46.300
 126892079.803 6  98877001.96143  24146768.820                    24146771.676
       456.375         355.846          40.200          21.300
 118643345.400 7  92449389.02046  22577077.195                    22577084.031
      3283.367        2558.592          46.900          36.800
 114660032.512 8  89345508.64346  21819086.594                    21819088.086
       470.719         367.033          49.700          38.400
 112703534.015 7  87820996.06246  21446778.961                    21446786.453
     -2266.113       -1765.551          47.800          40.500
 18  2 20  8 14 30.0000000  0  8G07G05G23G09G16G30G02G06
 112292812.559 8  87500933.92046  21368615.258                    21368619.840
      1934.672        1507.726          52.100          41.100
 122179326.843 7  95204707.96445  23249959.102                    23249963.324
      3185.973        2482.642          46.000          31.000
 120376042.440 7  93799562.69045  22906807.547                    22906808.785
     -2666.934       -2078.062          47.300          32.300
 107213528.437 8  83543071.30847  20402059.719                    20402066.027
     -1326.422       -1033.400          53.500          46.100
 126878689.343 6  98866567.82943  24144220.805                    24144224.090
       436.289         340.254          40.900          21.800
 118544979.395 8  92372740.20646  22558358.891                    22558365.391
      3274.273        2551.519          49.000          36.700
 114646185.790 8  89334718.98046  21816451.742                    21816453.199
       452.379         352.744          48.900          38.300
 112771754.340 8  87874154.71746  21459760.805                    21459767.977
     -2282.012       -1777.995          49.800          40.100
 18  2 20  8 15  0.0000000  0  8G07G05G23G09G16G30G02G06
 112235001.507 8  87455886.36146  21357614.219                    21357619.105
      1919.406        1495.823          52.300          40.900
 122083817.908 7  95130285.42445  23231784.227                    23231788.715
      3181.352        2478.951          45.000          31.200
 120456127.674 7  93861966.74645  22922047.352                    22922049.586
     -2672.082       -2082.070          47.700          34.400
 107253497.193 8  83574215.78247  20409665.766                    20409672.219
     -1338.199       -1042.606          52.500          45.600
 126865899.902 6  98856602.05843  24141786.633                    24141790.391
       416.242         324.621          40.400          21.800
 118446886.459 8  92296304.17746  22539692.234                    22539699.344
      3265.223        2544.425          48.200          37.400
 114632889.341 8  89324358.09946  21813921.531                    21813923.055
       434.055         338.452          48.800          38.300
 112840453.272 7  87927686.31846  21472833.531                    21472840.801
     -2297.930       -1790.387          47.800          40.500
 18  2 20  8 15 30.0000000  0  8G07G05G23G09G16G30G02G06
 112177651.193 8  87411197.83246  21346700.984                    21346705.484
      1904.035        1483.870          52.400          41.200
 121988452.825 7  95055974.96345  23213636.984                    23213641.066
      3176.445        2475.222          43.200          30.900
 120536367.751 7  93924491.44945  22937316.211                    22937318.234
     -2677.156       -2086.033          46.200          33.400
 107293821.327 9  83605637.17147  20417339.414                    20417345.688
     -1349.988       -1051.778          54.800          46.000
 126853713.288 6  98847106.01043  24139467.414                    24139471.156
       396.219         309.014          41.000          20.600
 118349069.845 7  92220083.46346  22521078.281                    22521085.477
      3255.898        2537.243          47.800          37.400
 114620144.851 8  89314427.32846  21811496.563                    21811498.094
       415.707         324.138          48.200          38.300
 112909629.368 8  87981589.72546  21485997.242                    21486004.773
     -2313.758       -1802.705          49.800          40.000
 18  2 20  8 16  0.0000000  0  8G07G05G23G09G16G30G02G06
 112120761.346 8  87366868.09446  21335875.086                    21335879.430
      1888.465        1471.837          52.700          40.300
 121893232.526 7  94981777.34145  23195517.391                    23195521.691
      3171.465        2471.391          47.200          31.000
 120616760.402 7  93987135.06545  22952613.617                    22952617.012
     -2682.410       -2090.043          45.000          32.400
 107334498.045 8  83637333.30747  20425079.719                    20425086.316
     -1361.891       -1060.980          53.500          46.100
 126842128.949 6  98838079.25443  24137263.539                    24137266.938
       375.902         293.315          41.000          21.700
 118251530.511 8  92144078.80746  22502517.086                    22502524.223
      3246.570        2529.970          50.000          37.700
 114607951.695 8  89304926.17246  21809176.188                    21809177.516
       397.141         309.756          48.800          38.100
 112979278.869 8  88035862.02146  21499251.375                    21499259.004
     -2329.609       -1815.024          50.000          40.500
 18  2 20  8 16 30.0000000  0  8G07G05G23G09G16G30G02G06
 112064334.182 8  87322898.89346  21325137.648                    21325141.609
      1873.137        1459.807          52.100          40.600
 121798159.234 7  94907694.25645  23177425.852                    23177429.930
      3166.570        2467.554          47.200          30.900
 120697304.854 7  94049896.91445  22967941.008                    22967943.438
     -2687.395       -2093.981          44.600          30.500
 107375526.779 9  83669303.74147  20432887.195                    20432893.391
     -1373.512       -1070.111          54.100          46.000
 126831148.215 6  98829522.83543  24135173.789                    24135177.637
       355.777         277.616          40.200          21.300
 118154271.499 8  92068292.58046  22484009.445                    22484015.980
      3237.254        2522.655          50.000          37.000
 114596310.520 8  89295855.12646  21806960.617                    21806962.586
       378.746         295.409          48.800          38.800
 113049400.143 8  88090501.94346  21512595.258                    21512602.609
     -2345.297       -1827.261          51.300          40.700
 18  2 20  8 17  0.0000000  0  8G07G05G23G09G16G30G02G06
 112008370.806 8  87279291.08146  21314487.914                    21314492.508
      1857.691        1447.732          52.900          40.900
 121703233.418 7  94833726.08745  23159361.641                    23159365.840
      3161.730        2463.723          44.100          31.400
 120777999.990 7  94112776.22545  22983297.211                    22983299.719
     -2692.359       -2097.880          45.000          30.700
 107416905.994 8  83701547.27447  20440761.555                    20440767.809
     -1385.195       -1079.199          53.700          46.200
 126820771.891 6  98821437.36244  24133199.695                    24133203.129
       335.695         261.918          41.200          24.000
 118057294.895 8  91992726.40246  22465554.695                    22465561.961
      3227.785        2515.288          48.300          37.500
 114585221.842 7  89287214.58846  21804850.844                    21804852.566
       360.313         281.040          47.800          38.900
 113119990.582 8  88145507.45246  21526028.227                    21526035.621
     -2360.855       -1839.406          50.000          41.200
 18  2 20  8 17 30.0000000  0  8G07G05G23G09G16G30G02G06
 111952873.340 8  87236046.33046  21303927.430                    21303931.531
      1842.180        1435.653          52.500          41.300
 121608458.018 7  94759875.14545  23141326.117                    23141330.656
      3156.684        2459.772          43.500          31.100
 120858845.191 7  94175772.44245  22998682.281                    22998684.035
     -2697.285       -2101.735          46.200          32.800
 107458634.911 8  83734063.31547  20448702.023                    20448708.203
     -1396.766       -1088.240          52.800          46.000
 126811000.980 6  98813823.65143  24131340.133                    24131343.859
       315.613         246.187          41.700          22.200
 117960603.586 7  91917382.53646  22447155.672                    22447162.371
      3218.270        2507.880          47.900          37.500
 114574686.730 8  89279005.39946  21802846.070                    21802847.984
       341.941         266.716          48.300          38.300
 113191048.341 8  88200877.11246  21539549.773                    21539557.277
     -2376.453       -1851.498          48.700          40.800
 18  2 20  8 18  0.0000000  0  8G07G05G23G09G16G30G02G06
 111897843.144 8  87193165.68046  21293455.250                    21293459.348
      1826.547        1423.474          52.400          41.100
 121513834.779 7  94686142.73945  23123320.406                    23123324.426
      3151.516        2455.813          46.900          31.300
 120939838.549 7  94238884.14345  23014094.078                    23014097.367
     -2702.293       -2105.574          46.000          33.300
 107500712.105 8  83766850.73147  20456709.164                    20456715.828
     -1408.387       -1097.276          53.900          45.800
 126801836.131 6  98806682.19943  24129595.711                    24129600.273
       295.297         230.427          41.400          22.800
 117864199.757 8  91842262.70346  22428810.188                    22428817.102
      3208.637        2500.359          48.100          37.800
 114564705.018 8  89271227.44846  21800946.781                    21800948.543
       323.543         252.298          48.000          38.300
 113262570.801 8  88256608.87646  21553160.461                    21553167.855
     -2391.754       -1863.550          49.900          40.900
 18  2 20  8 18 30.0000000  0  8G07G05G23G09G16G30G02G06
 111843281.315 8  87150649.99246  21283072.375                    21283076.828
      1810.930        1411.267          52.800          40.800
 121419365.164 7  94612530.05145  23105343.102                    23105347.109
      3146.449        2451.780          47.500          31.000
 121020979.320 7  94302110.67845  23029534.938                    23029537.891
     -2707.078       -2109.421          47.000          32.800
 107543136.353 9  83799908.58247  20464782.211                    20464788.262
     -1419.902       -1106.286          54.900          45.900
 126793278.013 6  98800013.53143  24127967.258                    24127971.480
       275.270         214.632          40.900          21.100
 117768085.831 8  91767368.74346  22410520.219                    22410527.184
      3198.965        2492.792          48.700          37.400
 114555277.605 8  89263881.40046  21799152.609                    21799154.445
       304.996         237.868          48.000          38.800
 113334555.756 8  88312701.02946  21566858.586                    21566865.605
     -2407.164       -1875.534          50.500          40.800
 18  2 20  8 19  0.0000000  0  8G07G05G23G09G16G30G02G06
 111789189.427 8  87108500.48946  21272779.211                    21272783.711
      1795.191        1399.086          52.300          41.300
 121325050.927 7  94539038.43745  23087395.539                    23087399.813
      3141.293        2447.767          47.000          31.600
 121102266.519 7  94365451.31645  23045003.508                    23045006.598
     -2711.969       -2113.170          45.800          33.000
 107585906.468 8  83833235.94147  20472921.039                    20472927.117
     -1431.402       -1115.218          53.500          45.800
 126785327.528 6  98793818.30643  24126454.492                    24126458.277
       254.840         198.899          39.000          22.000
 117672264.226 7  91692702.57346  22392285.828                    22392293.008
      3189.121        2485.209          47.900          37.700
 114546404.453 8  89256967.25146  21797463.984                    21797465.789
       286.508         223.521          48.400          39.000
 113407000.793 8  88369151.69246  21580644.352                    21580651.766
     -2422.457       -1887.432          51.200          40.900
 18  2 20  8 19 30.0000000  0  8G07G05G23G09G16G30G02G06
 111735568.984 8  87066718.34346  21262575.570                    21262579.688
      1779.430        1386.792          53.100          41.200
 121230893.370 7  94465668.90645  23069478.219                    23069482.141
      3135.961        2443.652          46.800          30.400
 121183699.006 7  94428905.17145  23060498.852                    23060502.707
     -2716.883       -2116.978          46.100          31.800
 107629021.262 8  83866831.86847  20481125.648                    20481131.785
     -1442.937       -1124.202          53.800          45.800
 126777985.464 6  98788097.20843  24125057.781                    24125060.926
       234.555         183.036          40.900          22.600
 117576737.421 8  91618266.12146  22374107.984                    22374115.441
      3179.207        2477.461          49.100          38.300
 114538086.159 7  89250485.45646  21795880.969                    21795882.734
       267.938         209.071          47.500          38.400
 113479903.631 8  88425959.07046  21594517.586                    21594524.879
     -2437.797       -1899.329          50.400          41.400
 18  2 20  8 20  0.0000000  0  8G07G05G23G09G16G30G02G06
 111682421.730 8  87025304.91547  21252461.672                    21252466.441
      1763.711        1374.506          52.800          42.100
 121136894.120 7  94392422.72945  23051590.945                    23051594.605
      3130.680        2439.553          47.000          31.400
 121265276.208 7  94492471.77845  23076022.828                    23076025.863
     -2721.621       -2120.681          45.100          31.900
 107672479.746 9  83900695.62447  20489395.563                    20489401.492
     -1454.414       -1133.107          54.500          45.600
 126771252.645 6  98782850.86143  24123775.867                    24123779.293
       214.262         167.232          41.000          21.800
 117481508.005 7  91544061.40146  22355986.750                    22355993.520
      3169.391        2469.736          47.900          37.600
 114530323.631 8  89244436.72246  21794404.063                    21794405.508
       249.500         194.647          48.300          38.900
 113553262.150 8  88483121.53946  21608477.156                    21608484.906
     -2452.824       -1911.101          49.700          41.000
 18  2 20  8 20 30.0000000  0  8G07G05G23G09G16G30G02G06
 111629748.671 8  86984260.98946  21242438.414                    21242442.875
      1747.824        1362.165          52.800          41.800
 121043055.190 7  94319301.49845  23033733.695                    23033737.906
      3125.316        2435.345          47.800          31.400
 121346996.712 7  94556150.04745  23091573.773                    23091576.617
     -2726.461       -2124.409          45.500          32.000
 107716280.557 9  83934826.10947  20497730.594                    20497736.531
     -1465.809       -1141.976          55.000          46.200
 126765129.618 6  98778079.67143  24122611.359                    24122614.496
       193.977         151.357          39.800          21.100
 117386578.253 8  91470090.17446  22337922.391                    22337929.047
      3159.289        2461.932          48.400          38.400
 114523116.880 7  89238821.07946  21793032.844                    21793034.535
       230.934         180.208          47.300          39.000
 113627073.815 8  88540637.09846  21622522.906                    21622530.992
     -2467.914       -1922.848          50.600          41.500
 18  2 20  8 21  0.0000000  0  8G07G05G23G09G16G30G02G06
 111577550.927 8  86943587.44446  21232505.672                    21232509.992
      1731.984        1349.804          53.000          41.400
 120949379.082 7  94246307.12945  23015907.703                    23015912.352
      3119.746        2431.091          47.600          32.300
 121428858.993 7  94619938.81045  23107151.914                    23107154.395
     -2731.109       -2128.061          46.000          31.100
 107760422.170 9  83969222.16647  20506130.492                    20506137.090
     -1477.020       -1150.820          54.800          46.200
 126759616.943 6  98773784.07643  24121561.547                    24121565.012
       173.473         135.500          39.500          20.600
 117291950.270 8  91396354.09946  22319914.813                    22319921.730
      3149.219        2454.049          49.100          37.600
 114516465.910 7  89233638.49946  21791766.742                    21791768.348
       212.398         165.773          46.100          38.100
 113701336.006 8  88598503.72146  21636654.961                    21636662.598
     -2482.945       -1934.538          49.700          41.100
 18  2 20  8 21 30.0000000  0  8G07G05G23G09G16G30G02G06
 111525830.157 8  86903285.56347  21222663.664                    21222667.746
      1716.063        1337.372          53.600          42.300
 120855867.316 7  94173440.82645  22998113.227                    22998117.648
      3114.246        2426.772          47.500          32.500
 121510862.381 7  94683837.53545  23122756.547                    23122759.039
     -2735.703       -2131.731          45.800          31.200
 107804903.738 8  84003883.11447  20514594.852                    20514601.180
     -1488.359       -1159.632          53.200          46.000
 126754715.466 7  98769964.77743  24120629.164                    24120632.445
       153.230         119.611          42.000          21.800
 117197626.789 8  91322855.29846  22301965.266                    22301972.613
      3139.023        2446.104          48.700          37.900
 114510371.463 7  89228889.57346  21790607.078                    21790609.348
       193.832         151.286          47.000          38.100
 113776046.559 7  88656719.70346  21650871.805                    21650879.332
     -2497.777       -1946.150          47.500          40.700
 18  2 20  8 22  0.0000000  0  8G07G05G23G09G16G30G02G06
 111474587.762 8  86863356.45047  21212912.281                    21212916.785
      1700.070        1324.985          53.800          42.100
 120762521.462 7  94100703.81545  22980350.023                    22980354.332
      3108.781        2422.506          47.100          32.400
 121593005.820 7  94747845.37345  23138387.977                    23138390.602
     -2740.402       -2135.316          45.900          31.400
 107849723.991 9  84038807.97447  20523123.906                    20523130.000
     -1499.621       -1168.390          54.600          45.800
 126750425.772 6  98766622.12743  24119812.992                    24119816.520
       132.773         103.774          41.100          21.500
 117103610.155 8  91249595.61446  22284074.406                    22284082.246
      3128.789        2438.138          49.500          38.300
 114504833.751 7  89224574.47146  21789553.797                    21789555.578
       175.340         136.864          47.200          38.300
 113851203.057 8  88715283.18846  21665173.773                    21665181.098
     -2512.582       -1957.666          50.000          40.600
 18  2 20  8 22 30.0000000  0  8G07G05G23G09G16G30G02G06
 111423824.911 8  86823801.00746  21203252.539                    21203256.766
      1684.059        1312.490          53.200          41.600
 120669342.601 7  94028096.91645  22962618.266                    22962622.738
      3103.117        2418.153          47.400          32.100
 121675288.426 7  94811961.63545  23154046.602                    23154048.613
     -2745.047       -2138.939          47.400          32.300
 107894881.742 9  84073995.81247  20531717.492                    20531723.434
     -1510.848       -1177.137          54.000          45.800
 126746748.187 6  98763756.51243  24119112.461                    24119116.469
       112.355          87.845          41.600          22.300
 117009902.763 8  91176576.88546  22266243.102                    22266250.262
      3118.395        2430.056          49.700          38.500
 114499852.961 7  89220693.31946  21788605.617                    21788607.391
       156.711         122.377          47.500          38.800
 113926803.087 8  88774192.28146  21679559.789                    21679567.199
     -2527.367       -1969.169          49.900          40.300
 18  2 20  8 23  0.0000000  0  8G07G05G23G09G16G30G02G06
 111373542.883 8  86784620.21946  21193684.094                    21193688.766
      1668.105        1299.969          53.100          41.200
 120576332.738 7  93955621.71145  22944919.352                    22944923.773
      3097.488        2413.665          47.600          32.000
 121757709.010 7  94876185.44845  23169730.219                    23169732.523
     -2749.586       -2142.535          47.100          31.100
 107940375.608 9  84109445.56947  20540374.227                    20540380.625
     -1522.000       -1185.888          54.500          45.700
 126743683.563 6  98761368.47143  24118530.164                    24118533.680
        91.941          71.898          41.400          21.800
 116916506.821 8  91103800.85946  22248469.883                    22248477.387
      3108.000        2421.931          49.900          38.100
 114495429.447 7  89217246.42646  21787763.906                    21787765.563
       138.133         107.884          47.500          38.700
 114002844.085 8  88833444.98646  21694029.750                    21694037.297
     -2541.988       -1980.612          50.000          40.200
 18  2 20  8 23 30.0000000  0  8G07G05G23G09G16G30G02G06
 111323742.940 8  86745815.08347  21184207.500                    21184212.051
      1651.922        1287.451          52.700          42.000
 120483494.679 7  93883280.36445  22927252.359                    22927256.789
      3091.730        2409.225          47.800          32.200
 121840266.489 7  94940515.89845  23185440.430                    23185442.859
     -2754.195       -2146.071          47.100          31.900
 107986204.396 9  84145156.29047  20549095.242                    20549101.082
     -1533.203       -1194.547          54.100          45.200
 126741231.940 6  98759458.14143  24118063.031                    24118067.391
        71.395          55.971          41.400          22.300
 116823424.751 8  91031269.40446  22230757.445                    22230764.426
      3097.449        2413.741          49.600          38.400
 114491563.333 7  89214233.86046  21787028.367                    21787029.797
       119.531          93.421          47.900          38.400
 114079323.633 8  88893039.41546  21708583.266                    21708591.262
     -2556.641       -1991.968          49.800          39.500
 18  2 20  8 24  0.0000000  0  8G07G05G23G09G16G30G02G06
 111274426.429 8  86707386.64046  21174822.945                    21174827.598
      1635.738        1274.853          52.900          41.300
 120390829.208 7  93811073.48745  22909619.367                    22909623.445
      3085.895        2404.716          47.900          33.500
 121922959.557 7  95004952.00144  23201176.586                    23201178.809
     -2758.852       -2149.583          47.200          29.600
 108032366.805 8  84181126.99747  20557879.781                    20557885.820
     -1544.379       -1203.203          53.400          45.200
 126739393.724 6  98758025.73443  24117713.070                    24117717.773
        50.980          40.036          41.200          23.400
 116730658.778 8  90958984.25246  22213104.789                    22213111.813
      3086.852        2405.516          50.000          38.600
 114488254.994 8  89211655.92246  21786398.484                    21786400.355
       100.914          78.924          48.500          38.700
 114156239.139 8  88952973.55346  21723220.023                    21723227.656
     -2571.125       -2003.259          49.800          40.200
 18  2 20  8 24 30.0000000  0  8G07G05G23G09G16G30G02G06
 111225594.241 8  86669335.59647  21165530.430                    21165534.965
      1619.668        1262.303          53.100          42.000
 120298337.561 7  93739002.08745  22892018.492                    22892022.719
      3080.129        2400.215          47.300          32.500
 122005787.006 8  95069492.84445  23216938.625                    23216939.629
     -2763.094       -2153.013          48.100          31.800
 108078861.152 9  84217356.34247  20566727.539                    20566733.512
     -1555.227       -1211.775          54.800          45.200
 126738169.172 6  98757071.54143  24117480.781                    24117485.188
        30.605          24.103          39.200          22.800
 116638210.892 8  90886946.94646  22195512.742                    22195519.105
      3076.277        2397.244          50.200          38.300
 114485503.621 7  89209511.98046  21785875.430                    21785876.891
        82.473          64.491          47.900          39.100
 114233587.736 8  89013245.16146  21737938.750                    21737946.555
     -2585.453       -2014.446          49.800          39.100
 18  2 20  8 25  0.0000000  0  8G07G05G23G09G16G30G02G06
 111177247.292 8  86631662.65946  21156330.469                    21156335.313
      1603.508        1249.667          53.000          41.300
 120206021.283 7  93667067.33845  22874451.547                    22874455.898
      3074.164        2395.595          47.500          33.500
 122088748.203 7  95134137.89945  23232725.102                    23232726.918
     -2767.594       -2156.490          47.600          30.500
 108125686.577 9  84253843.66747  20575638.250                    20575644.219
     -1566.297       -1220.372          54.800          45.900
 126737559.351 6  98756596.33943  24117363.445                    24117368.922
        10.156           8.139          41.100          22.300
 116546083.680 8  90815159.53146  22177980.984                    22177988.020
      3065.578        2388.876          50.300          38.800
 114483310.097 8  89207802.73046  21785457.523                    21785459.645
        63.871          49.997          48.300          38.800
 114311367.189 8  89073852.49846  21752739.734                    21752747.477
     -2599.762       -2025.622          48.800          39.400
 18  2 20  8 25 30.0000000  0  8G07G05G23G09G16G30G02G06
 111129387.917 8  86594369.65046  21147222.813                    21147227.676
      1587.227        1236.978          52.900          41.500
 120113884.492 8  93595272.44945  22856918.367                    22856923.016
      3068.266        2390.910          48.000          33.200
 122171842.322 7  95198886.54344  23248536.742                    23248538.723
     -2772.031       -2159.960          46.700          29.900
 108172842.329 9  84290588.41747  20584611.219                    20584617.480
     -1577.285       -1228.950          55.100          45.300
 126737564.867 6  98756600.63443  24117365.555                    24117369.617
       -10.359          -7.881          41.600          22.600
 116454280.007 8  90743624.24146  22160511.484                    22160518.184
      3054.723        2380.437          50.300          38.800
 114481674.908 8  89206528.54146  21785146.211                    21785148.398
        45.230          35.474          49.100          38.900
 114389575.580 8  89134794.06946  21767622.445                    21767629.883
     -2613.988       -2036.748          49.100          39.900
 18  2 20  8 26  0.0000000  0  8G07G05G23G09G16G30G02G06
 111082017.149 8  86557457.38246  21138208.461                    21138213.008
      1571.008        1224.266          53.400          41.700
 120021927.291 7  93523617.51445  22839419.273                    22839424.109
      3062.320        2386.228          47.900          33.200
 122255068.479 7  95263738.07145  23264374.414                    23264376.707
     -2776.332       -2163.379          46.400          30.300
 108220327.208 9  84327589.61047  20593647.555                    20593653.754
     -1588.227       -1237.488          54.500          46.200
 126738185.792 6  98757084.48443  24117483.633                    24117487.773
       -30.793         -23.867          41.700          23.300
 116362802.184 8  90672342.86546  22143103.977                    22143110.691
      3043.898        2371.940          50.100          39.400
 114480598.463 8  89205689.74546  21784941.336                    21784943.520
        26.691          20.954          48.000          38.800
 114468210.324 8  89196067.88946  21782586.266                    21782593.727
     -2628.133       -2047.795          48.800          39.400
 18  2 20  8 26 30.0000000  0  8G07G05G23G09G16G30G02G06
 111035136.394 8  86520926.94446  21129287.516                    21129291.578
      1554.539        1211.501          52.200          41.700
 119930152.884 8  93452104.99345  22821955.383                    22821959.492
      3056.059        2381.421          48.000          32.800
 122338425.766 7  95328691.74045  23280236.750                    23280239.875
     -2780.719       -2166.760          47.700          30.400
 108268139.974 9  84364846.29147  20602746.336                    20602753.121
     -1599.184       -1245.991          54.500          45.800
 126739422.593 6  98758048.20043  24117719.289                    24117722.949
       -51.535         -39.858          40.200          22.300
 116271652.585 8  90601317.24546  22125758.430                    22125765.438
      3032.828        2363.369          49.300          38.700
 114480080.905 8  89205286.43746  21784843.320                    21784845.371
         7.895           6.422          48.100          38.400
 114547268.924 8  89257671.98246  21797630.375                    21797638.012
     -2642.312       -2058.782          49.100          38.600
 18  2 20  8 27  0.0000000  0  8G07G05G23G09G16G30G02G06
 110988746.566 8  86484779.04046  21120459.758                    21120463.961
      1538.188        1198.775          53.000          41.600
 119838562.440 7  93380735.80845  22804526.406                    22804530.566
      3050.016        2376.674          45.800          32.400
 122421912.943 7  95393746.62445  23296124.617                    23296127.504
     -2785.105       -2170.098          47.200          32.100
 108316279.397 8  84402357.52847  20611906.453                    20611913.242
     -1609.984       -1254.440          52.700          45.400
 126741275.993 6  98759492.43643  24118071.563                    24118075.684
       -71.980         -55.849          40.300          22.900
 116180833.477 8  90530549.14546  22108475.773                    22108483.219
      3021.781        2354.794          50.100          38.900
 114480122.094 7  89205318.51546  21784851.156                    21784853.250
       -10.660          -8.070          47.900          38.400
 114626748.888 7  89319604.40346  21812754.813                    21812762.633
     -2656.406       -2069.666          47.500          39.200
 18  2 20  8 27 30.0000000  0  8G07G05G23G09G16G30G02G06
 110942848.744 8  86449014.51047  21111725.648                    21111729.645
      1521.676        1185.957          53.000          42.000
 119747157.223 7  93309510.95845  22787132.867                    22787136.527
      3043.660        2371.784          46.800          33.500
 122505529.153 8  95458902.06145  23312036.273                    23312039.320
     -2789.336       -2173.473          48.500          33.000
 108364744.313 8  84440122.38047  20621129.094                    20621135.684
     -1620.945       -1262.937          53.500          45.200
 126743745.923 6  98761417.05443  24118541.805                    24118545.313
       -92.527         -71.898          41.100          21.700
 116090347.188 8  90460040.37646  22091257.086                    22091263.930
      3010.645        2346.089          49.200          39.200
 114480722.032 8  89205785.98846  21784965.711                    21784967.027
       -29.414         -22.627          48.000          38.300
 114706647.562 8  89381863.09346  21827959.109                    21827966.496
     -2670.332       -2080.548          48.600          39.200
 18  2 20  8 28  0.0000000  0  8G07G05G23G09G16G30G02G06
 110897444.178 8  86413634.34347  21103085.148                    21103089.633
      1505.184        1173.158          52.500          42.000
 119655939.722 7  93238432.39045  22769774.289                    22769778.574
      3037.406        2366.929          47.300          32.900
 122589273.332 7  95524157.19745  23327972.078                    23327975.063
     -2793.699       -2176.769          47.300          31.800
 108413533.407 9  84478139.84547  20630413.477                    20630420.078
     -1631.711       -1271.282          54.100          45.500
 126746832.400 6  98763822.10943  24119129.250                    24119132.617
      -113.195         -87.890          41.100          22.000
 116000196.039 8  90389792.76746  22074101.836                    22074109.246
      2999.418        2337.371          49.100          39.200
 114481880.882 7  89206688.96746  21785185.945                    21785187.012
       -47.945         -37.085          47.100          38.300
 114786962.494 8  89444446.12946  21843242.813                    21843250.555
     -2684.066       -2091.284          49.100          39.400
 18  2 20  8 28 30.0000000  0  8G07G05G23G09G16G30G02G06
 110852534.100 8  86378639.48746  21094539.398                    21094543.348
      1488.707        1160.316          51.500          41.500
 119564911.708 7  93167501.47645  22752452.563                    22752456.316
      3031.113        2362.013          47.800          34.200
 122673144.401 7  95589511.22345  23343932.047                    23343935.004
     -2797.812       -2180.008          46.600          30.800
 108462645.313 8  84516408.84447  20639759.289                    20639765.203
     -1642.441       -1279.631          52.200          45.200
 126750535.808 6  98766707.88743  24119833.641                    24119837.395
      -133.703        -103.914          39.900          21.100
 115910382.090 8  90319807.88946  22057010.688                    22057017.875
      2988.176        2328.620          48.600          39.100
 114483598.520 7  89208027.38246  21785513.031                    21785514.270
       -66.609         -51.604          46.800          38.400
 114867690.839 7  89507351.31646  21858604.992                    21858612.801
     -2697.781       -2101.957          47.400          40.200
 18  2 20  8 29  0.0000000  0  8G07G05G23G09G16G30G02G06
 110808119.344 8  86344030.59747  21086087.508                    21086091.613
      1472.188        1147.375          51.400          42.100
 119474074.545 8  93096719.26745  22735166.734                    22735170.582
      3024.727        2356.979          49.000          33.600
 122757141.691 7  95654963.59244  23359915.891                    23359918.375
     -2801.953       -2183.336          46.700          29.300
 108512079.112 9  84554928.68647  20649166.227                    20649172.246
     -1653.121       -1288.041          54.200          45.400
 126754856.560 7  98770074.70643  24120655.813                    24120659.020
      -154.301        -120.000          42.000          21.800
 115820908.026 8  90250087.85646  22039984.609                    22039991.703
      2976.734        2319.702          48.500          39.300
 114485875.290 8  89209801.48746  21785945.664                    21785947.102
       -85.168         -66.180          48.000          38.700
 114948830.392 8  89570576.90946  21874045.320                    21874053.156
     -2711.516       -2112.684          49.300          40.100
 18  2 20  8 29 30.0000000  0  8G07G05G23G09G16G30G02G06
 110764201.129 8  86309808.61646  21077730.156                    21077734.441
      1455.613        1134.467          51.900          41.800
 119383430.724 8  93026087.70745  22717917.555                    22717921.992
      3018.258        2351.943          48.400          34.000
 122841263.765 7  95720513.24944  23375923.461                    23375925.660
     -2806.090       -2186.560          44.700          26.200
 108561833.468 8  84593698.30847  20658634.406                    20658639.816
     -1663.742       -1296.344          53.300          45.300
 126759794.836 6  98773922.70443  24121595.813                    24121598.781
      -174.859        -136.028          41.500          21.500
 115731775.933 8  90180634.30746  22023023.031                    22023031.000
      2965.297        2310.783          49.400          39.600
 114488710.753 7  89212010.93046  21786485.633                    21786487.297
      -103.816         -80.670          47.700          38.600
 115030378.393 8  89634120.79546  21889563.016                    21889570.563
     -2725.055       -2123.253          49.300          39.500
 18  2 20  8 30  0.0000000  0  8G07G05G23G09G16G30G02G06
 110720780.435 8  86275974.32146  21069467.469                    21069471.605
      1439.074        1121.537          51.500          41.900
 119292981.899 8  92955608.11845  22700705.922                    22700709.988
      3011.730        2346.828          48.500          33.500
 122925510.073 7  95786159.69744  23391956.023                    23391958.406
     -2810.289       -2189.784          44.200          29.300
 108611907.091 8  84632716.71747  20668162.766                    20668168.750
     -1674.469       -1304.634          52.500          45.100
 126765350.692 6  98778251.90543  24122653.523                    24122656.289
      -195.496        -152.088          41.800          22.500
 115642988.053 8  90111448.98346  22006127.422                    22006134.629
      2953.859        2301.828          49.300          40.000
 114492104.928 7  89214655.72146  21787131.398                    21787133.156
      -122.445         -95.180          47.500          38.800
 115112332.060 7  89697980.77446  21905158.609                    21905166.309
     -2738.543       -2133.769          47.900          39.400
 18  2 20  8 30 30.0000000  0  8G07G05G23G09G16G30G02G06
 110677858.613 8  86242528.75047  21061299.555                    21061303.984
      1422.328        1108.546          52.200          42.100
 119202730.061 7  92885281.99845  22683531.398                    22683535.766
      3005.031        2341.715          46.000          34.900
 123009879.665 7  95851902.18445  23408010.883                    23408014.445
     -2814.488       -2192.972          46.000          30.800
 108662299.116 8  84671983.20147  20677752.180                    20677758.098
     -1685.090       -1312.879          53.200          45.200
 126771524.404 7  98783062.55243  24123828.031                    24123831.512
      -216.262        -168.140          42.800          22.600
 115554546.991 7  90042533.88846  21989297.539                    21989304.980
      2942.203        2292.787          47.200          40.000
 114496058.186 7  89217736.17646  21787883.492                    21787885.270
      -141.125        -109.708          47.800          38.100
 115194689.397 8  89762155.31046  21920831.008                    21920838.238
     -2752.000       -2144.213          49.400          39.600
 18  2 20  8 31  0.0000000  0  8G07G05G23G09G16G30G02G06
 110635436.601 8  86209472.64547  21053226.836                    21053231.402
      1405.734        1095.575          51.000          42.100
 119112676.414 8  92815110.32445  22666394.570                    22666398.777
      2998.457        2336.513          48.800          34.000
 123094371.211 7  95917739.69345  23424089.125                    23424092.961
     -2818.484       -2196.148          46.100          31.800
 108713007.823 8  84711496.48847  20687401.391                    20687407.746
     -1695.539       -1321.089          51.600          46.000
 126778316.136 6  98788354.81543  24125120.258                    24125123.742
      -236.715        -184.206          40.600          22.200
 115466454.606 8  89973890.48546  21972534.148                    21972541.285
      2930.508        2283.688          49.600          40.100
 114500569.833 7  89221251.73346  21788742.625                    21788744.473
      -159.727        -124.224          46.900          38.300
 115277447.247 7  89826641.92746  21936578.852                    21936587.082
     -2765.301       -2154.589          47.400          40.100
 18  2 20  8 31 30.0000000  0  8G07G05G23G09G16G30G02G06
 110593515.190 8  86176806.61847  21045249.641                    21045254.063
      1389.047        1082.577          51.700          42.200
 119022823.682 7  92745095.21145  22649296.359                    22649300.563
      2991.730        2331.302          47.600          34.900
 123178983.553 7  95983671.32045  23440190.219                    23440193.793
     -2822.465       -2199.228          43.700          31.700
 108764032.110 8  84751255.64647  20697111.133                    20697117.750
     -1706.051       -1329.266          51.800          45.000
 126785725.665 7  98794128.42543  24126530.500                    24126533.863
      -257.375        -200.207          44.600          22.800
 115378713.101 8  89905520.50146  21955837.813                    21955844.453
      2918.813        2274.574          48.700          38.900
 114505639.900 7  89225202.42546  21789707.125                    21789708.996
      -178.352        -138.699          47.400          39.300
 115360602.911 7  89891438.52646  21952403.531                    21952410.363
     -2778.531       -2164.863          46.600          39.200
 18  2 20  8 32  0.0000000  0  8G07G05G23G09G16G30G02G06
 110552095.288 8  86144531.37446  21037367.672                    21037371.977
      1372.332        1069.520          50.900          41.900
 118933173.074 8  92675237.59345  22632236.680                    22632241.016
      2984.973        2326.012          48.500          34.900
 123263715.730 7  96049696.33044  23456314.086                    23456317.703
     -2826.355       -2202.330          42.100          29.600
 108815370.551 8  84791259.60147  20706880.477                    20706887.730
     -1716.453       -1337.413          50.800          45.000
 126793752.638 7  98800383.18043  24128058.250                    24128060.930
      -277.758        -216.249          43.300          22.500
 115291324.645 8  89837425.60146  21939207.781                    21939214.996
      2907.090        2265.367          51.600          39.500
 114511268.180 8  89229588.08846  21790777.578                    21790780.184
      -196.926        -153.214          48.300          38.800
 115444153.695 7  89956542.99546  21968302.273                    21968310.012
     -2791.555       -2175.103          47.100          39.700
 18  2 20  8 32 30.0000000  0  8G07G05G23G09G16G30G02G06
 110511178.611 8  86112648.25446  21029581.555                    21029585.902
      1355.473        1056.467          49.500          41.700
 118843726.803 7  92605539.20545  22615215.422                    22615219.805
      2978.145        2320.728          46.700          35.300
 123348567.329 6  96115814.38744  23472460.203                    23472463.719
     -2830.395       -2205.428          41.900          28.100
 108867022.415 8  84831507.79247  20716709.961                    20716715.809
     -1726.879       -1345.511          50.200          45.300
 126802397.651 6  98807119.55043  24129702.813                    24129706.676
      -298.539        -232.313          40.500          22.500
 115204291.944 8  89769607.91246  21922646.383                    21922653.203
      2895.102        2256.115          49.100          39.400
 114517454.828 7  89234408.84246  21791955.578                    21791957.039
      -215.547        -167.676          47.100          38.800
 115528097.220 7  90021953.51146  21984276.156                    21984284.281
     -2804.672       -2185.257          46.400          39.300
 18  2 20  8 33  0.0000000  0  8G07G05G23G09G16G30G02G06
 110470765.628 8  86081157.61946  21021891.469                    21021895.645
      1338.734        1043.364          50.300          41.900
 118754486.467 7  92536001.28945  22598233.508                    22598237.887
      2971.250        2315.321          46.700          34.800
 123433537.179 7  96182024.60944  23488630.594                    23488632.863
     -2834.230       -2208.488          43.000          28.000
 108918986.090 8  84871998.96447  20726598.250                    20726604.250
     -1737.289       -1353.615          51.800          45.000
 126811660.566 7  98814337.36043  24131465.047                    24131468.551
      -319.039        -248.343          43.500          21.700
 115117616.837 8  89702068.87946  21906152.641                    21906159.527
      2883.184        2246.797          48.500          40.100
 114524199.387 8  89239664.32846  21793238.789                    21793240.637
      -234.102        -182.190          48.400          38.400
 115612430.763 7  90087667.92346  22000324.125                    22000332.191
     -2817.535       -2195.350          45.900          39.000
 18  2 20  8 33 30.0000000  0  8G07G05G23G09G16G30G02G06
 110430857.131 8  86050060.09647  21014296.906                    21014301.324
      1321.887        1030.234          49.600          42.600
 118665454.342 8  92466625.60646  22581291.172                    22581296.148
      2964.203        2309.902          49.500          36.100
 123518624.248 7  96248326.16345  23504822.102                    23504824.785
     -2838.086       -2211.496          43.200          30.000
 108971260.549 8  84912732.29247  20736545.820                    20736551.785
     -1747.656       -1361.665          50.500          45.100
 126821541.552 7  98822036.81843  24133345.750                    24133349.289
      -339.656        -264.406          42.300          22.500
 115031301.699 8  89634810.34146  21889727.320                    21889734.266
      2871.180        2237.423          50.200          39.500
 114531501.844 8  89245354.51346  21794628.984                    21794630.344
      -252.770        -196.669          48.200          38.600
 115697151.700 7  90153684.20946  22016445.938                    22016454.078
     -2830.500       -2205.387          46.900          38.700
 18  2 20  8 34  0.0000000  0  8G07G05G23G09G16G30G02G06
 110391454.121 8  86019356.45147  21006798.945                    21006803.098
      1305.043        1017.097          49.500          42.600
 118576632.160 7  92397413.53445  22564388.703                    22564393.453
      2957.164        2304.431          46.400          35.200
 123603827.631 7  96314718.39745  23521036.375                    23521038.484
     -2842.164       -2214.556          44.700          31.400
 109023844.597 8  84953706.87147  20746551.844                    20746558.234
     -1757.914       -1369.705          51.900          44.900
 126832040.027 6  98830217.43243  24135343.617                    24135347.133
      -360.246        -280.451          38.900          22.000
 114945348.775 7  89567834.03646  21873371.258                    21873377.973
      2859.121        2227.981          47.400          39.500
 114539361.758 8  89251479.13046  21796124.141                    21796126.105
      -271.301        -211.138          48.700          38.000
 115782257.340 7  90220000.26046  22032640.477                    22032649.125
     -2843.203       -2215.348          46.100          38.600
 18  2 20  8 34 30.0000000  0  8G07G05G23G09G16G30G02G06
 110352557.281 8  85989047.24246  20999396.875                    20999401.188
      1288.199        1003.943          51.100          41.900
 118488021.369 8  92328366.16045  22547526.852                    22547531.117
      2950.223        2298.915          49.500          35.400
 123689146.391 7  96381200.49544  23537271.539                    23537274.145
     -2845.824       -2217.495          43.800          29.700
 109076736.837 8  84994921.58547  20756617.297                    20756623.176
     -1768.070       -1377.674          51.900          44.600
 126843156.035 7  98838879.27643  24137459.359                    24137462.578
      -380.719        -296.475          42.900          21.700
 114859760.087 8  89501141.55746  21857084.328                    21857090.523
      2846.914        2218.491          50.200          39.600
 114547778.823 8  89258037.87846  21797725.625                    21797727.316
      -289.820        -225.618          49.100          38.600
 115867744.823 7  90286613.84846  22048909.445                    22048916.762
     -2855.832       -2225.211          47.800          38.400
 18  2 20  8 35  0.0000000  0  8G07G05G23G09G16G30G02G06
 110314167.915 8  85959133.46046  20992091.563                    20992095.656
      1271.203         990.736          49.800          41.900
 118399624.299 8  92259485.32145  22530705.313                    22530709.434
      2942.934        2293.316          49.900          35.200
 123774579.500 7  96447771.72044  23553528.156                    23553531.500
     -2849.762       -2220.486          42.700          27.900
 109129936.301 8  85036375.71847  20766740.734                    20766746.695
     -1778.434       -1385.664          52.400          45.400
 126854890.012 7  98848022.61743  24139692.203                    24139695.566
      -401.422        -312.540          42.100          21.100
 114774538.107 8  89434734.80146  21840866.641                    21840873.664
      2834.574        2208.923          50.200          39.000
 114556753.199 8  89265030.87846  21799433.820                    21799435.238
      -308.437        -240.089          48.300          38.300
 115953611.751 8  90353523.12446  22065249.039                    22065256.852
     -2868.562       -2235.057          48.400          38.200
 18  2 20  8 35 30.0000000  0  8G07G05G23G09G16G30G02G06
 110276286.931 8  85929615.82047  20984882.617                    20984886.914
      1254.238         977.545          51.200          42.000
 118311443.332 8  92190772.88345  22513925.195                    22513929.238
      2935.719        2287.685          49.200          35.400
 123860125.941 7  96514431.21844  23569807.031                    23569810.574
     -2853.461       -2223.415          42.300          29.300
 109183441.603 8  85078068.15147  20776922.266                    20776928.289
     -1788.594       -1393.587          52.400          45.200
 126867241.610 6  98857647.26143  24142042.438                    24142046.176
      -421.945        -328.579          40.900          20.900
 114689684.781 8  89368615.32646  21824719.734                    21824726.418
      2822.246        2199.323          51.400          39.600
 114566284.317 8  89272457.68946  21801247.781                    21801249.516
      -326.988        -254.569          49.100          38.400
 116039855.139 7  90420725.73546  22081660.555                    22081668.449
     -2881.031       -2244.788          47.100          38.300
 18  2 20  8 36  0.0000000  0  8G07G05G23G09G16G30G02G06
 110238915.210 8  85900495.00247  20977771.422                    20977775.594
      1237.125         964.270          50.300          42.000
 118223479.517 7  92122229.64645  22497186.141                    22497190.188
      2928.391        2282.009          47.500          35.000
 123945785.036 7  96581178.50445  23586108.391                    23586111.895
     -2857.273       -2226.337          43.900          30.600
 109237251.611 8  85119998.02347  20787161.922                    20787168.285
     -1798.816       -1401.505          52.600          44.400
 126880210.237 6  98867752.67543  24144510.523                    24144514.160
      -442.625        -344.606          39.000          22.000
 114605202.458 8  89302784.93946  21808643.289                    21808650.660
      2809.824        2189.654          49.200          39.800
 114576371.915 8  89280318.15346  21803167.070                    21803168.840
      -345.570        -269.024          49.700          38.000
 116126472.462 7  90488219.71946  22098143.406                    22098151.348
     -2893.496       -2254.484          46.100          37.900
 18  2 20  8 36 30.0000000  0  8G07G05G23G09G16G30G02G06
 110202053.289 8  85871771.43846  20970756.797                    20970760.910
      1220.180         951.032          51.100          41.400
 118135735.225 8  92053857.46845  22480488.711                    22480493.051
      2921.098        2276.272          48.200          35.200
 124031555.704 7  96648012.70445  23602429.516                    23602433.414
     -2860.812       -2229.203          43.800          31.100
 109291365.045 8  85162164.32747  20797459.336                    20797465.805
     -1808.812       -1409.356          52.400          44.500
 126893795.743 6  98878338.79843  24147095.258                    24147099.383
      -463.043        -360.611          41.700          21.300
 114521093.216 8  89237245.28346  21792637.477                    21792645.332
      2797.398        2179.947          49.900          40.900
 114587015.512 8  89288611.86146  21805192.523                    21805194.199
      -364.074        -283.444          49.500          39.300
 116213460.892 7  90556002.87746  22114696.797                    22114704.688
     -2905.809       -2264.091          46.200          37.500
 18  2 20  8 37  0.0000000  0  8G07G05G23G09G16G30G02G06
 110165701.967 8  85843445.74447  20963839.273                    20963843.465
      1203.152         937.787          51.000          42.000
 118048212.690 8  91985658.09945  22463833.773                    22463838.156
      2913.742        2270.526          49.900          35.800
 124117437.045 7  96714933.15345  23618772.852                    23618775.801
     -2864.613       -2232.047          44.100          30.200
 109345780.602 8  85204566.04147  20807814.461                    20807820.969
     -1818.852       -1417.148          53.800          45.700
 126907998.182 7  98889405.63143  24149798.289                    24149802.301
      -483.656        -376.624          42.200          22.600
 114437359.110 8  89171997.94746  21776703.289                    21776711.086
      2784.879        2170.202          51.100          41.500
 114598215.045 8  89297338.74846  21807323.813                    21807325.438
      -382.621        -297.867          48.800          38.400
 116300817.587 8  90624073.00746  22131320.227                    22131328.074
     -2918.020       -2273.584          48.000          37.900
 18  2 20  8 37 30.0000000  0  8G07G05G23G09G16G30G02G06
 110129862.439 8  85815518.85546  20957019.180                    20957023.371
      1186.070         924.450          51.500          41.700
 117960913.529 8  91917632.78645  22447221.539                    22447225.707
      2906.230        2264.684          49.900          35.800
 124203428.150 7  96781939.13345  23635136.617                    23635139.090
     -2868.246       -2234.914          45.900          30.700
 109400497.250 8  85247202.38647  20818226.648                    20818233.230
     -1828.898       -1424.995          53.000          44.800
 126922817.183 6  98900952.90243  24152618.867                    24152622.500
      -504.199        -392.659          40.900          22.800
 114354002.499 8  89107044.76446  21760841.438                    21760848.816
      2772.195        2160.346          51.300          41.800
 114609969.836 8  89306498.30946  21809560.344                    21809562.137
      -401.102        -312.293          48.800          38.700
 116388540.034 7  90692428.14446  22148013.250                    22148020.609
     -2930.133       -2283.070          46.900          37.000
 18  2 20  8 38  0.0000000  0  8G07G05G23G09G16G30G02G06
 110094535.488 8  85787991.37946  20950296.742                    20950300.777
      1169.125         911.145          51.600          41.300
 117873839.439 8  91849782.84146  22430651.828                    22430656.199
      2898.805        2258.848          50.200          36.300
 124289527.735 7  96849029.68944  23651521.500                    23651522.551
     -2871.754       -2237.708          44.100          26.800
 109455513.671 8  85290072.31747  20828695.906                    20828702.246
     -1838.773       -1432.748          53.100          44.700
 126938252.145 6  98912980.13743  24155555.414                    24155559.949
      -524.707        -408.646          40.700          23.600
 114271025.383 8  89042387.28246  21745051.594                    21745058.965
      2759.648        2150.476          51.500          41.300
 114622279.272 8  89316090.06746  21811902.953                    21811904.684
      -419.527        -326.697          49.800          38.400
 116476625.324 7  90761066.00746  22164775.547                    22164782.613
     -2942.008       -2292.448          45.800          36.900
 18  2 20  8 38 30.0000000  0  8G07G05G23G09G16G30G02G06
 110059722.121 8  85760864.09546  20943672.234                    20943676.250
      1151.867         897.801          52.300          41.900
 117786992.194 8  91782109.66646  22414125.539                    22414130.020
      2891.082        2252.899          50.200          36.300
 124375735.632 7  96916204.69244  23667925.336                    23667927.102
     -2875.340       -2240.521          45.200          26.900
 109510828.838 8  85333175.05247  20839221.797                    20839228.391
     -1848.742       -1440.504          52.500          44.300
 126954303.467 6  98925487.64243  24158610.305                    24158614.512
      -545.191        -424.643          40.400          22.900
 114188430.124 8  88978027.35246  21729334.391                    21729341.324
      2746.902        2140.536          52.100          41.700
 114635143.516 8  89326114.14446  21814350.633                    21814353.031
      -438.078        -341.082          49.900          38.400
 116565070.955 7  90829984.67146  22181606.023                    22181613.285
     -2954.129       -2301.797          46.200          37.100
 18  2 20  8 39  0.0000000  0  8G07G05G23G09G16G30G02G06
 110025422.328 8  85734136.99047  20937145.227                    20937149.227
      1134.742         884.456          52.400          42.000
 117700374.365 8  91714615.25645  22397642.930                    22397646.723
      2883.406        2246.923          50.800          35.700
 124462050.413 7  96983462.93144  23684349.914                    23684353.527
     -2878.770       -2243.231          44.600          25.600
 109566441.370 8  85376509.47347  20849804.820                    20849811.121
     -1858.684       -1448.179          53.000          45.000
 126970970.036 6  98938474.58843  24161781.344                    24161786.039
      -565.762        -440.622          41.000          22.500
 114106218.614 8  88913966.43946  21713689.672                    21713696.777
      2733.914        2130.536          51.300          40.900
 114648561.692 8  89336569.85646  21816904.180                    21816906.148
      -456.547        -355.462          49.500          38.200
 116653873.948 7  90899181.78546  22198504.398                    22198512.367
     -2966.035       -2311.016          45.400          36.900
 18  2 20  8 39 30.0000000  0  8G07G05G23G09G16G30G02G06
 109991637.255 8  85707810.97147  20930715.828                    20930720.121
      1117.559         871.065          51.500          42.200
 117613986.517 8  91647300.05745  22381203.750                    22381207.965
      2875.586        2240.898          50.800          35.800
 124548471.587 7  97050804.01144  23700795.484                    23700799.461
     -2882.395       -2246.024          45.000          28.500
 109622350.095 8  85420074.70447  20860443.742                    20860450.551
     -1868.559       -1455.880          53.700          45.200
 126988251.946 6  98951940.99443  24165069.758                    24165074.516
      -586.340        -456.600          39.800          22.000
 114024393.018 8  88850206.26146  21698118.719                    21698126.246
      2721.078        2120.481          52.000          40.900
 114662533.457 8  89347456.94746  21819562.945                    21819564.754
      -474.914        -369.831          49.600          38.100
 116743031.571 7  90968655.23446  22215470.477                    22215478.492
     -2977.766       -2320.211          45.800          37.400
 18  2 20  8 40  0.0000000  0  8G07G05G23G09G16G30G02G06
 109958367.349 8  85681886.39246  20924384.703                    20924389.055
      1100.426         857.683          51.800          41.200
 117527832.443 8  91580167.01545  22364808.969                    22364813.359
      2867.824        2234.819          49.600          35.700
 124634997.823 7  97118226.95545  23717261.867                    23717265.461
     -2885.848       -2248.718          44.100          32.000
 109678553.680 8  85463869.69047  20871138.867                    20871145.203
     -1878.352       -1463.531          52.300          44.600
 127006148.900 6  98965886.69443  24168475.328                    24168480.387
      -606.922        -472.588          40.500          22.500
 113942955.363 8  88786748.35346  21682621.875                    21682628.738
      2708.020        2110.370          50.400          41.100
 114677058.267 8  89358774.95846  21822326.984                    21822329.172
      -493.480        -384.216          48.700          38.600
 116832540.934 7  91038402.76246  22232503.891                    22232511.547
     -2989.539       -2329.309          45.200          37.900
 18  2 20  8 40 30.0000000  0  8G07G05G23G09G16G30G02G06
 109925613.744 8  85656364.11747  20918152.234                    20918156.184
      1083.227         844.256          50.900          42.400
 117441913.694 8  91513217.35146  22348458.938                    22348463.293
      2860.074        2228.693          50.500          36.200
 124721628.339 7  97185731.21545  23733746.852                    23733750.305
     -2889.379       -2251.464          45.800          31.300
 109735051.227 8  85507893.74647  20881890.289                    20881895.961
     -1888.125       -1471.161          53.300          43.800
 127024660.283 6  98980311.09443  24171998.250                    24172002.117
      -627.109        -488.514          40.700          22.300
 113861907.967 8  88723594.55946  21667199.016                    21667206.078
      2695.094        2100.201          51.800          41.600
 114692135.991 8  89370523.82546  21825196.391                    21825198.094
      -511.742        -398.566          49.800          37.900
 116922399.553 7  91108422.43746  22249603.375                    22249610.949
     -3001.074       -2338.360          45.600          36.900
 18  2 20  8 41  0.0000000  0  8G07G05G23G09G16G30G02G06
 109893376.618 8  85631244.29847  20912017.375                    20912021.430
      1065.969         830.845          50.000          42.600
 117356231.750 8  91446452.19746  22332154.508                    22332158.734
      2852.098        2222.525          50.300          36.300
 124808362.250 7  97253316.04344  23750251.438                    23750254.785
     -2892.824       -2254.109          45.200          28.100
 109791841.242 8  85552145.69847  20892696.852                    20892703.406
     -1897.820       -1478.708          52.700          44.900
 127043785.571 6  98995213.93243  24175637.500                    24175642.137
      -647.629        -504.422          39.300          21.700
 113781252.678 8  88660746.31146  21651850.984                    21651858.180
      2681.926        2090.010          52.400          41.600
 114707765.643 8  89382702.78146  21828170.359                    21828172.402
      -530.141        -412.892          49.500          38.600
 117012604.370 7  91178711.88446  22266768.977                    22266776.547
     -3012.516       -2347.297          45.400          37.100
 18  2 20  8 41 30.0000000  0  8G07G05G23G09G16G30G02G06
 109861657.165 8  85606527.85747  20905981.453                    20905985.941
      1048.715         817.382          49.700          42.200
 117270788.432 8  91379872.99845  22315895.203                    22315899.066
      2844.148        2216.297          49.300          35.900
 124895198.877 6  97320980.94044  23766775.617                    23766778.188
     -2896.289       -2256.768          40.600          25.300
 109848922.759 8  85596624.79047  20903559.109                    20903565.906
     -1907.582       -1486.292          51.700          44.300
 127063524.365 6  99010594.79543  24179393.492                    24179397.391
      -668.125        -520.410          40.600          21.700
 113700991.807 8  88598205.39546  21636577.547                    21636584.742
      2668.824        2079.735          52.200          41.700
 114723947.032 8  89395311.63946  21831249.797                    21831251.379
      -548.578        -427.205          50.000          38.700
 117103152.767 7  91249269.05446  22283999.453                    22284007.707
     -3023.969       -2356.185          44.900          37.100
 18  2 20  8 42  0.0000000  0  8G07G05G23G09G16G30G02G06
 109830456.014 8  85582215.27447  20900044.008                    20900048.324
      1031.406         803.899          50.500          42.700
 117185585.943 8  91313481.45046  22299681.602                    22299685.762
      2836.133        2210.005          49.300          36.000
 124982137.107 6  97388724.96643  23783319.531                    23783321.410
     -2899.594       -2259.377          39.300          22.600
 109906294.591 8  85641330.10447  20914476.844                    20914483.156
     -1917.234       -1493.822          52.500          44.600
 127083875.961 6  99026453.18143  24183266.195                    24183271.063
      -688.684        -536.299          39.500          22.200
 113621127.341 8  88535973.35946  21621379.766                    21621387.098
      2655.559        2069.411          51.000          41.700
 114740679.504 8  89408349.91846  21834433.703                    21834435.883
      -566.953        -441.523          49.200          38.600
 117194041.949 7  91320091.76346  22301295.633                    22301302.656
     -3035.277       -2365.016          46.500          36.400
 18  2 20  8 42 30.0000000  0  8G07G05G23G09G16G30G02G06
 109799773.677 8  85558306.96747  20894205.570                    20894209.531
      1014.074         790.443          49.600          42.000
 117100627.102 8  91247279.75946  22283514.445                    22283519.055
      2827.945        2203.677          50.000          36.200
 125069176.301 6  97456547.69544  23799883.750                    23799885.211
     -2902.895       -2261.981          39.900          24.200
 109963955.467 8  85686260.65647  20925449.063                    20925456.102
     -1926.824       -1501.281          51.400          44.900
 127104840.440 6  99042789.09643  24187255.883                    24187260.023
      -708.992        -552.201          41.300          21.500
 113541661.396 8  88474051.86846  21606258.023                    21606265.199
      2642.273        2059.048          52.500          41.200
 114757962.224 8  89421816.96246  21837722.242                    21837724.320
      -585.230        -455.777          49.500          38.600
 117285269.125 7  91391177.85546  22318655.219                    22318663.168
     -3046.477       -2373.733          44.900          36.800
 18  2 20  8 43  0.0000000  0  8G07G05G23G09G16G30G02G06
 109769610.718 8  85534803.37947  20888465.648                    20888469.902
       996.809         776.956          49.500          42.400
 117015912.900 8  91181268.69146  22267394.109                    22267398.383
      2819.668        2197.278          50.000          36.500
 125156315.481 7  97524448.31044  23816465.391                    23816468.309
     -2906.121       -2264.576          42.700          29.500
 110021904.223 8  85731415.50347  20936476.531                    20936483.023
     -1936.367       -1508.747          51.400          43.900
 127126416.736 6  99059601.79243  24191361.805                    24191365.375
      -729.375        -568.059          40.100          21.800
 113462595.959 8  88412442.45346  21591212.305                    21591219.219
      2628.957        2048.629          52.200          41.400
 114775794.667 8  89435712.36446  21841116.211                    21841117.898
      -603.492        -470.065          50.200          38.300
 117376831.429 7  91462525.08146  22336079.148                    22336086.969
     -3057.570       -2382.412          45.400          38.000
 18  2 20  8 43 30.0000000  0  8G07G05G23G09G16G30G02G06
 109739967.427 8  85511704.71847  20882824.539                    20882828.465
       979.395         763.408          50.300          42.200
 116931445.323 8  91115449.81546  22251320.438                    22251324.355
      2811.465        2190.842          49.400          36.800
 125243553.675 7  97592426.07645  23833066.281                    23833069.945
     -2909.656       -2267.194          44.700          30.600
 110080139.265 8  85776793.45347  20947558.141                    20947564.535
     -1946.000       -1516.201          51.000          44.400
 127148604.203 7  99076890.73343  24195584.078                    24195587.566
      -749.824        -583.991          42.800          22.200
 113383932.746 8  88351146.46846  21576243.320                    21576250.246
      2615.383        2038.120          52.100          41.700
 114794175.988 8  89450035.47446  21844614.148                    21844616.004
      -621.879        -484.340          49.700          38.700
 117468725.652 7  91534130.94846  22353565.898                    22353573.504
     -3068.645       -2391.028          46.500          37.200
 18  2 20  8 44  0.0000000  0  8G07G05G23G09G16G30G02G06
 109710844.683 8  85489011.68947  20877283.023                    20877286.844
       962.074         749.886          49.200          42.200
 116847226.501 8  91049824.76546  22235294.109                    22235298.441
      2803.098        2184.351          50.000          36.500
 125330889.767 7  97660480.13744  23849685.156                    23849689.102
     -2912.820       -2269.685          44.100          29.100
 110138659.660 8  85822393.75747  20958694.352                    20958700.715
     -1955.418       -1523.598          50.900          44.000
 127171402.255 7  99094655.45343  24199922.438                    24199925.215
      -770.070        -599.838          42.200          21.300
 113305673.960 8  88290165.62047  21561351.023                    21561358.035
      2601.883        2027.595          52.300          42.000
 114813105.426 8  89464785.67746  21848215.953                    21848217.777
      -640.051        -498.561          49.100          37.900
 117560949.226 7  91605993.44846  22371115.586                    22371123.574
     -3079.551       -2399.524          46.400          37.700
 18  2 20  8 44 30.0000000  0  8G07G05G23G09G16G30G02G06
 109682243.589 8  85466725.12847  20871840.375                    20871843.992
       944.703         736.354          49.100          42.800
 116763257.670 8  90984394.50746  22219315.203                    22219319.359
      2794.762        2177.863          50.500          37.000
 125418323.203 7  97728610.01644  23866322.742                    23866327.145
     -2916.059       -2272.215          42.400          27.500
 110197464.525 8  85868215.71147  20969884.664                    20969891.180
     -1964.836       -1530.947          50.800          44.300
 127194810.909 7  99112895.96343  24204377.211                    24204379.898
      -790.484        -615.665          43.000          20.900
 113227821.977 8  88229501.76947  21546536.367                    21546543.078
      2588.266        2017.007          52.400          42.200
 114832582.815 8  89479962.83946  21851922.719                    21851924.461
      -658.371        -512.756          49.100          38.500
 117653499.661 7  91678110.64946  22388726.977                    22388735.539
     -3090.348       -2407.975          46.300          37.500
 18  2 20  8 45  0.0000000  0  8G07G05G23G09G16G30G02G06
 109654163.777 8  85444844.75547  20866496.875                    20866500.895
       927.211         722.781          50.800          42.100
 116679542.188 8  90919161.67046  22203384.664                    22203388.848
      2786.180        2171.220          49.700          37.000
 125505853.131 6  97796815.06844  23882979.008                    23882982.719
     -2919.430       -2274.699          40.700          24.700
 110256552.355 8  85914258.16047  20981129.070                    20981134.594
     -1974.340       -1538.299          50.200          43.700
 127218828.813 6  99131611.20443  24208947.195                    24208950.293
      -810.906        -631.505          41.900          21.500
 113150378.413 8  88169156.15146  21531799.430                    21531806.137
      2574.574        2006.367          52.100          41.800
 114852607.148 8  89495566.21446  21855733.063                    21855735.063
      -676.637        -526.977          49.800          39.200
 117746373.778 7  91750480.05546  22406400.523                    22406408.820
     -3101.258       -2416.362          46.300          37.200
 18  2 20  8 45 30.0000000  0  8G07G05G23G09G16G30G02G06
 109626605.868 8  85423371.06947  20861252.688                    20861256.660
       909.996         709.253          49.500          42.500
 116596081.989 8  90854127.75946  22187502.508                    22187506.762
      2777.887        2164.613          49.100          36.400
 125593478.614 7  97865094.64143  23899653.945                    23899656.910
     -2922.379       -2277.156          42.300          23.900
 110315921.843 8  85960520.11647  20992426.453                    20992432.270
     -1983.570       -1545.569          52.600          44.300
 127243455.029 6  99150800.48343  24213633.164                    24213636.727
      -830.934        -647.256          40.700          21.100
 113073345.194 8  88109130.30146  21517140.430                    21517147.168
      2560.992        1995.709          53.300          41.900
 114873177.370 8  89511594.94146  21859647.383                    21859649.359
      -694.664        -541.118          49.400          38.900
 117839568.587 7  91823099.36746  22424134.906                    22424143.129
     -3111.676       -2424.631          45.500          37.400
 18  2 20  8 46  0.0000000  0  8G07G05G23G09G16G30G02G06
 109599570.793 8  85402304.78947  20856108.148                    20856112.105
       892.465         695.647          50.400          42.600
 116512878.470 8  90789293.84846  22171669.617                    22171673.871
      2769.223        2157.898          49.600          37.100
 125681199.123 7  97933448.28644  23916347.242                    23916349.930
     -2925.605       -2279.634          43.600          25.600
 110375572.103 8  86007000.83647  21003777.438                    21003783.145
     -1992.906       -1552.856          50.500          43.500
 127268689.453 7  99170463.66143  24218435.375                    24218438.969
      -851.156        -663.033          42.200          21.300
 112996724.586 8  88049425.94746  21502560.078                    21502566.902
      2547.184        1984.957          53.400          41.300
 114894293.159 8  89528048.79646  21863665.656                    21863667.500
      -712.934        -555.303          48.600          38.800
 117933081.576 7  91895966.59946  22441930.078                    22441937.746
     -3122.348       -2432.865          45.700          37.400
 18  2 20  8 46 30.0000000  0  8G07G05G23G09G16G30G02G06
 109573058.748 8  85381646.05647  20851063.008                    20851067.727
       875.020         682.067          50.800          42.600
 116429933.475 8  90724661.38246  22155885.508                    22155890.070
      2760.434        2151.179          49.200          37.500
 125769013.301 7  98001874.91144  23933058.047                    23933061.090
     -2928.738       -2282.039          44.800          27.400
 110435501.677 8  86053699.20147  21015181.563                    21015187.492
     -2002.297       -1560.103          52.700          44.500
 127294531.062 6  99190599.99543  24223352.539                    24223356.359
      -871.613        -678.800          40.900          21.800
 112920518.312 8  87990044.46946  21488058.625                    21488065.074
      2533.281        1974.170          52.800          41.600
 114915953.422 8  89544926.91046  21867787.336                    21867789.219
      -731.090        -569.420          48.800          38.100
 118026909.599 7  91969079.32046  22459784.727                    22459792.469
     -3132.809       -2441.003          45.400          36.000
 18  2 20  8 47  0.0000000  0  8G07G05G23G09G16G30G02G06
 109547070.363 8  85361395.37747  20846117.641                    20846121.906
       857.625         668.450          50.500          42.200
 116347248.919 7  90660231.86546  22140151.172                    22140155.723
      2751.816        2144.375          47.900          37.100
 125856920.536 7  98070373.99944  23949785.625                    23949789.746
     -2931.691       -2284.439          43.700          28.800
 110495709.720 8  86100614.54347  21026638.773                    21026644.695
     -2011.500       -1567.320          52.500          43.500
 127320979.354 6  99211209.07043  24228385.750                    24228388.910
      -891.574        -694.548          40.400          22.300
 112844728.613 8  87930987.57146  21473636.266                    21473642.434
      2519.477        1963.346          52.800          41.600
 114938157.700 8  89562228.92046  21872012.984                    21872014.656
      -749.141        -583.538          48.600          38.300
 118121050.133 7  92042435.56045  22477698.805                    22477707.586
     -3143.121       -2449.104          45.800          35.400
 18  2 20  8 47 30.0000000  0  8G07G05G23G09G16G30G02G06
 109521606.022 8  85341553.02347  20841272.000                    20841275.867
       840.211         654.856          51.500          42.500
 116264826.802 8  90596006.84846  22124466.867                    22124471.574
      2743.055        2137.523          49.400          37.000
 125944920.057 7  98138944.98744  23966531.633                    23966535.750
     -2934.758       -2286.832          42.200          28.200
 110556194.885 8  86147745.83547  21038148.875                    21038154.645
     -2020.695       -1574.493          52.100          43.900
 127348033.199 6  99232289.96643  24233534.055                    24233537.465
      -911.836        -710.270          41.300          21.700
 112769357.245 8  87872256.65247  21459293.523                    21459300.383
      2505.445        1952.443          51.300          42.800
 114960905.069 8  89579954.13246  21876341.602                    21876343.441
      -767.207        -597.630          48.800          38.000
 118215500.078 7  92116032.90245  22495672.125                    22495680.398
     -3153.410       -2457.086          45.200          35.200
 18  2 20  8 48  0.0000000  0  8G07G05G23G09G16G30G02G06
 109496666.333 8  85322119.51146  20836525.922                    20836529.781
       822.617         641.204          51.300          41.700
 116182670.452 8  90531988.91846  22108832.883                    22108837.426
      2734.160        2130.596          49.600          37.300
 126033011.003 7  98207587.20844  23983294.336                    23983298.867
     -2937.852       -2289.241          42.000          28.300
 110616955.972 8  86195092.13447  21049710.984                    21049717.617
     -2029.992       -1581.647          53.200          44.500
 127375692.250 6  99253842.49443  24238796.555                    24238801.219
      -931.988        -725.984          39.400          20.900
 112694406.135 8  87813853.21447  21445030.648                    21445037.703
      2491.426        1941.496          52.400          42.600
 114984194.818 8  89598101.98546  21880773.508                    21880775.121
      -785.289        -611.716          48.500          38.300
 118310256.633 7  92189869.16045  22513703.805                    22513711.648
     -3163.551       -2465.031          45.800          34.700
 18  2 20  8 48 30.0000000  0  8G07G05G23G09G16G30G02G06
 109472251.373 8  85303094.88146  20831879.844                    20831884.074
       805.074         627.556          51.300          41.900
 116100780.781 8  90468178.78546  22093250.219                    22093253.930
      2725.180        2123.649          48.700          37.400
 126121192.564 7  98276300.05044  24000075.203                    24000078.465
     -2940.934       -2291.552          42.600          27.800
 110677991.678 8  86242652.40847  21061325.891                    21061332.566
     -2039.035       -1588.783          52.300          43.700
 127403955.488 6  99275865.80243  24244175.703                    24244178.926
      -952.219        -741.670          39.500          21.700
 112619877.151 8  87755778.70147  21430848.430                    21430855.086
      2477.211        1930.500          52.700          42.600
 115008026.011 8  89616671.72646  21885308.109                    21885310.281
      -803.402        -625.773          49.400          38.000
 118405316.752 7  92263941.95745  22531793.641                    22531801.117
     -3173.758       -2472.878          45.200          34.300
 18  2 20  8 49  0.0000000  0  8G07G05G23G09G16G30G02G06
 109448362.101 8  85284479.87247  20827333.875                    20827337.922
       787.484         613.916          50.000          42.100
 116019160.236 7  90404578.36246  22077718.078                    22077722.188
      2716.141        2116.637          47.500          37.000
 126209463.601 7  98345082.65644  24016872.898                    24016876.305
     -2943.844       -2293.841          43.800          27.500
 110739301.153 9  86290426.00947  21072992.531                    21072999.117
     -2048.266       -1595.875          54.000          44.100
 127432821.913 6  99298359.11643  24249669.039                    24249672.480
      -972.375        -757.332          39.900          21.300
 112545772.497 8  87698034.84847  21416746.586                    21416753.430
      2463.020        1919.473          52.900          42.800
 115032397.624 8  89635662.57146  21889946.195                    21889947.875
      -821.457        -639.779          48.300          38.300
 118500677.860 7  92338249.27145  22549940.109                    22549948.383
     -3183.746       -2480.644          44.900          34.400
 18  2 20  8 49 30.0000000  0  8G07G05G23G09G16G30G02G06
 109424998.174 8  85266274.21147  20822887.891                    20822891.832
       769.957         600.252          50.500          42.600
 115937809.971 8  90341188.56046  22062237.539                    22062242.012
      2707.117        2109.562          48.700          37.100
 126297823.430 7  98413934.41944  24033686.867                    24033690.309
     -2946.820       -2296.154          45.300          27.300
 110800882.899 8  86338411.78647  21084711.563                    21084717.547
     -2057.336       -1602.936          53.900          43.800
 127462290.505 6  99321321.66643  24255276.727                    24255280.137
      -992.383        -772.967          40.800          21.500
 112472093.731 8  87640622.84147  21402726.008                    21402732.590
      2448.762        1908.367          52.000          42.600
 115057308.522 8  89655073.65646  21894686.313                    21894687.695
      -839.383        -653.799          49.300          38.200
 118596336.807 7  92412788.68545  22568143.430                    22568151.219
     -3193.676       -2488.363          44.300          35.400
 18  2 20  8 50  0.0000000  0  8G07G05G23G09G16G30G02G06
 109402160.250 8  85248478.43947  20818542.258                    20818546.152
       752.520         586.591          51.300          42.500
 115856732.459 8  90278011.27846  22046809.125                    22046813.086
      2697.988        2102.463          49.700          37.300
 126386271.503 7  98482854.96544  24050518.445                    24050521.680
     -2949.773       -2298.449          42.300          24.200
 110862735.801 8  86386608.85647  21096481.070                    21096488.219
     -2066.262       -1609.960          52.900          44.100
 127492360.464 6  99344752.78943  24260999.016                    24261001.594
     -1012.387        -788.566          40.400          22.500
 112398842.815 8  87583544.22947  21388786.500                    21388793.324
      2434.547        1897.244          52.300          42.400
 115082757.775 8  89674904.23346  21899529.273                    21899531.020
      -857.258        -667.773          49.300          38.400
 118692290.721 7  92487557.92345  22586402.953                    22586410.723
     -3203.266       -2495.971          44.800          35.000
 18  2 20  8 50 30.0000000  0  8G07G05G23G09G16G30G02G06
 109379848.703 8  85231092.82847  20814296.375                    20814300.055
       734.875         572.904          51.900          42.600
 115775929.410 8  90215047.86146  22031432.891                    22031437.094
      2688.789        2095.329          50.000          37.300
 126474806.769 7  98551843.44444  24067365.555                    24067369.277
     -2952.645       -2300.691          42.300          25.300
 110924858.772 8  86435016.32347  21108303.047                    21108309.367
     -2075.199       -1616.948          51.900          43.800
 127523030.567 6  99368651.55443  24266835.594                    24266838.012
     -1032.426        -804.155          40.900          22.000
 112326021.665 8  87526800.50547  21374929.359                    21374935.922
      2420.152        1886.061          51.700          42.700
 115108744.752 8  89695153.78646  21904474.398                    21904476.488
      -875.199        -681.720          49.100          38.200
 118788536.797 7  92562554.82845  22604717.805                    22604725.945
     -3213.055       -2503.548          45.800          35.200
 18  2 20  8 51  0.0000000  0  8G07G05G23G09G16G30G02G06
 109358063.582 8  85214117.40847  20810150.898                    20810154.816
       717.406         559.238          51.100          42.100
 115695403.902 8  90152300.71446  22016109.328                    22016113.695
      2679.504        2088.074          48.800          37.300
 126563428.438 7  98620899.25744  24084230.266                    24084233.914
     -2955.461       -2302.951          42.900          26.300
 110987250.481 8  86483633.23847  21120175.961                    21120181.996
     -2084.176       -1623.910          53.400          43.300
 127554300.179 6  99393017.51643  24272785.250                    24272788.410
     -1052.355        -819.705          41.300          22.200
 112253631.988 8  87470392.99547  21361154.219                    21361161.121
      2405.809        1874.827          52.600          42.400
 115135268.197 7  89715821.39646  21909522.055                    21909523.938
      -893.023        -695.638          47.800          37.500
 118885071.922 7  92637776.97845  22623088.133                    22623096.246
     -3222.680       -2511.007          44.700          35.300
 18  2 20  8 51 30.0000000  0  8G07G05G23G09G16G30G02G06
 109336805.528 8  85197552.70547  20806105.484                    20806110.109
       699.813         545.515          51.700          43.500
 115615157.579 8  90089771.12546  22000838.617                    22000843.211
      2670.207        2080.768          49.800          37.500
 126652135.636 7  98690021.68544  24101110.875                    24101115.000
     -2958.316       -2305.171          44.100          26.900
 111049909.934 8  86532458.78747  21132099.859                    21132105.762
     -2093.172       -1630.897          52.800          43.400
 127586168.159 6  99417849.67843  24278850.094                    24278853.297
     -1072.238        -835.297          41.100          22.300
 112181675.833 8  87414323.29047  21347460.969                    21347467.875
      2391.316        1863.509          52.000          42.700
 115162327.249 8  89736906.35446  21914670.930                    21914672.582
      -910.930        -709.579          48.000          38.100
 118981893.456 7  92713222.27846  22641512.594                    22641520.961
     -3232.234       -2518.445          45.200          36.200
 18  2 20  8 52  0.0000000  0  8G07G05G23G09G16G30G02G06
 109316075.568 8  85181399.48247  20802160.750                    20802165.070
       682.195         531.822          51.600          43.100
 115535192.892 8  90027460.99246  21985622.070                    21985626.246
      2660.828        2073.476          49.800          37.600
 126740928.603 7  98759210.95944  24118007.805                    24118011.887
     -2961.082       -2307.356          45.600          27.600
 111112836.767 8  86581492.67047  21144074.516                    21144080.953
     -2102.012       -1637.781          52.700          43.600
 127618634.725 7  99443148.30743  24285027.750                    24285031.605
     -1092.180        -850.750          42.000          22.300
 112110155.807 8  87358593.42247  21333851.273                    21333858.762
      2376.730        1852.177          52.200          42.400
 115189921.917 8  89758408.67146  21919921.953                    21919924.039
      -928.703        -723.472          48.400          37.600
 119078999.194 7  92788889.05446  22659991.328                    22659999.320
     -3241.520       -2525.757          44.700          36.000
 18  2 20  8 52 30.0000000  0  8G07G05G23G09G16G30G02G06
 109295873.345 8  85165657.50646  20798316.109                    20798320.055
       664.625         518.107          51.600          41.800
 115455511.564 8  89965371.64246  21970459.242                    21970463.273
      2651.320        2066.071          49.500          37.800
 126829805.829 7  98828465.87744  24134920.547                    24134924.547
     -2963.969       -2309.534          45.600          28.100
 111176029.039 8  86630733.38347  21156099.516                    21156106.051
     -2110.809       -1644.663          53.500          44.100
 127651697.134 7  99468911.21043  24291319.313                    24291323.105
     -1111.941        -866.181          42.100          22.300
 112039072.978 8  87303204.23647  21320324.281                    21320331.219
      2362.063        1840.810          51.400          42.600
 115218050.479 7  89780327.03446  21925274.570                    21925276.355
      -946.437        -737.288          47.100          37.600
 119176385.522 7  92864774.46545  22678522.742                    22678531.688
     -3250.934       -2533.005          45.200          35.500
 18  2 20  8 53  0.0000000  0  8G07G05G23G09G16G30G02G06
 109276198.651 8  85150326.58047  20794572.438                    20794576.152
       647.082         504.421          51.800          42.500
 115376114.769 8  89903504.00646  21955350.773                    21955354.730
      2641.848        2058.681          50.500          38.100
 126918765.897 7  98897785.34044  24151848.930                    24151852.902
     -2966.750       -2311.675          43.600          27.100
 111239485.440 8  86680179.93647  21168174.617                    21168179.793
     -2119.543       -1651.502          53.700          42.800
 127685354.945 6  99495138.03743  24297724.273                    24297727.883
     -1131.770        -881.644          41.800          22.200
 111968428.958 8  87248156.95847  21306881.227                    21306888.379
      2347.449        1829.397          51.300          42.200
 115246711.200 7  89802660.06446  21930728.438                    21930730.227
      -964.211        -751.089          47.500          37.300
 119274049.322 7  92940876.09645  22697107.938                    22697116.094
     -3260.086       -2540.175          45.400          35.400
 18  2 20  8 53 30.0000000  0  8G07G05G23G09G16G30G02G06
 109257051.922 8  85135407.06647  20790928.945                    20790933.508
       629.367         490.690          52.700          42.600
 115297005.015 8  89841860.04446  21940296.555                    21940300.246
      2632.180        2051.192          50.700          37.800
 127007808.341 7  98967169.02344  24168793.094                    24168796.754
     -2969.379       -2313.791          43.600          26.300
 111303204.878 8  86729831.45147  21180299.922                    21180306.418
     -2128.430       -1658.347          53.300          43.300
 127719607.185 6  99521828.08943  24304242.602                    24304246.488
     -1151.523        -897.124          39.600          22.000
 111898225.673 8  87193453.10747  21293522.109                    21293529.230
      2332.672        1817.908          51.600          42.000
 115275903.418 7  89825407.24246  21936283.586                    21936285.398
      -981.926        -764.888          47.900          36.900
 119371987.752 7  93017191.72545  22715745.344                    22715753.156
     -3269.090       -2547.259          45.500          34.600
 18  2 20  8 54  0.0000000  0  8G07G05G23G09G16G30G02G06
 109238433.120 8  85120898.90547  20787386.078                    20787390.148
       611.773         476.980          51.100          42.400
 115218184.418 8  89780441.40046  21925297.422                    21925301.457
      2622.543        2043.645          49.900          37.600
 127096932.291 7  99036616.21944  24185753.117                    24185757.055
     -2972.039       -2315.900          44.100          27.200
 111367185.997 8  86779686.83647  21192475.711                    21192482.012
     -2136.977       -1665.100          52.300          44.000
 127754452.497 6  99548980.27343  24310872.547                    24310877.512
     -1171.293        -912.500          40.400          22.200
 111828464.649 8  87139093.88247  21280246.820                    21280254.117
      2317.996        1806.425          52.100          42.400
 115305625.622 7  89848567.38846  21941939.391                    21941941.984
      -999.559        -778.642          47.300          36.900
 119470197.676 7  93093718.92145  22734433.828                    22734441.816
     -3278.062       -2554.267          45.600          35.400
 18  2 20  8 54 30.0000000  0  8G07G05G23G09G16G30G02G06
 109220342.458 8  85106802.29547  20783943.172                    20783947.363
       594.199         463.249          51.700          42.300
 115139654.641 8  89719249.36846  21910353.727                    21910358.168
      2612.840        2036.067          51.000          38.600
 127186136.961 7  99106126.30544  24202727.813                    24202732.199
     -2974.863       -2318.003          43.800          24.800
 111431427.689 9  86829745.28947  21204700.484                    21204706.508
     -2145.699       -1671.870          54.100          43.600
 127789889.113 6  99576593.21143  24317616.719                    24317620.523
     -1190.930        -927.847          39.500          21.800
 111759147.781 8  87085080.76847  21267056.398                    21267063.738
      2303.188        1794.855          52.900          42.800
 115335877.021 7  89872139.89146  21947696.844                    21947698.133
     -1017.203        -792.380          46.400          36.700
 119568676.315 7  93170455.48445  22753173.563                    22753182.031
     -3287.078       -2561.219          45.600          33.900
 18  2 20  8 55  0.0000000  0  8G07G05G23G09G16G30G02G06
 109202780.289 8  85093117.49747  20780601.367                    20780605.711
       576.480         449.514          51.600          42.700
 115061418.308 8  89658286.00546  21895465.977                    21895469.840
      2602.910        2028.406          51.400          38.100
 127275421.377 7  99175698.48544  24219718.172                    24219722.289
     -2977.488       -2320.083          44.100          26.700
 111495928.960 8  86880006.01547  21216973.984                    21216979.836
     -2154.402       -1678.625          51.800          42.900
 127825916.768 6  99604666.65343  24324472.500                    24324476.379
     -1210.727        -943.173          38.500          21.700
 111690276.892 8  87031415.15647  21253950.516                    21253957.770
      2288.207        1783.242          51.700          42.300
 115366656.385 7  89896123.79746  21953553.102                    21953555.156
     -1034.824        -806.087          45.700          36.700
 119667420.787 7  93247399.20445  22771964.430                    22771972.367
     -3295.922       -2568.120          45.200          35.100
 18  2 20  8 55 30.0000000  0  8G07G05G23G09G16G30G02G06
 109185746.623 8  85079844.51247  20777359.680                    20777364.133
       558.949         435.789          51.400          42.900
 114983476.591 8  89597552.20246  21880634.055                    21880637.871
      2593.105        2020.737          51.200          38.800
 127364785.006 7  99245332.43044  24236723.742                    24236727.160
     -2980.195       -2322.115          43.700          25.800
 111560688.397 8  86930467.90147  21229297.953                    21229304.395
     -2162.992       -1685.308          52.600          44.100
 127862533.448 6  99633199.08943  24331440.859                    24331444.500
     -1230.406        -958.472          40.200          21.500
 111621853.548 8  86978098.27947  21240929.984                    21240936.984
      2273.238        1771.604          52.400          42.900
 115397962.298 7  89920518.00846  21959510.438                    21959512.313
     -1052.320        -819.742          46.400          36.900
 119766427.916 7  93324547.59045  22790804.555                    22790813.301
     -3304.645       -2574.886          45.300          33.700
 18  2 20  8 56  0.0000000  0  8G07G05G23G09G16G30G02G06
 109169242.215 8  85066983.94147  20774219.445                    20774223.328
       541.348         422.024          51.600          42.400
 114905832.373 8  89537050.22446  21865858.758                    21865862.953
      2583.125        2012.964          51.000          38.900
 127454227.174 6  99315027.60043  24253743.680                    24253747.477
     -2982.516       -2324.152          41.600          23.500
 111625705.210 8  86981130.32347  21241669.992                    21241677.086
     -2171.527       -1691.980          52.900          43.900
 127899738.685 6  99662190.14643  24338520.594                    24338523.789
     -1249.926        -973.716          38.100          21.300
 111553879.784 8  86925131.72347  21227995.266                    21228001.973
      2258.188        1759.874          52.600          42.600
 115429793.728 7  89945321.69246  21965568.375                    21965569.688
     -1069.809        -833.375          46.300          36.000
 119865695.145 7  93401898.62645  22809694.508                    22809702.480
     -3313.242       -2581.615          45.100          33.100
 18  2 20  8 56 30.0000000  0  8G07G05G23G09G16G30G02G06
 109153266.291 8  85054535.17747  20771179.328                    20771182.727
       523.707         408.341          51.300          42.900
 114828487.482 8  89476781.48446  21851140.500                    21851144.898
      2573.148        2005.210          50.000          38.400
 127543746.927 7  99384783.20744  24270778.789                    24270782.727
     -2985.160       -2326.123          42.200          24.600
 111690978.034 8  87031992.26246  21254090.469                    21254096.680
     -2180.031       -1698.586          50.300          41.700
 127937531.105 6  99691638.76043  24345711.359                    24345716.449
     -1269.496        -988.974          39.500          21.700
 111486357.133 8  86872516.67547  21215146.398                    21215152.699
      2243.285        1748.172          52.700          42.100
 115462149.443 7  89970533.92646  21971725.070                    21971726.496
     -1087.281        -846.968          47.000          36.300
 119965219.368 7  93479449.93045  22828632.727                    22828641.563
     -3321.738       -2588.212          44.600          33.000
 18  2 20  8 57  0.0000000  0  8G07G05G23G09G16G30G02G06
 109137819.546 8  85042498.76647  20768239.805                    20768243.539
       506.047         394.547          52.000          43.200
 114751444.072 8  89416747.65646  21836479.773                    21836483.613
      2563.055        1997.302          50.500          38.300
 127633343.487 7  99454598.62344  24287828.641                    24287832.719
     -2987.805       -2328.140          43.200          24.400
 111756505.989 8  87083052.97547  21266560.844                    21266566.668
     -2188.578       -1705.242          52.700          43.600
 127975909.362 6  99721543.87143  24353015.875                    24353019.043
     -1289.066       -1004.201          39.600          21.800
 111419287.478 8  86820254.61747  21202383.172                    21202389.816
      2228.051        1736.360          52.000          42.600
 115495028.895 7  89996154.27546  21977982.086                    21977983.738
     -1104.812        -860.600          46.200          36.500
 120064997.727 7  93557199.24145  22847620.570                    22847628.844
     -3330.219       -2594.844          44.900          33.200
 18  2 20  8 57 30.0000000  0  8G07G05G23G09G16G30G02G06
 109122901.730 8  85030874.51047  20765401.070                    20765404.934
       488.547         380.878          51.300          43.500
 114674704.279 8  89356950.41846  21821876.258                    21821880.500
      2553.004        1989.444          50.700          39.000
 127723016.102 7  99524473.31243  24304892.484                    24304896.461
     -2990.359       -2330.079          43.900          23.800
 111822287.491 8  87134311.31847  21279077.859                    21279084.949
     -2196.852       -1711.757          51.200          43.300
 128014871.695 6  99751904.10543  24360429.727                    24360433.230
     -1308.277       -1019.297          39.000          22.000
 111352672.216 8  86768346.65147  21189706.633                    21189713.621
      2213.051        1724.591          53.200          42.700
 115528429.983 7  90022181.10646  21984338.203                    21984340.086
     -1121.988        -874.060          45.000          36.500
 120165026.979 7  93635144.06245  22866655.617                    22866663.637
     -3338.340       -2601.241          44.300          32.600
 18  2 20  8 58  0.0000000  0  8G07G05G23G09G16G30G02G06
 109108513.112 8  85019662.60247  20762662.820                    20762666.715
       470.711         367.095          51.100          43.000
 114598270.037 8  89297391.28546  21807331.453                    21807335.855
      2542.691        1981.443          49.900          38.700
 127812764.330 7  99594406.93444  24321971.492                    24321975.465
     -2992.863       -2332.046          45.100          25.600
 111888321.923 8  87185766.67947  21291643.914                    21291651.863
     -2205.383       -1718.337          52.000          43.500
 128054417.441 6  99782718.94243  24367954.844                    24367958.586
     -1327.906       -1034.456          38.900          21.800
 111286513.353 8  86716794.31247  21177116.805                    21177123.699
      2197.699        1712.692          52.800          42.700
 115562351.743 7  90048613.62546  21990792.945                    21990794.477
     -1139.371        -887.591          46.800          36.500
 120265304.629 7  93713282.46945  22885737.922                    22885745.301
     -3346.785       -2607.707          46.000          32.300
 18  2 20  8 58 30.0000000  0  8G07G05G23G09G16G30G02G06
 109094653.491 8  85008862.90847  20760025.172                    20760029.680
       453.215         353.346          51.100          43.300
 114522143.566 8  89238071.96246  21792845.211                    21792849.109
      2532.445        1973.416          48.800          38.100
 127902586.974 7  99664398.52144  24339064.188                    24339067.977
     -2995.242       -2333.990          44.100          25.800
 111954607.833 8  87237418.00147  21304258.258                    21304264.211
     -2213.687       -1724.852          51.700          43.300
 128094545.105 6  99813987.22443  24375590.664                    24375594.688
     -1347.074       -1049.516          38.400          20.900
 111220812.327 8  86665598.71747  21164614.727                    21164621.344
      2182.371        1700.777          53.000          42.600
 115596792.838 7  90075450.84846  21997346.930                    21997348.770
     -1156.586        -901.054          45.400          36.000
 120365827.383 7  93791611.84845  22904866.891                    22904874.891
     -3354.750       -2614.017          46.300          33.300
 18  2 20  8 59  0.0000000  0  8G07G05G23G09G16G30G02G06
 109081323.090 8  84998475.59347  20757488.750                    20757492.680
       435.559         339.619          50.800          42.900
 114446326.612 8  89178993.81046  21778417.984                    21778421.664
      2522.117        1965.403          49.200          38.900
 127992483.385 6  99734447.60344  24356170.852                    24356175.234
     -2997.824       -2335.867          41.800          25.200
 112021144.050 8  87289264.41947  21316918.813                    21316925.582
     -2221.953       -1731.320          53.200          42.800
 128135252.912 6  99845707.61843  24383337.148                    24383341.039
     -1366.398       -1064.596          40.900          21.300
 111155570.845 8  86614761.20947  21152199.852                    21152206.074
      2167.070        1688.815          52.900          43.100
 115631752.036 7  90102691.79046  22003999.492                    22004001.289
     -1173.875        -914.511          46.700          36.800
 120466592.405 7  93870130.01045  22924042.070                    22924049.598
     -3362.824       -2620.266          45.900          32.100
 18  2 20  8 59 30.0000000  0  8G07G05G23G09G16G30G02G06
 109068521.840 8  84988500.59447  20755052.563                    20755056.746
       417.840         325.831          51.000          42.500
 114370821.175 8  89120158.41646  21764049.422                    21764053.477
      2511.543        1957.205          49.700          39.200
 128082452.710 7  99804553.48044  24373291.398                    24373295.539
     -3000.324       -2337.831          42.300          24.900
 112087929.573 8  87341305.06847  21329628.102                    21329634.293
     -2230.320       -1737.852          52.800          42.400
 128176539.956 6  99877879.28343  24391193.727                    24391198.461
     -1385.895       -1079.688          39.800          20.900
 111090790.488 8  86564283.02147  21139872.023                    21139878.867
      2151.633        1676.757          52.700          43.600
 115667227.852 7  90130335.26046  22010750.375                    22010752.504
     -1191.191        -927.962          47.500          36.700
 120567596.692 7  93948834.64345  22943262.383                    22943270.336
     -3370.801       -2626.494          46.000          33.100
                            4  1
RINEX FILE SPLICE; other post-header comments skipped       COMMENT
 18  2 20  9  0  0.0000000  0  8G07G05G23G09G16G30G02G06
 109056250.217 8  84978938.29547  20752717.563                    20752721.734
       400.258                          50.700          43.400
 114295629.800 8  89061567.73246  21749741.008                    21749744.980
      2501.199                          49.600          39.000
 128172494.679 6  99874715.95843  24390426.156                    24390430.316
     -3002.531                          40.500          23.000
 112154963.532 8  87393539.30547  21342384.352                    21342391.129
     -2238.609                          52.600          42.700
 128218405.018 6  99910501.41243  24399161.414                    24399164.031
     -1405.168                          40.900          20.600
 111026473.243 8  86514165.70947  21127632.984                    21127639.621
      2136.285                          53.400          43.900
 115703219.317 7  90158380.53046  22017599.867                    22017601.191
     -1208.176                          47.000          36.500
 120668837.699 7  94027723.69045  22962527.859                    22962536.355
     -3378.629                          45.500          32.400
 18  2 20  9  0 30.0000000  0  8G07G05G23G09G16G30G02G06
 109044507.564 8  84969788.18347  20750483.242                    20750487.281
       382.586         298.361          52.200          42.700
 114220753.868 8  89003222.85146  21735492.641                    21735496.965
      2490.512        1940.855          49.700          38.900
 128262607.996 7  99944934.03643  24407573.828                    24407578.117
     -3005.020       -2341.494          42.400          23.000
 112222244.388 8  87445965.90347  21355187.891                    21355194.078
     -2246.809       -1750.652          52.800          42.800
 128260846.638 6  99943572.79343  24407236.656                    24407240.336
     -1424.328       -1109.598          41.500          21.300
 110962620.340 8  86464410.21747  21115482.273                    21115489.230
      2120.652        1652.668          52.800          43.900
 115739724.615 7  90186826.17746  22024546.273                    22024548.266
     -1225.465        -954.638          47.800          37.100
 120770311.964 7  94106794.54045  22981837.781                    22981845.496
     -3386.406       -2638.608          44.800          32.600
 18  2 20  9  1  0.0000000  0  8G07G05G23G09G16G30G02G06
 109033294.106 8  84961050.43447  20748349.203                    20748353.336
       365.012         284.619          52.300          43.200
 114146196.362 8  88945126.09846  21721304.922                    21721309.309
      2479.957        1932.540          50.600          39.400
 128352792.388 7 100015207.50144  24424736.148                    24424739.648
     -3007.242       -2343.324          42.900          25.100
 112289771.375 8  87498584.35746  21368037.633                    21368042.586
     -2255.004       -1757.032          51.600          41.100
 128303862.844 6  99977091.89943  24415422.672                    24415426.129
     -1443.461       -1124.529          40.300          22.000
 110899233.615 8  86415017.97447  21103420.305                    21103427.352
      2105.074        1640.551          53.000          44.100
 115776742.833 8  90215671.52746  22031590.469                    22031592.480
     -1242.445        -967.932          48.700          36.900
 120872016.921 7  94186045.10845  23001191.656                    23001200.348
     -3393.879       -2644.552          45.900          34.200
 18  2 20  9  1 30.0000000  0  8G07G05G23G09G16G30G02G06
 109022609.475 8  84952724.75547  20746315.969                    20746319.750
       347.285         270.869          51.800          43.400
 114071958.916 8  88887278.73846  21707177.727                    21707182.035
      2469.133        1924.213          51.300          39.100
 128443046.957 7 100085535.62243  24441910.633                    24441914.320
     -3009.711       -2345.153          42.100          23.900
 112357543.106 8  87551393.48847  21380934.703                    21380940.965
     -2263.266       -1763.378          51.900          42.800
 128347452.216 6 100011057.66543  24423717.883                    24423720.395
     -1462.691       -1139.411          39.800          19.600
 110836314.415 8  86365990.04347  21091447.164                    21091454.156
      2089.352        1628.373          52.700          44.000
 115814272.027 8  90244915.06746  22038732.266                    22038734.438
     -1259.477        -981.207          48.500          36.400
 120973949.300 7  94265472.89745  23020588.430                    23020596.680
     -3401.680       -2650.445          44.300          33.200
 18  2 20  9  2  0.0000000  0  9G07G05G23G09G16G30G13G02G06
 109012453.988 8  84944811.39447  20744383.000                    20744387.375
       329.715         257.127          52.700          42.700
 113998043.244 8  88829682.11046  21693112.031                    21693116.676
      2458.434        1915.814          51.100          39.700
 128533370.827 7 100155917.74244  24459099.148                    24459102.488
     -3011.867       -2346.937          42.300          24.900
 112425558.572 8  87604392.52147  21393877.773                    21393884.402
     -2271.270       -1769.722          51.900          43.400
 128391613.678 6 100045469.15443  24432121.406                    24432124.602
     -1481.602       -1154.253          39.700          21.800
 110773864.456 8  86317327.74647  21079563.180                    21079570.262
      2073.773        1616.157          52.800          43.900
 129719108.364 6 101079881.05043  24684733.055                    24684738.793
      3321.656        2588.397          41.200          21.500
 115852311.165 8  90274555.95746  22045970.375                    22045972.047
     -1276.520        -994.405          49.100          37.100
 121076106.308 7  94345075.71445  23040028.438                    23040036.969
     -3409.020       -2656.249          44.800          33.600
 18  2 20  9  2 30.0000000  0  9G07G05G23G09G16G30G13G02G06
 109002828.044 8  84937310.66347  20742551.617                    20742555.938
       312.043         243.359          52.700          43.300
 113924451.994 8  88772338.28946  21679108.508                    21679112.930
      2447.684        1907.365          51.500          39.900
 128623763.764 7 100226353.70544  24476300.633                    24476303.902
     -3014.195       -2348.725          43.000          24.300
 112493816.904 8  87657580.81647  21406866.125                    21406873.082
     -2279.234       -1775.993          51.500          42.300
 128436345.973 6 100080325.46043  24440633.047                    24440637.578
     -1500.543       -1169.036          39.300          19.600
 110711885.554 8  86269032.49547  21067769.133                    21067776.125
      2058.078        1603.911          52.300          43.900
 129619497.730 6 101002262.43543  24665778.438                    24665783.215
      3318.785        2586.202          41.300          20.400
 115890858.915 8  90304593.18846  22053305.844                    22053308.363
     -1293.363       -1007.635          48.000          37.200
 121178485.170 7  94424851.41245  23059510.484                    23059518.668
     -3416.238       -2661.952          45.000          33.600
 18  2 20  9  3  0.0000000  0  9G07G05G23G09G16G30G13G02G06
 108993730.224 8  84930221.45647  20740820.172                    20740824.480
       294.461         229.653          52.500          43.200
 113851186.553 8  88715248.34546  21665166.547                    21665170.777
      2436.715        1898.875          51.200          39.600
 128714224.141 6 100296842.23244  24493514.648                    24493517.832
     -3016.457       -2350.479          41.100          25.300
 112562316.564 8  87710957.15546  21419901.469                    21419905.777
     -2287.281       -1782.244          52.100          40.600
 128481646.711 6 100115624.69743  24449254.227                    24449257.391
     -1519.465       -1183.781          40.200          22.000
 110650378.651 8  86221105.06547  21056064.453                    21056071.316
      2042.367        1591.612          53.200          43.900
 129519971.903 6 100924709.87243  24646838.195                    24646843.477
      3316.059        2584.001          39.600          19.000
 115929913.354 8  90335025.21146  22060737.750                    22060739.324
     -1310.180       -1020.762          48.600          36.600
 121281082.489 7  94504797.33545  23079033.922                    23079042.605
     -3423.488       -2667.602          44.600          33.500
 18  2 20  9  3 30.0000000  0  9G07G05G23G09G16G30G13G02G06
 108985160.821 8  84923544.00947  20739189.688                    20739194.117
       276.906         215.976          52.100          42.800
 113778249.431 8  88658414.22146  21651287.109                    21651291.316
      2425.855        1890.369          52.300          39.400
 128804751.906 6 100367383.22844  24510741.555                    24510745.082
     -3018.664       -2352.167          41.700          24.700
 112631056.380 8  87764520.69947  21432982.219                    21432989.305
     -2295.359       -1788.439          52.500          43.200
 128527514.419 6 100151365.76043  24457981.844                    24457985.430
     -1538.332       -1198.444          41.300          21.500
 110589345.411 8  86173546.70347  21044450.555                    21044457.680
      2026.613        1579.359          53.200          44.400
 129420531.479 6 100847223.80643  24627915.430                    24627920.031
      3313.484        2581.828          38.900          18.300
 115969473.056 7  90365850.95446  22068265.813                    22068267.641
     -1326.965       -1033.840          47.100          36.500
 121383895.351 7  94584911.20045  23098599.422                    23098607.336
     -3430.676       -2673.120          45.200          32.800
 18  2 20  9  4  0.0000000  0  9G07G05G23G09G16G30G13G02G06
 108977120.070 8  84917278.48247  20737659.289                    20737663.164
       259.156         202.210          52.400          42.200
 113705642.728 8  88601837.56746  21637470.328                    21637474.813
      2414.715        1881.714          51.300          39.200
 128895346.062 6 100437975.99643  24527980.633                    24527984.281
     -3021.066       -2353.956          41.300          22.200
 112700035.531 8  87818270.63447  21446107.727                    21446116.289
     -2303.332       -1794.658          51.900          43.100
 128573947.649 6 100187547.45543  24466818.719                    24466821.531
     -1557.145       -1213.128          41.300          20.400
 110528787.514 8  86126358.74647  21032926.430                    21032933.309
      2010.605        1566.955          53.700          44.200
 129321177.092 6 100769804.88442  24609009.070                    24609013.957
      3310.355        2579.512          37.900          17.800
 116009536.699 7  90397069.37346  22075889.953                    22075891.535
     -1343.949       -1046.923          47.900          37.000
 121486920.972 7  94665190.86545  23118203.953                    23118212.176
     -3437.738       -2678.637          45.000          32.600
 18  2 20  9  4 30.0000000  0  9G07G05G23G09G16G30G13G02G06
 108969607.435 8  84911424.49647  20736229.734                    20736233.926
       241.688         188.513          52.600          43.100
 113633368.498 8  88545519.98546  21623716.852                    21623721.340
      2403.629        1873.069          52.200          39.800
 128986005.710 7 100508619.74444  24545232.609                    24545236.625
     -3023.023       -2355.617          42.600          24.700
 112769252.704 8  87872206.02247  21459280.383                    21459285.828
     -2311.156       -1800.821          52.000          42.100
 128620945.157 6 100224168.86643  24475761.422                    24475765.129
     -1575.781       -1227.719          41.800          21.500
 110468706.230 8  86079542.17347  21021493.523                    21021500.336
      1994.754        1554.555          52.700          44.100
 129221910.267 6 100692454.09843  24590119.039                    24590124.156
      3307.438        2577.285          37.500          20.600
 116050102.408 7  90428679.01546  22083609.102                    22083611.301
     -1360.523       -1059.926          46.400          36.800
 121590156.151 7  94745633.82745  23137849.297                    23137857.430
     -3444.609       -2684.039          45.300          33.200
 18  2 20  9  5  0.0000000  0  9G07G05G23G09G16G30G13G02G06
 108962622.637 8  84905981.80847  20734900.625                    20734904.605
       223.969         174.793          52.300          42.400
 113561428.249 8  88489462.64746  21610026.891                    21610031.410
      2392.418        1864.363          52.600          40.000
 129076730.204 7 100579314.04244  24562497.383                    24562501.480
     -3025.230       -2357.269          43.200          25.800
 112838706.693 8  87926326.05447  21472497.133                    21472502.199
     -2319.094       -1806.970          53.500          42.700
 128668505.028 6 100261228.51043  24484811.844                    24484815.531
     -1594.781       -1242.364          40.800          20.100
 110409103.018 8  86033098.13147  21010151.617                    21010158.180
      1978.703        1542.103          53.000          44.000
 129122731.427 6 100615171.90143  24571246.547                    24571250.801
      3304.461        2574.997          37.700          19.600
 116091168.643 7  90460678.68346  22091423.977                    22091425.652
     -1377.211       -1072.931          45.400          36.900
 121693597.951 7  94826237.75945  23157533.500                    23157542.309
     -3451.551       -2689.374          44.900          31.400
 18  2 20  9  5 30.0000000  0  9G07G05G23G09G16G30G13G02G06
 108956165.531 8  84900950.28847  20733672.023                    20733675.668
       206.520         161.091          52.100          42.600
 113489824.644 8  88433667.63946  21596401.508                    21596405.676
      2381.262        1855.592          52.000          39.700
 129167519.169 7 100650058.60444  24579774.328                    24579777.320
     -3027.199       -2358.939          43.800          24.600
 112908396.595 8  87980629.86247  21485757.289                    21485765.664
     -2326.871       -1813.081          50.300          42.400
 128716625.224 6 100298724.73143  24493968.570                    24493973.070
     -1613.305       -1256.903          41.600          20.400
 110349979.428 9  85987027.81347  20998900.742                    20998907.223
      1962.801        1529.651          54.100          44.400
 129023641.418 6 100537958.94843  24552390.164                    24552394.555
      3301.609        2572.654          37.500          20.900
 116132734.125 7  90493067.38346  22099333.391                    22099335.488
     -1393.754       -1085.865          45.100          37.400
 121797243.465 7  94907000.45945  23177256.633                    23177264.941
     -3458.043       -2694.620          44.500          31.400
 18  2 20  9  6  0.0000000  0  9G07G05G23G09G16G30G13G02G06
 108950235.968 8  84896329.85847  20732543.695                    20732547.516
       188.820         147.400          52.700          42.800
 113418559.337 8  88378136.22846  21582839.820                    21582844.293
      2369.855        1846.797          52.300          39.000
 129258371.469 6 100720852.49143  24597062.164                    24597066.465
     -3029.687       -2360.580          41.200          22.900
 112978321.343 8  88035116.57947  21499064.930                    21499072.688
     -2334.668       -1819.143          52.700          43.800
 128765304.659 6 100336656.73043  24503232.250                    24503235.531
     -1632.051       -1271.362          40.900          20.600
 110291336.862 8  85941332.32347  20987741.313                    20987748.156
      1946.758        1517.145          53.500          44.000
 128924640.930 6 100460815.72543  24533551.141                    24533557.320
      3298.488        2570.306          38.400          21.500
 116174796.938 7  90525843.57946  22107336.984                    22107339.504
     -1410.379       -1098.745          44.900          37.300
 121901089.757 7  94987919.60745  23197017.656                    23197025.996
     -3464.883       -2699.784          45.000          30.200
 18  2 20  9  6 30.0000000  0  9G07G05G23G09G16G30G13G02G06
 108944834.599 8  84892121.00347  20731516.039                    20731519.922
       171.270         133.664          51.900          42.700
 113347635.163 8  88322870.64546  21569343.711                    21569348.141
      2358.465        1837.889          51.700          39.400
 129349286.938 7 100791695.64443  24614363.500                    24614366.336
     -3031.492       -2362.230          42.100          22.600
 113048480.135 8  88089785.75746  21512415.430                    21512421.023
     -2342.480       -1825.220          53.100          41.800
 128814541.674 6 100375023.21543  24512601.367                    24512606.258
     -1650.480       -1285.873          40.500          19.000
 110233177.285 8  85896013.16647  20976673.836                    20976680.996
      1930.609        1504.579          53.300          44.500
 128825731.522 6 100383743.49743  24514728.984                    24514734.516
      3295.438        2567.940          38.700          20.600
 116217356.220 7  90559006.64146  22115436.438                    22115438.438
     -1426.809       -1111.646          45.700          37.200
 122005134.303 7  95068993.23145  23216817.203                    23216825.086
     -3471.395       -2704.915          44.900          31.600
 18  2 20  9  7  0.0000000  0  9G07G05G23G09G16G30G13G02G06
 108939959.985 8  84888322.60547  20730588.008                    20730591.957
       153.738         120.010          52.300          42.500
 113277053.790 8  88267872.16946  21555912.438                    21555916.520
      2347.008        1828.958          52.400          40.200
 129440264.474 6 100862587.17143  24631676.078                    24631679.215
     -3033.605       -2363.824          40.300          20.900
 113118871.526 8  88144636.22846  21525809.883                    21525815.836
     -2350.145       -1831.245          50.600          40.800
 128864334.149 6 100413822.51743  24522076.023                    24522080.348
     -1668.953       -1300.260          38.900          19.600
 110175501.557 8  85851071.06047  20965698.227                    20965705.621
      1914.488        1491.990          53.200          44.500
 128726913.250 6 100306742.32043  24495924.594                    24495929.715
      3292.449        2565.561          39.700          22.000
 116260409.840 7  90592554.91846  22123628.766                    22123631.270
     -1443.301       -1124.466          47.000          36.400
 122109373.624 7  95150218.63945  23236653.047                    23236661.129
     -3477.836       -2709.956          44.600          31.900
 18  2 20  9  7 30.0000000  0  9G07G05G23G09G16G30G13G02G06
 108935611.637 8  84884934.28947  20729760.906                    20729764.680
       136.129         106.351          52.600          42.600
 113206816.740 8  88213142.00046  21542546.852                    21542550.723
      2335.383        1820.000          52.500          39.900
 129531303.017 6 100933526.26843  24648999.852                    24649003.098
     -3035.703       -2365.396          41.600          22.500
 113189494.132 8  88199666.77247  21539250.539                    21539256.547
     -2357.961       -1837.228          52.700          43.500
 128914680.556 6 100453053.44443  24531657.281                    24531661.816
     -1687.500       -1314.657          38.500          19.600
 110118310.843 8  85806506.87047  20954815.609                    20954822.555
      1898.223        1479.375          52.800          44.700
 128628186.707 6 100229812.55043  24477137.453                    24477142.578
      3289.387        2563.191          38.900          21.800
 116303955.794 7  90626486.79946  22131916.023                    22131917.719
     -1459.805       -1137.224          47.200          36.600
 122213804.503 7  95231593.30745  23256525.430                    23256533.473
     -3484.246       -2714.868          46.600          31.500
 18  2 20  9  8  0.0000000  0  9G07G05G23G09G16G30G13G02G06
 108931789.947 8  84881956.35947  20729033.289                    20729037.488
       118.586          92.646          53.100          42.600
 113136926.424 8  88158682.01046  21529247.078                    21529251.375
      2323.898        1810.982          52.400          40.200
 129622402.442 6 101004512.76643  24666335.648                    24666338.945
     -3037.746       -2366.962          39.700          22.500
 113260347.243 8  88254876.96647  21552732.656                    21552739.727
     -2365.625       -1843.230          52.800          42.800
 128965579.303 6 100492714.77543  24541344.070                    24541347.129
     -1705.750       -1328.976          38.900          20.600
 110061606.910 8  85762321.99947  20944025.047                    20944032.219
      1882.031        1466.704          53.400          44.900
 128529553.423 6 100152955.47043  24458367.867                    24458373.098
      3286.164        2560.733          41.800          22.500
 116347992.913 7  90660801.43646  22140295.742                    22140297.414
     -1476.055       -1149.983          45.800          36.500
 122318424.387 7  95313115.26845  23276434.352                    23276442.586
     -3490.500       -2719.747          45.200          31.400
 18  2 20  9  8 30.0000000  0  8G07G05G09G16G30G13G02G06
 108928494.452 8  84879388.44247  20728406.313                    20728410.586
       101.066          79.012          52.500          42.900
 113067384.808 8  88104493.74246  21516013.664                    21516017.660
      2312.133        1801.878          51.600          39.700
 113331429.777 8  88310265.90546  21566258.844                    21566265.008
     -2373.215       -1849.146          50.900          41.100
 129017027.850 6 100532804.55443  24551132.688                    24551138.016
     -1724.105       -1343.196          39.500          19.600
 110005391.056 8  85718517.44847  20933327.461                    20933334.828
      1865.711        1454.039          52.800          44.400
 128431013.595 6 100076171.19443  24439616.914                    24439620.676
      3283.051        2558.295          41.800          21.500
 116392519.442 7  90695497.40146  22148768.883                    22148770.520
     -1492.395       -1162.659          47.600          36.300
 122423230.209 7  95394782.12645  23296378.094                    23296386.391
     -3496.598       -2724.508          47.600          32.700
 18  2 20  9  9  0.0000000  0  8G07G05G09G16G30G13G02G06
 108925724.748 8  84877230.23547  20727879.164                    20727883.316
        83.570          65.340          52.300          42.400
 112998194.237 8  88050579.01346  21502847.180                    21502851.684
      2300.523        1792.728          52.500          40.000
 113402740.458 8  88365832.70146  21579829.445                    21579834.320
     -2380.738       -1855.084          50.900          41.000
 129069025.095 6 100573321.84043  24561028.297                    24561033.023
     -1742.488       -1357.473          38.000          19.000
 109949664.523 8  85675094.18747  20922723.273                    20922729.957
      1849.434        1441.275          53.400          44.600
 128332568.398 6  99999460.69243  24420883.727                    24420887.504
      3280.090        2555.840          40.400          21.800
 116437533.304 7  90730573.12946  22157334.781                    22157336.754
     -1508.520       -1175.306          46.200          36.300
 122528218.912 7  95476591.44445  23316356.828                    23316365.188
     -3502.586       -2729.270          44.100          33.000
 18  2 20  9  9 30.0000000  0  8G07G05G09G16G30G13G02G06
 108923480.344 8  84875481.35547  20727452.352                    20727455.984
        65.996          51.695          52.100          42.600
 112929356.785 8  87996939.44846  21489747.977                    21489751.941
      2288.637        1783.524          52.000          40.100
 113474278.232 8  88421576.41147  21593442.461                    21593449.754
     -2388.402       -1860.973          51.800          43.100
 129121569.194 6 100614265.25243  24571026.758                    24571031.578
     -1760.629       -1371.620          38.600          20.400
 109894428.646 8  85632053.25147  20912212.219                    20912218.609
      1833.012        1428.525          53.700          44.200
 128234218.134 7  99922824.11743  24402168.273                    24402172.664
      3276.746        2553.326          42.500          22.900
 116483032.955 7  90766027.38745  22165993.141                    22165995.156
     -1524.746       -1187.886          46.400          35.700
 122633387.521 7  95558540.97645  23336369.836                    23336377.539
     -3508.566       -2733.883          45.000          32.100
 18  2 20  9 10  0.0000000  0  7G07G05G09G30G13G02G06
 108921760.712 8  84874141.39047  20727125.000                    20727129.160
        48.637          38.107          52.100          42.300
 112860874.371 8  87943576.52646  21476716.156                    21476719.965
      2276.844        1774.310          53.200          39.800
 113546042.044 8  88477496.19746  21607098.648                    21607104.906
     -2395.871       -1866.807          48.300          40.500
 109839684.712 9  85589395.64447  20901795.078                    20901801.172
      1816.566        1415.741          54.000          44.100
 128135964.219 7  99846262.64443  24383470.242                    24383475.211
      3273.430        2550.850          42.000          21.300
 116529016.412 7  90801858.63645  22174742.883                    22174745.500
     -1540.828       -1200.432          46.800          35.700
 122738733.031 7  95640628.34545  23356416.430                    23356424.945
     -3514.426       -2738.432          44.800          32.300
 18  2 20  9 10 30.0000000  0  7G07G05G09G30G13G02G06
 108920565.643 8  84873210.16847  20726897.570                    20726901.527
        31.141          24.463          52.800          42.900
 112792748.781 8  87890491.64446  21463752.188                    21463756.359
      2264.871        1764.993          52.700          39.700
 113618030.772 8  88533591.29946  21620797.258                    21620803.020
     -2403.379       -1872.649          51.800          41.300
 109785433.977 8  85547122.35947  20891471.117                    20891477.629
      1800.148        1402.910          53.300          44.000
 128037806.714 6  99769776.30143  24364791.672                    24364796.980
      3270.398        2548.320          40.600          22.600
 116575481.972 7  90838065.52245  22183585.352                    22183587.586
     -1556.910       -1212.956          46.600          35.600
 122844252.466 7  95722851.23245  23376496.031                    23376504.672
     -3520.156       -2742.922          44.200          33.000
 18  2 20  9 11  0.0000000  0  7G07G05G09G30G13G02G06
 108919894.388 8  84872687.11847  20726770.125                    20726773.582
        13.680          10.864          53.200          43.200
 112724981.535 8  87837686.00146  21450856.555                    21450860.539
      2253.008        1755.672          52.800          39.900
 113690243.085 8  88589860.64446  21634538.859                    21634544.859
     -2410.750       -1878.437          51.100          40.800
 109731677.538 8  85505234.23847  20881241.758                    20881248.063
      1783.641        1390.057          53.800          43.900
 127939746.758 6  99693365.97143  24346131.875                    24346136.980
      3267.238        2545.770          40.200          22.200
 116622428.419 7  90874647.14446  22192519.234                    22192521.078
     -1572.848       -1225.409          46.400          36.600
 122949942.638 7  95805207.15545  23396608.289                    23396616.887
     -3525.875       -2747.336          43.800          31.600
 18  2 20  9 11 30.0000000  0  7G07G05G09G30G13G02G06
 108919747.044 8  84872572.30947  20726741.602                    20726745.582
        -3.816          -2.731          52.800          43.300
 112657575.485 8  87785161.80546  21438029.656                    21438033.801
      2240.773        1746.257          52.100          40.200
 113762678.403 8  88646303.72746  21648322.734                    21648329.746
     -2418.172       -1884.224          50.100          41.400
 109678417.038 8  85463732.56647  20871106.305                    20871112.934
      1767.094        1377.154          53.400          44.300
 127841785.550 6  99617032.57643  24327490.094                    24327494.996
      3263.723        2543.204          41.700          22.900
 116669853.910 7  90911602.02545  22201543.664                    22201546.125
     -1588.832       -1237.823          46.900          35.300
 123055800.970 7  95887694.10145  23416752.484                    23416761.313
     -3531.426       -2751.647          42.500          31.000
 18  2 20  9 12  0.0000000  0  7G07G05G09G30G13G02G06
 108920123.425 8  84872865.60247  20726813.039                    20726816.879
       -21.176         -16.327          53.100          43.200
 112590533.279 8  87732921.13246  21425272.234                    21425276.008
      2228.680        1736.788          51.700          40.500
 113835335.689 8  88702919.72646  21662149.680                    21662156.340
     -2425.520       -1889.961          50.800          41.800
 109625653.794 8  85422618.36647  20861066.070                    20861072.574
      1750.508        1364.236          53.400          44.200
 127743923.696 6  99540776.62143  24308867.961                    24308872.980
      3260.543        2540.627          41.400          22.900
 116717756.195 7  90948928.44545  22210659.898                    22210661.176
     -1604.664       -1250.172          46.700          35.800
 123161824.596 7  95970309.82545  23436928.211                    23436936.691
     -3536.816       -2755.912          43.400          31.000
 18  2 20  9 12 30.0000000  0  7G07G05G09G30G13G02G06
 108921023.171 8  84873566.70947  20726984.617                    20726988.242
       -38.648         -29.934          53.100          42.900
 112523856.605 8  87680965.28546  21412584.266                    21412588.000
      2216.473        1727.271          51.400          40.000
 113908213.952 8  88759708.00446  21676017.328                    21676022.805
     -2432.926       -1895.707          53.200          41.100
 109573389.215 9  85381892.72947  20851120.070                    20851126.953
      1733.836        1351.255          54.400          44.600
 127646162.345 6  99464598.91543  24290264.875                    24290269.801
      3257.105        2538.013          41.900          23.200
 116766133.934 7  90986625.32646  22219865.875                    22219867.234
     -1620.488       -1262.520          47.800          36.400
 123268010.644 7  96053052.12445  23457134.773                    23457143.086
     -3542.187       -2760.072          42.800          30.600
 18  2 20  9 13  0.0000000  0  7G07G05G09G30G13G02G06
 108922445.289 8  84874674.84947  20727255.508                    20727259.121
       -56.039         -43.466          52.500          42.400
 112457546.938 8  87629295.42246  21399965.547                    21399969.449
      2204.160        1717.718          52.400          40.500
 113981311.899 8  88816667.43646  21689927.297                    21689934.969
     -2440.234       -1901.378          51.400          41.400
 109521624.129 8  85341556.31047  20841269.703                    20841276.742
      1717.227        1338.289          53.400          43.900
 127548501.827 6  99388499.88243  24271679.758                    24271685.051
      3253.711        2535.383          39.100          21.500
 116814985.222 7  91024691.24245  22229161.813                    22229163.449
     -1636.215       -1274.761          46.800          35.400
 123374355.821 7  96135918.44245  23477372.047                    23477380.012
     -3547.461       -2764.172          42.200          30.000
 18  2 20  9 13 30.0000000  0  7G07G05G09G30G13G02G06
 108924389.260 8  84876189.64547  20727624.977                    20727629.359
       -73.559         -57.046          52.300          42.600
 112391606.902 8  87577913.56546  21387417.852                    21387421.691
      2191.793        1708.072          51.500          41.000
 114054628.534 8  88873797.22946  21703879.266                    21703886.262
     -2447.566       -1907.053          51.600          41.100
 109470359.812 8  85301610.09647  20831514.633                    20831521.227
      1700.410        1325.254          53.600          44.100
 127450943.196 6  99312480.15943  24253115.672                    24253119.516
      3250.176        2532.710          39.800          21.500
 116864307.833 7  91063124.43245  22238547.656                    22238549.238
     -1651.992       -1287.016          47.300          35.200
 123480857.247 7  96218906.52045  23497638.766                    23497646.527
     -3552.719       -2768.208          43.700          31.000
 18  2 20  9 14  0.0000000  0  7G07G05G09G30G13G02G06
 108926854.844 8  84878110.87847  20728094.625                    20728098.043
       -90.871         -70.592          52.500          42.800
 112326038.497 8  87526821.30546  21374940.352                    21374944.457
      2179.383        1698.386          52.700          40.900
 114128162.932 8  88931096.73246  21717872.641                    21717878.980
     -2454.789       -1912.731          51.900          41.700
 109419597.616 8  85262055.14447  20821854.500                    20821861.266
      1683.688        1312.184          53.400          44.100
 127353487.376 6  99236540.60343  24234569.891                    24234574.219
      3246.758        2529.997          39.800          20.100
 116914100.303 7  91101923.74145  22248022.695                    22248024.375
     -1667.578       -1299.213          46.700          35.700
 123587512.059 7  96302014.11445  23517933.898                    23517942.191
     -3557.680       -2772.161          43.500          30.600
 18  2 20  9 14 30.0000000  0  7G07G05G09G30G13G02G06
 108929841.102 8  84880437.83747  20728662.898                    20728666.191
      -108.238         -84.090          52.600          43.000
 112260842.636 8  87476019.34046  21362533.914                    21362538.336
      2166.934        1688.694          50.800          40.300
 114201913.678 8  88988564.84546  21731906.547                    21731913.594
     -2461.961       -1918.317          51.900          41.000
 109369338.416 8  85222892.14147  20812290.664                    20812297.535
      1666.941        1299.118          53.000          43.900
 127256134.699 6  99160681.37443  24216045.836                    24216048.137
      3243.449        2527.345          37.600          21.300
 116964360.343 7  91141087.36745  22257586.570                    22257588.613
     -1683.113       -1311.301          47.200          34.800
 123694317.055 7  96385238.71445  23538258.695                    23538266.668
     -3562.613       -2776.003          43.900          30.700
 18  2 20  9 15  0.0000000  0  7G07G05G09G30G13G02G06
 108933347.875 8  84883170.38447  20729329.797                    20729333.625
      -125.543         -97.611          53.000          42.900
 112196023.178 8  87425510.68146  21350199.125                    21350203.457
      2154.301        1678.878          51.500          40.800
 114275880.121 8  89046200.99446  21745981.609                    21745988.184
     -2469.184       -1923.903          49.700          40.400
 109319583.623 8  85184122.18747  20802822.648                    20802829.402
      1650.016        1285.985          52.800          44.500
 127158885.320 6  99084902.70043  24197538.586                    24197543.086
      3239.844        2524.595          40.100          20.600
 117015086.265 7  91180614.02745  22267239.531                    22267241.195
     -1698.660       -1323.406          46.900          34.800
 123801269.491 7  96468578.23145  23558610.508                    23558619.078
     -3567.520       -2779.804          46.100          30.000
 18  2 20  9 15 30.0000000  0  7G07G05G09G30G13G02G06
 108937374.325 8  84886307.88047  20730096.188                    20730099.754
      -142.898        -111.124          52.300          42.200
 112131581.199 8  87375296.15446  21337936.234                    21337940.484
      2141.734        1669.051          51.300          40.200
 114350061.072 8  89104004.31847  21760098.000                    21760105.711
     -2476.332       -1929.475          52.300          42.300
 109270334.321 8  85145746.12647  20793450.906                    20793457.770
      1633.176        1272.837          52.900          44.100
 127061742.065 6  99009206.72043  24179052.484                    24179057.551
      3236.262        2521.829          38.600          19.900
 117066276.210 7  91220502.25445  22276980.922                    22276982.695
     -1714.098       -1335.443          46.600          34.700
 123908366.462 7  96552030.37945  23578991.023                    23578999.117
     -3572.254       -2783.547          45.200          30.200
 18  2 20  9 16  0.0000000  0  7G07G05G09G30G13G02G06
 108941920.105 8  84889850.04547  20730961.023                    20730964.926
      -160.219        -124.597          52.600          42.700
 112067519.068 8  87325377.60746  21325745.648                    21325749.730
      2128.984        1659.161          51.700          40.200
 114424455.581 8  89161973.99946  21774255.125                    21774262.117
     -2483.426       -1934.993          50.700          41.800
 109221591.699 8  85107764.87147  20784175.453                    20784182.500
      1616.250        1259.654          51.800          44.300
 126964704.869 6  98933593.33943  24160587.297                    24160591.480
      3232.750        2519.097          39.000          21.700
 117117928.177 7  91260750.50745  22286810.000                    22286811.785
     -1729.418       -1347.382          46.500          34.800
 124015604.994 7  96635592.82545  23599398.063                    23599406.063
     -3577.078       -2787.178          45.200          30.500
 18  2 20  9 16 30.0000000  0  7G07G05G09G30G13G02G06
 108946984.983 8  84893796.69147  20731925.102                    20731929.078
      -177.512        -138.042          52.400          42.700
 112003839.017 8  87275756.79746  21313627.633                    21313631.703
      2116.270        1649.240          51.700          41.300
 114499062.826 8  89220109.54146  21788451.711                    21788458.578
     -2490.441       -1940.473          50.900          40.600
 109173357.081 8  85070179.46947  20774996.516                    20775003.426
      1599.297        1246.491          52.500          44.300
 126867774.390 6  98858063.10443  24142142.086                    24142146.262
      3229.211        2516.353          40.900          21.300
 117170040.500 7  91301357.48645  22296726.633                    22296728.766
     -1744.746       -1359.291          46.900          34.900
 124122982.388 7  96719263.48944  23619831.039                    23619839.352
     -3581.531       -2790.721          44.500          29.500
 18  2 20  9 17  0.0000000  0  7G07G05G09G30G13G02G06
 108952568.240 8  84898147.28747  20732987.648                    20732991.496
      -194.832        -151.519          53.100          42.400
 111940542.708 8  87226434.99446  21301582.844                    21301586.852
      2103.352        1639.222          52.300          40.900
 114573881.592 8  89278409.80947  21802690.141                    21802697.234
     -2497.594       -1945.998          50.800          42.000
 109125631.270 8  85032990.54447  20765914.391                    20765921.266
      1582.262        1233.216          52.400          44.300
 126770951.347 7  98782616.62543  24123717.547                    24123721.734
      3225.543        2513.516          42.100          22.200
 117222610.810 8  91342321.34345  22306730.531                    22306732.281
     -1760.012       -1371.184          48.700          35.200
 124230495.446 6  96803039.86044  23640290.375                    23640297.773
     -3586.102       -2794.226          41.900          28.500
 18  2 20  9 17 30.0000000  0  7G07G05G09G30G13G02G06
 108958668.509 8  84902900.74247  20734148.273                    20734152.418
      -211.941        -164.949          52.400          42.700
 111877631.624 8  87177413.37546  21289611.313                    21289615.523
      2090.574        1629.174          52.900          40.600
 114648910.376 8  89336873.80846  21816967.375                    21816973.516
     -2504.449       -1951.463          51.100          41.100
 109078415.005 8  84996198.66747  20756929.703                    20756936.316
      1565.383        1219.973          52.200          44.100
 126674236.323 6  98707254.33343  24105312.523                    24105318.090
      3222.012        2510.689          40.400          22.200
 117275636.954 7  91383640.38345  22316821.094                    22316822.828
     -1775.094       -1383.020          47.900          35.900
 124338140.859 7  96886919.34944  23660774.359                    23660782.551
     -3590.285       -2797.634          43.800          29.100
 18  2 20  9 18  0.0000000  0  7G07G05G09G30G13G02G06
 108965285.455 8  84908056.79747  20735407.391                    20735411.051
      -229.172        -178.368          52.500          42.800
 111815108.407 8  87128693.98946  21277713.586                    21277717.820
      2077.566        1619.085          51.500          40.900
 114724148.411 8  89395500.82046  21831284.344                    21831292.301
     -2511.406       -1956.863          49.000          41.200
 109031709.510 8  84959804.78647  20748041.938                    20748048.344
      1548.293        1206.688          51.500          44.100
 126577630.137 6  98631976.81843  24086929.000                    24086934.289
      3218.391        2507.868          40.600          21.500
 117329117.132 7  91425313.22945  22326998.188                    22327000.234
     -1790.219       -1394.785          47.300          35.600
 124445915.826 7  96970899.78044  23681283.117                    23681291.289
     -3594.582       -2800.962          42.100          28.200
 18  2 20  9 18 30.0000000  0  7G07G05G09G30G13G02G06
 108972418.523 8  84913615.02347  20736764.891                    20736768.941
      -246.383        -191.741          52.900          42.400
 111752974.694 8  87080278.10046  21265890.008                    21265894.227
      2064.613        1608.975          52.200          40.500
 114799594.719 8  89454290.09546  21845641.359                    21845648.379
     -2518.301       -1962.230          50.100          40.500
 108985515.889 8  84923809.76147  20739251.430                    20739258.375
      1531.188        1193.404          53.200          45.000
 126481133.950 7  98556785.01243  24068567.141                    24068571.375
      3214.703        2505.008          42.900          22.900
 117383049.293 7  91467338.27445  22337260.641                    22337262.887
     -1805.258       -1406.474          46.800          34.900
 124553817.526 6  97054978.97044  23701816.133                    23701825.195
     -3598.781       -2804.190          41.300          27.000
 18  2 20  9 19  0.0000000  0  7G07G05G09G30G13G02G06
 108980066.770 8  84919574.70247  20738219.922                    20738223.855
      -263.477        -205.130          53.200          42.900
 111691232.468 8  87032167.28346  21254140.648                    21254145.121
      2051.465        1598.753          52.100          40.800
 114875248.086 8  89513240.75246  21860038.406                    21860044.277
     -2525.172       -1967.624          50.800          40.800
 108939834.930 8  84888214.22447  20730558.625                    20730565.098
      1514.109        1180.068          51.900          44.600
 126384748.207 6  98481679.28343  24050224.969                    24050229.508
      3210.918        2502.110          41.900          22.800
 117437431.169 7  91509713.73145  22347609.406                    22347611.477
     -1820.223       -1418.151          47.400          35.100
 124661842.759 6  97139154.42044  23722373.000                    23722380.773
     -3602.961       -2807.394          40.000          26.700
 18  2 20  9 19 30.0000000  0  7G07G05G09G30G13G02G06
 108988229.839 8  84925935.53647  20739773.227                    20739777.625
      -280.664        -218.478          52.800          42.500
 111629884.246 8  86984363.47746  21242466.313                    21242470.895
      2038.328        1588.498          52.300          40.800
 114951107.753 8  89572352.15546  21874473.102                    21874481.008
     -2532.129       -1972.948          50.800          41.000
 108894667.923 8  84853019.17047  20721963.602                    20721970.629
      1497.063        1166.719          52.300          44.800
 126288473.536 6  98406660.09043  24031904.641                    24031908.043
      3207.180        2499.249          41.300          22.600
 117492261.040 7  91552438.29545  22358042.875                    22358045.375
     -1835.227       -1429.761          46.100          34.800
 124769988.891 6  97223424.09444  23742952.469                    23742960.320
     -3606.887       -2810.478          40.800          27.500
 18  2 20  9 20  0.0000000  0  7G07G05G09G30G13G02G06
 108996906.796 8  84932696.79247  20741424.852                    20741428.508
      -297.793        -231.842          53.000          43.000
 111568932.057 8  86936868.26346  21230867.773                    21230872.094
      2025.070        1578.164          51.900          40.500
 115027172.661 8  89631623.45746  21888948.648                    21888954.906
     -2538.930       -1978.302          50.700          40.400
 108850015.803 8  84818225.32147  20713466.594                    20713473.469
      1479.797        1153.317          53.200          44.600
 126192311.184 7  98331728.41044  24013605.273                    24013609.539
      3203.383        2496.281          43.600          24.500
 117547536.701 7  91595510.22145  22368562.063                    22368564.090
     -1849.918       -1441.343          45.800          34.900
 124878252.912 6  97307785.61644  23763554.664                    23763562.480
     -3610.746       -2813.513          39.200          27.200
 18  2 20  9 20 30.0000000  0  7G07G05G09G30G13G02G06
 109006096.972 8  84939857.96547  20743173.648                    20743177.566
      -314.969        -245.175          52.900          42.900
 111508377.428 8  86889682.83846  21219344.313                    21219348.305
      2011.723        1567.805          52.000          40.400
 115103441.656 8  89691053.85446  21903461.906                    21903468.945
     -2545.738       -1983.581          51.000          41.300
 108805879.390 8  84783833.32747  20705067.484                    20705074.523
      1462.531        1139.888          53.100          44.100
 126096261.874 7  98256884.79144  23995327.938                    23995331.680
      3199.629        2493.341          43.200          24.700
 117603256.173 7  91638927.96745  22379165.141                    22379167.047
     -1864.777       -1452.832          45.900          34.800
 124986631.761 6  97392236.61244  23784178.469                    23784186.406
     -3614.531       -2816.456          41.500          28.300
 18  2 20  9 21  0.0000000  0  7G07G05G09G30G13G02G06
 109015799.533 8  84947418.39847  20745019.906                    20745023.797
      -331.926        -258.462          52.800          42.900
 111448222.030 8  86842808.49746  21207897.500                    21207901.828
      1998.559        1557.444          51.600          41.300
 115179913.529 8  89750642.26046  21918014.141                    21918021.051
     -2552.480       -1988.850          51.100          40.200
 108762259.423 8  84749843.74647  20696767.125                    20696773.848
      1445.496        1126.481          53.300          44.800
 126000326.362 6  98182129.88244  23977072.125                    23977076.461
      3195.918        2490.383          41.700          25.600
 117659416.846 7  91682689.51745  22389851.656                    22389854.184
     -1879.312       -1464.271          45.200          34.600
 125095122.310 6  97476774.64944  23804823.156                    23804830.867
     -3618.102       -2819.324          41.800          28.400
 18  2 20  9 21 30.0000000  0  7G07G05G09G30G13G02G06
 109026013.987 8  84955377.71147  20746963.398                    20746967.699
      -348.977        -271.729          53.100          43.100
 111388468.497 8  86796247.30946  21196526.500                    21196530.883
      1985.066        1546.973          52.300          41.800
 115256587.689 8  89810388.37946  21932604.469                    21932609.703
     -2559.172       -1994.071          50.200          39.400
 108719157.282 8  84716257.67947  20688565.180                    20688571.883
      1428.086        1113.028          53.000          45.200
 125904505.385 7  98107464.20344  23958837.547                    23958842.559
      3192.109        2487.419          43.100          25.000
 117716017.159 7  91726793.61345  22400622.750                    22400624.762
     -1893.898       -1475.629          44.700          34.600
 125203722.010 6  97561397.77244  23825489.625                    23825497.879
     -3621.848       -2822.129          41.400          29.700
 18  2 20  9 22  0.0000000  0  7G07G05G09G30G13G02G06
 109036739.434 8  84963735.20547  20749004.688                    20749008.715
      -366.160        -285.028          53.100          42.800
 111329118.756 8  86750000.75046  21185232.969                    21185237.016
      1971.492        1536.438          52.500          41.600
 115333462.920 8  89870291.11546  21947234.211                    21947240.129
     -2565.898       -1999.278          51.300          41.100
 108676573.591 8  84683075.59747  20680461.953                    20680468.844
      1410.703        1099.529          53.200          45.100
 125808799.906 7  98032888.52644  23940625.625                    23940631.223
      3188.223        2484.387          42.100          24.200
 117773054.705 7  91771238.42945  22411476.227                    22411478.367
     -1908.590       -1486.982          45.200          35.100
 125312427.742 7  97646103.49644  23846175.430                    23846183.523
     -3625.410       -2824.868          42.700          29.500
 18  2 20  9 22 30.0000000  0  7G07G05G09G30G13G02G06
 109047975.068 8  84972490.23647  20751142.633                    20751147.039
      -382.980        -298.214          53.200          42.700
 111270174.643 8  86704070.27946  21174015.898                    21174020.391
      1958.117        1525.927          52.300          41.100
 115410538.287 8  89930349.81946  21961900.305                    21961907.098
     -2572.496       -2004.448          49.300          40.200
 108634509.386 8  84650298.31047  20672457.219                    20672464.414
      1393.449        1086.036          52.300          45.100
 125713210.508 7  97958403.30844  23922435.453                    23922440.863
      3184.406        2481.378          43.300          26.900
 117830527.512 7  91816022.41745  22422413.430                    22422415.461
     -1922.906       -1498.232          45.400          35.700
 125421236.663 7  97730889.63744  23866881.070                    23866888.859
     -3628.523       -2827.485          42.800          28.400
 18  2 20  9 23  0.0000000  0  7G07G05G09G30G13G02G06
 109059720.024 8  84981642.15747  20753377.609                    20753382.105
      -400.062        -311.458          53.500          43.300
 111211638.422 8  86658457.62646  21162876.828                    21162881.262
      1944.328        1515.283          52.000          41.300
 115487812.841 8  89990563.70746  21976605.633                    21976611.773
     -2579.187       -2009.616          50.900          40.100
 108592965.524 8  84617926.47247  20664551.766                    20664558.727
      1376.090        1072.517          53.200          44.900
 125617738.034 7  97884009.20044  23904267.383                    23904272.520
      3180.391        2478.338          42.900          24.600
 117888433.417 7  91861143.86245  22433432.656                    22433434.219
     -1937.434       -1509.469          45.600          35.200
 125530145.864 7  97815753.89144  23887605.211                    23887614.332
     -3631.918       -2830.037          44.200          28.800
 18  2 20  9 23 30.0000000  0  7G07G05G09G30G13G02G06
 109071973.664 8  84991190.44047  20755709.438                    20755713.934
      -416.941        -324.648          52.400          42.500
 111153511.587 8  86613163.99246  21151815.961                    21151819.895
      1930.684        1504.634          51.800          41.500
 115565285.402 8  90050931.90646  21991348.297                    21991354.777
     -2585.723       -2014.743          50.800          40.100
 108551942.735 8  84585960.67847  20656745.266                    20656752.180
      1358.754        1058.977          52.600          45.100
 125522383.361 7  97809706.89143  23886121.773                    23886126.852
      3176.488        2475.261          42.000          22.500
 117946770.129 7  91906601.01345  22444533.617                    22444535.766
     -1951.719       -1520.614          44.500          35.000
 125639152.264 7  97900693.92144  23908349.008                    23908357.289
     -3635.301       -2832.539          44.500          28.900
 18  2 20  9 24  0.0000000  0  7G07G05G09G30G13G02G06
 109084734.853 8  85001134.21847  20758138.133                    20758141.719
      -433.797        -337.829          52.900          42.100
 111095796.230 8  86568190.98746  21140832.922                    21140837.207
      1917.008        1493.912          51.400          40.900
 115642955.011 8  90111453.68946  22006127.992                    22006133.035
     -2592.309       -2019.864          50.800          38.800
 108511441.832 8  84554401.55347  20649038.180                    20649044.984
      1341.332        1045.402          53.400          45.300
 125427147.336 7  97735497.04543  23867999.008                    23868004.438
      3172.492        2472.169          42.800          23.300
 118005535.315 7  91952392.02445  22455716.398                    22455718.348
     -1965.957       -1531.742          44.900          34.600
 125748252.947 7  97985707.39844  23929110.344                    23929118.227
     -3638.187       -2834.961          44.400          27.600
 18  2 20  9 24 30.0000000  0  7G07G05G09G30G13G02G06
 109098002.768 8  85011472.85147  20760662.977                    20760666.391
      -450.625        -350.978          52.700          43.000
 111038494.742 8  86523540.48046  21129928.797                    21129932.871
      1903.223        1483.140          52.600          41.000
 115720820.693 8  90172128.23146  22020945.203                    22020953.461
     -2598.641       -2024.941          49.300          40.300
 108471463.704 8  84523249.77247  20641430.594                    20641437.438
      1323.992        1031.827          51.700          45.200
 125332030.564 7  97661380.09943  23849899.258                    23849904.148
      3168.664        2469.067          43.000          22.500
 118064727.015 7  91998515.39045  22466980.070                    22466982.176
     -1979.973       -1542.785          46.000          34.200
 125857445.063 7  98070792.13644  23949888.734                    23949897.125
     -3641.117       -2837.277          43.200          28.200
 18  2 20  9 25  0.0000000  0  7G07G05G09G30G13G02G06
 109111776.751 8  85022205.82747  20763284.023                    20763287.934
      -467.527        -364.120          52.000          42.600
 110981608.970 8  86479213.90046  21119103.672                    21119107.605
      1889.254        1472.301          51.900          41.100
 115798881.658 8  90232954.85346  22035800.922                    22035807.273
     -2605.187       -2030.009          50.100          40.700
 108432009.288 8  84492506.08747  20633922.586                    20633929.117
      1306.426        1018.202          52.800          45.100
 125237034.264 6  97587356.99643  23831821.859                    23831826.059
      3164.578        2465.886          41.400          22.900
 118124342.941 7  92044969.33845  22478325.141                    22478327.012
     -1994.277       -1553.788          45.100          35.500
 125966725.866 6  98155945.94744  23970683.695                    23970692.777
     -3644.344       -2839.593          39.600          25.800
 18  2 20  9 25 30.0000000  0  7G07G05G09G30G13G02G06
 109126056.264 8  85033332.71347  20766001.383                    20766005.203
      -484.449        -377.238          51.500          43.000
 110925140.966 8  86435212.86446  21108358.305                    21108362.309
      1875.199        1461.448          52.300          41.400
 115877137.162 8  90293933.17246  22050691.430                    22050696.938
     -2611.844       -2035.036          48.900          39.100
 108393079.698 8  84462171.35647  20626514.453                    20626521.074
      1288.879        1004.562          51.600          44.700
 125142159.274 6  97513428.46343  23813768.000                    23813772.160
      3160.398        2462.733          41.700          22.200
 118184381.364 7  92091752.49545  22489749.914                    22489751.340
     -2008.312       -1564.718          45.700          34.900
 126076092.717 6  98241166.79344  23991495.922                    23991504.617
     -3646.980       -2841.731          39.400          25.000
 18  2 20  9 26  0.0000000  0  7G07G05G09G30G13G02G06
 109140839.924 8  85044852.45847  20768814.531                    20768818.629
      -501.254        -390.324          52.900          43.200
 110869092.191 8  86391538.49146  21097692.641                    21097696.719
      1861.258        1450.551          52.700          41.800
 115955585.661 7  90355061.85446  22065620.102                    22065625.582
     -2618.184       -2040.033          47.800          38.300
 108354675.067 8  84432245.67547  20619206.172                    20619212.770
      1271.398         990.939          53.400          44.700
 125047405.958 6  97439594.74243  23795737.164                    23795740.883
      3156.379        2459.616          40.200          23.400
 118244839.301 7  92138862.56545  22501254.484                    22501256.789
     -2022.254       -1575.575          46.600          35.300
 126185542.119 6  98326452.00944  24012323.383                    24012332.352
     -3649.730       -2843.848          39.500          26.200
 18  2 20  9 26 30.0000000  0  7G07G05G09G30G13G02G06
 109156126.881 8  85056764.38147  20771723.703                    20771727.609
      -518.000        -403.375          51.700          43.200
 110813464.800 8  86348192.48046  21087107.172                    21087111.320
      1847.188        1439.549          52.900          41.600
 116034226.367 8  90416340.30946  22080585.172                    22080591.184
     -2624.578       -2045.025          48.800          39.200
 108316796.307 8  84402729.77047  20611998.328                    20612005.133
      1253.820         977.247          53.400          45.500
 124952775.295 6  97365856.59443  23777729.016                    23777733.625
      3152.285        2456.381          39.400          22.500
 118305714.641 7  92186297.87745  22512838.398                    22512840.793
     -2036.164       -1586.406          46.100          34.200
 126295071.295 6  98411799.38344  24033165.789                    24033175.230
     -3652.230       -2845.886          38.300          27.400
 18  2 20  9 27  0.0000000  0  7G07G05G09G30G13G02G06
 109171915.999 8  85069067.59347  20774728.156                    20774732.289
      -534.766        -416.419          51.700          43.000
 110758260.691 8  86305176.29946  21076602.125                    21076606.242
      1833.000        1428.532          53.300          41.700
 116113058.130 8  90477767.64746  22095585.781                    22095593.094
     -2631.039       -2049.959          49.700          40.300
 108279444.058 8  84373624.13047  20604890.695                    20604897.480
      1236.207         963.570          53.500          45.500
 124858267.853 6  97292214.43644  23759745.508                    23759749.293
      3148.137        2453.171          39.400          24.100
 118367005.062 7  92234056.60745  22524501.680                    22524504.113
     -2049.914       -1597.148          45.400          35.000
 126404677.374 6  98497206.64144  24054023.422                    24054032.715
     -3654.945       -2847.879          39.600          26.700
 18  2 20  9 27 30.0000000  0  7G07G05G09G30G13G02G06
 109188206.769 8  85081761.68547  20777828.125                    20777832.383
      -551.262        -429.415          51.800          43.000
 110703482.082 8  86262491.66946  21066178.063                    21066182.367
      1818.887        1417.466          52.600          41.400
 116192080.134 8  90539343.15446  22110622.930                    22110630.707
     -2637.090       -2054.885          49.600          39.400
 108242619.114 8  84344929.37747  20597883.047                    20597889.492
      1218.828         949.874          53.500          44.900
 124763884.700 6  97218669.12144  23741783.930                    23741789.504
      3144.109        2449.925          40.900          25.200
 118428708.353 7  92282137.07445  22536243.773                    22536245.754
     -2063.574       -1607.836          46.400          34.600
 126514357.435 6  98582671.56044  24074895.148                    24074904.207
     -3657.160       -2849.755          39.300          26.000
 18  2 20  9 28  0.0000000  0  7G07G05G09G30G13G02G06
 109204997.061 8  85094845.02347  20781023.438                    20781027.496
      -568.066        -442.398          51.200          43.000
 110649129.794 8  86220139.22946  21055834.984                    21055839.152
      1804.512        1406.359          52.800          41.600
 116271290.610 8  90601065.57546  22125696.648                    22125701.336
     -2643.586       -2059.800          48.600          37.500
 108206321.348 9  84316645.40947  20590975.578                    20590982.332
      1201.109         936.160          54.300          45.200
 124669625.943 6  97145220.78144  23723847.391                    23723852.648
      3139.863        2446.705          40.500          25.100
 118490821.376 7  92330536.80045  22548063.094                    22548064.863
     -2077.301       -1618.478          45.100          35.300
 126624107.756 6  98668191.25244  24095780.711                    24095789.473
     -3659.500       -2851.536          40.900          26.800
 18  2 20  9 28 30.0000000  0  7G07G05G09G30G13G02G06
 109222287.210 8  85108317.86547  20784313.484                    20784317.348
      -584.598        -455.365          52.000          42.800
 110595206.763 8  86178121.28146  21045573.844                    21045577.891
      1790.254        1395.188          52.900          41.100
 116350689.497 8  90662934.88146  22140806.508                    22140813.164
     -2649.711       -2064.678          49.400          39.800
 108170552.483 8  84288773.57547  20584168.953                    20584175.813
      1183.508         922.411          53.400          45.500
 124575492.895 6  97071870.40144  23705934.617                    23705940.207
      3135.582        2443.388          41.000          25.800
 118553342.924 7  92379254.85945  22559960.828                    22559962.980
     -2090.770       -1629.066          46.100          35.100
 126733926.532 6  98753764.26544  24116677.914                    24116686.805
     -3661.633       -2853.263          40.900          28.400
 18  2 20  9 29  0.0000000  0  7G07G05G09G30G13G02G06
 109240075.540 8  85122178.91547  20787698.117                    20787702.695
      -601.301        -468.270          51.700          42.500
 110541714.648 8  86136439.10846  21035394.727                    21035398.703
      1775.797        1383.981          52.600          41.600
 116430275.620 8  90724949.98746  22155950.484                    22155958.293
     -2656.082       -2069.506          49.400          40.400
 108135312.899 8  84261314.16147  20577463.094                    20577469.613
      1165.813         908.672          53.900          45.200
 124481486.667 7  96998618.84743  23688046.078                    23688050.500
      3131.410        2440.120          42.500          23.900
 118616270.373 7  92428289.19445  22571935.398                    22571938.168
     -2104.352       -1639.546          45.700          33.600
 126843810.625 7  98839388.17544  24137587.672                    24137596.668
     -3663.879       -2854.935          42.400          27.400
 18  2 20  9 29 30.0000000  0  7G07G05G09G30G13G02G06
 109258361.526 8  85136427.73147  20791177.906                    20791182.238
      -617.793        -481.186          51.400          42.900
 110488655.423 8  86095094.25646  21025298.031                    21025302.324
      1761.398        1372.697          53.000          41.600
 116510048.168 8  90787110.34546  22171130.852                    22171137.363
     -2662.227       -2074.358          48.700          39.200
 108100603.277 9  84234267.71347  20570858.148                    20570864.797
      1148.219         894.899          54.100          44.800
 124387607.678 7  96925466.43444  23670180.820                    23670185.285
      3127.168        2436.792          43.500          26.300
 118679601.380 7  92477637.98445  22583986.781                    22583989.496
     -2117.699       -1650.016          44.900          33.400
 126953757.174 7  98925060.75644  24158510.172                    24158519.445
     -3665.855       -2856.509          42.900          28.600
 18  2 20  9 30  0.0000000  0  7G07G05G09G30G13G02G06
 109277143.989 8  85151063.40947  20794751.813                    20794756.273
      -634.500        -494.134          51.100          42.100
 110436031.148 8  86054088.32946  21015283.648                    21015288.113
      1746.820        1361.350          52.800          41.500
 116590006.136 8  90849415.23446  22186346.555                    22186352.520
     -2668.555       -2079.208          51.300          38.400
 108066424.292 9  84207634.74047  20564354.047                    20564360.613
      1130.438         881.071          54.400          45.100
 124293857.315 7  96852414.23544  23652341.430                    23652345.895
      3122.781        2433.433          44.300          25.400
 118743333.641 7  92527299.43845  22596114.859                    22596117.133
     -2131.172       -1660.428          44.900          33.000
 127063763.347 7  99010779.80844  24179444.016                    24179452.754
     -3667.918       -2858.052          43.700          28.700
 18  2 20  9 30 30.0000000  0  7G07G05G09G30G13G02G06
 109296422.060 8  85166085.29247  20798420.492                    20798424.195
      -650.996        -506.955          52.400          42.500
 110383843.540 8  86013422.65847  21005352.875                    21005357.121
      1732.277        1350.005          52.800          42.100
 116670148.423 8  90911863.77646  22201596.695                    22201603.082
     -2674.531       -2083.945          50.300          37.800
 108032776.403 8  84181415.61547  20557951.086                    20557957.672
      1112.777         867.281          53.400          45.500
 124200236.109 7  96779462.67744  23634526.211                    23634530.145
      3118.594        2430.078          45.300          25.500
 118807464.816 7  92577271.75745  22608318.656                    22608320.637
     -2144.309       -1670.747          45.800          33.000
 127173826.131 7  99096542.94044  24200388.305                    24200396.902
     -3669.660       -2859.480          44.600          28.200
 18  2 20  9 31  0.0000000  0  7G07G05G09G30G13G02G06
 109316194.814 8  85181492.63847  20802183.336                    20802186.852
      -667.328        -519.752          51.400          42.600
 110332095.125 8  85973099.21747  20995505.609                    20995509.461
      1717.621        1338.624          53.600          42.300
 116750474.441 7  90974455.45846  22216882.336                    22216889.699
     -2680.598       -2088.669          47.100          38.100
 107999660.497 8  84155611.01147  20551649.578                    20551656.449
      1094.957         853.494          53.700          45.800
 124106744.788 7  96706612.30944  23616734.734                    23616739.395
      3114.156        2426.736          44.500          26.100
 118871992.671 7  92627553.17145  22620598.094                    22620599.758
     -2157.473       -1680.958          45.600          33.300
 127283943.045 7  99182348.28244  24221342.883                    24221351.551
     -3671.508       -2860.825          43.800          28.800
 18  2 20  9 31 30.0000000  0  7G07G05G09G30G13G02G06
 109336460.807 8  85197284.30647  20806039.641                    20806043.273
      -683.707        -532.538          52.700          42.600
 110280786.736 8  85933118.65047  20985741.969                    20985745.879
      1702.926        1327.163          53.100          42.300
 116830982.807 8  91037189.17646  22232203.375                    22232211.262
     -2686.617       -2093.369          50.100          40.400
 107967076.751 8  84130221.08947  20545448.695                    20545455.785
      1077.293         839.671          53.500          45.600
 124013383.700 6  96633863.44244  23598968.219                    23598972.711
      3109.836        2423.363          41.900          24.100
 118936914.449 7  92678141.52745  22632952.148                    22632954.238
     -2170.582       -1691.191          46.200          32.600
 127394110.768 7  99268193.19644  24242306.992                    24242315.762
     -3672.949       -2862.046          42.600          27.200
 18  2 20  9 32  0.0000000  0  7G07G05G09G30G13G02G06
 109357218.845 8  85213459.40247  20809989.656                    20809993.660
      -700.148        -545.352          51.600          42.200
 110229920.474 8  85893482.60446  20976062.438                    20976066.344
      1688.117        1315.624          53.000          41.800
 116911672.648 8  91100064.33546  22247557.477                    22247564.031
     -2692.656       -2098.121          49.800          38.300
 107935025.821 8  84105246.34447  20539349.688                    20539356.551
      1059.539         825.799          53.100          45.400
 123920154.300 6  96561217.16644  23581227.523                    23581232.203
      3105.480        2419.872          40.900          24.800
 119002227.925 7  92729035.10045  22645381.031                    22645383.359
     -2183.586       -1701.333          45.000          33.400
 127504326.551 7  99354075.55344  24263280.391                    24263289.098
     -3674.508       -2863.310          42.100          28.300
 18  2 20  9 32 30.0000000  0  7G07G05G09G30G13G02G06
 109378468.087 8  85230017.25847  20814033.508                    20814037.395
      -716.488        -558.085          51.100          42.100
 110179498.493 8  85854192.73746  20966467.453                    20966471.555
      1673.328        1304.068          53.100          41.500
 116992542.984 8  91163080.20046  22262946.133                    22262951.617
     -2698.582       -2102.769          49.300          37.000
 107903508.109 9  84080687.08947  20533352.125                    20533358.789
      1041.750         811.941          54.000          45.200
 123827057.097 6  96488673.92744  23563511.742                    23563516.691
      3101.098        2416.463          41.300          24.900
 119067930.427 7  92780231.80545  22657883.805                    22657886.000
     -2196.492       -1711.415          45.500          33.000
 127614587.408 6  99439993.03744  24284263.086                    24284271.195
     -3676.062       -2864.465          40.900          28.000
 18  2 20  9 33  0.0000000  0  7G07G05G09G30G13G02G06
 109400207.511 8  85246957.05947  20818170.234                    20818174.098
      -732.762        -570.808          51.500          42.600
 110129523.064 8  85815250.85547  20956957.258                    20956961.535
      1658.430        1292.455          52.500          42.200
 117073593.189 8  91226236.13946  22278370.328                    22278377.707
     -2704.582       -2107.460          48.900          39.000
 107872524.417 8  84056543.95547  20527456.172                    20527462.770
      1023.887         798.064          53.100          45.200
 123734092.859 6  96416234.28244  23545821.094                    23545825.680
      3096.648        2412.978          40.200          25.800
 119134020.126 7  92831730.23445  22670460.570                    22670462.438
     -2209.398       -1721.478          45.600          33.500
 127724890.805 6  99525943.67844  24305252.438                    24305261.613
     -3677.500       -2865.524          40.400          25.800
 18  2 20  9 33 30.0000000  0  7G07G05G09G30G13G02G06
 109422436.004 8  85264277.95747  20822400.203                    20822404.168
      -749.109        -583.491          52.000          42.600
 110079995.691 8  85776658.09446  20947532.492                    20947537.070
      1643.371        1280.786          53.700          41.700
 117154822.106 8  91289531.34646  22293828.211                    22293835.137
     -2710.625       -2112.081          48.300          39.900
 107842075.186 8  84032817.28747  20521661.977                    20521668.438
      1005.949         784.159          53.100          45.100
 123641262.761 6  96343899.15744  23528155.969                    23528161.594
      3092.020        2409.478          39.800          25.400
 119200494.433 7  92883528.34445  22683110.133                    22683111.953
     -2222.227       -1731.400          44.900          33.500
 127835233.865 6  99611925.19644  24326249.680                    24326258.230
     -3678.680       -2866.491          41.700          24.300
 18  2 20  9 34  0.0000000  0  7G07G05G09G30G13G02G06
 109445152.328 8  85281978.98247  20826722.922                    20826727.145
      -765.348        -596.156          52.000          42.300
 110030917.859 8  85738415.63346  20938193.328                    20938197.609
      1628.445        1269.075          53.200          41.800
 117236228.655 8  91352965.00546  22309318.555                    22309326.488
     -2716.391       -2116.677          48.400          38.600
 107812160.650 8  84009507.25347  20515969.469                    20515975.918
       988.203         770.273          53.700          44.900
 123548567.276 7  96271668.92444  23510516.719                    23510522.168
      3087.605        2405.955          42.600          26.200
 119267350.543 7  92935623.98445  22695831.938                    22695834.328
     -2234.902       -1741.302          46.200          34.100
 127945613.491 6  99697935.26044  24347254.820                    24347263.402
     -3679.906       -2867.468          39.000          24.600
 18  2 20  9 34 30.0000000  0  7G07G05G09G30G13G02G06
 109468355.314 8  85300059.23547  20831138.344                    20831142.352
      -781.555        -608.790          51.200          42.600
 109982291.165 8  85700524.69446  20928940.164                    20928944.238
      1613.316        1257.334          52.700          41.500
 117317811.926 7  91416536.33145  22324843.086                    22324849.277
     -2722.344       -2121.273          47.000          35.900
 107782781.168 9  83986614.14947  20510378.633                    20510385.398
       970.363         756.371          54.100          45.500
 123456007.088 7  96199544.10344  23492903.406                    23492908.531
      3083.133        2402.431          43.400          25.500
 119334585.845 7  92988015.08245  22708626.445                    22708628.844
     -2247.441       -1751.126          45.300          34.500
 128056026.726 6  99783971.50543  24368266.094                    24368274.047
     -3681.008       -2868.295          40.200          22.500
 18  2 20  9 35  0.0000000  0  7G07G05G09G30G13G02G06
 109492043.664 8  85318517.66447  20835646.453                    20835650.344
      -797.758        -621.372          49.900          42.500
 109934117.731 8  85662986.94247  20919772.992                    20919777.211
      1598.109        1245.542          53.200          42.000
 117399571.000 8  91480244.73246  22340401.641                    22340407.129
     -2728.238       -2125.809          49.300          36.900
 107753937.341 8  83964138.44047  20504889.805                    20504896.184
       952.527         742.449          53.500          45.600
 123363582.913 7  96127525.28644  23475315.227                    23475320.379
      3078.406        2398.899          42.500          26.800
 119402198.022 7  93040699.83945  22721492.609                    22721495.145
     -2260.074       -1760.864          45.800          33.300
 128166470.917 6  99870031.82044  24389282.164                    24389291.477
     -3681.953       -2869.057          39.700          24.500
 18  2 20  9 35 30.0000000  0  7G07G05G09G30G13G02G06
 109516216.418 8  85337353.56747  20840246.477                    20840250.250
      -813.840        -633.927          50.900          43.100
 109886399.146 8  85625803.64846  20910692.359                    20910696.570
      1582.980        1233.719          53.300          41.700
 117481504.995 8  91544089.35346  22355993.031                    22356000.844
     -2734.055       -2130.342          48.600          39.900
 107725629.545 9  83942080.41747  20499502.914                    20499509.715
       934.691         728.531          54.200          45.600
 123271296.015 7  96055613.40744  23457754.586                    23457759.223
      3073.895        2395.345          43.000          27.300
 119470184.441 7  93093676.23245  22734430.141                    22734432.992
     -2272.418       -1770.560          45.800          34.700
 128276943.216 6  99956114.04944  24410304.992                    24410313.074
     -3682.961       -2869.749          40.000          24.200
 18  2 20  9 36  0.0000000  0  7G07G05G09G30G13G02G06
 109540872.685 8  85356566.23447  20844938.047                    20844942.215
      -829.910        -646.477          51.100          42.900
 109839138.244 8  85588976.96047  20901698.766                    20901703.188
      1567.688        1221.801          51.900          42.300
 117563613.068 7  91608069.57046  22371617.633                    22371626.180
     -2739.836       -2134.843          46.300          39.300
 107697858.332 8  83920440.51747  20494218.281                    20494224.938
       916.668         714.594          53.900          46.100
 123179147.417 7  95983809.31644  23440217.797                    23440224.008
      3069.324        2391.744          43.000          25.900
 119538543.027 7  93146942.61045  22747438.430                    22747441.039
     -2284.750       -1780.181          46.600          33.600
 128387440.894 7 100042216.07044  24431331.977                    24431340.547
     -3683.719       -2870.379          42.400          24.700
 18  2 20  9 36 30.0000000  0  7G07G05G09G30G13G02G06
 109566010.872 8  85376154.43147  20849721.641                    20849725.750
      -846.008        -659.016          52.000          42.200
 109792336.314 8  85552507.92047  20892792.578                    20892797.348
      1552.410        1209.866          52.600          42.400
 117645894.246 7  91672184.73346  22387275.641                    22387281.867
     -2745.590       -2139.339          47.200          37.200
 107670623.988 8  83899218.94447  20489035.797                    20489042.637
       898.809         700.633          53.700          45.300
 123087137.288 7  95912113.09144  23422709.883                    23422714.770
      3064.766        2388.137          42.700          28.200
 119607271.085 7  93200496.91545  22760517.078                    22760519.910
     -2297.035       -1789.766          46.200          33.300
 128497961.077 6 100128335.64644  24452362.813                    24452372.156
     -3684.379       -2870.920          41.900          24.100
 18  2 20  9 37  0.0000000  0  7G07G05G09G30G13G02G06
 109591630.138 8  85396117.48047  20854597.086                    20854601.059
      -861.875        -671.467          52.300          42.900
 109745995.250 8  85516397.99646  20883974.383                    20883978.305
      1537.082        1197.870          53.000          41.700
 117728347.747 8  91736434.22446  22402965.922                    22402972.723
     -2751.148       -2143.798          48.300          37.300
 107643927.065 9  83878416.14247  20483955.453                    20483962.410
       880.961         686.692          54.100          45.600
 122995266.696 7  95840525.60844  23405227.375                    23405232.164
      3060.105        2384.494          43.400          27.500
 119676366.512 7  93254337.45545  22773665.953                    22773668.227
     -2309.160       -1799.273          46.600          33.600
 128608501.179 6 100214470.72843  24473397.547                    24473407.605
     -3684.844       -2871.395          40.900          21.700
 18  2 20  9 37 30.0000000  0  7G07G05G09G30G13G02G06
 109617728.835 8  85416454.11547  20859563.391                    20859567.535
      -877.992        -683.893          52.500          42.900
 109700116.475 8  85480648.30146  20875244.039                    20875248.414
      1521.531        1185.823          53.200          41.900
 117810972.522 7  91800817.15946  22418688.164                    22418694.984
     -2756.996       -2148.245          47.900          37.100
 107617767.666 9  83858032.19847  20478977.867                    20478984.598
       862.977         672.716          54.500          45.700
 122903536.933 7  95769047.88744  23387771.922                    23387776.086
      3055.250        2380.825          42.500          26.200
 119745826.321 7  93308461.95345  22786883.742                    22786885.711
     -2321.441       -1808.708          45.800          32.700
 128719058.177 7 100300618.95244  24494436.711                    24494445.703
     -3685.578       -2871.801          42.600          25.700
 18  2 20  9 38  0.0000000  0  7G07G05G09G30G13G02G06
 109644305.858 8  85437163.47247  20864621.063                    20864625.203
      -893.867        -696.308          52.500          42.600
 109654701.870 8  85445260.27846  20866602.000                    20866606.035
      1506.043        1173.772          53.400          41.800
 117893767.613 8  91865332.73746  22434444.414                    22434452.074
     -2762.668       -2152.659          50.000          38.700
 107592146.079 8  83838067.31947  20474101.977                    20474108.707
       845.020         658.729          52.900          46.300
 122811948.276 7  95697680.07144  23370343.219                    23370346.910
      3050.555        2377.147          43.800          25.300
 119815647.953 7  93362868.38745  22800169.734                    22800172.238
     -2333.406       -1818.061          45.400          32.600
 128829629.160 7 100386778.07143  24515478.438                    24515486.582
     -3685.848       -2872.121          42.000          23.600
 18  2 20  9 38 30.0000000  0  7G07G05G09G30G13G02G06
 109671360.227 8  85458244.79147  20869769.195                    20869773.621
      -909.687        -708.690          51.900          42.600
 109609753.280 8  85410235.41247  20858048.469                    20858052.547
      1490.441        1161.621          52.900          42.100
 117976732.130 8  91929980.34646  22450231.469                    22450238.949
     -2768.348       -2157.046          49.800          38.600
 107567062.710 8  83818521.82547  20469328.961                    20469335.727
       827.102         644.744          53.700          45.600
 122720501.551 7  95626422.86744  23352941.445                    23352945.824
      3045.777        2373.438          43.400          25.600
 119885829.254 7  93417555.09045  22813525.289                    22813527.430
     -2345.320       -1827.395          45.600          33.100
 128940211.453 7 100472946.06544  24536520.953                    24536529.230
     -3686.320       -2872.395          42.700          24.700
 18  2 20  9 39  0.0000000  0  7G07G05G09G30G13G02G06
 109698890.192 8  85479696.70047  20875007.859                    20875011.895
      -925.605        -721.027          52.400          42.000
 109565272.156 8  85375574.78847  20849583.992                    20849587.957
      1474.930        1149.471          53.300          42.600
 118059864.969 8  91994759.14246  22466051.250                    22466058.227
     -2773.910       -2161.401          50.200          37.300
 107542517.603 8  83799395.77547  20464658.109                    20464664.777
       809.254         630.769          53.300          45.900
 122629197.411 7  95555276.78744  23335567.008                    23335571.227
      3041.051        2369.734          44.500          27.000
 119956367.160 7  93472519.67445  22826947.703                    22826950.633
     -2357.113       -1836.603          45.100          32.100
 129050801.993 6 100559120.43543  24557565.977                    24557574.688
     -3686.453       -2872.546          40.400          23.900
 18  2 20  9 39 30.0000000  0  6G07G05G09G30G13G02
 109726895.036 8  85501518.65647  20880336.766                    20880340.996
      -941.375        -733.374          52.900          42.000
 109521260.914 8  85341280.31547  20841208.773                    20841212.953
      1459.145        1137.214          53.100          42.600
 118143165.662 8  92059668.78945  22481902.906                    22481908.793
     -2779.445       -2165.764          50.700          35.800
 107518511.466 8  83780689.69147  20460089.844                    20460096.293
       791.141         616.754          53.600          46.000
 122538037.015 7  95484242.69044  23318219.602                    23318223.855
      3036.332        2365.976          44.200          26.800
 120027259.292 7  93527760.27045  22840438.461                    22840440.699
     -2368.965       -1845.787          45.700          32.500
 18  2 20  9 40  0.0000000  0  6G07G05G09G30G13G02
 109755373.756 8  85523709.86247  20885756.273                    20885760.371
      -957.211        -745.650          52.200          42.400
 109477721.261 8  85307353.30447  20832923.508                    20832927.504
      1443.414        1124.952          53.200          42.400
 118226633.516 8  92124708.61346  22497786.781                    22497794.395
     -2785.047       -2170.089          49.200          38.000
 107495044.771 8  83762403.95347  20455624.344                    20455630.715
       773.242         602.748          53.800          45.700
 122447021.645 7  95413321.61344  23300900.008                    23300904.801
      3031.348        2362.190          45.000          26.500
 120098503.731 7  93583275.37145  22853995.625                    22853998.965
     -2380.684       -1854.904          43.800          32.100
 18  2 20  9 40 30.0000000  0  7G07G05G28G09G30G13G02
 109784324.268 8  85546268.68047  20891265.719                    20891269.211
      -972.871        -757.870          52.000          42.200
 109434654.346 8  85273794.66647  20824728.188                    20824732.152
      1427.652        1112.679          52.400          42.100
 127578729.541 6  99412064.18343  24277436.703                    24277441.668
      3232.027        2518.585          41.800          20.400
 118310266.796 8  92189877.35146  22513701.750                    22513708.293
     -2790.574       -2174.362          50.300          37.800
 107472116.938 8  83744538.11147  20451261.211                    20451267.723
       755.301         588.761          53.900          45.800
 122356151.171 7  95342513.43544  23283607.359                    23283612.426
      3026.574        2358.436          44.700          27.900
 120170096.725 7  93639062.07545  22867619.148                    22867622.133
     -2392.293       -1863.911          44.900          30.900
 18  2 20  9 41  0.0000000  0  7G07G05G28G09G30G13G02
 109813744.517 8  85569193.54246  20896863.672                    20896867.941
      -988.484        -770.069          53.800          41.800
 109392060.880 8  85240604.95646  20816623.063                    20816627.000
      1411.750        1100.325          53.200          41.900
 127481797.222 6  99336532.54843  24258991.266                    24258996.082
      3229.949        2516.874          41.500          21.100
 118394064.078 8  92255173.92246  22529647.469                    22529654.938
     -2795.988       -2178.629          49.500          36.700
 107449727.574 8  83727091.84947  20447000.750                    20447007.039
       737.348         574.761          53.600          45.700
 122265426.072 7  95271818.55044  23266343.438                    23266347.980
      3021.551        2354.626          43.900          26.500
 120242035.256 7  93695118.04945  22881308.734                    22881311.168
     -2403.742       -1872.879          44.300          31.100
 18  2 20  9 41 30.0000000  0  7G07G05G28G09G30G13G02
 109843634.322 8  85592484.29946  20902551.688                    20902555.727
     -1004.055        -782.212          52.100          41.800
 109349943.818 8  85207786.45446  20808608.359                    20808612.496
      1396.047        1087.995          53.000          41.600
 127384932.203 6  99261053.33943  24240558.281                    24240563.348
      3227.703        2515.144          40.900          18.300
 118478025.310 8  92320598.20946  22545624.617                    22545631.004
     -2801.363       -2182.832          50.200          36.200
 107427877.766 9  83710066.03047  20442842.813                    20442849.504
       719.500         560.800          54.100          45.400
 122174847.880 7  95201238.16844  23249106.742                    23249111.984
      3016.945        2350.875          44.500          27.500
 120314317.879 7  93751442.14445  22895063.672                    22895065.434
     -2415.066       -1881.738          43.800          31.000
 18  2 20  9 42  0.0000000  0  7G07G05G28G09G30G13G02
 109873992.168 8  85616139.74647  20908328.859                    20908332.734
     -1019.770        -794.379          52.000          42.200
 109308304.371 8  85175340.13047  20800684.633                    20800689.160
      1379.961        1075.530          52.400          42.100
 127288137.592 6  99185629.02543  24222138.820                    24222143.637
      3225.352        2513.224          40.200          19.000
 118562149.495 8  92386149.48246  22561632.844                    22561640.145
     -2806.887       -2187.080          50.700          37.500
 107406567.554 8  83693460.66347  20438787.641                    20438794.223
       701.297         546.740          53.400          45.500
 122084417.284 7  95130772.77544  23231898.688                    23231904.195
      3011.766        2346.986          42.600          28.300
 120386941.557 7  93808031.98345  22908883.617                    22908886.875
     -2426.437       -1890.568          43.300          31.700
 18  2 20  9 42 30.0000000  0  7G07G05G28G09G30G13G02
 109904817.309 8  85640159.33447  20914194.719                    20914198.500
     -1035.328        -806.545          52.800          42.600
 109267145.260 8  85143268.09647  20792852.328                    20792856.492
      1363.941        1063.006          52.700          42.500
 127191416.415 6  99110261.89443  24203733.445                    24203738.070
      3222.672        2511.250          40.000          18.600
 118646436.067 8  92451827.26846  22577672.758                    22577678.832
     -2812.242       -2191.309          48.800          36.400
 107385797.446 8  83677276.16647  20434835.086                    20434842.234
       683.332         532.674          52.900          45.700
 121994135.262 7  95060423.15544  23214718.727                    23214722.652
      3006.844        2343.072          43.700          28.100
 120459903.892 7  93864885.71545  22922768.203                    22922770.113
     -2437.727       -1899.374          42.100          31.000
 18  2 20  9 43  0.0000000  0  7G07G05G28G09G30G13G02
 109936108.030 8  85664541.71047  20920149.109                    20920153.305
     -1050.754        -818.566          52.400          42.800
 109226467.269 9  85111570.95547  20785111.625                    20785115.711
      1347.813        1050.524          54.000          42.600
 127094770.828 6  99034953.69943  24185342.617                    24185347.055
      3220.098        2509.289          40.000          19.000
 118730883.850 8  92517630.71146  22593742.461                    22593749.996
     -2817.629       -2195.476          50.500          38.600
 107365567.280 8  83661512.41447  20430985.195                    20430992.145
       665.352         518.693          53.500          45.500
 121904002.677 7  94990189.99344  23197567.078                    23197572.305
      3001.961        2339.231          42.900          29.100
 120533202.084 7  93922001.18445  22936716.289                    22936718.535
     -2448.816       -1908.036          43.700          30.900
 18  2 20  9 43 30.0000000  0  7G07G05G28G09G30G13G02
 109967862.373 8  85689285.34747  20926191.625                    20926196.148
     -1066.234        -830.629          52.900          43.000
 109186272.289 8  85080250.18147  20777462.242                    20777467.008
      1331.723        1037.938          53.900          42.400
 126998204.337 6  98959707.12343  24166965.977                    24166971.258
      3217.457        2507.219          39.000          19.300
 118815491.919 8  92583559.00245  22609842.922                    22609849.480
     -2822.945       -2199.640          48.200          35.200
 107345877.159 8  83646169.46147  20427238.805                    20427244.996
       647.277         504.626          53.300          45.700
 121814019.912 7  94920073.57244  23180442.867                    23180448.695
      2996.852        2335.288          43.300          29.100
 120606833.654 7  93979376.38745  22950727.867                    22950729.539
     -2459.871       -1916.676          43.200          31.100
 18  2 20  9 44  0.0000000  0  7G07G05G28G09G30G13G02
 110000079.594 8  85714389.66947  20932322.344                    20932326.668
     -1081.609        -842.617          52.800          42.400
 109146562.091 8  85049307.17546  20769906.047                    20769910.297
      1315.598        1025.340          53.000          41.800
 126901719.927 6  98884524.55443  24148605.703                    24148610.305
      3214.836        2505.040          37.900          20.600
 118900259.485 8  92649611.68246  22625973.039                    22625980.258
     -2828.254       -2203.756          50.100          36.700
 107326727.253 8  83631247.46147  20423594.297                    20423601.109
       629.363         490.611          53.700          45.300
 121724188.339 7  94850074.94445  23163349.305                    23163353.832
      2991.910        2331.388          43.400          30.000
 120680795.747 7  94037009.16245  22964802.477                    22964804.945
     -2470.852       -1925.229          42.000          31.000
 18  2 20  9 44 30.0000000  0  7G07G05G28G09G30G13G02
 110032758.064 8  85739853.40747  20938541.039                    20938545.121
     -1096.926        -854.576          52.200          42.600
 109107338.252 8  85018743.13747  20762441.891                    20762446.199
      1299.340        1012.688          53.000          42.000
 126805319.817 6  98809407.62543  24130261.500                    24130266.691
      3211.684        2502.809          37.900          20.100
 118985185.651 8  92715787.80445  22642134.383                    22642141.746
     -2833.465       -2207.846          48.900          35.900
 107308117.560 8  83616746.39947  20420053.172                    20420059.820
       611.332         476.596          53.300          45.800
 121634508.670 7  94780194.70644  23146283.773                    23146288.207
      2986.781        2327.427          43.500          28.600
 120755085.900 7  94094897.57045  22978939.281                    22978941.105
     -2481.766       -1933.703          43.600          31.700
 18  2 20  9 45  0.0000000  0  7G07G05G28G09G30G13G02
 110065896.222 8  85765675.32747  20944846.922                    20944850.836
     -1112.285        -866.488          52.300          42.300
 109068601.951 8  84988559.01347  20755070.789                    20755075.066
      1283.051        1000.016          52.400          42.100
 126709007.062 6  98734358.78843  24111933.898                    24111938.641
      3208.957        2500.500          39.400          19.300
 119070269.350 8  92782086.79546  22658325.492                    22658332.191
     -2838.773       -2211.924          48.000          36.700
 107290048.063 8  83602666.28147  20416614.438                    20416621.395
       593.340         462.568          52.800          45.400
 121544981.590 7  94710433.34644  23129246.883                    23129251.504
      2981.707        2323.461          44.300          29.700
 120829701.309 7  94153039.42945  22993138.742                    22993140.586
     -2492.539       -1942.101          43.700          32.000
 18  2 20  9 45 30.0000000  0  7G07G05G28G09G30G13G02
 110099493.349 8  85791854.90446  20951240.102                    20951244.348
     -1127.523        -878.381          52.500          41.600
 109030355.273 8  84958756.40447  20747792.813                    20747797.031
      1266.715         987.282          51.900          42.200
 126612785.163 6  98659380.76143  24093623.648                    24093628.273
      3205.785        2498.111          38.800          21.300
 119155509.949 7  92848508.00046  22674546.234                    22674553.688
     -2843.930       -2215.982          47.500          36.900
 107272518.950 9  83589007.23247  20413279.078                    20413285.785
       575.395         448.551          54.100          45.400
 121455608.058 7  94640791.63244  23112240.664                    23112244.719
      2976.551        2319.485          44.400          29.600
 120904639.375 7  94211432.69245  23007398.844                    23007401.320
     -2503.207       -1950.434          44.700          32.700
 18  2 20  9 46  0.0000000  0  7G07G05G28G09G30G13G02
 110133547.470 8  85818390.56447  20957720.586                    20957725.047
     -1142.828        -890.251          52.900          42.300
 108992600.137 8  84929336.81446  20740607.914                    20740612.074
      1250.266         974.472          52.400          41.900
 126516657.043 6  98584475.81343  24075331.398                    24075335.586
      3202.512        2495.619          38.700          20.400
 119240906.613 7  92915050.83546  22690796.805                    22690803.469
     -2849.168       -2220.026          47.100          36.700
 107255530.382 8  83575769.39447  20410045.969                    20410052.973
       557.152         434.475          53.500          46.300
 121366388.605 7  94571269.99444  23095262.086                    23095266.281
      2971.332        2315.453          44.100          29.200
 120979897.403 7  94270075.27945  23021719.883                    23021722.840
     -2514.012       -1958.740          43.300          33.100
 18  2 20  9 46 30.0000000  0  7G07G05G28G09G30G13G02
 110168057.286 8  85845281.31547  20964288.063                    20964291.617
     -1157.828        -902.065          51.800          42.100
 108955337.808 8  84900301.22947  20733517.172                    20733521.672
      1233.871         961.637          50.900          42.200
 126420625.011 6  98509645.72643  24057056.398                    24057061.457
      3199.605        2493.124          39.800          22.000
 119326458.417 7  92981714.50946  22707075.852                    22707084.047
     -2854.301       -2224.079          47.300          36.000
 107239082.206 8  83562952.64147  20406916.039                    20406922.430
       539.262         420.427          52.800          45.200
 121277324.147 7  94501869.11644  23078314.273                    23078318.508
      2966.168        2311.383          44.600          29.400
 121055472.757 7  94328965.12745  23036101.258                    23036103.762
     -2524.398       -1966.958          44.700          33.000
 18  2 20  9 47  0.0000000  0  7G07G05G28G09G30G13G02
 110203021.290 8  85872525.99347  20970941.000                    20970944.906
     -1173.016        -913.876          53.400          42.400
 108918570.124 8  84871651.08847  20726520.797                    20726524.813
      1217.340         948.761          52.400          42.800
 126324692.211 6  98434892.98443  24038800.328                    24038805.957
      3196.098        2490.429          39.600          21.300
 119412164.410 7  93048498.38445  22723386.117                    22723392.027
     -2859.430       -2228.077          47.200          34.900
 107223174.416 8  83550556.95547  20403889.148                    20403895.922
       521.242         406.381          52.700          45.400
 121188415.999 7  94432590.05344  23061395.266                    23061399.207
      2960.973        2307.315          45.600          28.600
 121131362.604 7  94388100.04645  23050542.477                    23050545.270
     -2534.945       -1975.138          43.800          31.600
 18  2 20  9 47 30.0000000  0  7G07G05G28G09G30G13G02
 110238437.988 8  85900123.42447  20977680.570                    20977685.043
     -1188.055        -925.579          53.300          42.200
 108882297.895 8  84843387.01247  20719618.445                    20719622.605
      1200.938         935.926          52.300          42.200
 126228861.311 6  98360219.63443  24020564.945                    24020569.844
      3192.598        2487.803          40.700          21.300
 119498023.529 7  93115401.52946  22739724.586                    22739732.246
     -2864.395       -2232.000          47.000          36.300
 107207806.731 8  83538582.13547  20400964.516                    20400971.160
       503.328         392.383          53.200          45.700
 121099664.553 7  94363433.10244  23044506.281                    23044510.465
      2955.777        2303.256          45.700          28.700
 121207564.095 7  94447477.77945  23065043.914                    23065046.309
     -2545.129       -1983.147          44.900          33.000
 18  2 20  9 48  0.0000000  0  7G07G05G28G09G30G13G02
 110274306.173 8  85928072.65546  20984505.891                    20984509.180
     -1203.082        -937.334          52.100          41.500
 108846523.226 8  84815510.64247  20712810.805                    20712814.621
      1184.137         922.897          51.700          42.500
 126133135.579 6  98285628.21143  24002349.398                    24002353.969
      3188.914        2484.965          40.600          21.800
 119584035.144 7  93182423.56245  22756091.883                    22756097.547
     -2869.711       -2236.037          47.800          34.800
 107192979.359 8  83527028.34047  20398142.914                    20398149.434
       485.191         378.297          53.200          45.400
 121011070.771 7  94294398.99744  23027647.617                    23027651.789
      2950.422        2299.098          45.800          28.800
 121284074.877 7  94507096.52545  23079602.953                    23079606.230
     -2555.543       -1991.216          43.600          32.700
 18  2 20  9 48 30.0000000  0  7G07G05G28G09G30G13G02
 110310624.602 8  85956372.72847  20991417.367                    20991421.113
     -1218.148        -948.988          53.100          42.200
 108811247.723 8  84788023.23847  20706097.898                    20706102.422
      1167.488         909.961          51.600          42.500
 126037518.114 6  98211121.20643  23984153.898                    23984158.227
      3185.516        2482.142          40.400          20.400
 119670198.518 7  93249563.82345  22772488.078                    22772495.883
     -2874.613       -2239.911          47.300          35.600
 107178692.345 8  83515895.60247  20395424.266                    20395431.070
       467.254         364.309          53.500          45.400
 120922635.436 7  94225488.36444  23010818.945                    23010823.734
      2945.125        2295.007          45.600          29.300
 121360892.030 7  94566954.00945  23094221.031                    23094223.418
     -2565.543       -1999.086          43.100          32.100
 18  2 20  9 49  0.0000000  0  7G07G05G28G09G30G13G02
 110347391.666 8  85985022.39546  20998413.273                    20998417.363
     -1233.023        -960.608          53.700          41.600
 108776472.786 8  84760925.89547  20699480.203                    20699484.379
      1150.777         896.946          51.500          42.300
 125942011.381 6  98136700.44943  23965978.844                    23965983.406
      3181.617        2479.271          40.800          21.500
 119756512.723 7  93316821.59845  22788912.586                    22788919.922
     -2879.602       -2243.803          47.100          33.900
 107164945.521 9  83505183.80347  20392808.352                    20392815.027
       449.195         350.275          54.000          45.800
 120834359.533 7  94156701.98344  22994020.531                    22994025.492
      2939.785        2290.856          45.900          29.100
 121438013.057 7  94627048.25745  23108896.492                    23108899.012
     -2575.715       -2006.941          43.900          31.800
 18  2 20  9 49 30.0000000  0  7G07G05G28G09G30G13G02
 110384605.538 8  86014020.21846  21005495.906                    21005498.926
     -1247.914        -972.207          52.700          41.400
 108742200.172 8  84734219.96447  20692958.500                    20692962.609
      1134.063         883.858          52.200          42.600
 125846618.606 6  98062368.51843  23947826.688                    23947830.563
      3177.754        2476.227          39.500          20.900
 119842976.815 7  93384196.17146  22805367.102                    22805374.352
     -2884.633       -2247.707          47.500          36.100
 107151738.681 9  83494892.76047  20390295.266                    20390302.051
       431.227         336.255          54.000          45.600
 120746243.605 7  94088040.22944  22977252.148                    22977257.059
      2934.605        2286.681          45.800          29.700
 121515435.001 7  94687377.01545  23123629.258                    23123632.078
     -2585.648       -2014.742          43.200          31.100
 18  2 20  9 50  0.0000000  0  7G07G05G28G09G30G13G02
 110422264.872 9  86043365.16047  21012661.844                    21012665.852
     -1262.719        -983.725          54.700          42.300
 108708431.158 8  84707906.44547  20686532.617                    20686536.590
      1117.203         870.806          52.500          42.400
 125751342.341 6  97988127.35143  23929695.305                    23929700.051
      3173.789        2473.250          38.400          20.600
 119929589.901 8  93451686.84846  22821848.727                    22821855.758
     -2889.598       -2251.525          48.300          36.100
 107139071.755 8  83485022.43347  20387884.797                    20387891.297
       413.172         322.256          53.800          45.900
 120658288.695 7  94019503.94044  22960515.031                    22960520.090
      2929.152        2282.529          45.100          29.900
 121593154.907 7  94747937.91445  23138418.898                    23138421.359
     -2595.547       -2022.386          44.700          30.900
 18  2 20  9 50 30.0000000  0  7G07G05G28G09G30G13G02
 110460368.015 8  86073055.92946  21019912.234                    21019916.652
     -1277.391        -995.251          52.600          41.900
 108675167.116 8  84681986.40847  20680202.633                    20680206.527
      1100.453         857.657          52.000          42.300
 125656185.772 6  97913979.42843  23911587.531                    23911592.605
      3169.977        2470.071          38.300          21.300
 120016351.000 8  93519292.86146  22838359.367                    22838366.055
     -2894.426       -2255.392          48.600          37.000
 107126944.341 8  83475572.50747  20385577.148                    20385583.855
       395.336         308.221          53.800          45.200
 120570495.395 7  93951093.59144  22943808.375                    22943813.457
      2923.805        2278.303          45.900          29.400
 121671170.147 7  94808728.97944  23153264.563                    23153267.125
     -2605.289       -2030.058          44.100          29.800
 18  2 20  9 51  0.0000000  0  7G07G05G28G09G30G13G02
 110498913.558 8  86103091.39847  21027247.422                    21027251.559
     -1292.152       -1006.738          52.700          42.300
 108642409.624 8  84656461.09547  20673969.039                    20673973.172
      1083.508         844.470          51.200          42.700
 125561151.777 6  97839927.04043  23893502.789                    23893507.738
      3165.664        2466.860          37.900          21.800
 120103259.423 8  93587013.64846  22854897.297                    22854904.457
     -2899.375       -2259.201          48.900          36.500
 107115356.551 8  83466543.06847  20383371.625                    20383378.543
       377.320         294.198          53.500          46.000
 120482864.653 7  93882809.89944  22927133.461                    22927137.117
      2918.313        2274.068          45.400          29.400
 121749478.124 7  94869748.12045  23168166.297                    23168168.738
     -2615.000       -2037.615          44.400          30.800
 18  2 20  9 51 30.0000000  0  7G07G05G28G09G30G13G02
 110537900.250 8  86133470.64447  21034666.219                    21034670.461
     -1306.859       -1018.175          53.800          42.100
 108610160.321 8  84631331.76447  20667832.461                    20667836.723
      1066.449         831.246          51.600          43.100
 125466243.395 6  97765972.57943  23875442.305                    23875448.297
      3161.547        2463.546          38.900          22.000
 120190314.328 7  93654848.62845  22871462.672                    22871468.961
     -2904.285       -2263.003          47.900          34.400
 107104308.145 8  83457933.92147  20381269.688                    20381276.434
       359.281         280.186          53.800          45.900
 120395397.279 7  93814653.51644  22910488.695                    22910492.789
      2912.801        2269.813          45.500          29.900
 121828076.042 7  94930993.21345  23183123.055                    23183125.820
     -2624.742       -2045.130          44.900          30.500
 18  2 20  9 52  0.0000000  0  7G07G05G28G09G30G13G02
 110577326.365 8  86164192.30246  21042168.469                    21042172.887
     -1321.484       -1029.541          52.400          41.800
 108578420.507 8  84606599.44647  20661792.195                    20661796.809
      1049.508         818.009          51.700          42.700
 125371463.378 6  97692118.06043  23857406.156                    23857412.035
      3157.164        2460.176          39.700          22.500
 120277514.761 7  93722796.95145  22888057.219                    22888064.184
     -2909.129       -2266.747          47.200          34.400
 107093798.791 8  83449744.81847  20379269.633                    20379276.492
       341.293         266.211          53.700          45.400
 120308094.300 7  93746625.23045  22893875.484                    22893879.703
      2907.316        2265.532          45.600          30.200
 121906960.984 7  94992461.95945  23198134.359                    23198136.992
     -2634.293       -2052.542          44.200          30.100
 18  2 20  9 52 30.0000000  0  7G07G05G28G09G30G13G02
 110617190.437 8  86195255.19946  21049754.492                    21049758.641
     -1336.035       -1040.860          53.200          41.400
 108547191.452 8  84582265.11047  20655849.719                    20655853.875
      1032.430         804.767          50.900          42.900
 125276814.569 6  97618365.83843  23839395.578                    23839401.520
      3152.742        2456.777          40.800          22.200
 120364859.770 7  93790857.95445  22904677.805                    22904684.371
     -2913.777       -2270.452          45.600          34.000
 107083828.330 8  83441975.62447  20377372.414                    20377378.980
       323.426         252.255          53.400          46.000
 120220956.228 7  93678725.42744  22877293.992                    22877297.684
      2901.875        2261.302          45.000          29.900
 121986130.154 7  95054152.16244  23213200.211                    23213202.512
     -2643.738       -2059.854          42.500          29.900
 18  2 20  9 53  0.0000000  0  7G07G05G28G09G30G13G02
 110657490.529 8  86226657.88646  21057423.227                    21057427.395
     -1350.648       -1052.254          53.400          41.600
 108516474.524 8  84558329.84147  20650004.281                    20650008.832
      1015.250         791.363          51.300          42.900
 125182299.893 6  97544718.11144  23821409.203                    23821416.070
      3148.250        2453.215          41.100          24.900
 120452348.664 8  93859031.07946  22921327.656                    22921334.219
     -2918.746       -2274.251          48.100          36.400
 107074396.490 8  83434626.14247  20375577.625                    20375584.203
       305.332         238.186          53.500          45.800
 120133984.284 7  93610955.11345  22860743.742                    22860747.512
      2896.230        2256.887          45.700          30.300
 122065580.795 7  95116061.70345  23228319.070                    23228321.480
     -2653.098       -2067.193          42.600          30.000
 18  2 20  9 53 30.0000000  0  7G07G05G28G09G30G13G02
 110698225.545 8  86258399.44146  21065175.172                    21065179.281
     -1365.133       -1063.500          52.800          41.700
 108486271.600 8  84534795.10147  20644257.031                    20644260.949
       998.184         778.022          50.900          42.600
 125087922.431 6  97471177.29344  23803450.570                    23803456.215
      3143.520        2449.597          41.100          24.300
 120539980.596 8  93927315.64546  22938002.805                    22938010.496
     -2923.516       -2277.948          48.000          36.600
 107065503.070 8  83427696.21047  20373885.141                    20373891.688
       287.480         224.236          53.300          45.800
 120047179.168 7  93543314.77745  22844225.500                    22844229.109
      2890.762        2252.568          45.200          30.800
 122145310.247 7  95178188.52744  23243490.609                    23243493.578
     -2662.262       -2074.373          42.900          29.300
 18  2 20  9 54  0.0000000  0  7G07G05G28G09G30G13G02
 110739393.815 8  86290478.61147  21073009.422                    21073013.254
     -1379.512       -1074.730          53.900          42.300
 108456583.859 8  84511661.79147  20638607.648                    20638611.648
       980.980         764.646          51.800          42.800
 124993684.873 6  97397745.50344  23785518.297                    23785523.652
      3138.949        2445.974          41.500          25.700
 120627754.689 7  93995711.00345  22954705.820                    22954712.734
     -2928.207       -2281.630          46.300          35.400
 107057147.824 8  83421185.62747  20372295.219                    20372302.090
       269.535         210.279          53.000          46.100
 119960541.583 7  93475804.99345  22827738.484                    22827742.625
      2885.102        2248.224          44.900          30.800
 122225315.757 7  95240530.43744  23258715.703                    23258717.992
     -2671.348       -2081.485          44.300          29.500
 18  2 20  9 54 30.0000000  0  7G07G05G28G09G30G13G02
 110780993.698 8  86322894.09646  21080925.789                    21080928.973
     -1393.852       -1085.923          53.200          41.500
 108427412.645 8  84488930.97247  20633056.516                    20633060.309
       963.742         751.205          51.700          42.700
 124899590.365 7  97324425.17344  23767612.945                    23767618.102
      3134.082        2442.177          43.200          25.700
 120715670.066 7  94064216.43845  22971435.344                    22971442.574
     -2932.887       -2285.278          47.200          35.400
 107049330.362 8  83415094.09847  20370807.586                    20370814.070
       251.613         196.299          53.100          45.300
 119874072.413 7  93408426.43145  22811283.359                    22811288.133
      2879.477        2243.826          44.900          30.600
 122305594.285 7  95303085.09244  23273991.875                    23273994.895
     -2680.445       -2088.566          42.200          29.500
 18  2 20  9 55  0.0000000  0  8G07G05G28G09G30G13G20G02
 110823024.222 8  86355645.16147  21088923.664                    21088928.074
     -1408.141       -1097.062          53.300          42.000
 108398760.191 8  84466604.38547  20627604.313                    20627608.301
       946.434         737.711          51.100          42.800
 124805642.542 6  97251219.14644  23749735.313                    23749739.875
      3129.145        2438.338          41.700          27.100
 120803726.710 7  94132831.97845  22988192.320                    22988198.684
     -2937.566       -2288.932          46.900          34.200
 107042051.203 8  83409422.04347  20369422.313                    20369428.988
       233.641         182.328          52.700          45.700
 119787773.425 7  93341180.47945  22794862.133                    22794866.457
      2873.805        2239.404          44.300          31.300
 128403284.788 6 100054562.43943  24434341.875                    24434345.598
      3558.551        2772.955          40.300          22.000
 122386143.932 7  95365851.02144  23289320.250                    23289322.516
     -2689.480       -2095.560          42.800          29.100
 18  2 20  9 55 30.0000000  0  8G07G05G28G09G30G13G20G02
 110865483.473 8  86388730.28846  21097003.125                    21097007.426
     -1422.504       -1108.198          53.100          41.700
 108370627.212 8  84444682.58147  20622250.906                    20622254.480
       929.070         724.189          51.100          42.900
 124711843.753 7  97178129.27044  23731885.453                    23731890.871
      3124.141        2434.429          42.300          26.800
 120891923.227 7  94201556.48945  23004975.477                    23004982.258
     -2942.223       -2292.556          47.000          34.000
 107035309.452 8  83404168.72847  20368139.461                    20368145.836
       215.777         168.375          52.300          46.100
 119701644.642 7  93274067.15645  22778471.906                    22778476.160
      2868.105        2234.963          44.400          30.300
 128296596.875 6  99971429.01043  24414039.172                    24414043.738
      3554.063        2769.478          38.700          22.600
 122466961.185 7  95428825.47145  23304698.789                    23304702.641
     -2698.395       -2102.486          42.600          30.500
 18  2 20  9 56  0.0000000  0  8G07G05G28G09G30G13G20G02
 110908369.154 8  86422147.69246  21105164.094                    21105168.625
     -1436.758       -1119.286          53.200          41.700
 108343014.535 8  84423166.21047  20616996.039                    20617000.387
       911.668         710.635          51.200          43.300
 124618196.368 6  97105157.35244  23714065.266                    23714070.461
      3118.801        2430.454          41.800          28.000
 120980258.319 7  94270389.00345  23021784.930                    23021791.887
     -2947.020       -2296.180          47.300          34.400
 107029104.348 8  83399333.58447  20366958.539                    20366965.156
       197.766         154.405          51.700          46.100
 119615686.921 7  93207087.12145  22762114.578                    22762119.207
      2862.180        2230.474          46.000          30.600
 128190044.736 6  99888401.37343  24393764.086                    24393767.664
      3549.387        2765.841          40.400          22.000
 122548042.942 7  95492006.00945  23320128.563                    23320131.672
     -2707.219       -2109.347          43.500          30.900
 18  2 20  9 56 30.0000000  0  8G07G05G28G09G30G13G20G02
 110951680.423 8  86455896.70547  21113405.984                    21113410.680
     -1450.723       -1130.270          53.500          42.100
 108315924.258 8  84402056.89547  20611840.836                    20611844.867
       894.246         697.089          51.900          43.300
 124524703.986 7  97032306.24244  23696274.492                    23696279.039
      3113.746        2426.425          42.000          27.500
 121068731.677 7  94339329.26045  23038620.906                    23038628.254
     -2951.418       -2299.735          45.000          34.700
 107023435.995 8  83394916.68947  20365880.125                    20365886.633
       180.051         140.520          52.700          45.400
 119529901.201 7  93140241.12845  22745790.234                    22745794.492
      2856.633        2226.047          45.700          30.300
 128083631.374 6  99805481.88243  24373513.477                    24373517.895
      3544.676        2762.255          39.800          20.100
 122629386.695 7  95555390.70645  23335608.023                    23335611.102
     -2715.789       -2116.076          43.000          30.000
 18  2 20  9 57  0.0000000  0  8G07G05G28G09G30G13G20G02
 110995415.371 8  86489975.86646  21121728.609                    21121732.695
     -1464.859       -1141.285          52.900          41.300
 108289356.985 8  84381355.12547  20606785.289                    20606789.477
       876.816         683.472          52.200          42.700
 124431368.969 6  96959577.73944  23678512.750                    23678517.695
      3108.582        2422.296          41.300          24.900
 121157342.039 7  94408376.22245  23055483.023                    23055490.535
     -2955.957       -2303.296          46.000          35.000
 107018303.587 8  83390917.41647  20364903.016                    20364909.602
       162.188         126.580          52.500          45.800
 119444287.971 7  93073529.53545  22729498.258                    22729502.980
      2850.859        2221.531          46.600          30.800
 127977358.417 6  99722671.81243  24353291.211                    24353294.871
      3540.211        2758.541          40.200          20.400
 122710989.422 7  95618977.19845  23351136.453                    23351139.031
     -2724.453       -2122.785          43.500          30.500
 18  2 20  9 57 30.0000000  0  8G07G05G28G09G30G13G20G02
 111039572.552 8  86524384.04946  21130131.531                    21130135.324
     -1478.832       -1152.192          53.500          41.600
 108263314.325 8  84361062.14247  20601829.797                    20601833.965
       859.277         669.848          52.500          42.900
 124338194.325 6  96886974.22544  23660782.531                    23660787.004
      3103.063        2418.093          41.300          24.800
 121246088.607 7  94477529.35145  23072370.719                    23072377.191
     -2960.465       -2306.789          45.300          34.100
 107013706.849 8  83387335.53947  20364028.500                    20364035.063
       144.309         112.692          52.300          46.000
 119358848.116 7  93006953.03245  22713239.539                    22713244.367
      2845.148        2217.039          45.100          31.100
 127871228.345 6  99639973.06143  24333094.859                    24333098.367
      3535.281        2754.809          40.200          21.100
 122792848.347 7  95682763.32244  23366713.086                    23366716.461
     -2732.848       -2129.384          43.300          29.700
 18  2 20  9 58  0.0000000  0  8G07G05G28G09G30G13G20G02
 111084149.752 8  86559119.53746  21138614.086                    21138617.852
     -1492.953       -1163.099          53.500          41.200
 108237797.527 8  84341178.92147  20596974.172                    20596978.133
       841.621         656.177          52.400          43.100
 124245183.109 7  96814498.02043  23643082.594                    23643086.918
      3097.656        2413.824          42.300          22.600
 121334970.701 7  94546788.07545  23089284.648                    23089290.250
     -2965.090       -2310.320          44.800          32.900
 107009645.344 8  83384170.73847  20363255.719                    20363262.172
       126.465          98.783          53.400          46.100
 119273582.676 7  92940512.42845  22697014.477                    22697018.570
      2839.176        2212.515          46.000          30.900
 127765243.456 6  99557387.44343  24312926.938                    24312930.063
      3530.418        2751.104          40.100          21.500
 122874960.316 6  95746746.60544  23382338.539                    23382341.781
     -2741.371       -2135.934          41.600          28.400
 18  2 20  9 58 30.0000000  0  8G07G05G28G09G30G13G20G02
 111129145.777 8  86594181.37146  21147176.773                    21147180.738
     -1506.832       -1173.985          53.300          41.700
 108212808.013 8  84321706.56847  20592218.586                    20592222.863
       824.254         642.443          52.300          43.600
 124152338.280 7  96742151.49843  23625414.500                    23625418.938
      3092.105        2409.430          42.000          22.900
 121423987.410 7  94616151.70445  23106223.930                    23106229.863
     -2969.395       -2313.789          45.400          33.000
 107006118.739 8  83381422.73547  20362584.586                    20362591.563
       108.719          84.885          52.900          45.300
 119188492.183 7  92874208.18845  22680822.109                    22680826.867
      2833.434        2207.925          46.300          30.700
 127659406.108 6  99474916.76843  24292786.211                    24292790.227
      3525.480        2747.172          40.200          21.300
 122957323.091 7  95810925.31644  23398012.164                    23398014.879
     -2749.539       -2142.410          42.400          28.100
 18  2 20  9 59  0.0000000  0  8G07G05G28G09G30G13G20G02
 111174559.054 8  86629568.36646  21155818.344                    21155822.230
     -1520.828       -1184.777          53.700          41.700
 108188346.763 8  84302645.84547  20587563.547                    20587567.895
       806.313         628.715          52.300          42.600
 124059662.498 7  96669936.68143  23607778.508                    23607782.398
      3086.328        2405.080          42.000          21.800
 121513137.906 7  94685619.59545  23123189.023                    23123195.012
     -2973.945       -2317.259          44.600          33.500
 107003126.417 8  83379091.05747  20362015.359                    20362022.223
        90.715          71.018          53.600          45.600
 119103578.036 7  92808041.34145  22664663.227                    22664668.027
      2827.418        2203.359          45.200          31.000
 127553718.734 6  99392563.00643  24272674.914                    24272678.906
      3520.230        2743.233          40.500          22.500
 123039933.301 7  95875296.86244  23413732.203                    23413735.137
     -2757.875       -2148.788          42.300          26.500
 18  2 20  9 59 30.0000000  0  8G07G05G28G09G30G13G20G02
 111220387.688 8  86665278.96046  21164539.781                    21164543.672
     -1534.555       -1195.547          53.100          41.300
 108164415.202 8  84283997.87547  20583009.766                    20583013.984
       788.926         614.943          51.900          43.500
 123967159.015 6  96597856.10743  23590175.797                    23590179.504
      3080.457        2400.490          39.600          21.500
 121602421.464 7  94755191.16345  23140178.828                    23140186.375
     -2978.379       -2320.717          46.000          33.900
 107000668.061 8  83377175.46247  20361547.328                    20361553.961
        73.055          57.156          52.800          45.400
 119018841.170 7  92742012.62745  22648538.461                    22648542.961
      2821.637        2198.724          44.600          31.700
 127448183.729 6  99310327.97843  24252592.313                    24252596.102
      3515.266        2739.235          40.700          23.500
 123122788.250 6  95939859.09044  23429499.211                    23429501.391
     -2765.949       -2155.138          41.800          27.300
                            4  1
RINEX FILE SPLICE; other post-header comments skipped       COMMENT
 18  2 20 10  0  0.0000000  0  8G07G05G28G09G30G13G20G02
 111266630.194 8  86701312.07846  21173339.133                    21173342.887
     -1548.332                          53.800          41.400
 108141014.748 8  84265763.76047  20578556.359                    20578560.480
       771.211                          52.200          42.700
 123874830.712 6  96525912.02143  23572606.469                    23572609.203
      3074.695                          40.100          20.400
 121691837.289 7  94824865.78445  23157194.453                    23157202.754
     -2982.707                          46.400          35.000
 106998743.203 8  83375675.56947  20361181.328                    20361187.852
        55.238                          52.700          45.500
 118934282.006 7  92676122.36845  22632447.477                    22632451.629
      2815.625                          45.800          31.400
 127342803.327 6  99228213.35743  24232539.531                    24232542.891
      3510.047                          40.500          22.500
 123205885.407 7  96004610.06044  23445311.836                    23445314.711
     -2773.898                          42.400          27.900
 18  2 20 10  0 30.0000000  0  8G07G05G28G09G30G13G20G02
 111313284.672 8  86737666.20046  21182217.078                    21182221.441
     -1562.051       -1216.979          53.400          41.800
 108118146.348 8  84247944.21347  20574205.047                    20574209.457
       753.414         587.289          52.300          42.400
 123782680.348 6  96454106.59043  23555070.617                    23555073.285
      3068.652        2391.216          39.200          20.100
 121781384.470 7  94894642.76845  23174233.844                    23174242.535
     -2987.133       -2327.550          46.400          33.800
 106997351.330 8  83374590.99847  20360916.047                    20360922.953
        37.461          29.448          53.400          45.800
 118849901.622 7  92610371.43645  22616390.688                    22616394.512
      2809.672        2189.427          45.400          30.800
 127237579.883 6  99146221.05843  24212515.555                    24212519.504
      3504.785        2731.060          39.400          22.500
 123289221.470 7  96069547.19144  23461170.898                    23461173.410
     -2781.863       -2167.563          42.200          28.600
 18  2 20 10  1  0.0000000  0  8G07G05G28G09G30G13G20G02
 111360349.790 8  86774340.31146  21191173.656                    21191177.383
     -1575.648       -1227.615          52.100          41.200
 108095811.113 8  84230540.13547  20569955.047                    20569959.066
       735.582         573.436          52.700          43.100
 123690710.726 6  96382442.00343  23537569.188                    23537571.949
      3062.758        2386.516          39.900          20.900
 121871062.238 7  94964521.51445  23191299.703                    23191307.973
     -2991.305       -2330.932          45.900          33.600
 106996491.816 8  83373921.24547  20360752.492                    20360759.828
        19.770          15.641          53.500          46.100
 118765700.880 7  92544760.48945  22600367.797                    22600371.203
      2803.715        2184.786          45.000          30.800
 127132515.692 6  99064352.84343  24192522.531                    24192526.008
      3499.516        2726.911          39.500          21.700
 123372793.823 7  96134668.45244  23477074.086                    23477077.410
     -2789.547       -2173.654          43.900          27.700
 18  2 20 10  1 30.0000000  0  8G07G05G28G09G30G13G20G02
 111407823.590 8  86811332.86746  21200207.383                    21200211.125
     -1589.336       -1238.212          52.700          41.300
 108074010.088 8  84213552.32247  20565806.258                    20565810.297
       717.664         559.537          51.700          43.300
 123598924.771 6  96310920.49843  23520102.961                    23520106.277
      3056.375        2381.697          39.900          20.600
 121960869.644 7  95034501.29745  23208389.445                    23208397.582
     -2995.797       -2334.284          46.300          34.700
 106996164.173 8  83373665.93447  20360690.063                    20360696.602
         1.988           1.831          53.600          45.900
 118681680.105 7  92479289.77245  22584379.000                    22584383.438
      2797.605        2180.073          45.600          31.700
 127027613.147 6  98982610.62743  24172559.852                    24172563.992
      3493.969        2722.694          38.300          21.300
 123456599.431 7  96199971.48944  23493021.320                    23493024.254
     -2797.551       -2179.679          44.100          28.100
 18  2 20 10  2  0.0000000  0  8G07G05G28G09G30G13G20G02
 111455704.702 8  86848642.83246  21209318.266                    21209322.770
     -1602.812       -1248.757          53.700          41.600
 108052744.950 8  84196982.08347  20561759.523                    20561763.766
       699.848         545.595          52.400          43.200
 123507325.588 6  96239544.53443  23502672.328                    23502675.336
      3050.090        2376.821          39.800          21.700
 122050806.176 8  95104581.63845  23225503.961                    23225510.723
     -3000.055       -2337.597          48.300          34.200
 106996367.933 9  83373824.71647  20360729.203                    20360735.453
       -15.602         -11.970          54.400          46.500
 118597840.963 7  92413960.57745  22568425.258                    22568429.625
      2791.543        2175.352          46.100          32.100
 126922874.846 6  98900996.34343  24152628.453                    24152632.590
      3488.418        2718.416          38.000          20.600
 123540635.582 7  96265454.15844  23509013.320                    23509015.773
     -2804.996       -2185.627          44.300          29.100
 18  2 20 10  2 30.0000000  0  8G07G05G28G09G30G13G20G02
 111503991.312 8  86886268.73746  21218507.633                    21218511.820
     -1616.328       -1259.264          52.300          41.100
 108032016.814 8  84180830.28847  20557815.234                    20557819.090
       681.969         531.633          51.300          43.800
 123415915.684 6  96168316.06743  23485278.047                    23485281.160
      3043.770        2371.877          39.900          22.800
 122140870.943 7  95174761.95745  23242642.492                    23242648.781
     -3004.297       -2340.950          46.200          31.800
 106997102.583 8  83374397.18047  20360868.641                    20360875.539
       -33.426         -25.745          52.800          45.400
 118514184.156 7  92348773.47345  22552505.328                    22552510.301
      2785.445        2170.618          46.000          32.900
 126818303.103 6  98819511.88244  24132729.734                    24132733.777
      3482.883        2714.038          39.000          24.800
 123624899.374 7  96331114.18244  23525048.523                    23525051.121
     -2812.566       -2191.502          45.100          28.300
 18  2 20 10  3  0.0000000  0  8G07G05G28G09G30G13G20G02
 111552681.739 8  86924209.33246  21227772.875                    21227776.695
     -1629.723       -1269.751          53.900          41.700
 108011826.724 8  84165097.74947  20553973.133                    20553977.469
       664.066         517.643          52.300          42.900
 123324698.556 6  96097237.78943  23467920.156                    23467923.766
      3037.438        2366.840          39.400          23.200
 122231063.071 7  95245041.49745  23259805.531                    23259811.758
     -3008.613       -2344.259          44.100          32.400
 106998367.442 8  83375382.77547  20361109.570                    20361115.891
       -51.043         -39.526          52.100          45.200
 118430710.385 7  92283728.99345  22536621.016                    22536625.223
      2779.430        2165.845          46.400          31.800
 126713900.242 6  98738159.01744  24112862.664                    24112866.406
      3477.168        2709.608          39.800          24.100
 123709388.144 7  96396949.55044  23541125.594                    23541128.141
     -2820.055       -2197.309          43.400          26.400
 18  2 20 10  3 30.0000000  0  8G07G05G28G09G30G13G20G02
 111601774.287 8  86962463.25746  21237114.563                    21237118.879
     -1643.137       -1280.187          52.900          40.700
 107992175.861 8  84149785.37847  20550233.695                    20550238.215
       646.047         503.607          52.000          43.000
 123233677.152 6  96026312.04343  23450599.148                    23450603.199
      3030.695        2361.671          40.000          22.900
 122321381.728 7  95315419.64345  23276992.930                    23276999.324
     -3012.758       -2347.551          45.100          34.000
 107000161.916 8  83376781.08347  20361450.680                    20361457.512
       -68.566         -53.294          53.200          45.500
 118347420.715 7  92218827.96745  22520771.070                    22520775.766
      2773.270        2161.011          46.100          32.600
 126609668.518 6  98656939.49343  24093028.063                    24093032.441
      3471.465        2705.138          40.300          23.600
 123794098.751 7  96462957.75444  23557245.867                    23557249.168
     -2827.500       -2203.073          44.300          28.900
 18  2 20 10  4  0.0000000  0  8G07G05G28G09G30G13G20G02
 111651266.950 8  87001028.95146  21246533.492                    21246537.000
     -1656.434       -1290.546          53.700          41.800
 107973065.051 8  84134893.83947  20546597.000                    20546601.383
       628.031         489.597          52.300          43.500
 123142853.821 6  95955540.63843  23433315.953                    23433320.473
      3024.102        2356.519          41.200          23.600
 122411826.161 7  95385895.76445  23294203.438                    23294210.422
     -3016.910       -2350.784          46.700          34.300
 107002485.385 8  83378591.56947  20361893.117                    20361899.727
       -86.238         -66.983          52.000          45.600
 118264315.750 7  92154070.86245  22504957.445                    22504961.098
      2767.063        2156.250          46.500          32.100
 126505610.452 6  98575855.33444  24073226.367                    24073231.527
      3465.629        2700.595          40.900          24.800
 123879028.321 7  96529136.60144  23573407.688                    23573410.207
     -2834.680       -2208.697          44.100          27.400
 18  2 20 10  4 30.0000000  0  8G07G05G28G09G30G13G20G02
 111701158.739 8  87039905.68546  21256026.500                    21256030.770
     -1669.723       -1300.911          52.700          40.600
 107954495.428 8  84120424.00447  20543063.109                    20543067.184
       609.996         475.509          52.300          43.100
 123052231.837 6  95884926.13344  23416071.008                    23416075.473
      3017.418        2351.252          41.300          25.900
 122502395.572 7  95456469.24745  23311438.695                    23311445.785
     -3021.070       -2354.017          45.300          34.000
 107005337.175 8  83380813.74147  20362435.602                    20362441.984
      -103.828         -80.722          52.200          45.500
 118181396.349 7  92089458.35545  22489178.555                    22489182.695
      2760.961        2151.419          46.500          33.600
 126401728.259 6  98494908.17643  24053457.898                    24053462.695
      3459.906        2696.021          39.200          22.600
 123964174.067 7  96595483.89644  23589610.477                    23589612.695
     -2841.762       -2214.289          42.600          25.300
 18  2 20 10  5  0.0000000  0  8G07G05G28G09G30G13G20G02
 111751447.966 8  87079092.07446  21265596.969                    21265601.293
     -1682.871       -1311.155          52.900          41.700
 107936468.039 8  84106376.68647  20539632.758                    20539637.039
       591.906         461.434          52.600          43.500
 122961813.876 7  95814470.59644  23398865.047                    23398869.652
      3010.609        2345.932          43.100          25.600
 122593089.098 7  95527139.47345  23328696.805                    23328704.746
     -3025.160       -2357.225          44.300          33.400
 107008716.625 8  83383447.09547  20363078.688                    20363085.602
      -121.406         -94.394          52.900          45.300
 118098663.492 7  92024991.20945  22473434.586                    22473438.742
      2754.605        2146.562          46.400          32.900
 126298024.757 6  98414100.25843  24033723.578                    24033728.348
      3453.785        2691.333          41.100          23.000
 124049532.884 7  96661997.22944  23605853.828                    23605856.664
     -2848.773       -2219.762          42.100          27.000
 18  2 20 10  5 30.0000000  0  8G07G05G28G09G30G13G20G02
 111802131.724 8  87118585.90946  21275241.648                    21275246.035
     -1695.988       -1321.409          53.800          41.800
 107918983.722 8  84092752.54647  20536305.578                    20536309.898
       573.715         447.305          53.000          43.400
 122871602.926 7  95744176.35644  23381698.477                    23381703.109
      3003.613        2340.516          43.400          26.600
 122683905.916 7  95597905.79545  23345978.883                    23345987.156
     -3029.258       -2360.404          44.900          32.100
 107012623.091 8  83386491.09647  20363822.344                    20363828.777
      -138.996        -108.083          52.200          45.400
 118016118.015 7  91960670.07845  22457726.492                    22457731.133
      2748.480        2141.682          47.200          33.000
 126194502.078 6  98333433.25443  24014024.203                    24014029.133
      3447.652        2686.607          40.400          22.600
 124135101.996 7  96728674.40244  23622136.227                    23622139.785
     -2855.832       -2225.191          42.200          27.200
 18  2 20 10  6  0.0000000  0  8G07G05G28G09G30G13G20G02
 111853209.097 8  87158386.45746  21284961.047                    21284964.863
     -1709.133       -1331.595          52.700          40.400
 107902044.134 8  84079552.85747  20533082.133                    20533086.648
       555.500         433.157          53.000          43.600
 122781602.040 7  95674045.82544  23364572.148                    23364576.723
      2996.512        2335.061          44.100          26.300
 122774845.443 7  95668767.74345  23363283.586                    23363292.461
     -3033.363       -2363.602          46.600          32.500
 107017056.010 8  83389945.31847  20364666.055                    20364672.168
      -156.555        -121.726          52.900          45.800
 117933760.728 7  91896495.57845  22442054.609                    22442059.266
      2742.086        2136.793          46.400          33.300
 126091162.369 6  98252908.79144  23994359.305                    23994364.344
      3441.621        2681.834          40.800          24.100
 124220878.862 6  96795513.49244  23638459.148                    23638462.477
     -2862.668       -2230.553          41.400          25.300
 18  2 20 10  6 30.0000000  0  8G07G05G28G09G30G13G20G02
 111904678.261 8  87198492.28646  21294755.906                    21294760.152
     -1722.215       -1341.763          53.900          41.300
 107885650.080 8  84066778.27347  20529962.383                    20529966.918
       537.309         418.957          53.300          43.000
 122691814.097 7  95604081.23644  23347485.836                    23347490.352
      2989.242        2329.452          44.300          26.100
 122865906.730 7  95739724.53145  23380612.617                    23380621.039
     -3037.512       -2366.748          47.200          34.000
 107022014.538 8  83393809.10847  20365609.461                    20365615.895
      -174.082        -135.381          53.400          45.500
 117851593.089 7  91832468.84145  22426418.813                    22426423.418
      2735.750        2131.852          45.600          32.800
 125988008.571 6  98172529.25544  23974730.164                    23974734.984
      3435.262        2676.986          40.100          25.000
 124306860.080 6  96862511.73644  23654821.086                    23654824.652
     -2869.430       -2235.810          40.300          26.500
 18  2 20 10  7  0.0000000  0  8G07G05G28G09G30G13G20G02
 111956537.456 8  87238902.03946  21304623.594                    21304628.508
     -1735.078       -1351.846          52.900          41.200
 107869802.542 8  84054429.54147  20526946.570                    20526951.051
       519.199         404.768          52.600          43.600
 122602241.865 7  95534284.72344  23330440.953                    23330445.586
      2982.117        2323.849          44.700          28.000
 122957089.125 7  95810775.67345  23397964.352                    23397972.504
     -3041.406       -2369.875          46.700          33.200
 107027498.111 8  83398082.03247  20366652.914                    20366659.676
      -191.492        -149.011          53.000          45.900
 117769615.575 7  91768590.29745  22410818.664                    22410823.270
      2729.344        2126.905          45.500          33.500
 125885043.046 6  98092296.39943  23955136.117                    23955141.180
      3429.090        2672.063          39.100          23.900
 124393043.025 6  96929667.22344  23671221.406                    23671223.785
     -2876.016       -2241.025          39.900          26.200
 18  2 20 10  7 30.0000000  0  8G07G05G28G09G30G13G20G02
 112008784.969 8  87279614.35546  21314566.727                    21314570.047
     -1748.027       -1361.915          52.500          40.200
 107854502.266 8  84042507.24647  20524035.336                    20524039.863
       500.930         390.557          52.900          42.900
 122512887.943 7  95464658.35044  23313437.766                    23313441.563
      2974.813        2318.133          44.900          28.500
 123048391.568 7  95881920.42345  23415338.875                    23415346.000
     -3045.285       -2372.960          46.000          33.900
 107033505.766 8  83402763.32547  20367796.305                    20367803.027
      -208.906        -162.582          53.700          46.000
 117687828.851 7  91704860.37945  22395254.922                    22395259.430
      2723.094        2121.953          46.200          33.600
 125782267.927 6  98012211.90543  23935579.258                    23935583.105
      3422.824        2667.119          38.400          22.600
 124479424.787 6  96996977.61144  23687659.328                    23687662.484
     -2882.570       -2246.122          41.300          26.400
 18  2 20 10  8  0.0000000  0  8G07G05G28G09G30G13G20G02
 112061419.152 8  87320628.02846  21324582.766                    21324586.750
     -1760.871       -1371.972          53.500          41.400
 107839750.479 8  84031012.34947  20521228.086                    20521232.422
       482.574         376.269          53.000          43.400
 122423755.544 7  95395204.57244  23296475.813                    23296480.340
      2967.371        2312.310          44.200          27.700
 123139813.463 7  95953158.27145  23432734.828                    23432743.168
     -3049.348       -2376.091          45.600          32.500
 107040036.914 8  83407852.54147  20369038.953                    20369045.539
      -226.434        -176.215          53.700          45.600
 117606233.989 7  91641279.99045  22379727.852                    22379732.391
      2716.617        2116.930          47.000          33.300
 125679685.807 6  97932277.79943  23916057.672                    23916062.309
      3416.246        2662.043          38.300          22.900
 124566002.213 7  97064440.48944  23704134.484                    23704137.543
     -2889.242       -2251.216          42.600          27.000
 18  2 20 10  8 30.0000000  0  8G07G05G28G09G30G13G20G02
 112114438.115 8  87361941.49446  21334671.430                    21334675.684
     -1773.766       -1381.921          52.600          41.300
 107825547.990 8  84019945.47747  20518525.500                    20518529.766
       464.160         361.998          52.500          43.600
 122334847.452 7  95325925.59444  23279557.336                    23279561.164
      2959.723        2306.442          44.700          27.200
 123231353.977 7  96024488.48145  23450154.164                    23450163.305
     -3053.336       -2379.150          46.200          33.300
 107047090.722 8  83413349.02347  20370381.508                    20370387.777
      -243.895        -189.786          53.300          45.100
 117524831.931 7  91577849.81945  22364237.945                    22364242.133
      2710.102        2111.903          47.100          32.500
 125577299.068 6  97852495.94143  23896574.148                    23896578.246
      3409.348        2656.903          38.400          22.000
 124652772.374 6  97132053.53044  23720646.305                    23720649.219
     -2895.570       -2256.151          41.500          27.100
