     2.11           OBSERVATION DATA    G (GPS)             RINEX VERSION / TYPE
teqc  2016Nov7                          20180328 12:23:34UTCPGM / RUN BY / DATE
Linux 2.4.21-27.ELsmp|Opteron|gcc|Linux x86_64|=+           COMMENT
teqc  2016Nov7                          20180328 12:23:32UTCCOMMENT
     2.11           OBSERVATION DATA    M (MIXED)           COMMENT
teqc  2016Nov7                          20180328 12:23:30UTCCOMMENT
teqc  2016Nov7      IGN-RGP             20180220 09:16:01UTCCOMMENT
teqc  2015Jun23     IGN-RGP             20180220 09:06:32UTCCOMMENT
Linux2.4.20-8|i386|gcc|Win32-MinGW32|=                      COMMENT
   0.000      (antenna height)                              COMMENT
 +48.64478779 (latitude)                                    COMMENT
  +2.82290348 (longitude)                                   COMMENT
0189.374      (elevation)                                   COMMENT
BIT 2 OF LLI FLAGS DATA COLLECTED UNDER A/S CONDITION       COMMENT
19780M001 (COGO code)                                       COMMENT
SXJ3                                                        MARKER NAME
19780M001                                                   MARKER NUMBER
Automatic           GIE COOP&TECH                           OBSERVER / AGENCY
5010k65923          TRIMBLE NETR5       4.03                REC # / TYPE / VERS
1441003057          TRM55971.00     NONE                    ANT # / TYPE
  4217168.3290   207943.7820  4764693.1160                  APPROX POSITION XYZ
        1.2400        0.0000        0.0000                  ANTENNA: DELTA H/E/N
     1     1                                                WAVELENGTH FACT L1/2
     9    L1    L2    C1    P1    P2    D1    D2    S1    S2# / TYPES OF OBSERV
    30.0000                                                 INTERVAL
    18                                                      LEAP SECONDS
 SNR is mapped to RINEX snr flag value [0-9]                COMMENT
  L1 & L2: min(max(int(snr_dBHz/6), 0), 9)                  COMMENT
teqc_2016 edited: GLONASS # 25 - 30 excluded                COMMENT
Forced Modulo Decimation to 30 seconds                      COMMENT
teqc_2016 edited: all GLONASS satellites excluded           COMMENT
teqc_2016 edited: all SBAS satellites excluded              COMMENT
teqc_2016 edited: all Galileo satellites excluded           COMMENT
  2018     2    20     8     0    0.0000000     GPS         TIME OF FIRST OBS
                                                            END OF HEADER
 18  2 20  8  0  0.0000000  0  8G05G16G07G09G23G30G02G06
 125201590.492 7  97559725.58544  23825077.844                    23825081.637
      3300.480                          44.700          28.500
 127543262.442 6  99384396.64243  24270680.352                    24270684.625
       969.449                          39.700          21.100
 113985649.769 8  88820033.52946  21690754.336                    21690758.117
      2329.695                          49.500          39.200
 106223700.687 8  82771788.01247  20213704.281                    20213709.898
      -965.668                          52.500          46.500
 118120495.841 8  92041975.89145  22477587.563                    22477589.488
     -2491.082                          49.400          35.800
 121286694.902 8  94509155.59745  23080094.047                    23080100.781
      3490.395                          48.400          34.900
 115390625.648 8  89914791.53146  21958112.898                    21958113.680
      1001.793                          48.100          39.400
 110932084.746 8  86440646.06447  21109682.383                    21109688.457
     -1758.684                          50.900          42.600
 18  2 20  8  0 30.0000000  0  8G05G16G07G09G23G30G02G06
 125102619.022 7  97482604.93244  23806244.781                    23806247.035
      3297.496        2569.533          44.100          28.300
 127514464.520 6  99361956.67043  24265201.414                    24265204.441
       950.461         740.933          39.200          20.900
 113915962.492 8  88765731.75546  21677493.078                    21677497.266
      2315.992        1804.905          49.400          39.400
 106252864.191 8  82794512.81247  20219254.023                    20219259.582
      -978.551        -762.312          52.900          46.300
 118195319.227 8  92100279.83045  22491825.438                    22491828.113
     -2497.199       -1945.789          49.600          35.700
 121182084.089 8  94427640.70545  23060187.258                    23060193.883
      3483.434        2714.572          48.400          34.400
 115360831.332 7  89891575.17846  21952443.156                    21952444.117
       984.344         767.298          46.700          39.000
 110985110.351 8  86481964.69947  21119772.625                    21119779.277
     -1776.559       -1384.047          50.300          43.100
 18  2 20  8  1  0.0000000  0  8G05G16G07G09G23G30G02G06
 125003739.861 7  97405556.18944  23787428.625                    23787431.816
      3294.363        2567.139          46.400          29.800
 127486230.413 6  99339956.05643  24259829.117                    24259831.344
       931.707         726.269          40.300          21.800
 113846687.027 8  88711750.87046  21664310.367                    21664314.457
      2302.219        1794.178          49.000          39.400
 106282410.898 8  82817536.20947  20224876.563                    20224882.109
      -991.277        -772.249          53.600          45.800
 118270326.956 8  92158727.38446  22506099.523                    22506101.480
     -2503.340       -1950.530          49.600          36.000
 121077679.612 8  94346286.58845  23040319.883                    23040325.891
      3476.637        2709.222          48.200          34.800
 115331561.171 7  89868767.25646  21946873.070                    21946874.234
       966.883         753.698          47.400          39.800
 111038672.451 8  86523701.38447  21129964.961                    21129971.891
     -1794.418       -1397.925          50.000          43.000
 18  2 20  8  1 30.0000000  0  8G05G16G07G09G23G30G02G06
 124904954.650 7  97328580.71244  23768630.344                    23768634.371
      3291.156        2564.646          45.300          28.900
 127458562.348 6  99318396.51043  24254563.742                    24254566.922
       912.730         711.529          39.900          21.800
 113777826.001 8  88658092.94046  21651206.555                    21651210.414
      2288.383        1783.375          50.400          40.200
 106312340.164 8  82840857.71347  20230571.789                    20230577.301
     -1004.078        -782.181          53.300          46.500
 118345518.152 8  92217317.91846  22520407.602                    22520410.164
     -2509.465       -1955.296          50.600          36.100
 120973484.465 7  94265095.60145  23020492.305                    23020498.371
      3469.594        2703.718          47.600          35.100
 115302816.891 7  89846369.11746  21941402.789                    21941404.516
       949.254         739.997          47.200          40.200
 111092769.721 8  86565855.07947  21140259.891                    21140266.539
     -1812.266       -1411.821          50.500          42.700
 18  2 20  8  2  0.0000000  0  8G05G16G07G09G23G30G02G06
 124806264.707 7  97251679.45944  23749849.617                    23749854.957
      3287.984        2562.162          45.600          29.600
 127431461.669 7  99297279.08643  24249406.813                    24249409.563
       893.840         696.795          42.000          22.800
 113709380.563 8  88604758.85046  21638181.828                    21638186.180
      2274.523        1772.586          50.000          40.100
 106342650.392 8  82864476.06347  20236339.852                    20236345.090
     -1016.723        -792.041          52.800          46.600
 118420891.333 8  92276050.24445  22534750.844                    22534752.664
     -2515.520       -1959.999          50.300          35.400
 120869500.684 8  94184069.29845  23000704.820                    23000710.941
      3462.559        2698.229          48.100          34.900
 115274598.648 7  89824380.87246  21936033.484                    21936035.000
       931.836         726.344          46.500          39.200
 111147399.965 8  86608424.10047  21150655.328                    21150662.051
     -1829.887       -1425.636          50.200          42.400
 18  2 20  8  2 30.0000000  0  8G05G16G07G09G23G30G02G06
 124707672.176 7  97174854.16845  23731088.406                    23731093.008
      3284.824        2559.645          45.600          30.800
 127404929.759 6  99276604.83143  24244358.344                    24244361.324
       874.898         682.021          40.500          22.900
 113641352.569 8  88551750.03346  21625236.328                    21625240.605
      2260.621        1761.742          50.000          39.900
 106373340.327 8  82888390.30047  20242179.984                    20242185.465
     -1029.324        -801.870          53.500          46.400
 118496445.043 8  92334923.25345  22549128.203                    22549130.000
     -2521.469       -1964.653          50.100          35.500
 120765730.767 7  94103209.65445  22980957.430                    22980963.762
      3455.406        2692.659          47.700          34.900
 115246907.952 7  89802803.70946  21930763.742                    21930765.637
       914.203         712.650          45.500          39.500
 111202561.293 8  86651406.93647  21161152.273                    21161158.840
     -1847.406       -1439.357          51.200          42.500
 18  2 20  8  3  0.0000000  0  8G05G16G07G09G23G30G02G06
 124609178.581 7  97098105.90645  23712345.828                    23712350.195
      3281.422        2557.042          45.900          30.200
 127378968.475 6  99256375.26444  24239418.336                    24239420.262
       855.820         667.163          41.100          24.000
 113573744.298 8  88499068.26846  21612370.961                    21612374.949
      2246.574        1750.796          50.800          39.900
 106404409.154 8  82912599.77347  20248092.164                    20248097.707
     -1041.992        -811.712          53.000          46.600
 118572178.530 8  92393936.34245  22563539.430                    22563541.410
     -2527.477       -1969.341          50.000          35.100
 120662177.494 8  94022518.82845  22961252.102                    22961258.605
      3448.090        2686.982          48.000          35.400
 115219746.338 7  89781638.80446  21925595.070                    21925596.832
       896.527         698.876          46.000          39.600
 111258252.250 8  86694802.46547  21171749.875                    21171756.773
     -1865.172       -1453.123          50.200          42.600
 18  2 20  8  3 30.0000000  0  8G05G16G07G09G23G30G02G06
 124510785.124 7  97021435.66744  23693621.594                    23693625.844
      3278.172        2554.407          47.000          29.700
 127353578.863 7  99236591.12943  24234586.227                    24234588.730
       836.891         652.279          42.300          23.300
 113506557.195 8  88446714.69946  21599585.875                    21599590.137
      2232.703        1739.838          50.500          40.200
 106435855.527 8  82937103.43347  20254076.047                    20254081.754
     -1054.309        -821.508          52.600          46.600
 118648090.352 8  92453088.38545  22577985.359                    22577987.207
     -2533.180       -1973.938          49.700          35.400
 120558843.124 8  93941998.58746  22941588.547                    22941594.703
      3440.984        2681.260          48.600          36.000
 115193114.163 7  89760886.43646  21920526.992                    21920528.777
       879.137         685.108          47.000          39.900
 111314470.814 8  86738609.13147  21182447.992                    21182454.766
     -1882.539       -1466.816          50.200          42.500
 18  2 20  8  4  0.0000000  0  8G05G16G07G09G23G30G02G06
 124412492.020 7  96944843.62544  23674917.297                    23674921.484
      3274.672        2551.770          44.400          27.200
 127328761.734 6  99217253.11543  24229863.977                    24229867.039
       817.660         637.400          41.300          22.000
 113439792.532 8  88394690.31046  21586880.844                    21586884.895
      2218.328        1728.810          51.100          39.400
 106467677.675 8  82961899.91147  20260131.578                    20260137.508
     -1067.078        -831.270          53.200          46.300
 118724178.578 8  92512377.88545  22592464.680                    22592466.004
     -2539.293       -1978.514          49.800          34.700
 120455729.602 8  93861650.41646  22921966.789                    22921972.730
      3433.324        2675.463          48.500          36.100
 115167012.047 7  89740547.10546  21915560.375                    21915561.895
       861.160         671.300          46.900          39.800
 111371214.517 8  86782824.98847  21193246.109                    21193252.773
     -1900.273       -1480.453          50.600          42.700
 18  2 20  8  4 30.0000000  0  8G05G16G07G09G23G30G02G06
 124314302.093 7  96868331.98144  23656231.711                    23656236.371
      3271.184        2549.077          42.300          27.100
 127304520.026 6  99198363.47343  24225251.031                    24225253.738
       798.449         622.417          41.800          22.500
 113373453.122 8  88342997.28846  21574256.766                    21574260.340
      2204.191        1717.753          51.300          39.900
 106499875.492 8  82986989.10947  20266258.641                    20266264.309
     -1079.578        -841.009          53.400          46.300
 118800443.167 8  92571804.81645  22606977.180                    22606978.883
     -2545.125       -1983.090          49.800          34.900
 120352840.435 8  93781477.07746  22902387.180                    22902394.047
      3425.914        2669.619          49.100          36.700
 115141441.979 7  89720622.36546  21910694.672                    21910695.621
       843.492         657.483          47.900          38.800
 111428482.490 8  86827449.35447  21204143.852                    21204150.938
     -1917.629       -1494.036          51.100          42.300
 18  2 20  8  5  0.0000000  0  8G05G16G07G09G23G30G02G06
 124216217.189 7  96791902.21544  23637567.164                    23637571.938
      3267.656        2546.299          44.300          27.900
 127280855.025 6  99179923.17443  24220747.688                    24220750.828
       779.262         607.412          40.600          22.800
 113307540.687 8  88291636.98146  21561713.977                    21561717.750
      2189.922        1706.616          50.900          39.200
 106532447.684 8  83012370.03247  20272456.688                    20272462.527
     -1092.086        -850.738          52.300          45.600
 118876882.619 8  92631368.00545  22621523.047                    22621524.848
     -2550.941       -1987.659          49.200          33.600
 120250178.033 8  93701480.43546  22882851.359                    22882857.836
      3418.176        2663.667          49.200          37.300
 115116405.094 7  89701113.09446  21905930.063                    21905931.156
       825.688         643.597          46.900          38.800
 111486272.864 8  86872480.80147  21215140.922                    21215147.789
     -1935.086       -1507.594          50.700          42.200
 18  2 20  8  5 30.0000000  0  8G05G16G07G09G23G30G02G06
 124118238.988 7  96715555.53245  23618921.977                    23618928.023
      3264.086        2543.533          44.700          30.900
 127257768.070 6  99161933.36243  24216354.078                    24216357.445
       759.895         592.367          38.900          22.800
 113242057.113 8  88240610.83946  21549252.898                    21549256.621
      2175.559        1695.443          50.800          39.600
 106565393.287 8  83038041.91747  20278726.508                    20278731.719
     -1104.461        -860.415          53.300          45.400
 118953496.154 8  92691066.84545  22636102.000                    22636104.047
     -2556.695       -1992.169          48.900          34.000
 120147745.073 8  93621662.57346  22863359.016                    22863365.457
      3410.520        2657.670          49.800          37.300
 115091902.427 7  89682020.08846  21901267.836                    21901268.473
       807.750         629.699          46.600          38.600
 111544583.815 8  86917917.88347  21226237.109                    21226244.215
     -1952.426       -1521.115          50.000          42.700
 18  2 20  8  6  0.0000000  0  8G05G16G07G09G23G30G02G06
 124020368.187 7  96639292.59045  23600298.945                    23600304.195
      3260.445        2540.700          44.100          30.500
 127235260.493 6  99144394.98743  24212071.383                    24212074.617
       740.602         577.314          40.700          22.200
 113177003.945 8  88189920.07246  21536873.695                    21536877.258
      2161.305        1684.274          51.600          39.500
 106598711.000 8  83064003.76747  20285066.359                    20285071.887
     -1116.797        -870.063          53.000          45.800
 119030282.559 8  92750900.37545  22650714.313                    22650716.254
     -2562.457       -1996.625          48.100          33.100
 120045543.902 8  93542025.32346  22843910.969                    22843917.605
      3402.883        2651.655          50.200          37.100
 115067935.005 7  89663344.16546  21896706.469                    21896707.539
       789.973         615.800          47.600          37.900
 111603413.302 8  86963759.01947  21237432.039                    21237438.875
     -1969.570       -1534.534          50.900          43.000
 18  2 20  8  6 30.0000000  0  8G05G16G07G09G23G30G02G06
 123922607.210 6  96563115.21044  23581695.242                    23581700.438
      3256.828        2537.852          41.800          29.800
 127213333.651 6  99127309.13943  24207898.734                    24207902.539
       721.125         562.204          40.100          22.800
 113112383.001 8  88139566.11046  21524576.680                    21524580.348
      2146.809        1673.001          51.700          39.200
 106632399.576 8  83090254.59447  20291477.148                    20291482.289
     -1129.090        -879.695          53.900          45.800
 119107240.518 8  92810867.59145  22665358.984                    22665361.164
     -2568.113       -2001.080          49.100          33.300
 119943576.973 8  93462570.60146  22824506.953                    22824513.574
      3394.984        2645.501          49.900          37.000
 115044503.307 7  89645085.69546  21892247.461                    21892248.563
       772.113         601.861          46.900          37.900
 111662759.370 8  87010002.67347  21248725.117                    21248732.223
     -1986.770       -1547.945          50.000          42.400
 18  2 20  8  7  0.0000000  0  8G05G16G07G09G23G30G02G06
 123824957.220 7  96487024.28944  23563112.523                    23563117.785
      3253.238        2534.957          43.600          29.300
 127191988.920 7  99110676.92043  24203836.563                    24203840.691
       701.762         547.070          42.200          22.500
 113048195.814 8  88089550.12846  21512362.617                    21512366.063
      2132.395        1661.751          52.500          40.200
 106666457.984 8  83116793.60447  20297958.336                    20297963.328
     -1141.371        -889.255          52.700          45.700
 119184368.723 8  92870967.47545  22680035.727                    22680038.016
     -2573.676       -2005.448          48.400          33.400
 119841846.847 8  93383300.39446  22805148.352                    22805154.852
      3387.105        2639.351          49.100          37.000
 115021608.604 7  89627245.66046  21887890.539                    21887891.559
       754.277         587.924          44.900          37.800
 111722620.160 8  87056647.42347  21260115.992                    21260123.348
     -2003.793       -1561.253          50.700          42.500
 18  2 20  8  7 30.0000000  0  8G05G16G07G09G23G30G02G06
 123727419.953 7  96411021.23744  23544552.336                    23544557.000
      3249.387        2532.065          45.200          29.700
 127171227.645 6  99094499.28543  24199885.648                    24199890.164
       682.301         531.972          40.400          22.300
 112984444.311 8  88039873.63946  21500230.953                    21500234.613
      2117.855        1650.442          52.800          40.600
 106700884.898 8  83143619.76447  20304509.945                    20304514.918
     -1153.668        -898.782          53.100          45.600
 119261665.856 8  92931198.98245  22694745.023                    22694747.531
     -2579.281       -2009.787          48.300          33.600
 119740355.943 8  93304216.58946  22785835.125                    22785842.008
      3379.137        2633.162          49.000          37.400
 114999251.583 7  89609824.59846  21883636.398                    21883637.391
       736.379         573.999          46.800          37.300
 111782993.611 8  87103691.65447  21271604.813                    21271612.012
     -2020.848       -1574.512          49.500          42.900
 18  2 20  8  8  0.0000000  0  8G05G16G07G09G23G30G02G06
 123629997.007 7  96335107.24245  23526014.094                    23526018.523
      3245.531        2529.014          45.700          30.700
 127151051.120 6  99078777.35843  24196046.508                    24196050.895
       662.781         516.702          41.100          22.300
 112921130.667 8  87990538.33446  21488183.172                    21488186.414
      2103.074        1638.980          53.200          39.900
 106735679.397 8  83170732.36047  20311131.234                    20311136.203
     -1166.008        -908.375          53.300          46.300
 119339131.277 8  92991561.63445  22709486.328                    22709488.660
     -2585.004       -2014.214          48.700          33.100
 119639106.933 8  93225321.26846  22766568.109                    22766574.742
      3370.914        2626.784          48.800          36.300
 114977433.458 7  89592823.45846  21879484.477                    21879485.492
       718.266         559.905          45.400          37.800
 111843877.957 8  87151133.98447  21283190.711                    21283197.707
     -2038.023       -1587.814          50.500          42.600
 18  2 20  8  8 30.0000000  0  8G05G16G07G09G23G30G02G06
 123532689.337 7  96259283.05045  23507497.063                    23507501.324
      3241.578        2525.988          45.700          31.200
 127131460.868 7  99063512.25543  24192318.305                    24192323.637
       643.191         501.455          42.000          22.500
 112858256.263 8  87941545.28746  21476218.203                    21476221.762
      2088.469        1627.549          52.700          39.700
 106770840.462 8  83198130.59047  20317821.898                    20317827.238
     -1178.117        -917.882          53.300          46.000
 119416764.342 8  93052054.90645  22724259.195                    22724261.785
     -2590.574       -2018.564          48.600          33.600
 119538102.517 7  93146616.54146  22747347.250                    22747354.301
      3362.691        2620.366          47.300          36.300
 114956155.590 7  89576243.30546  21875435.234                    21875436.766
       700.215         545.856          46.900          37.700
 111905271.362 8  87198972.99847  21294873.531                    21294880.578
     -2054.895       -1601.018          49.300          42.600
 18  2 20  8  9  0.0000000  0  8G05G16G07G09G23G30G02G06
 123435499.188 7  96183550.48445  23489002.172                    23489007.273
      3237.715        2522.956          43.400          31.400
 127112457.919 6  99048704.76243  24188701.859                    24188706.270
       623.723         486.240          40.300          21.300
 112795822.864 8  87892895.88346  21464337.969                    21464341.359
      2073.797        1616.135          53.000          40.600
 106806366.730 8  83225813.39547  20324582.453                    20324587.582
     -1190.273        -927.300          53.200          46.300
 119494563.151 7  93112677.33145  22739063.867                    22739066.707
     -2596.105       -2022.794          47.800          33.100
 119437344.887 7  93068104.12246  22728173.930                    22728180.883
      3354.492        2614.006          46.400          36.100
 114935418.369 7  89560084.41046  21871488.836                    21871490.727
       682.273         531.877          46.200          38.300
 111967171.598 8  87247206.92246  21306652.891                    21306659.918
     -2071.684       -1614.101          50.300          41.800
 18  2 20  8  9 30.0000000  0  8G05G16G07G09G23G30G02G06
 123338428.580 7  96107911.05645  23470530.188                    23470535.109
      3233.664        2519.787          44.100          30.000
 127094043.360 7  99034355.79143  24185197.336                    24185201.855
       603.902         470.879          42.000          21.700
 112733831.836 8  87844591.17746  21452541.250                    21452545.027
      2058.883        1604.552          52.500          40.400
 106842256.950 8  83253779.79547  20331412.086                    20331417.777
     -1202.508        -936.798          53.700          46.400
 119572526.411 8  93173427.89045  22753899.953                    22753902.461
     -2601.566       -2027.106          48.400          33.700
 119336836.501 7  92989785.91246  22709047.641                    22709054.883
      3346.094        2607.428          47.000          36.300
 114915222.318 7  89544347.22046  21867646.266                    21867647.711
       664.133         517.751          47.300          38.600
 112029576.550 8  87295834.13046  21318528.281                    21318534.941
     -2088.637       -1627.258          50.000          41.800
 18  2 20  8 10  0.0000000  0  8G05G16G07G09G23G30G02G06
 123241477.954 7  96032365.11944  23452080.867                    23452085.234
      3229.734        2516.708          45.900          29.300
 127076218.498 7  99020466.31343  24181805.336                    24181810.465
       584.453         455.592          42.700          22.600
 112672284.834 8  87796632.47746  21440829.328                    21440832.953
      2044.258        1593.043          53.800          40.400
 106878509.762 8  83282028.73747  20338310.563                    20338316.648
     -1214.426        -946.161          53.800          46.400
 119650652.979 8  93234305.70945  22768767.367                    22768769.785
     -2606.840       -2031.285          48.500          33.100
 119236579.688 7  92911663.72546  22689969.477                    22689976.164
      3337.762        2600.912          47.600          36.800
 114895568.278 7  89529032.37646  21863906.117                    21863907.617
       646.188         503.697          47.800          38.600
 112092483.992 8  87344852.87146  21330499.125                    21330505.777
     -2105.219       -1640.240          50.200          41.500
 18  2 20  8 10 30.0000000  0  8G05G16G07G09G23G30G02G06
 123144649.500 7  95956914.37245  23433655.508                    23433659.156
      3225.500        2513.433          44.900          31.900
 127058984.728 6  99007037.41743  24178526.250                    24178531.324
       564.477         440.179          39.400          21.300
 112611183.711 8  87749021.21246  21429202.266                    21429205.699
      2029.176        1581.405          53.000          39.900
 106915124.326 8  83310559.56247  20345278.055                    20345283.777
     -1226.555        -955.587          53.900          46.300
 119728942.146 8  93295310.23545  22783665.250                    22783667.434
     -2612.383       -2035.545          48.900          34.400
 119136577.209 7  92833739.72346  22670939.406                    22670946.809
      3329.105        2594.215          45.700          37.100
 114876457.354 7  89514140.72546  21860269.805                    21860271.000
       627.930         489.529          47.000          38.000
 112155892.230 8  87394261.84546  21342565.602                    21342571.629
     -2121.992       -1653.260          50.200          41.700
 18  2 20  8 11  0.0000000  0  8G05G16G07G09G23G30G02G06
 123047944.360 8  95881559.67545  23415253.906                    23415257.137
      3221.473        2510.261          48.200          32.900
 127042343.265 6  98994070.06843  24175360.016                    24175362.996
       544.813         424.832          39.400          19.600
 112550530.278 8  87701758.79846  21417660.172                    21417664.020
      2014.387        1569.806          53.000          39.900
 106952099.601 8  83339371.45947  20352314.063                    20352320.059
     -1238.457        -964.890          51.600          47.100
 119807392.850 8  93356440.60845  22798594.039                    22798596.176
     -2617.602       -2039.667          48.000          33.500
 119036831.713 7  92756015.96846  22651958.766                    22651965.551
      3320.598        2587.580          47.900          37.200
 114857890.564 8  89499673.07646  21856736.414                    21856737.891
       609.797         475.436          49.000          38.700
 112219799.341 8  87444059.56446  21354726.953                    21354733.262
     -2138.516       -1666.152          48.200          41.400
 18  2 20  8 11 30.0000000  0  8G05G16G07G09G23G30G02G06
 122951364.970 7  95806302.99345  23396874.898                    23396879.051
      3217.152        2507.014          43.900          32.300
 127026294.785 6  98981564.78943  24172305.273                    24172309.098
       525.020         409.393          40.600          20.100
 112490325.867 8  87654846.27746  21406203.594                    21406206.949
      1999.336        1558.131          53.300          40.300
 106989434.052 8  83368463.22947  20359418.875                    20359424.992
     -1250.480        -974.189          52.800          46.600
 119886003.602 7  93417695.70945  22813552.836                    22813555.438
     -2623.047       -2043.814          47.400          33.300
 118937345.281 7  92678494.07546  22633027.477                    22633034.203
      3311.910        2580.820          46.100          37.800
 114839868.023 8  89485629.52246  21853306.945                    21853308.027
       591.730         461.316          48.800          38.400
 112284202.837 8  87494244.09546  21366982.508                    21366988.645
     -2155.043       -1678.989          49.700          41.500
 18  2 20  8 12  0.0000000  0  8G05G16G07G09G23G30G02G06
 122854912.793 7  95731145.48645  23378520.086                    23378524.973
      3212.906        2503.647          46.500          31.700
 127010840.440 6  98969522.44143  24169364.688                    24169368.836
       505.328         393.968          38.600          19.300
 112430572.272 8  87608285.04146  21394832.688                    21394836.309
      1984.254        1546.364          52.000          40.200
 107027126.603 8  83397834.04947  20366591.414                    20366597.512
     -1262.328        -983.511          53.700          46.000
 119964773.400 7  93479074.74045  22828542.203                    22828544.520
     -2628.285       -2047.960          47.300          33.700
 118838120.537 8  92601176.09746  22614145.430                    22614152.176
      3303.137        2573.964          49.000          37.900
 114822390.972 8  89472011.02546  21849981.219                    21849981.723
       573.453         447.079          49.000          38.400
 112349100.781 8  87544813.90646  21379331.953                    21379338.367
     -2171.449       -1691.858          50.100          41.600
 18  2 20  8 12 30.0000000  0  8G05G16G07G09G23G30G02G06
 122758589.517 7  95656088.41345  23360190.508                    23360194.820
      3208.621        2500.281          46.300          32.800
 126995981.746 6  98957944.23643  24166537.031                    24166540.719
       485.281         378.488          38.100          18.300
 112371271.180 8  87562076.40846  21383548.141                    21383551.770
      1969.094        1534.593          52.200          39.400
 107065176.267 8  83427483.12947  20373832.063                    20373838.316
     -1274.254        -992.763          53.800          46.600
 120043701.450 7  93540577.09245  22843561.578                    22843564.367
     -2633.621       -2052.057          47.300          33.300
 118739160.105 8  92524064.06946  22595314.180                    22595320.551
      3294.203        2567.064          49.400          38.600
 114805460.206 8  89458818.20846  21846759.594                    21846760.223
       555.164         432.886          49.800          38.400
 112414491.086 8  87595767.33746  21391775.422                    21391781.891
     -2187.922       -1704.606          50.400          40.800
 18  2 20  8 13  0.0000000  0  8G05G16G07G09G23G30G02G06
 122662396.200 7  95581132.57545  23341885.688                    23341889.570
      3204.223        2496.903          47.500          31.400
 126981719.205 6  98946830.62843  24163824.086                    24163826.480
       465.348         362.990          38.000          19.600
 112312423.693 8  87516221.23346  21372349.688                    21372353.363
      1953.992        1522.826          51.600          39.600
 107103581.594 8  83457409.36047  20381140.445                    20381145.809
     -1286.176       -1001.976          53.800          46.600
 120122786.266 7  93602201.58745  22858611.242                    22858613.320
     -2638.832       -2056.081          47.800          34.000
 118640466.178 8  92447159.72646  22576533.414                    22576539.910
      3285.250        2560.134          49.100          38.100
 114789076.139 8  89446051.39246  21843641.805                    21843642.281
       536.973         418.716          49.700          38.500
 112480371.473 8  87647102.65146  21404312.172                    21404318.148
     -2204.180       -1717.282          51.500          41.600
 18  2 20  8 13 30.0000000  0  8G05G16G07G09G23G30G02G06
 122566334.934 8  95506279.62945  23323606.023                    23323608.703
      3199.977        2493.426          48.200          32.100
 126968054.101 6  98936182.47743  24161222.172                    24161225.984
       445.715         347.459          38.500          18.300
 112254031.656 8  87470720.95646  21361237.844                    21361241.723
      1938.879        1510.956          51.000          39.300
 107142341.455 8  83487611.84547  20388516.117                    20388522.207
     -1297.820       -1011.192          53.200          46.600
 120202026.712 7  93663947.35545  22873690.508                    22873692.492
     -2643.836       -2060.130          47.600          33.700
 118542041.258 8  92370464.97746  22557803.445                    22557810.633
      3276.488        2553.100          48.900          38.400
 114773239.603 8  89433711.21746  21840627.898                    21840629.070
       518.871         404.466          50.000          39.000
 112546739.853 8  87698818.22946  21416941.633                    21416947.422
     -2220.312       -1729.964          48.900          41.000
 18  2 20  8 14  0.0000000  0  8G05G16G07G09G23G30G02G06
 122470407.003 7  95431530.56345  23305351.297                    23305354.914
      3195.336        2489.973          46.000          30.800
 126954987.738 6  98926000.92742  24158736.102                    24158739.891
       425.457         331.887          38.600          17.800
 112196096.992 8  87425577.07846  21350213.180                    21350217.469
      1923.559        1499.093          50.600          38.700
 107181454.954 8  83518089.88347  20395959.328                    20395964.922
     -1309.680       -1020.320          53.700          46.800
 120281422.151 7  93725813.89945  22888798.570                    22888801.102
     -2649.098       -2064.109          47.000          33.700
 118443888.123 8  92293982.02646  22539125.727                    22539132.242
      3267.203        2546.036          49.300          38.700
 114757951.426 8  89421798.34346  21837718.984                    21837719.926
       500.445         390.246          49.600          39.000
 112613594.305 8  87750912.57146  21429663.891                    21429669.867
     -2236.508       -1742.526          49.500          40.800
 18  2 20  8 14 30.0000000  0  8G05G16G07G09G23G30G02G06
 122374614.204 7  95356886.85545  23287121.883                    23287126.801
      3190.887        2486.389          44.600          31.700
 126942520.841 6  98916286.49643  24156363.406                    24156367.293
       405.648         316.294          37.900          19.300
 112138621.198 8  87380790.76646  21339276.117                    21339280.172
      1908.266        1487.110          50.200          39.300
 107220920.793 8  83548842.48047  20403469.469                    20403474.836
     -1321.301       -1029.510          53.300          46.600
 120360971.305 7  93787800.23245  22903936.352                    22903938.926
     -2654.055       -2068.128          47.500          33.600
 118346009.097 8  92217712.65546  22520500.031                    22520506.453
      3258.125        2538.855          49.500          38.800
 114743212.450 8  89410313.41346  21834914.320                    21834915.605
       482.188         375.954          50.000          39.200
 112680932.542 8  87803383.88346  21442477.813                    21442483.945
     -2252.609       -1755.085          49.300          40.900
 18  2 20  8 15  0.0000000  0  8G05G16G07G09G23G30G02G06
 122278958.815 7  95282350.20445  23268919.164                    23268923.715
      3186.324        2482.835          46.400          32.600
 126930654.165 6  98907039.73943  24154104.945                    24154108.801
       385.742         300.715          36.500          20.100
 112081605.322 8  87336362.82646  21328426.133                    21328430.102
      1892.918        1475.156          50.900          38.600
 107260737.510 8  83579868.48347  20411046.055                    20411051.797
     -1333.035       -1038.574          53.500          47.300
 120440672.787 7  93849905.25945  22919102.977                    22919105.477
     -2659.141       -2072.055          47.100          33.300
 118248406.334 8  92141658.56546  22501926.633                    22501933.238
      3248.895        2531.660          49.200          37.900
 114729022.396 8  89399256.22146  21832214.031                    21832215.184
       463.895         361.681          48.200          39.500
 112748752.115 8  87856230.26946  21455383.648                    21455389.637
     -2268.605       -1767.560          49.900          40.900
 18  2 20  8 15 30.0000000  0  8G05G16G07G09G23G30G02G06
 122183441.949 7  95207921.47945  23250743.531                    23250747.844
      3181.570        2479.212          46.300          32.100
 126919389.214 6  98898261.85943  24151961.000                    24151965.023
       365.469         285.041          39.500          20.100
 112025051.556 8  87292294.97346  21317664.602                    21317668.438
      1877.422        1463.125          51.000          40.000
 107300904.540 9  83611167.45847  20418689.648                    20418695.012
     -1344.703       -1047.684          54.200          46.200
 120520525.957 7  93912128.48045  22934298.711                    22934301.750
     -2664.289       -2076.000          47.000          33.900
 118151082.875 8  92065822.09846  22483406.672                    22483413.277
      3239.430        2524.356          48.500          38.400
 114715382.769 8  89388627.93246  21829618.219                    21829619.422
       445.535         347.365          48.500          38.500
 112817051.356 8  87909450.42546  21468380.531                    21468386.527
     -2284.594       -1780.000          51.200          40.500
 18  2 20  8 16  0.0000000  0  8G05G16G07G09G23G30G02G06
 122088065.166 7  95133601.92245  23232593.688                    23232597.488
      3176.781        2475.510          47.000          31.400
 126908725.955 5  98889952.80143  24149932.344                    24149935.875
       345.250         269.369          35.500          21.100
 111968960.247 8  87248587.48646  21306991.078                    21306994.711
      1861.891        1451.053          51.300          39.900
 107341419.721 8  83642737.71247  20426399.508                    20426405.418
     -1356.383       -1056.732          53.800          46.300
 120600529.150 8  93974468.60045  22949523.094                    22949525.137
     -2669.293       -2079.905          48.100          33.800
 118054040.263 8  91990204.49446  22464939.836                    22464946.805
      3229.977        2517.005          49.300          38.000
 114702293.540 7  89378428.52846  21827127.352                    21827128.910
       427.039         333.035          47.200          38.600
 112885827.123 8  87963041.89446  21481467.891                    21481474.168
     -2300.547       -1792.356          50.800          40.300
 18  2 20  8 16 30.0000000  0  8G05G16G07G09G23G30G02G06
 121992831.823 7  95059394.11245  23214471.953                    23214474.719
      3171.992        2471.777          45.900          30.500
 126898666.858 6  98882114.56743  24148018.188                    24148021.738
       325.176         253.693          40.200          20.600
 111913334.715 8  87205242.93246  21296405.633                    21296409.676
      1846.352        1438.956          52.200          40.100
 107382283.672 8  83674579.74247  20434175.742                    20434180.918
     -1367.984       -1065.774          53.100          45.600
 120680682.764 7  94036925.93945  22964775.375                    22964778.121
     -2674.375       -2083.793          47.600          32.700
 117957282.666 8  91914808.97946  22446527.539                    22446534.305
      3220.402        2509.586          48.300          37.100
 114689756.582 7  89368659.46946  21824741.766                    21824743.270
       408.672         318.694          47.500          39.300
 112955078.963 8  88017004.34346  21494646.508                    21494652.676
     -2316.348       -1804.707          49.700          39.900
 18  2 20  8 17  0.0000000  0  8G05G16G07G09G23G30G02G06
 121897741.313 7  94985297.59045  23196376.242                    23196380.352
      3167.316        2468.040          45.700          30.700
 126889211.730 6  98874746.88943  24146218.516                    24146223.055
       305.031         237.975          40.600          21.100
 111858174.949 8  87162261.32046  21285909.391                    21285912.867
      1830.926        1426.845          51.700          40.600
 107423493.741 8  83706691.47547  20442017.391                    20442023.156
     -1379.383       -1074.746          53.000          45.600
 120760984.612 8  94099498.77845  22980056.461                    22980059.574
     -2679.109       -2087.638          48.200          33.900
 117860811.130 8  91839636.37046  22428169.656                    22428176.395
      3210.879        2502.107          48.800          37.200
 114677771.300 8  89359320.28746  21822460.938                    21822462.539
       390.301         304.327          48.500          38.300
 113024803.191 8  88071334.90246  21507914.172                    21507920.582
     -2331.961       -1816.945          50.300          40.400
 18  2 20  8 17 30.0000000  0  8G05G16G07G09G23G30G02G06
 121802796.240 7  94911314.43245  23178309.320                    23178313.164
      3162.531        2464.278          47.300          31.900
 126880361.117 6  98867850.29543  24144535.023                    24144538.453
       285.070         222.307          38.100          22.300
 111803482.772 8  87119644.07046  21275501.531                    21275505.172
      1815.348        1414.712          51.700          40.600
 107465048.917 8  83739072.12147  20449925.156                    20449931.008
     -1390.820       -1083.654          53.700          45.500
 120841433.833 7  94162186.45945  22995365.180                    22995368.105
     -2683.891       -2091.382          47.500          33.800
 117764628.196 8  91764688.64846  22409866.539                    22409873.520
      3201.367        2494.633          48.100          37.100
 114666338.543 7  89350411.64146  21820285.281                    21820286.969
       371.984         290.042          47.200          38.300
 113094997.679 8  88126031.89246  21521271.797                    21521278.117
     -2347.488       -1829.089          50.200          39.400
 18  2 20  8 18  0.0000000  0  8G05G16G07G09G23G30G02G06
 121707998.596 7  94837446.14145  23160269.664                    23160273.445
      3157.523        2460.420          46.700          32.100
 126872115.808 6  98861425.33943  24142966.047                    24142968.789
       264.773         206.599          39.600          21.700
 111749259.600 8  87077392.27846  21265183.242                    21265187.336
      1799.633        1402.502          52.000          39.600
 107506947.868 8  83771720.65247  20457897.773                    20457903.816
     -1402.316       -1092.593          53.300          45.300
 120922028.769 8  94224987.67445  23010702.531                    23010705.242
     -2688.883       -2095.193          48.200          33.800
 117668736.165 8  91689967.59946  22391618.617                    22391625.508
      3191.555        2487.031          48.400          36.900
 114655458.284 8  89341933.51646  21818215.172                    21818216.516
       353.488         275.654          48.200          38.700
 113165660.004 8  88181093.42646  21534718.219                    21534724.625
     -2363.105       -1841.226          50.800          39.700
 18  2 20  8 18 30.0000000  0  8G05G16G07G09G23G30G02G06
 121613349.688 7  94763693.76245  23142258.242                    23142262.023
      3152.371        2456.526          46.100          30.600
 126864476.542 6  98855472.66143  24141511.547                    24141515.289
       244.344         190.807          41.000          22.500
 111695506.557 8  87035506.82546  21254953.961                    21254957.934
      1783.781        1390.272          51.400          39.300
 107549189.462 8  83804636.16847  20465936.297                    20465942.039
     -1413.980       -1101.471          53.400          45.400
 121002768.586 7  94287901.78945  23026066.898                    23026069.324
     -2693.906       -2098.940          47.500          33.800
 117573137.506 7  91615475.15046  22373426.672                    22373433.922
      3181.570        2479.382          47.700          36.900
 114645131.452 8  89333886.63646  21816249.781                    21816251.215
       334.805         261.279          48.700          38.600
 113236787.950 8  88236517.79546  21548253.414                    21548259.879
     -2378.785       -1853.299          49.500          39.400
 18  2 20  8 19  0.0000000  0  8G05G16G07G09G23G30G02G06
 121518851.311 7  94690058.67744  23124275.867                    23124279.379
      3147.422        2452.614          44.500          29.900
 126857444.005 6  98849992.74143  24140174.219                    24140176.770
       224.266         175.037          41.300          22.300
 111642225.129 8  86993988.85046  21244814.891                    21244818.703
      1768.176        1378.003          51.600          40.200
 107591772.417 8  83837817.69147  20474039.703                    20474045.234
     -1425.098       -1110.320          53.200          44.800
 121083652.299 7  94350928.03545  23041458.188                    23041460.840
     -2698.461       -2102.667          47.800          32.300
 117477834.565 7  91541213.13646  22355291.445                    22355298.168
      3171.863        2471.666          47.300          38.100
 114635358.039 8  89326270.97946  21814390.375                    21814391.434
       316.637         246.903          49.800          38.700
 113308379.060 8  88292303.05646  21561877.055                    21561883.402
     -2394.004       -1865.301          50.000          40.200
 18  2 20  8 19 30.0000000  0  8G05G16G07G09G23G30G02G06
 121424504.649 7  94616541.80944  23106321.672                    23106325.070
      3142.336        2448.634          45.100          29.700
 126851018.968 7  98844986.18943  24138951.711                    24138954.680
       204.078         159.266          42.700          23.800
 111589416.753 8  86952839.48046  21234765.609                    21234769.879
      1752.340        1365.696          52.000          40.000
 107634695.522 8  83871264.25747  20482207.695                    20482213.367
     -1436.418       -1119.147          53.500          45.300
 121164678.751 7  94414065.49345  23056876.914                    23056879.418
     -2703.105       -2106.353          47.600          32.700
 117382829.694 7  91467183.37746  22337212.578                    22337220.012
      3161.855        2463.897          47.300          37.300
 114626138.519 8  89319086.93246  21812635.859                    21812637.355
       298.148         232.517          49.600          39.200
 113380431.064 8  88348447.46046  21575587.758                    21575594.555
     -2409.324       -1877.236          50.400          40.400
 18  2 20  8 20  0.0000000  0  8G05G16G07G09G23G30G02G06
 121330311.544 7  94543144.57845  23088397.969                    23088400.586
      3137.207        2444.668          46.400          31.000
 126845202.448 6  98840453.80644  24137845.227                    24137847.551
       183.488         143.467          40.400          24.600
 111537083.296 8  86912060.18846  21224806.805                    21224810.906
      1736.504        1353.366          52.000          39.700
 107677958.002 8  83904975.27947  20490440.359                    20490445.723
     -1447.793       -1127.930          53.900          45.500
 121245847.589 8  94477313.89445  23072323.570                    23072325.281
     -2707.996       -2110.019          48.000          33.000
 117288125.731 7  91393388.10846  22319191.133                    22319198.426
      3151.730        2456.069          47.600          38.900
 114617474.121 8  89312335.44246  21810987.289                    21810988.129
       279.504         218.093          48.300          38.900
 113452941.987 8  88404949.45846  21589386.508                    21589392.816
     -2424.691       -1889.109          51.200          40.800
 18  2 20  8 20 30.0000000  0  8G05G16G07G09G23G30G02G06
 121236273.889 7  94469868.48344  23070503.453                    23070506.555
      3131.984        2440.575          46.200          29.600
 126839994.703 7  98836395.83143  24136854.117                    24136857.234
       163.469         127.599          43.300          23.500
 111485225.601 8  86871651.60846  21214938.742                    21214942.797
      1720.707        1340.984          52.100          40.700
 107721558.340 9  83938949.56047  20498737.055                    20498742.914
     -1458.996       -1136.699          54.600          45.400
 121327157.225 7  94540672.03945  23087795.820                    23087798.465
     -2712.691       -2113.687          47.500          33.000
 117193724.729 8  91319828.89846  22301226.969                    22301234.504
      3141.598        2448.162          48.300          38.100
 114609364.639 8  89306016.36246  21809444.164                    21809444.770
       261.102         203.672          49.000          39.000
 113525909.172 8  88461806.97846  21603271.570                    21603278.016
     -2439.719       -1900.947          51.000          40.900
 18  2 20  8 21  0.0000000  0  8G05G16G07G09G23G30G02G06
 121142394.218 7  94396715.50445  23052638.000                    23052641.832
      3126.672        2436.437          45.900          31.600
 126835396.451 7  98832812.75944  24135979.195                    24135981.926
       143.109         111.778          43.900          24.700
 111433844.850 8  86831614.67846  21205161.547                    21205165.316
      1704.777        1328.563          51.500          40.900
 107765495.166 8  83973186.04447  20507098.211                    20507103.836
     -1470.070       -1145.433          53.000          45.300
 121408606.339 8  94604138.85245  23103295.336                    23103297.652
     -2717.187       -2117.295          48.200          33.400
 117099628.897 7  91246507.48746  22283321.117                    22283328.352
      3131.434        2440.204          47.300          39.000
 114601810.252 8  89300129.81946  21808006.469                    21808007.375
       242.625         189.258          48.500          38.400
 113599330.092 8  88519018.05646  21617243.375                    21617249.602
     -2454.859       -1912.715          48.400          41.400
 18  2 20  8 21 30.0000000  0  8G05G16G07G09G23G30G02G06
 121048673.872 7  94323686.69245  23034803.586                    23034807.133
      3121.469        2432.325          46.600          32.100
 126831408.281 7  98829705.07444  24135220.398                    24135223.199
       122.844          95.968          44.100          25.600
 111382942.456 8  86791950.49046  21195475.148                    21195479.016
      1688.844        1316.161          52.000          41.800
 107809767.407 8  84007683.88147  20515523.320                    20515528.336
     -1481.203       -1154.079          53.700          45.800
 121490194.014 7  94667713.62745  23118820.633                    23118822.914
     -2721.789       -2120.845          46.700          33.000
 117005840.795 7  91173425.86046  22265474.039                    22265481.891
      3121.199        2432.202          47.800          37.900
 114594811.523 8  89294676.25646  21806674.430                    21806675.734
       224.051         174.844          48.000          38.600
 113673202.422 8  88576580.88046  21631301.078                    21631307.254
     -2469.855       -1924.371          50.100          41.200
 18  2 20  8 22  0.0000000  0  8G05G16G07G09G23G30G02G06
 120955114.838 7  94250783.57145  23017000.578                    23017003.645
      3115.914        2428.053          47.000          31.700
 126828031.188 6  98827073.57344  24134577.352                    24134580.988
       102.316          80.025          41.600          24.700
 111332520.201 8  86752660.43446  21185880.031                    21185884.121
      1672.707        1303.611          51.400          41.400
 107854374.202 9  84042442.41447  20524011.547                    20524017.148
     -1492.457       -1162.831          54.600          45.400
 121571919.620 8  94731395.88045  23134372.633                    23134374.613
     -2726.473       -2124.479          48.000          32.400
 116912363.089 7  91100586.09146  22247685.711                    22247693.473
      3110.738        2424.053          47.900          38.700
 114588369.050 7  89289656.14246  21805448.672                    21805449.629
       205.445         160.328          47.300          38.900
 113747524.148 8  88634493.89146  21645443.867                    21645450.117
     -2484.891       -1936.074          50.300          41.100
 18  2 20  8 22 30.0000000  0  8G05G16G07G09G23G30G02G06
 120861717.775 7  94178006.63945  22999227.625                    22999230.098
      3110.555        2423.866          47.000          31.000
 126825264.968 6  98824918.08343  24134050.992                    24134054.211
        81.980          64.197          40.700          23.600
 111282578.853 8  86713745.10846  21176376.563                    21176380.906
      1656.758        1291.121          50.900          40.700
 107899313.995 9  84077460.42547  20532563.242                    20532568.977
     -1503.504       -1171.431          55.000          45.300
 121653781.904 7  94795184.64045  23149950.508                    23149952.746
     -2730.812       -2127.979          47.600          34.000
 116819197.779 8  91027989.75946  22229956.602                    22229964.527
      3100.348        2415.947          48.400          37.900
 114582482.694 7  89285069.36246  21804327.906                    21804329.480
       187.031         145.914          47.400          38.200
 113822292.449 8  88692754.87446  21659671.844                    21659677.730
     -2499.500       -1947.610          50.400          41.100
 18  2 20  8 23  0.0000000  0  8G05G16G07G09G23G30G02G06
 120768485.046 7  94105357.73645  22981485.836                    22981487.703
      3105.035        2419.536          46.300          30.600
 126823110.934 6  98823239.60444  24133640.609                    24133644.758
        61.621          48.267          40.200          24.300
 111233119.981 8  86675205.73546  21166964.797                    21166968.887
      1640.578        1278.578          50.800          40.900
 107944585.790 9  84112737.13747  20541178.086                    20541183.887
     -1514.559       -1180.034          54.600          45.400
 121735780.137 7  94859079.32245  23165554.617                    23165556.742
     -2735.473       -2131.505          47.900          33.600
 116726347.468 7  90955638.87946  22212288.055                    22212295.398
      3089.789        2407.743          47.800          37.600
 114577153.182 7  89280916.49746  21803313.953                    21803314.840
       168.383         131.442          46.200          38.600
 113897505.172 8  88751362.16446  21673983.969                    21673990.484
     -2514.348       -1959.110          51.300          41.100
 18  2 20  8 23 30.0000000  0  8G05G16G07G09G23G30G02G06
 120675419.231 7  94032838.92445  22963775.930                    22963778.461
      3099.461        2415.203          46.000          30.800
 126821568.824 7  98822037.97544  24133347.125                    24133350.996
        41.227          32.360          42.000          24.700
 111184144.637 8  86637043.13946  21157644.914                    21157648.906
      1624.488        1266.015          50.200          40.900
 107990188.174 8  84148271.45547  20549856.031                    20549861.957
     -1525.570       -1188.603          53.800          45.300
 121817912.944 8  94923078.88045  23181183.625                    23181185.973
     -2740.000       -2135.008          48.700          34.400
 116633814.299 7  90883535.13046  22194679.000                    22194686.773
      3079.242        2399.463          47.100          37.200
 114572380.476 7  89277197.50446  21802405.734                    21802406.902
       149.832         116.978          47.900          37.600
 113973159.678 8  88810313.71046  21688380.563                    21688387.355
     -2529.117       -1970.563          50.900          40.400
 18  2 20  8 24  0.0000000  0  8G05G16G07G09G23G30G02G06
 120582521.552 7  93960451.14945  22946097.891                    22946101.273
      3093.828        2410.808          44.700          31.400
 126820639.471 6  98821313.80843  24133169.586                    24133173.742
        20.836          16.466          38.400          22.500
 111135654.584 8  86599258.69346  21148417.469                    21148421.758
      1608.203        1253.366          50.700          40.300
 108036120.363 8  84184062.76747  20558596.438                    20558602.297
     -1536.551       -1197.175          53.800          45.200
 121900179.564 8  94987182.69745  23196838.883                    23196840.688
     -2744.445       -2138.475          48.500          32.800
 116541601.018 7  90811680.64946  22177131.563                    22177139.090
      3068.367        2391.101          45.800          36.900
 114568165.418 7  89273913.04346  21801603.531                    21801604.855
       131.203         102.477          47.300          37.600
 114049253.855 8  88869607.85346  21702860.953                    21702867.492
     -2543.684       -1981.954          50.300          40.600
 18  2 20  8 24 30.0000000  0  8G05G16G07G09G23G30G02G06
 120489793.431 7  93888195.47245  22928452.383                    22928455.285
      3087.992        2406.404          47.400          32.300
 126820323.282 6  98821067.43643  24133109.813                    24133113.918
         0.063           0.486          41.000          22.500
 111087650.814 8  86561853.16946  21139282.477                    21139286.801
      1591.973        1240.747          49.700          39.900
 108082380.771 8  84220109.82247  20567399.672                    20567405.273
     -1547.535       -1205.682          53.900          45.100
 121982578.945 8  95051389.97545  23212518.695                    23212520.906
     -2748.984       -2141.915          48.500          33.300
 116449709.587 7  90740076.95046  22159645.063                    22159652.422
      3057.543        2382.714          46.300          37.100
 114564507.345 8  89271062.58446  21800907.445                    21800908.543
       112.570          88.015          48.500          38.100
 114125784.958 8  88929242.45846  21717424.344                    21717431.027
     -2558.387       -1993.289          51.200          40.600
 18  2 20  8 25  0.0000000  0  8G05G16G07G09G23G30G02G06
 120397236.297 7  93816073.04945  22910839.688                    22910841.984
      3082.301        2401.854          47.800          31.800
 126820621.149 6  98821299.52744  24133166.688                    24133170.383
       -20.113         -15.477          40.200          25.700
 111040134.150 8  86524827.21046  21130239.953                    21130244.547
      1575.668        1228.025          50.400          40.200
 108128968.491 8  84256411.93947  20576264.867                    20576270.785
     -1558.387       -1214.201          53.800          44.900
 122065110.382 8  95115700.13245  23228224.156                    23228226.449
     -2753.195       -2145.350          48.800          33.800
 116358142.677 7  90668726.13346  22142220.320                    22142227.707
      3046.762        2374.229          46.600          36.900
 114561407.099 8  89268646.81346  21800317.797                    21800318.598
        94.047          73.491          48.600          38.400
 114202750.726 8  88989215.76446  21732070.773                    21732077.027
     -2572.746       -2004.593          50.700          40.900
 18  2 20  8 25 30.0000000  0  8G05G16G07G09G23G30G02G06
 120304853.681 7  93744086.60345  22893260.102                    22893262.051
      3076.410        2397.360          47.600          30.700
 126821533.195 6  98822010.22143  24133340.773                    24133343.895
       -40.742         -31.373          41.000          22.900
 110993106.316 8  86488182.16946  21121291.719                    21121295.332
      1559.391        1215.363          50.400          41.100
 108175882.268 8  84292968.11547  20585192.320                    20585197.813
     -1569.305       -1222.602          53.500          45.100
 122147772.526 8  95180112.15045  23243954.141                    23243956.145
     -2757.676       -2148.674          48.200          33.700
 116266902.543 7  90597629.95346  22124858.367                    22124865.543
      3035.648        2365.742          47.000          36.400
 114558864.612 8  89266665.64846  21799834.141                    21799834.652
        75.332          59.043          48.400          38.400
 114280148.637 8  89049525.79246  21746799.008                    21746805.523
     -2587.242       -2015.737          50.800          40.800
 18  2 20  8 26  0.0000000  0  8G05G16G07G09G23G30G02G06
 120212645.651 7  93672236.17345  22875713.258                    22875714.578
      3070.691        2392.827          47.300          30.500
 126823059.302 6  98823199.40444  24133630.906                    24133634.547
       -61.117         -47.338          38.700          24.100
 110946568.256 8  86451918.75346  21112435.836                    21112439.375
      1543.102        1202.652          49.600          41.700
 108223120.786 8  84329777.34847  20594181.258                    20594187.066
     -1580.039       -1231.021          52.900          45.100
 122230564.410 8  95244625.26445  23259708.984                    23259711.293
     -2761.867       -2152.029          48.600          33.600
 116175991.326 7  90526790.06446  22107558.266                    22107565.578
      3024.863        2357.210          47.800          37.100
 114556880.303 8  89265119.43346  21799456.563                    21799457.383
        56.793          44.559          48.800          38.700
 114357976.059 8  89110170.51146  21761609.016                    21761615.707
     -2601.398       -2026.837          51.100          40.400
 18  2 20  8 26 30.0000000  0  8G05G16G07G09G23G30G02G06
 120120615.343 7  93600524.23845  22858200.523                    22858202.246
      3064.559        2388.143          47.300          32.600
 126825199.891 6  98824867.39143  24134037.938                    24134041.676
       -81.637         -63.311          40.300          22.600
 110900521.294 8  86416038.02546  21103673.438                    21103676.531
      1526.660        1189.844          50.000          41.400
 108270682.846 8  84366838.68147  20603232.391                    20603237.680
     -1590.816       -1239.426          52.400          44.500
 122313485.186 8  95309238.79945  23275487.906                    23275490.453
     -2766.262       -2155.388          48.300          32.500
 116085411.459 7  90456208.37146  22090321.453                    22090328.367
      3013.676        2348.546          47.900          37.200
 114555454.259 8  89264008.22946  21799185.352                    21799186.000
        38.137          30.031          49.500          38.900
 114436230.537 8  89171148.00246  21776500.172                    21776506.676
     -2615.723       -2037.927          50.200          41.200
 18  2 20  8 27  0.0000000  0  8G05G16G07G09G23G30G02G06
 120028763.910 8  93528951.69945  22840722.188                    22840723.930
      3058.680        2383.508          48.000          32.000
 126827955.724 6  98827014.78243  24134562.367                    24134566.215
      -102.367         -79.329          40.700          22.500
 110854966.321 8  86380540.65746  21095004.969                    21095008.055
      1510.258        1177.072          49.600          41.400
 108318567.222 8  84404151.17147  20612344.461                    20612349.461
     -1601.625       -1247.779          51.300          44.100
 122396533.556 8  95373951.76345  23291291.648                    23291294.512
     -2770.504       -2158.694          48.200          33.000
 115995165.102 8  90385886.57746  22073148.586                    22073155.141
      3002.563        2339.867          49.300          37.700
 114554586.381 8  89263331.95446  21799020.109                    21799020.453
        19.574          15.535          49.500          38.300
 114514909.477 8  89232456.24846  21791472.656                    21791479.105
     -2629.742       -2048.907          49.900          40.500
 18  2 20  8 27 30.0000000  0  8G05G16G07G09G23G30G02G06
 119937092.772 8  93457519.64745  22823277.891                    22823280.461
      3052.477        2378.764          48.800          33.600
 126831326.652 6  98829641.50043  24135204.164                    24135207.813
      -122.609         -95.280          40.700          22.000
 110809904.491 8  86345427.55647  21086429.914                    21086432.941
      1493.680        1164.243          50.900          42.400
 108366772.781 8  84441713.93647  20621517.539                    20621522.785
     -1612.359       -1256.115          52.100          44.500
 122479708.884 8  95438763.65645  23307119.758                    23307122.047
     -2774.766       -2161.968          48.900          33.600
 115905254.738 8  90315826.56846  22056039.180                    22056046.289
      2991.297        2331.109          50.100          38.700
 114554276.768 8  89263090.69646  21798961.133                    21798961.363
         0.938           1.033          49.100          38.600
 114594010.398 8  89294093.30046  21806525.047                    21806531.500
     -2643.840       -2059.845          49.700          39.800
 18  2 20  8 28  0.0000000  0  8G05G16G07G09G23G30G02G06
 119845604.233 7  93386229.89845  22805867.930                    22805870.754
      3046.508        2374.026          47.800          33.400
 126835312.632 6  98832747.44543  24135962.828                    24135965.762
      -143.164        -111.255          41.600          21.300
 110765336.883 8  86310699.55447  21077948.984                    21077952.094
      1477.328        1151.384          51.000          43.000
 108415298.211 8  84479525.94547  20630751.430                    20630757.020
     -1622.828       -1264.386          53.000          44.800
 122563009.917 7  95503673.50145  23322971.789                    23322973.984
     -2778.809       -2165.229          47.300          32.900
 115815682.500 8  90246030.05046  22038993.984                    22039001.398
      2980.031        2322.294          50.200          39.400
 114554525.538 8  89263284.54046  21799008.289                    21799008.672
       -17.645         -13.478          49.900          38.600
 114673530.700 8  89356057.14046  21821657.070                    21821663.422
     -2657.617       -2070.693          50.200          39.400
 18  2 20  8 28 30.0000000  0  8G05G16G07G09G23G30G02G06
 119754300.234 8  93315083.94745  22788493.289                    22788495.594
      3040.426        2369.164          48.700          33.700
 126839914.177 6  98836333.06143  24136838.172                    24136841.742
      -163.523        -127.278          38.600          21.500
 110721264.812 8  86276357.69347  21069562.484                    21069565.852
      1460.801        1138.484          51.200          42.600
 108464142.233 8  84517586.20947  20640046.016                    20640051.746
     -1633.383       -1272.689          52.700          44.900
 122646435.812 7  95568680.65445  23338847.063                    23338848.895
     -2782.887       -2168.502          47.600          33.200
 115726450.600 8  90176498.73646  22022014.008                    22022020.410
      2968.762        2313.388          50.200          39.200
 114555332.660 8  89263913.46746  21799162.047                    21799162.820
       -36.172         -28.031          48.900          38.100
 114753467.734 8  89418345.71746  21836868.648                    21836875.500
     -2671.430       -2081.530          48.500          39.000
 18  2 20  8 29  0.0000000  0  8G05G16G07G09G23G30G02G06
 119663181.906 8  93244082.63645  22771154.398                    22771156.473
      3034.168        2364.329          49.100          33.600
 126845131.403 6  98840398.41043  24137831.766                    24137834.559
      -184.242        -143.286          40.300          21.700
 110677688.977 8  86242402.50747  21061270.008                    21061273.332
      1444.227        1125.559          50.200          43.100
 108513303.803 8  84555893.91547  20649401.672                    20649406.773
     -1643.988       -1280.927          52.600          44.500
 122729985.670 7  95633784.37845  23354746.250                    23354748.047
     -2787.121       -2171.710          44.600          33.000
 115637561.502 8  90107234.52146  22005098.516                    22005105.984
      2957.219        2304.450          50.500          39.800
 114556698.388 8  89264977.66646  21799422.016                    21799422.695
       -54.855         -42.512          49.600          38.800
 114833819.095 7  89480957.14246  21852158.805                    21852165.563
     -2685.219       -2092.242          47.200          38.800
 18  2 20  8 29 30.0000000  0  8G05G16G07G09G23G30G02G06
 119572252.096 8  93173228.22245  22753850.859                    22753853.871
      3027.809        2359.423          48.200          34.600
 126850964.934 6  98844944.02843  24138940.859                    24138944.242
      -204.910        -159.258          38.100          20.600
 110634610.789 8  86208835.09247  21053072.414                    21053075.984
      1427.535        1112.638          50.100          42.800
 108562781.894 8  84594448.25647  20658816.867                    20658822.480
     -1654.625       -1289.124          51.900          45.400
 122813658.383 7  95698983.85745  23370667.891                    23370670.645
     -2791.258       -2174.863          45.900          32.300
 115549017.595 8  90038239.29946  21988249.117                    21988256.434
      2945.590        2295.469          50.200          40.000
 114558622.569 7  89266477.02346  21799787.719                    21799788.621
       -73.559         -56.998          47.500          38.800
 114914582.314 7  89543889.50146  21867527.641                    21867534.320
     -2698.992       -2102.890          46.400          38.100
 18  2 20  8 30  0.0000000  0  8G05G16G07G09G23G30G02G06
 119481512.128 7  93102521.75745  22736583.758                    22736587.059
      3021.363        2354.448          47.800          35.000
 126857414.287 6  98849969.47443  24140168.555                    24140170.797
      -225.355        -175.244          40.100          19.000
 110592030.929 8  86175655.98847  21044969.570                    21044973.441
      1410.945        1099.691          50.800          42.500
 108612574.919 8  84633247.99947  20668292.023                    20668297.703
     -1665.027       -1297.273          51.400          45.700
 122897453.175 7  95764278.45345  23386613.484                    23386616.266
     -2795.262       -2178.031          47.800          32.700
 115460820.792 8  89969514.54946  21971465.773                    21971473.125
      2934.055        2286.444          49.700          39.900
 114561104.948 8  89268411.33246  21800260.148                    21800260.844
       -92.094         -71.494          48.900          38.200
 114995754.383 7  89607140.44146  21882973.938                    21882980.391
     -2712.625       -2113.490          46.100          37.700
 18  2 20  8 30 30.0000000  0  8G05G16G07G09G23G30G02G06
 119390963.748 8  93031964.58845  22719352.484                    22719356.211
      3015.082        2349.482          49.500          35.300
 126864479.606 6  98855474.95643  24141512.688                    24141515.359
      -245.684        -191.239          39.000          18.600
 110549950.488 8  86142866.04447  21036962.016                    21036965.629
      1394.336        1086.697          50.400          42.900
 108662681.833 8  84672292.33047  20677827.555                    20677833.102
     -1675.437       -1305.410          52.600          45.100
 122981368.920 7  95829667.28545  23402582.563                    23402585.145
     -2799.207       -2181.151          45.900          32.800
 115372973.468 8  89901062.11646  21954749.313                    21954756.297
      2922.484        2277.337          49.400          39.200
 114564145.735 8  89270780.77146  21800838.953                    21800839.930
      -110.660         -85.994          48.000          38.600
 115077333.031 7  89670708.19446  21898497.930                    21898504.453
     -2725.934       -2124.005          46.300          38.100
 18  2 20  8 31  0.0000000  0  8G05G16G07G09G23G30G02G06
 119300608.879 7  92961558.20646  22702158.844                    22702162.738
      3008.480        2344.403          47.000          36.100
 126872161.652 6  98861460.97642  24142974.320                    24142976.730
      -266.402        -207.301          40.100          17.800
 110508371.023 8  86110466.46847  21029049.766                    21029053.297
      1377.582        1073.672          49.700          43.200
 108713101.611 8  84711580.45347  20687422.180                    20687427.473
     -1685.871       -1313.539          52.300          45.300
 123065404.883 7  95895149.82045  23418573.781                    23418576.680
     -2803.285       -2184.273          43.800          32.100
 115285478.112 7  89832883.95246  21938099.336                    21938106.293
      2910.547        2268.150          47.200          39.200
 114567744.897 7  89273585.30346  21801523.813                    21801524.773
      -129.328        -100.516          47.200          38.800
 115159315.758 7  89734590.81746  21914098.797                    21914105.238
     -2739.473       -2134.479          46.200          37.500
 18  2 20  8 31 30.0000000  0  8G05G16G07G09G23G30G02G06
 119210449.860 8  92891304.42645  22685002.320                    22685005.926
      3002.086        2339.298          48.400          35.800
 126880459.856 6  98867927.13943  24144553.883                    24144555.859
      -286.973        -223.299          39.600          18.300
 110467292.964 8  86078457.60947  21021232.859                    21021236.781
      1360.898        1060.637          49.400          42.900
 108763832.798 8  84751111.23447  20697076.008                    20697081.727
     -1696.340       -1321.641          51.900          45.800
 123149559.696 7  95960724.94745  23434588.047                    23434590.148
     -2807.207       -2187.336          45.500          32.300
 115198336.643 7  89764981.52346  21921516.492                    21921523.676
      2898.719        2258.935          47.800          39.900
 114571902.166 7  89276824.71746  21802314.789                    21802316.035
      -147.871        -115.009          46.500          38.100
 115241699.606 8  89798786.00046  21929775.969                    21929782.738
     -2752.828       -2144.870          48.000          37.700
 18  2 20  8 32  0.0000000  0  8G05G16G07G09G23G30G02G06
 119120488.167 8  92821204.39246  22667882.844                    22667886.910
      2995.316        2334.162          48.100          36.900
 126889374.125 6  98874873.28943  24146250.047                    24146252.094
      -307.371        -239.288          40.400          19.000
 110426717.425 8  86046840.31547  21013511.773                    21013515.375
      1344.070        1047.579          49.900          42.900
 108814874.218 8  84790883.74847  20706788.773                    20706794.262
     -1706.578       -1329.640          52.800          45.500
 123233832.595 7  96026392.08545  23450624.664                    23450627.082
     -2811.047       -2190.368          45.100          31.300
 115111551.351 7  89697356.66346  21905002.188                    21905008.887
      2886.871        2249.671          47.100          39.000
 114576617.622 7  89280499.08146  21803212.078                    21803213.410
      -166.566        -129.506          46.600          38.300
 115324482.068 7  89863291.79146  21945529.438                    21945535.727
     -2766.027       -2155.178          47.900          38.300
 18  2 20  8 32 30.0000000  0  8G05G16G07G09G23G30G02G06
 119030725.769 8  92751259.66846  22650801.680                    22650805.598
      2988.738        2328.986          48.600          36.300
 126898904.716 6  98882299.72042  24148063.531                    24148065.664
      -327.914        -255.282          40.100          16.900
 110386645.864 8  86015615.74047  21005886.180                    21005889.949
      1327.352        1034.485          50.700          43.400
 108866224.999 8  84830897.33247  20716560.563                    20716566.012
     -1716.809       -1337.653          53.500          45.500
 123318223.006 7  96092150.80545  23466683.211                    23466686.344
     -2815.020       -2193.449          43.600          32.100
 115025124.768 8  89630011.29646  21888555.750                    21888562.359
      2874.762        2240.310          49.000          39.200
 114581891.223 7  89284608.36546  21804215.445                    21804217.129
      -185.043        -143.991          47.700          38.200
 115407660.614 7  89928106.23346  21961357.508                    21961364.469
     -2779.199       -2165.440          47.900          38.700
 18  2 20  8 33  0.0000000  0  8G05G16G07G09G23G30G02G06
 118941164.514 8  92681471.68346  22633758.844                    22633763.133
      2982.020        2323.690          49.100          37.000
 126909051.814 6  98890206.51242  24149995.250                    24149996.070
      -348.469        -271.357          40.100          17.400
 110347078.994 8  85984784.42447  20998356.961                    20998360.422
      1310.406        1021.327          50.900          43.200
 108917883.739 8  84871150.87847  20726391.203                    20726396.469
     -1727.141       -1345.678          53.800          45.200
 123402729.977 7  96158000.34445  23482764.836                    23482767.250
     -2818.852       -2196.482          43.900          31.600
 114939058.896 8  89562947.01146  21872177.992                    21872184.391
      2862.859        2230.893          48.800          38.400
 114587722.735 7  89289152.38546  21805325.297                    21805327.039
      -203.668        -158.501          46.700          37.800
 115491232.695 7  89993227.31446  21977260.836                    21977267.762
     -2792.297       -2175.656          47.900          38.600
 18  2 20  8 33 30.0000000  0  8G05G16G07G09G23G30G02G06
 118851806.365 7  92611841.95346  22616754.453                    22616759.012
      2975.223        2318.424          46.800          37.100
 126919815.121 6  98898593.48442  24152043.570                    24152044.023
      -369.047        -287.331          40.300          16.300
 110308017.204 8  85954346.67747  20990923.383                    20990927.293
      1293.656        1008.232          51.300          43.200
 108969849.125 8  84911643.37347  20736279.773                    20736284.945
     -1737.176       -1353.588          53.700          45.100
 123487352.276 7  96223939.75645  23498867.695                    23498870.426
     -2822.551       -2199.422          43.000          30.900
 114853355.850 7  89496165.44946  21855869.000                    21855875.688
      2850.730        2221.477          46.700          39.100
 114594111.852 7  89294130.91746  21806541.273                    21806542.668
      -222.230        -172.968          47.500          38.300
 115575195.407 7  90058652.79046  21993238.180                    21993245.344
     -2805.211       -2185.748          46.700          38.600
 18  2 20  8 34  0.0000000  0  8G05G16G07G09G23G30G02G06
 118762653.188 7  92542371.95846  22599789.383                    22599793.637
      2968.344        2313.070          47.600          37.000
 126931194.233 6  98907460.32942  24154208.352                    24154209.496
      -389.512        -303.320          39.800          16.300
 110269461.645 8  85924303.39747  20983586.766                    20983590.273
      1276.750         995.056          51.400          43.200
 109022120.136 8  84952374.02747  20746226.367                    20746232.297
     -1747.340       -1361.526          53.600          45.500
 123572089.070 7  96289968.39245  23514992.766                    23514995.254
     -2826.414       -2202.391          43.400          31.300
 114768017.974 7  89429668.43146  21839629.766                    21839636.590
      2838.555        2211.961          47.800          38.600
 114601058.384 7  89299543.78746  21807862.805                    21807864.551
      -240.711        -187.425          47.100          38.400
 115659546.200 7  90124380.66246  22009289.922                    22009297.148
     -2818.129       -2195.786          47.500          39.500
 18  2 20  8 34 30.0000000  0  8G05G16G07G09G23G30G02G06
 118673706.392 8  92473062.76845  22582863.070                    22582867.277
      2961.305        2307.679          48.100          35.900
 126943189.113 6  98916806.96242  24156490.406                    24156491.949
      -410.094        -319.301          39.500          15.600
 110231412.904 8  85894655.04347  20976345.945                    20976349.871
      1259.770         981.902          50.700          43.500
 109074695.338 8  84993341.69847  20756231.250                    20756236.734
     -1757.621       -1369.397          53.000          45.100
 123656939.546 7  96356085.59544  23531139.789                    23531141.852
     -2830.371       -2205.329          42.900          29.900
 114683047.276 8  89363457.52546  21823460.563                    21823466.891
      2826.008        2202.397          49.200          39.400
 114608561.944 7  89305390.71446  21809290.563                    21809292.668
      -259.586        -201.897          47.800          38.400
 115744282.236 7  90190408.72846  22025414.078                    22025421.938
     -2831.035       -2205.761          46.600          39.000
 18  2 20  8 35  0.0000000  0  8G05G16G07G09G23G30G02G06
 118584968.380 8  92403916.27346  22565976.992                    22565980.996
      2954.449        2302.225          49.300          36.000
 126955800.329 6  98926633.79142  24158891.367                    24158892.344
      -430.617        -335.280          39.600          16.900
 110193872.384 8  85865402.69447  20969202.070                    20969206.426
      1242.883         968.672          51.000          42.700
 109127573.914 8  85034545.77747  20766293.656                    20766299.125
     -1767.613       -1377.279          53.500          45.100
 123741902.630 7  96422290.55745  23547307.195                    23547309.656
     -2834.000       -2208.261          42.800          30.200
 114598446.249 8  89297534.65146  21807361.391                    21807367.738
      2813.879        2192.763          49.600          40.100
 114616622.822 7  89311671.91946  21810824.969                    21810826.371
      -277.922        -216.368          47.300          39.200
 115829401.133 7  90256735.11546  22041611.883                    22041619.805
     -2843.570       -2215.661          47.400          39.300
 18  2 20  8 35 30.0000000  0  8G05G16G07G09G23G30G02G06
 118496441.475 8  92334934.26346  22549130.461                    22549135.371
      2947.387        2296.775          50.300          37.000
 126969027.358 6  98936940.57542  24161408.414                    24161409.230
      -451.141        -351.280          38.300          15.600
 110156840.790 8  85836546.91947  20962155.180                    20962159.527
      1225.941         955.504          51.500          42.100
 109180754.341 8  85075985.06947  20776413.383                    20776419.238
     -1777.648       -1385.066          53.300          45.000
 123826977.268 7  96488582.45745  23563496.188                    23563499.535
     -2837.633       -2211.097          43.200          30.500
 114514216.744 8  89231901.28546  21791333.344                    21791340.063
      2801.379        2183.117          50.800          39.900
 114625240.374 7  89318386.87946  21812464.602                    21812466.785
      -296.535        -230.799          47.800          38.900
 115914899.895 7  90323357.49746  22057881.945                    22057889.418
     -2856.203       -2225.462          47.600          39.500
 18  2 20  8 36  0.0000000  0  8G05G16G07G09G23G30G02G06
 118408126.671 8  92266117.54146  22532324.805                    22532329.391
      2940.156        2291.231          49.100          36.600
 126982869.400 6  98947726.54542  24164041.977                    24164043.301
      -471.750        -367.231          38.900          17.400
 110120318.971 8  85808088.35947  20955205.398                    20955209.555
      1208.926         942.247          50.200          42.600
 109234235.509 8  85117658.70047  20786590.438                    20786596.637
     -1787.754       -1392.869          52.700          44.800
 123912162.819 7  96554960.75444  23579706.406                    23579709.762
     -2841.395       -2213.957          43.500          29.700
 114430361.006 8  89166559.14446  21775376.242                    21775382.691
      2788.895        2173.389          50.700          41.300
 114634414.344 7  89325535.42446  21814210.055                    21814212.750
      -315.160        -245.247          46.600          39.200
 116000775.884 7  90390273.82946  22074223.438                    22074231.180
     -2868.930       -2235.243          46.500          39.400
 18  2 20  8 36 30.0000000  0  8G05G16G07G09G23G30G02G06
 118320026.440 8  92197468.03546  22515560.234                    22515564.227
      2933.051        2285.591          49.600          36.600
 126997326.608 6  98958991.87542  24166793.438                    24166793.766
      -491.918        -383.238          39.200          16.300
 110084307.585 8  85780027.53947  20948352.547                    20948356.602
      1191.855         928.943          50.700          42.200
 109288016.251 8  85159565.76347  20796824.742                    20796830.773
     -1797.637       -1400.659          53.400          44.600
 123997458.318 7  96621424.74544  23595937.641                    23595940.418
     -2845.035       -2216.836          42.400          29.600
 114346881.267 8  89101510.00146  21759490.422                    21759497.199
      2776.355        2163.571          52.000          41.800
 114644144.406 7  89333117.28646  21816061.766                    21816063.824
      -333.582        -259.710          46.800          38.500
 116087026.421 7  90457482.01346  22090636.742                    22090644.301
     -2881.223       -2244.942          46.500          39.000
 18  2 20  8 37  0.0000000  0  8G05G16G07G09G23G30G02G06
 118232143.019 8  92128987.43746  22498836.211                    22498840.613
      2925.855        2279.969          49.600          36.500
 127012398.918 6  98970736.51642  24169661.414                    24169662.043
      -512.543        -399.226          38.000          16.900
 110048807.297 8  85752364.97847  20941596.898                    20941601.105
      1174.859         915.678          50.500          42.500
 109342095.248 9  85201705.24247  20807115.266                    20807121.348
     -1807.492       -1408.366          54.000          44.700
 124082862.874 7  96687973.69844  23612189.547                    23612192.551
     -2848.625       -2219.649          44.100          29.200
 114263779.469 8  89036755.35946  21743676.766                    21743683.406
      2763.777        2153.742          52.400          41.600
 114654430.432 7  89341132.35846  21818018.852                    21818021.391
      -352.031        -274.125          45.700          39.300
 116173648.664 7  90524979.83546  22107120.344                    22107127.707
     -2893.496       -2254.557          46.800          38.600
 18  2 20  8 37 30.0000000  0  8G05G16G07G09G23G30G02G06
 118144477.941 8  92060677.00946  22482154.180                    22482158.559
      2918.652        2274.260          50.100          36.200
 127028085.856 6  98982960.04642  24172647.281                    24172647.563
      -532.828        -415.126          39.100          14.800
 110013819.262 8  85725101.58247  20934939.414                    20934943.438
      1157.820         902.327          51.100          42.200
 109396471.498 8  85244076.33647  20817462.961                    20817469.199
     -1817.387       -1416.085          53.300          45.300
 124168375.545 7  96754606.89944  23628462.758                    23628464.961
     -2852.105       -2222.436          43.500          29.100
 114181057.962 8  88972297.05246  21727935.445                    21727942.258
      2751.129        2143.823          52.100          41.700
 114665271.782 7  89349580.15846  21820081.773                    21820084.621
      -370.484        -288.557          46.700          37.600
 116260640.041 7  90592765.29946  22123674.266                    22123681.457
     -2905.648       -2264.116          47.000          38.400
 18  2 20  8 38  0.0000000  0  8G05G16G07G09G23G30G02G06
 118057033.089 8  91992538.15346  22465514.086                    22465517.820
      2911.160        2268.531          50.600          36.900
 127044387.030 6  98995662.27342  24175748.820                    24175749.387
      -553.660        -431.107          37.200          15.600
 109979344.380 8  85698238.04247  20928379.070                    20928382.680
      1140.535         889.004          51.500          42.600
 109451143.820 8  85286678.13747  20827866.664                    20827872.992
     -1827.324       -1423.760          53.900          44.900
 124253995.248 7  96821323.51744  23644755.008                    23644758.148
     -2855.789       -2225.214          42.600          28.300
 114098718.893 8  88908136.75746  21712266.602                    21712273.645
      2738.195        2133.863          51.700          41.800
 114676667.988 7  89358460.30946  21822250.609                    21822253.328
      -389.164        -302.962          47.000          37.800
 116347997.823 7  90660836.26746  22140298.242                    22140305.273
     -2917.969       -2273.600          46.300          38.300
 18  2 20  8 38 30.0000000  0  8G05G16G07G09G23G30G02G06
 117969810.247 8  91924572.29046  22448916.313                    22448920.121
      2903.609        2262.705          50.500          36.900
 127061302.621 6  99008843.22842  24178967.945                    24178968.996
      -574.000        -447.044          37.200          16.300
 109945383.628 8  85671775.13247  20921916.672                    20921919.965
      1123.309         875.627          51.100          42.600
 109506111.223 8  85329509.86647  20838326.781                    20838333.191
     -1837.141       -1431.423          53.000          45.100
 124339721.869 7  96888123.43044  23661068.406                    23661071.449
     -2859.328       -2228.010          42.500          27.700
 114016764.591 8  88844276.28646  21696671.305                    21696677.949
      2725.340        2123.839          52.100          41.300
 114688619.275 7  89367772.97546  21824524.742                    21824527.668
      -407.687        -317.386          47.500          38.000
 116435719.480 7  90729190.77346  22156990.836                    22156997.828
     -2930.082       -2283.023          46.300          38.100
 18  2 20  8 39  0.0000000  0  8G05G16G07G09G23G30G02G06
 117882811.750 8  91856781.25746  22432361.156                    22432364.988
      2896.102        2256.890          51.700          37.600
 127078831.573 6  99022502.10542  24182303.945                    24182304.230
      -594.680        -462.930          36.700          13.900
 109911936.754 8  85645712.64447  20915552.031                    20915555.098
      1106.188         862.311          51.400          42.200
 109561372.108 8  85372570.28847  20848842.688                    20848848.848
     -1846.867       -1438.979          53.500          45.000
 124425553.751 7  96955005.38344  23677402.016                    23677404.391
     -2862.887       -2230.686          44.500          28.200
 113935196.739 8  88780716.94546  21681149.141                    21681156.363
      2712.387        2113.816          51.600          41.400
 114701124.579 7  89377517.36446  21826904.391                    21826907.160
      -426.223        -331.740          46.300          37.900
 116523801.870 7  90797826.37446  22173752.195                    22173759.344
     -2942.160       -2292.347          46.600          37.900
 18  2 20  8 39 30.0000000  0  8G05G16G07G09G23G30G02G06
 117796038.426 8  91789165.68346  22415848.875                    22415852.738
      2888.695        2250.976          51.800          38.400
 127096973.893 6  99036639.08442  24185755.852                    24185756.984
      -614.816        -478.912          38.700          15.600
 109879005.068 8  85620051.60047  20909285.164                    20909288.574
      1089.230         848.893          50.200          42.600
 109616925.609 8  85415858.71847  20859414.133                    20859420.223
     -1856.605       -1446.601          53.400          44.800
 124511490.569 7  97021969.09044  23693754.813                    23693757.805
     -2866.180       -2233.435          44.400          27.300
 113854017.698 8  88717460.57346  21665700.914                    21665708.699
      2699.539        2103.658          51.400          40.900
 114714183.796 7  89387693.36246  21829389.711                    21829391.777
      -444.500        -346.157          47.100          38.100
 116612242.470 7  90866741.10246  22190582.156                    22190589.000
     -2954.000       -2301.633          45.800          37.000
 18  2 20  8 40  0.0000000  0  8G05G16G07G09G23G30G02G06
 117709493.939 8  91721728.41946  22399380.008                    22399383.277
      2880.871        2245.038          51.100          37.400
 127115729.267 6  99051253.65042  24189324.328                    24189326.426
      -635.621        -494.829          37.200          14.800
 109846588.946 8  85594792.30047  20903116.141                    20903119.750
      1071.801         835.520          49.000          42.300
 109672770.278 8  85459374.02747  20870041.328                    20870047.246
     -1866.363       -1454.140          52.300          45.000
 124597531.066 7  97089013.59544  23710127.758                    23710130.336
     -2869.930       -2236.079          43.700          27.500
 113773229.328 8  88654508.61646  21650327.336                    21650334.895
      2686.297        2093.484          51.000          41.000
 114727796.242 7  89398300.43946  21831980.109                    21831982.262
      -463.035        -360.505          47.800          38.300
 116701038.259 7  90935932.60546  22207479.406                    22207486.438
     -2965.910       -2310.819          45.800          37.100
 18  2 20  8 40 30.0000000  0  8G05G16G07G09G23G30G02G06
 117623179.974 8  91654470.78346  22382954.883                    22382958.266
      2873.152        2238.978          50.900          36.600
 127135097.258 6  99066345.58142  24193010.672                    24193012.922
      -655.887        -510.789          37.100          14.800
 109814689.565 8  85569935.64846  20897046.023                    20897049.199
      1054.566         822.041          48.800          41.800
 109728905.381 8  85503115.65047  20880723.086                    20880729.547
     -1876.160       -1461.725          52.100          45.200
 124683674.667 7  97156138.42844  23726521.086                    23726523.527
     -2873.273       -2238.817          44.000          26.700
 113692834.137 8  88591863.02546  21635028.867                    21635036.074
      2673.184        2083.188          50.700          41.400
 114741962.083 7  89409338.73446  21834675.789                    21834677.875
      -481.504        -374.922          47.900          37.700
 116790186.935 7  91005399.07246  22224443.563                    22224450.652
     -2977.586       -2319.983          46.200          36.400
 18  2 20  8 41  0.0000000  0  8G05G16G07G09G23G30G02G06
 117537098.048 8  91587393.96846  22366574.313                    22366577.801
      2865.555        2232.976          51.100          37.800
 127155077.277 6  99081914.35142  24196812.234                    24196814.652
      -676.035        -526.576          36.300          15.600
 109783307.156 8  85545481.83347  20891074.164                    20891077.789
      1037.484         808.642          49.100          42.000
 109785329.507 8  85547082.49147  20891460.336                    20891466.879
     -1885.539       -1469.164          52.900          45.700
 124769920.411 7  97223342.86744  23742932.828                    23742935.023
     -2876.539       -2241.413          43.800          27.000
 113612833.961 8  88529525.23346  21619805.328                    21619812.758
      2660.148        2072.960          51.400          41.400
 114756680.312 7  89420807.46046  21837476.867                    21837478.684
      -499.781        -389.209          47.900          37.600
 116879685.480 7  91075138.17746  22241474.633                    22241481.805
     -2989.016       -2328.994          46.000          37.400
 18  2 20  8 41 30.0000000  0  8G05G16G07G09G23G30G02G06
 117451249.739 8  91520499.18346  22350237.805                    22350241.410
      2857.672        2226.866          51.200          37.800
 127175668.629 6  99097959.60242  24200729.672                    24200733.840
      -696.590        -542.549          36.800          13.900
 109752442.592 8  85521431.52946  20885200.742                    20885204.395
      1020.227         795.164          49.000          41.500
 109842041.418 8  85591273.58447  20902252.430                    20902258.559
     -1895.254       -1476.666          52.400          45.300
 124856267.434 7  97290626.21144  23759364.219                    23759366.559
     -2879.961       -2244.061          44.900          27.000
 113533230.805 8  88467496.80347  21604657.500                    21604665.004
      2646.797        2062.599          50.700          42.200
 114771950.509 8  89432706.29346  21840382.945                    21840384.441
      -518.172        -403.566          48.500          38.500
 116969531.005 7  91145147.65346  22258571.578                    22258579.137
     -3000.691       -2337.995          46.600          37.600
 18  2 20  8 42  0.0000000  0  8G05G16G07G09G23G30G02G06
 117365637.194 8  91453788.09946  22333946.492                    22333949.449
      2849.746        2220.719          51.400          37.500
 127196870.457 5  99114480.57342  24204764.359                    24204767.914
      -716.934        -558.359          35.700          14.800
 109722096.374 8  85497785.12047  20879426.625                    20879429.754
      1002.859         781.700          49.900          42.300
 109899039.828 8  85635687.91447  20913099.164                    20913105.086
     -1904.762       -1484.073          53.200          45.600
 124942714.456 7  97357987.47844  23775815.008                    23775816.680
     -2883.250       -2246.611          44.100          26.000
 113454026.598 8  88405779.24247  21589585.531                    21589592.855
      2633.441        2052.227          51.000          42.100
 114787771.978 8  89445034.69246  21843394.039                    21843395.270
      -536.590        -417.855          48.600          39.000
 117059720.606 7  91215425.24846  22275734.266                    22275741.363
     -3012.020       -2346.876          45.900          36.700
 18  2 20  8 42 30.0000000  0  8G05G16G07G09G23G30G02G06
 117280263.171 8  91387262.89146  22317699.789                    22317703.531
      2841.734        2214.506          49.500          37.100
 127218682.927 6  99131477.27242  24208915.586                    24208918.727
      -737.250        -574.162          36.100          14.800
 109692268.989 8  85474543.01447  20873750.523                    20873753.945
       985.539         768.221          50.500          42.300
 109956323.590 8  85680324.60247  20923999.656                    20924005.902
     -1914.246       -1491.452          52.900          45.400
 125029261.000 7  97425426.30944  23792283.961                    23792285.996
     -2886.590       -2249.194          44.800          27.000
 113375223.422 8  88344374.18047  21574589.688                    21574596.922
      2619.977        2041.785          51.800          42.800
 114804143.895 8  89457792.01446  21846509.008                    21846510.824
      -555.035        -432.142          48.100          39.600
 117150251.601 7  91285968.86145  22292961.367                    22292969.004
     -3023.426       -2355.710          46.300          35.900
 18  2 20  8 43  0.0000000  0  8G05G16G07G09G23G30G02G06
 117195128.760 8  91320924.40146  22301499.203                    22301503.031
      2833.637        2208.234          49.900          36.100
 127241105.080 5                  24213184.195
      -757.859                          34.200
 109662961.082 8  85451705.68447  20868173.969                    20868176.852
       968.074         754.714          50.800          42.700
 110013891.578 8  85725182.76547  20934954.445                    20934960.465
     -1923.789       -1498.841          53.500          45.700
 125115906.207 7  97492942.00844  23808772.438                    23808774.613
     -2889.992       -2251.764          44.500          27.400
 113296823.319 8  88283283.20447  21559670.688                    21559677.988
      2606.430        2031.273          51.700          42.600
 114821065.854 8  89470977.95546  21849729.531                    21849731.203
      -573.328        -446.432          49.400          39.000
 117241121.082 7  91356776.23146  22310253.094                    22310260.449
     -3034.766       -2364.488          46.300          36.300
 18  2 20  8 43 30.0000000  0  8G05G16G07G09G23G30G02G06
 117110235.980 8  91254774.20246  22285344.758                    22285348.613
      2825.660        2201.914          49.900          36.400
 127264136.033 5                  24217565.484
      -777.910                          35.500
 109634172.818 8  85429273.28647  20862695.586                    20862698.227
       950.938         741.182          51.200          43.000
 110071742.221 8  85770261.18347  20945963.039                    20945968.961
     -1933.086       -1506.188          52.900          45.400
 125202649.039 7  97560533.76544  23825278.898                    23825280.941
     -2893.043       -2254.290          42.700          26.200
 113218827.919 8  88222507.58147  21544828.922                    21544835.926
      2592.996        2020.716          51.300          42.700
 114838536.989 8  89484591.82446  21853053.859                    21853055.895
      -591.508        -460.701          48.900          38.900
 117332325.912 7  91427844.91046  22327609.430                    22327616.680
     -3045.852       -2373.179          46.100          36.400
 18  2 20  8 44  0.0000000  0  8G05G16G07G09G23G30G02G06
 117025587.005 8  91188813.97846  22269236.664                    22269239.871
      2817.461        2195.565          49.300          37.100
 127287775.343 6                  24222063.852
      -798.215                          36.600
 109605905.181 8  85407246.56947  20857316.250                    20857319.520
       933.477         727.652          50.800          42.700
 110129874.676 8  85815559.18747  20957025.578                    20957031.227
     -1942.539       -1513.482          52.100          45.300
 125289488.578 7  97628200.90844  23841803.453                    23841806.285
     -2896.289       -2256.775          42.600          25.600
 113141239.509 8  88162049.09746  21530064.219                    21530071.035
      2579.395        2010.136          51.500          41.800
 114856556.673 8  89498633.12946  21856482.742                    21856484.852
      -609.859        -474.945          48.000          38.800
 117423863.538 7  91499172.92445  22345028.148                    22345035.820
     -3056.805       -2381.766          45.200          35.900
 18  2 20  8 44 30.0000000  0  8G05G16G07G09G23G30G02G06
 116941183.298 8  91123044.85846  22253174.625                    22253178.172
      2809.453        2189.216          49.500          36.900
 127312023.212 5                  24226678.500
      -818.414                          35.100
 109578159.383 8  85385626.47647  20852036.242                    20852039.383
       916.270         714.126          50.000          42.800
 110188288.293 8  85861076.27947  20968141.133                    20968146.820
     -1951.687       -1520.735          52.100          45.400
 125376424.388 7  97695943.04344  23858347.188                    23858350.051
     -2899.437       -2259.273          42.300          26.500
 113064060.672 8  88101909.75346  21515377.109                    21515383.758
      2565.832        1999.492          51.700          41.700
 114875124.908 8  89513101.88446  21860016.344                    21860018.742
      -627.969        -489.156          48.100          38.700
 117515731.715 7  91570758.50046  22362509.969                    22362517.559
     -3067.613       -2390.289          46.000          36.200
 18  2 20  8 45  0.0000000  0  8G05G16G07G09G23G30G02G06
 116857027.602 8  91057469.00346  22237160.656                    22237163.953
      2800.980        2182.714          48.500          36.500
 127336877.713 6                  24231407.930
      -838.629                          37.300
 109550934.488 8  85364412.28547  20846855.367                    20846858.613
       898.727         700.554          50.600          42.000
 110246981.004 8  85906810.84647  20979309.266                    20979315.668
     -1961.086       -1528.005          52.500          45.100
 125463455.008 6  97763759.05944  23874908.195                    23874911.129
     -2902.660       -2261.756          39.700          24.300
 112987292.373 8  88042090.30946  21500768.797                    21500775.648
      2552.023        1988.775          51.200          41.700
 114894240.232 8  89527996.94046  21863653.719                    21863655.953
      -646.383        -503.397          48.300          38.000
 117607926.653 7  91642598.69545  22380053.938                    22380061.457
     -3078.523       -2398.779          45.200          35.300
 18  2 20  8 45 30.0000000  0  8G05G16G07G09G23G30G02G06
 116773122.151 8  90992088.14746  22221193.883                    22221197.555
      2792.527        2176.232          48.900          36.900
 127362338.123 5                  24236251.664
      -858.820                          32.300
 109524231.321 8  85343604.64447  20841773.719                    20841777.641
       881.285         687.046          50.300          42.000
 110305951.772 8  85952762.08447  20990531.469                    20990537.527
     -1970.496       -1535.172          52.400          45.200
 125550579.947 6  97831648.59144  23891486.930                    23891491.410
     -2906.098       -2264.180          40.600          25.000
 112910936.838 8  87982592.50847  21486238.578                    21486245.418
      2538.133        1978.061          51.700          42.400
 114913901.827 7  89543317.65046  21867394.867                    21867396.977
      -664.652        -517.547          47.400          38.100
 117700445.669 7  91714691.41845  22397660.156                    22397667.559
     -3089.398       -2407.118          45.500          35.100
 18  2 20  8 46  0.0000000  0  8G05G16G07G09G23G30G02G06
 116689468.446 8  90926903.46146  22205275.344                    22205278.129
      2784.227        2169.639          48.700          37.100
 127388404.278 6                  24241213.141
      -878.844                          36.300
 109498050.914 8  85323204.34547  20836791.953                    20836795.508
       863.887         673.436          50.400          42.500
 110365199.892 8  85998929.43747  21001805.992                    21001812.094
     -1979.586       -1542.373          53.800          44.300
 125637798.739 6  97899611.22243  23908085.258                    23908088.266
     -2908.863       -2266.556          38.300          23.800
 112834996.381 8  87923418.13446  21471787.750                    21471794.676
      2524.500        1967.275          50.800          41.400
 114934109.475 7  89559063.85146  21871239.922                    21871242.887
      -682.691        -531.724          47.400          38.100
 117793286.333 7  91787034.77445  22415326.781                    22415334.527
     -3099.937       -2415.440          46.300          35.400
 18  2 20  8 46 30.0000000  0  8G05G16G07G09G23G30G02G06
 116606068.170 8  90861916.24046  22189404.414                    22189407.758
      2775.816        2163.086          49.100          37.000
 127415075.361 6                  24246290.219
      -899.074                          37.000
 109472393.278 8  85303211.38947  20831909.398                    20831913.027
       846.652         659.911          51.100          42.300
 110424723.779 8  86045311.68447  21013133.117                    21013139.008
     -1988.687       -1549.498          52.900          44.500
 125725109.983 6  97967645.89943  23924698.875                    23924702.887
     -2911.793       -2268.939          39.300          21.800
 112759472.590 8  87864568.44647  21457416.227                    21457423.070
      2510.555        1956.447          51.700          42.100
 114954862.026 7  89575234.65846  21875189.563                    21875191.387
      -700.793        -545.832          47.900          38.000
 117886445.403 7  91859626.23546  22433054.445                    22433062.016
     -3110.539       -2423.653          44.900          36.300
 18  2 20  8 47  0.0000000  0  8G05G16G07G09G23G30G02G06
 116522923.534 8  90797128.21146  22173582.367                    22173586.043
      2767.148        2156.327          49.100          37.100
 127442350.712 5  99305772.77942  24251478.633                    24251483.770
      -918.914        -716.064          32.900          16.300
 109447259.270 8  85283626.45747  20827126.539                    20827130.117
       829.039         646.203          50.700          42.000
 110484522.826 8  86091908.33747  21024512.172                    21024518.023
     -1997.922       -1556.717          53.000          43.700
 125812513.200 6  98035752.25543  23941331.430                    23941335.043
     -2915.027       -2271.378          40.100          22.500
 112684367.948 8  87806045.36347  21443124.484                    21443130.949
      2496.453        1945.457          52.600          42.200
 114976159.274 7  89591829.90746  21879242.266                    21879244.016
      -719.008        -560.038          47.100          37.900
 117979920.536 7  91932463.97545  22450842.727                    22450849.750
     -3121.090       -2431.904          45.500          35.500
 18  2 20  8 47 30.0000000  0  8G05G16G07G09G23G30G02G06
 116440036.285 8  90732540.74346  22157809.664                    22157813.359
      2758.555        2149.617          49.500          37.300
 127470229.077 6  99327496.20542  24256783.578                    24256786.766
      -939.324        -731.704          38.700          17.800
 109422648.941 8  85264449.57847  20822443.477                    20822447.414
       811.625         632.616          50.600          42.500
 110544595.436 8  86138718.15847  21035943.805                    21035949.668
     -2007.059       -1563.793          52.700          43.900
 125900007.490 6  98103929.55743  23957981.570                    23957985.086
     -2917.887       -2273.724          39.500          22.300
 112609683.893 8  87747850.01547  21428912.367                    21428918.875
      2482.445        1934.516          52.600          43.000
 114998000.031 7  89608848.67046  21883398.125                    21883400.270
      -737.074        -574.138          47.300          37.600
 118073708.430 7  92005545.42545  22468689.711                    22468697.215
     -3131.398       -2439.978          45.400          35.900
 18  2 20  8 48  0.0000000  0  8G05G16G07G09G23G30G02G06
 116357409.858 8  90668156.50346  22142086.547                    22142089.012
      2749.898        2142.838          49.600          36.600
 127498710.307 6  99349689.31142  24262203.961                    24262206.961
      -959.445        -747.360          37.400          17.400
 109398563.056 8  85245681.35847  20817860.133                    20817863.746
       794.070         618.991          51.000          42.600
 110604940.621 8  86185740.36747  21047427.047                    21047432.684
     -2016.145       -1570.853          52.700          43.900
 125987592.157 6  98172177.30943  23974648.063                    23974651.875
     -2921.105       -2276.110          38.200          21.500
 112535422.542 8  87689984.04347  21414780.898                    21414787.820
      2468.309        1923.522          52.900          43.500
 115020383.780 7  89626290.53946  21887657.750                    21887659.426
      -755.141        -588.224          47.200          37.000
 118167806.383 7  92078868.47246  22486595.930                    22486603.371
     -3141.734       -2447.983          44.600          36.400
 18  2 20  8 48 30.0000000  0  8G05G16G07G09G23G30G02G06
 116275045.188 8  90603976.23246  22126413.203                    22126416.160
      2741.078        2136.063          48.900          36.200
 127527793.175 5  99372351.30642  24267738.328                    24267741.133
      -979.625        -762.965          35.500          17.800
 109375001.601 8  85227321.78547  20813376.664                    20813380.074
       776.570         605.409          51.100          42.700
 110665557.104 8  86232973.98947  21058961.781                    21058967.723
     -2025.102       -1577.848          52.200          43.900
 126075266.374 6  98240494.83143  23991332.578                    23991335.676
     -2923.977       -2278.357          38.100          21.500
 112461585.652 8  87632448.83247  21400730.039                    21400737.234
      2454.066        1912.510          51.900          43.300
 115043309.610 7  89644154.81746  21892019.875                    21892021.523
      -773.199        -602.248          46.700          36.800
 118262211.394 7  92152430.78645  22504560.727                    22504568.117
     -3151.941       -2455.898          45.000          35.300
 18  2 20  8 49  0.0000000  0  8G05G16G07G09G23G30G02G06
 116192944.708 8  90540001.82946  22110789.891                    22110793.508
      2732.152        2129.165          49.700          36.200
 127557476.735 6  99395481.38443  24273385.797                    24273389.008
      -999.520        -778.598          38.300          19.300
 109351965.500 8  85209371.58047  20808993.242                    20808996.617
       759.117         591.751          51.000          42.800
 110726443.995 8  86280418.31747  21070548.328                    21070554.125
     -2034.078       -1584.869          52.500          43.200
 126163029.083 6  98308881.28843  24008033.469                    24008036.656
     -2926.918       -2280.678          39.300          21.100
 112388175.402 8  87575246.06147  21386760.664                    21386767.465
      2439.844        1901.392          52.900          43.200
 115066776.468 7  89662440.66346  21896486.156                    21896487.977
      -791.328        -616.322          47.400          36.300
 118356920.828 7  92226230.31645  22522583.383                    22522591.043
     -3162.113       -2463.788          45.000          35.400
 18  2 20  8 49 30.0000000  0  8G05G16G07G09G23G30G02G06
 116111109.623 8  90476234.23346  22095217.266                    22095219.969
      2723.250        2122.198          48.900          37.200
 127587760.058 6  99419078.73443  24279150.313                    24279152.320
     -1019.504        -794.137          39.000          18.600
 109329454.408 8  85191830.48247  20804709.320                    20804712.516
       741.473         578.065          52.000          42.600
 110787599.899 8  86328072.27147  21082186.039                    21082191.871
     -2043.137       -1591.872          53.000          43.500
 126250879.522 6  98377336.12443  24024750.359                    24024753.945
     -2929.996       -2282.969          39.900          22.500
 112315193.378 8  87518376.98247  21372872.586                    21372879.523
      2425.422        1890.209          51.900          43.300
 115090783.283 7  89681147.25746  21901054.438                    21901056.242
      -809.285        -630.358          47.000          36.600
 118451931.562 7  92300264.62045  22540663.828                    22540670.953
     -3172.129       -2471.614          45.200          35.000
 18  2 20  8 50  0.0000000  0  8G05G16G07G09G23G30G02G06
 116029542.288 8  90412675.26346  22079695.617                    22079698.609
      2714.309        2115.248          49.400          36.800
 127618642.074 6  99443142.66043  24285024.594                    24285029.375
     -1039.715        -809.661          37.500          19.900
 109307468.908 8  85174698.92547  20800525.117                    20800529.047
       723.934         564.445          51.200          42.000
 110849023.644 8  86375934.92747  21093874.484                    21093880.176
     -2052.043       -1598.778          52.800          43.100
 126338817.194 6  98445858.93043  24041485.273                    24041488.172
     -2932.762       -2285.192          40.400          21.700
 112242641.409 8  87461843.00847  21359066.500                    21359072.824
      2411.023        1879.033          52.600          42.900
 115115329.115 7  89700273.87446  21905725.289                    21905727.320
      -827.281        -644.321          47.600          37.000
 118547240.701 7  92374531.45045  22558799.688                    22558807.652
     -3182.066       -2479.281          45.100          34.900
 18  2 20  8 50 30.0000000  0  8G05G16G07G09G23G30G02G06
 115948244.518 8  90349326.35246  22064224.875                    22064228.293
      2705.496        2108.240          49.400          36.900
 127650121.670 6  99467672.22543  24291017.125                    24291019.582
     -1059.168        -825.159          38.700          19.000
 109286009.307 8  85157977.17847  20796441.617                    20796445.566
       706.531         550.777          51.000          42.200
 110910714.184 8  86424005.47447  21105613.898                    21105619.488
     -2060.730       -1605.697          52.700          43.800
 126426841.170 6  98514448.94243  24058234.672                    24058238.016
     -2935.629       -2287.415          39.500          21.700
 112170521.424 8  87405645.62747  21345342.555                    21345349.102
      2396.711        1867.807          51.400          42.600
 115140413.346 7  89719820.00846  21910498.438                    21910500.363
      -845.098        -658.287          47.900          37.600
 118642845.431 7  92449028.61145  22576992.438                    22577000.645
     -3191.758       -2486.943          44.600          34.200
 18  2 20  8 51  0.0000000  0  8G05G16G07G09G23G30G02G06
 115867219.280 8  90286189.79646  22048806.266                    22048809.754
      2696.465        2101.139          49.700          37.100
 127682198.226 6  99492666.87843  24297120.047                    24297123.039
     -1078.684        -840.603          38.100          19.000
 109265075.605 8  85141665.21047  20792457.641                    20792461.820
       689.254         537.150          51.400          42.300
 110972670.136 8  86472282.83847  21117403.516                    21117409.594
     -2069.359       -1612.527          53.600          43.500
 126514950.474 6  98583105.51843  24075001.547                    24075004.941
     -2938.164       -2289.607          38.300          21.800
 112098835.055 8  87349786.13247  21331701.086                    21331707.789
      2382.531        1856.551          51.400          42.100
 115166034.728 7  89739784.71146  21915374.648                    21915376.078
      -862.746        -672.203          47.800          37.700
 118738742.599 7  92523753.65245  22595241.656                    22595249.215
     -3201.215       -2494.471          43.700          34.000
 18  2 20  8 51 30.0000000  0  8G05G16G07G09G23G30G02G06
 115786468.298 8  90223266.96246  22033439.477                    22033443.563
      2687.254        2093.998          49.300          37.600
 127714870.373 6  99518125.73743  24303335.594                    24303340.430
     -1098.687        -856.093          36.700          18.300
 109244668.477 8  85125763.56447  20788574.313                    20788578.184
       671.551         523.438          51.500          42.600
 111034890.648 8  86520766.34847  21129243.828                    21129249.781
     -2078.418       -1619.430          53.200          44.000
 126603144.468 6  98651828.02943  24091783.945                    24091787.941
     -2941.230       -2291.808          39.800          20.900
 112027584.430 8  87294266.18046  21318142.328                    21318148.789
      2367.859        1845.207          50.900          41.700
 115192192.406 8  89760167.30146  21920352.547                    21920353.996
      -880.719        -686.127          48.600          38.600
 118834929.581 7  92598704.51145  22613545.195                    22613552.598
     -3211.051       -2501.974          43.900          34.000
 18  2 20  8 52  0.0000000  0  8G05G16G07G09G23G30G02G06
 115705993.189 8  90160559.09046  22018125.836                    22018129.730
      2677.828        2086.760          49.700          38.000
 127748137.739 6  99544048.36243  24309668.414                    24309670.609
     -1118.805        -871.576          38.000          18.600
 109224787.991 8  85110272.28047  20784791.578                    20784795.297
       653.871         509.731          51.400          42.700
 111097374.423 8  86569454.98847  21141134.055                    21141140.293
     -2087.199       -1626.269          53.300          44.300
 126691422.423 6  98720615.97343  24108584.266                    24108586.383
     -2944.043       -2294.006          40.600          21.100
 111956771.219 8  87239087.06847  21304666.953                    21304673.773
      2353.090        1833.774          52.200          42.200
 115218885.576 8  89780967.15846  21925431.898                    21925433.844
      -898.730        -700.085          49.300          38.500
 118931403.344 7  92673878.84245  22631903.734                    22631911.219
     -3220.621       -2509.424          44.000          33.100
 18  2 20  8 52 30.0000000  0  8G05G16G07G09G23G30G02G06
 115625796.465 8  90098068.14046  22002865.172                    22002869.141
      2668.414        2079.518          49.100          38.600
 127781998.160 6  99570433.08543  24316111.422                    24316114.227
     -1138.543        -886.941          37.800          19.300
 109205434.636 8  85095191.74046  20781108.883                    20781112.395
       636.176         496.063          51.100          41.800
 111160120.452 8  86618347.98947  21153074.109                    21153080.492
     -2096.020       -1633.045          53.000          43.700
 126779783.726 6  98789468.88843  24125398.188                    24125401.867
     -2946.898       -2296.150          40.400          21.500
 111886397.291 8  87184250.26247  21291274.961                    21291281.582
      2338.266        1822.370          50.500          42.000
 115246113.388 8  89802183.60246  21930613.219                    21930614.898
      -916.660        -713.925          49.300          38.400
 119028161.091 7  92749274.45445  22650315.813                    22650323.938
     -3230.121       -2516.742          45.100          33.200
 18  2 20  8 53  0.0000000  0  8G05G16G07G09G23G30G02G06
 115545879.351 8  90035795.07546  21987656.891                    21987661.102
      2659.129        2072.241          50.100          38.400
 127816451.190 5  99597279.59543  24322667.578                    24322670.930
     -1158.273        -902.305          35.200          19.000
 109186608.199 8  85080521.79147  20777526.414                    20777529.781
       618.719         482.376          51.300          42.700
 111223127.473 8  86667444.36547  21165064.188                    21165070.199
     -2104.582       -1639.817          53.200          43.600
 126868227.000 6  98858385.65843  24142228.766                    24142232.012
     -2949.539       -2298.251          40.800          21.100
 111816464.323 8  87129757.07047  21277967.477                    21277973.867
      2323.742        1810.890          50.800          42.000
 115273874.191 8  89823815.39446  21935896.219                    21935897.141
      -934.230        -727.739          49.200          38.800
 119125199.716 7  92824888.92745  22668781.688                    22668789.078
     -3239.297       -2523.983          45.000          33.300
 18  2 20  8 53 30.0000000  0  8G05G16G07G09G23G30G02G06
 115466244.454 8  89973741.91546  21972502.734                    21972506.813
      2649.625        2064.909          49.600          39.200
 127851496.086 6  99624587.29842  24329336.852                    24329338.773
     -1178.137        -917.606          37.800          17.400
 109168309.116 8  85066262.76347  20774044.250                    20774047.645
       601.063         468.704          50.700          42.600
 111286394.446 8  86716743.28447  21177103.422                    21177109.668
     -2113.383       -1646.524          52.700          44.000
 126956751.958 6  98927366.12243  24159074.094                    24159077.609
     -2952.258       -2300.352          41.100          20.100
 111746974.242 8  87075608.97747  21264744.109                    21264750.555
      2308.746        1799.385          50.300          42.300
 115302167.315 8  89845861.97746  21941279.844                    21941281.547
      -952.043        -741.515          48.500          37.700
 119222516.485 7  92900720.14345  22687300.984                    22687307.949
     -3248.684       -2531.157          44.900          33.600
 18  2 20  8 54  0.0000000  0  8G05G16G07G09G23G30G02G06
 115386893.952 8  89911910.35646  21957403.031                    21957407.250
      2640.211        2057.430          49.000          39.200
 127887131.405 6  99652355.08142  24336117.523                    24336119.570
     -1197.773        -933.009          36.600          17.800
 109150537.357 8  85052414.64446  20770662.195                    20770665.859
       583.586         454.957          50.200          41.900
 111349920.105 8  86766243.79547  21189191.703                    21189198.266
     -2121.781       -1653.289          52.900          44.400
 127045357.695 6  98996409.50143  24175934.945                    24175938.051
     -2954.848       -2302.439          41.300          19.600
 111677928.576 8  87021807.18746  21251605.086                    21251611.582
      2294.039        1787.770          51.200          41.800
 115330991.436 7  89868322.32746  21946765.391                    21946766.512
      -969.637        -755.373          47.600          36.700
 119320108.265 7  92976765.64845  22705872.102                    22705878.582
     -3257.641       -2538.304          44.700          33.300
 18  2 20  8 54 30.0000000  0  8G05G16G07G09G23G30G02G06
 115307829.341 8  89850301.57846  21942357.805                    21942361.895
      2630.688        2050.011          49.600          39.900
 127923355.170 6  99680581.41642  24343010.484                    24343013.070
     -1217.258        -948.264          36.600          16.900
 109133293.007 8  85038977.49647  20767380.492                    20767384.520
       566.023         441.281          51.500          42.700
 111413703.274 8  86815944.93947  21201329.500                    21201335.594
     -2130.395       -1659.930          53.000          44.000
 127134043.394 6  99065515.16043  24192812.172                    24192814.738
     -2957.574       -2304.542          41.400          19.600
 111609329.055 8  86968353.04047  21238551.180                    21238557.602
      2279.266        1776.187          51.400          42.500
 115360345.617 7  89891195.70546  21952350.281                    21952352.395
      -987.254        -769.080          46.700          36.500
 119417972.138 7  93053023.17545  22724494.633                    22724501.559
     -3266.609       -2545.294          45.100          32.300
 18  2 20  8 55  0.0000000  0  8G05G16G07G09G23G30G02G06
 115229053.375 8  89788917.72346  21927367.313                    21927371.789
      2621.105        2042.538          49.000          40.000
 127960167.250 6  99709266.10742  24350015.469                    24350017.820
     -1236.738        -963.511          36.700          16.300
 109116576.477 8  85025951.63447  20764200.023                    20764203.363
       548.480         427.611          50.600          42.800
 111477743.034 8  86865846.03547  21213515.969                    21213521.930
     -2138.855       -1666.554          53.100          43.900
 127222808.079 6  99134682.40343  24209702.930                    24209706.043
     -2960.027       -2306.544          40.900          20.100
 111541177.612 8  86915248.04847  21225582.344                    21225588.551
      2264.277        1764.559          52.700          43.000
 115390228.723 7  89914481.24346  21958036.797                    21958038.910
     -1004.836        -782.773          45.800          36.300
 119516105.332 7  93129490.54945  22743168.992                    22743175.906
     -3275.520       -2552.212          45.600          33.200
 18  2 20  8 55 30.0000000  0  8G05G16G07G09G23G30G02G06
 115150567.276 8  89727759.72346  21912431.641                    21912435.777
      2611.344        2034.930          50.100          39.600
 127997565.606 6  99738407.69642  24357132.383                    24357134.508
     -1256.414        -978.747          36.200          17.800
 109100387.758 8  85013337.05947  20761118.867                    20761122.754
       530.758         413.837          51.600          42.700
 111542038.008 8  86915946.00647  21225750.813                    21225757.082
     -2147.461       -1673.203          53.400          43.900
 127311651.430 6  99203910.87943  24226609.508                    24226612.313
     -2962.605       -2308.566          40.900          19.900
 111473475.749 8  86862493.37447  21212699.398                    21212705.188
      2249.180        1752.827          53.200          43.000
 115420639.394 7  89938177.86245  21963823.711                    21963826.043
     -1022.547        -796.515          44.300          35.500
 119614504.722 7  93206165.36045  22761893.258                    22761900.391
     -3284.480       -2559.144          44.700          32.500
 18  2 20  8 56  0.0000000  0  8G05G16G07G09G23G30G02G06
 115072373.859 8  89666829.79746  21897551.680                    21897556.234
      2601.539        2027.304          49.100          39.600
 128035549.776 6  99768005.77242  24364360.719                    24364363.512
     -1275.918        -993.948          37.000          17.800
 109084727.503 8  85001134.27047  20758138.883                    20758142.691
       513.184         400.127          50.500          42.200
 111606587.457 8  86966244.25947  21238034.242                    21238040.484
     -2155.828       -1679.783          53.100          43.600
 127400572.715 6  99273200.13743  24243531.008                    24243533.828
     -2965.355       -2310.586          40.500          19.300
 111406225.481 8  86810090.58547  21199902.023                    21199908.027
      2234.137        1741.083          53.500          43.800
 115451576.506 7  89962284.67445  21969710.969                    21969713.543
     -1040.012        -810.152          44.700          35.800
 119713167.682 7  93283045.53745  22780668.875                    22780675.531
     -3293.207       -2565.958          45.000          33.000
 18  2 20  8 56 30.0000000  0  8G05G16G07G09G23G30G02G06
 114994474.941 8  89606129.34346  21882728.609                    21882732.609
      2591.656        2019.607          50.700          39.500
 128074118.233 6  99798059.10142  24371699.695                    24371702.332
     -1295.434       -1009.137          37.100          15.600
 109069594.890 8  84989342.63347  20755259.453                    20755262.789
       495.520         386.416          51.100          42.500
 111671389.981 8  87016739.71547  21250365.938                    21250372.379
     -2164.371       -1686.373          53.000          43.800
 127489570.934 7  99342549.32543  24260467.977                    24260469.250
     -2967.949       -2312.616          42.600          19.300
 111339428.269 9  86758040.83447  21187190.766                    21187196.961
      2218.977        1729.271          54.100          43.300
 115483038.944 7  89986800.84945  21975698.211                    21975700.738
     -1057.715        -823.846          44.500          35.500
 119812091.061 7  93360128.64545  22799493.086                    22799499.883
     -3301.879       -2572.685          44.800          32.600
 18  2 20  8 57  0.0000000  0  8G05G16G07G09G23G30G02G06
 114916872.681 8  89545660.05346  21867961.313                    21867964.691
      2581.703        2011.890          50.300          39.300
 128113269.708 6  99828566.71942  24379150.359                    24379153.816
     -1314.645       -1024.216          38.900          17.800
 109054990.572 8  84977962.66046  20752480.141                    20752483.684
       477.992         372.711          50.800          41.500
 111736444.679 8  87067431.67647  21262745.492                    21262751.512
     -2172.742       -1692.902          53.200          43.000
 127578645.292 6  99411957.83342  24277416.984                    24277419.344
     -2970.516       -2314.557          41.800          17.800
 111273086.000 8  86706345.57147  21174566.250                    21174572.570
      2203.785        1717.444          53.700          43.800
 115515026.092 7  90011725.88846  21981785.414                    21981787.883
     -1075.055        -837.432          44.800          36.300
 119911271.997 7  93437412.45545  22818366.500                    22818373.449
     -3310.375       -2579.351          44.800          31.400
 18  2 20  8 57 30.0000000  0  8G05G16G07G09G23G30G02G06
 114839569.374 8  89485423.71246  21853250.844                    21853254.645
      2571.688        2004.086          51.000          38.900
 128153002.501 6  99859527.31042  24386710.914                    24386714.289
     -1334.305       -1039.321          38.200          16.300
 109040914.439 8  84966994.25247  20749801.484                    20749805.133
       460.281         358.976          51.600          42.100
 111801750.238 8  87118319.11247  21275172.805                    21275178.848
     -2181.086       -1699.410          52.500          43.200
 127667795.315 6  99481425.29243  24294382.266                    24294384.148
     -2973.176       -2316.554          41.800          20.100
 111207200.133 8  86655005.94247  21162028.398                    21162035.035
      2188.477        1705.556          53.900          43.300
 115547536.043 7  90037058.30446  21987972.055                    21987974.066
     -1092.430        -850.976          44.600          37.500
 120010707.432 7  93514894.56345  22837288.422                    22837295.234
     -3318.836       -2585.923          44.400          31.000
 18  2 20  8 58  0.0000000  0  8G05G16G07G09G23G30G02G06
 114762566.600 8  89425421.55746  21838598.102                    21838601.188
      2561.652        1996.273          50.900          38.400
 128193315.571 6  99890940.07542  24394381.992                    24394386.328
     -1353.531       -1054.347          37.900          16.300
 109027366.324 8  84956437.28146  20747223.234                    20747226.469
       442.738         345.273          50.600          41.500
 111867305.579 8  87169401.18747  21287647.516                    21287653.926
     -2189.352       -1705.862          52.000          43.400
 127757020.126 6  99550951.07343  24311361.195                    24311363.453
     -2975.484       -2318.462          41.600          18.300
 111141772.351 8  86604023.27147  21149577.852                    21149584.184
      2173.172        1693.658          53.800          43.300
 115580567.538 7  90062797.11846  21994258.070                    21994260.082
     -1109.762        -864.511          46.000          37.500
 120110394.463 7  93592572.73145  22856257.945                    22856265.125
     -3327.160       -2592.408          43.900          31.000
 18  2 20  8 58 30.0000000  0  8G05G16G07G09G23G30G02G06
 114685866.783 8  89365655.45646  21824002.344                    21824005.969
      2551.594        1988.374          50.800          38.600
 128234207.628 6  99922803.99642  24402163.805                    24402168.156
     -1372.664       -1069.394          38.900          16.300
 109014346.228 8  84946291.75346  20744745.680                    20744748.824
       425.156         331.535          51.000          41.100
 111933109.543 8  87220677.00047  21300169.367                    21300175.605
     -2197.660       -1712.316          53.100          43.200
 127846318.881 7  99620534.40143  24328354.781                    24328356.590
     -2977.902       -2320.376          42.600          19.000
 111076804.201 8  86553398.75147  21137214.438                    21137221.469
      2157.898        1681.691          53.200          42.700
 115614119.350 7  90088941.35746  22000643.023                    22000644.781
     -1127.109        -878.014          46.100          38.300
 120210330.060 7  93670444.58845  22875275.320                    22875282.023
     -3335.379       -2598.836          44.200          30.600
 18  2 20  8 59  0.0000000  0  8G05G16G07G09G23G30G02G06
 114609471.697 8  89306126.82146  21809464.906                    21809468.297
      2541.395        1980.445          50.300          38.300
 128275676.890 6  99955117.66842  24410054.664                    24410060.598
     -1391.859       -1084.352          38.400          16.300
 109001854.308 8  84936557.80646  20742368.750                    20742371.695
       407.617         317.832          51.500          41.200
 111999161.041 8  87272145.69747  21312738.906                    21312744.711
     -2205.855       -1718.724          52.400          43.300
 127935690.877 6  99690174.87143  24345361.250                    24345363.625
     -2980.293       -2322.249          41.700          19.000
 111012297.424 8  86503133.73247  21124939.219                    21124945.582
      2142.477        1669.688          52.800          42.900
 115648190.308 7  90115490.11446  22007126.234                    22007128.055
     -1144.273        -891.469          46.700          38.100
 120310511.308 7  93748507.85645  22894339.336                    22894346.203
     -3343.508       -2605.198          43.400          31.400
 18  2 20  8 59 30.0000000  0  8G05G16G07G09G23G30G02G06
 114533383.219 8  89246837.10246  21794985.688                    21794988.887
      2530.941        1972.417          51.100          38.100
 128317722.276 6  99987880.21842  24418056.086                    24418061.465
     -1411.344       -1099.342          36.900          16.300
 108989890.397 8  84927235.27946  20740092.117                    20740095.105
       389.820         304.083          51.100          41.500
 112065458.871 8  87323806.33247  21325355.117                    21325360.988
     -2214.137       -1725.141          52.700          43.600
 128025135.191 6  99759871.61143  24362382.727                    24362384.746
     -2982.758       -2324.180          40.500          19.300
 110948253.441 8  86453229.34147  21112752.383                    21112758.277
      2126.934        1657.615          52.500          42.700
 115682778.949 7  90142442.28046  22013708.406                    22013710.195
     -1161.707        -904.930          46.400          37.600
 120410935.119 7  93826760.14445  22913449.031                    22913456.102
     -3351.648       -2611.469          44.000          30.300
                            4  1
RINEX FILE SPLICE; other post-header comments skipped       COMMENT
 18  2 20  9  0  0.0000000  0  8G05G16G07G09G23G30G02G06
 114457603.960 8  89187788.33546  21780565.258                    21780568.387
      2520.797                          51.300          38.700
 128360342.642 6 100021090.92742  24426167.891                    24426172.438
     -1430.254                          37.900          17.400
 108978454.908 8  84918324.50747  20737916.141                    20737919.383
       372.426                          51.400          42.000
 112132002.321 8  87375658.36747  21338017.594                    21338023.668
     -2222.180                          53.400          43.100
 128114651.637 6  99829624.59143  24379417.094                    24379419.301
     -2985.109                          41.100          18.600
 110884674.262 8  86403687.13147  21100653.625                    21100659.594
      2111.504                          52.800          42.400
 115717884.327 7  90169797.08946  22020388.469                    22020390.168
     -1178.789                          46.800          38.100
 120511598.949 7  93905199.44345  22932605.258                    22932611.637
     -3359.402                          44.300          30.200
 18  2 20  9  0 30.0000000  0  8G05G16G07G09G23G30G02G06
 114382135.198 8  89128981.51446  21766204.242                    21766207.121
      2510.426        1956.329          51.200          39.200
 128403536.341 6 100054748.34242  24434386.656                    24434391.605
     -1449.129       -1129.061          37.600          13.900
 108967547.087 8  84909824.90847  20735840.289                    20735842.773
       354.820         276.714          52.500          42.100
 112198789.757 8  87427700.51447  21350726.953                    21350732.961
     -2230.270       -1737.781          52.500          43.000
 128204238.732 6  99899432.61643  24396464.625                    24396467.785
     -2987.328       -2327.796          39.000          20.100
 110821560.933 8  86354507.92647  21088643.688                    21088649.598
      2096.051        1633.472          53.000          42.600
 115753504.544 7  90197553.11846  22027166.438                    22027168.359
     -1195.922        -931.642          46.400          37.900
 120612499.346 7  93983823.08145  22951806.375                    22951812.766
     -3367.230       -2623.719          44.900          31.100
 18  2 20  9  1  0.0000000  0  8G05G16G07G09G23G30G02G06
 114306979.969 8  89070419.01146  21751902.297                    21751905.723
      2500.063        1948.146          51.600          38.800
 128447301.480 6 100088850.95342  24442714.977                    24442720.414
     -1468.094       -1143.940          36.400          15.600
 108957167.181 8  84901736.66847  20733865.078                    20733868.348
       337.391         262.994          51.900          42.400
 112265820.460 8  87479932.22447  21363482.148                    21363488.289
     -2238.219       -1744.094          53.400          43.200
 128293896.414 6  99969295.63443  24413526.328                    24413529.527
     -2989.531       -2329.608          39.200          19.000
 110758915.364 8  86305693.21647  21076722.586                    21076728.086
      2080.625        1621.302          53.000          43.200
 115789638.723 7  90225709.62646  22034043.000                    22034044.527
     -1212.848        -944.972          47.100          37.200
 120713633.621 7  94062628.96945  22971051.367                    22971058.570
     -3374.777       -2629.741          45.200          30.500
 18  2 20  9  1 30.0000000  0  8G05G16G07G09G23G30G02G06
 114232140.001 8  89012102.15446  21737660.836                    21737664.023
      2489.375        1939.936          52.100          38.100
 128491636.689 6 100123397.84542  24451151.852                    24451157.035
     -1487.348       -1158.683          38.200          16.900
 108947314.831 8  84894059.51347  20731990.172                    20731993.383
       319.563         249.310          52.300          42.300
 112333093.151 8  87532352.48347  21376283.930                    21376289.898
     -2246.461       -1750.352          52.100          43.400
 128383623.796 6 100039212.97743  24430600.500                    24430604.359
     -2992.039       -2331.419          39.200          18.600
 110696738.953 8  86257244.08247  21064890.648                    21064896.121
      2064.746        1609.100          53.200          42.700
 115826284.891 7  90254265.07446  22041016.008                    22041017.645
     -1230.039        -958.241          47.400          36.900
 120814998.694 7  94141614.68645  22990340.680                    22990347.141
     -3382.680       -2635.696          45.000          31.600
 18  2 20  9  2  0.0000000  0  8G05G16G07G09G23G30G02G06
 114157616.847 8  88954032.16246  21723479.820                    21723482.711
      2478.848        1931.696          51.900          39.400
 128536540.673 6 100158388.06842  24459696.695                    24459701.988
     -1506.180       -1173.513          37.000          13.900
 108937990.215 8  84886793.58947  20730216.000                    20730219.148
       302.066         235.602          51.600          42.700
 112400606.722 8  87584960.44347  21389131.258                    21389137.258
     -2254.418       -1756.587          52.400          43.100
 128473419.998 6 100109183.96443  24447687.734                    24447692.227
     -2994.516       -2333.215          38.400          19.600
 110635033.228 8  86209161.71747  21053148.500                    21053153.871
      2049.020        1596.838          53.200          42.800
 115863442.021 7  90283218.66446  22048087.250                    22048088.953
     -1246.973        -971.494          47.600          37.300
 120916591.584 7  94220777.92645  23009673.508                    23009679.863
     -3390.195       -2641.585          45.900          32.100
 18  2 20  9  2 30.0000000  0  9G05G16G07G13G09G23G30G02G06
 114083413.220 8  88896211.16646  21709359.164                    21709362.867
      2468.039        1923.337          52.500          40.000
 128582012.241 6 100193820.39242  24468350.164                    24468355.484
     -1525.180       -1188.152          36.300          14.800
 108929193.669 8  84879939.13947  20728541.891                    20728545.336
       284.387         221.860          52.300          42.300
 129672567.718 6 101043593.98843  24675875.141                    24675878.855
      3300.906        2572.213          40.700          20.600
 112468360.389 8  87637755.47947  21402024.781                    21402030.340
     -2262.496       -1762.826          53.400          43.100
 128563284.683 6 100179208.27343  24464788.641                    24464792.719
     -2996.727       -2334.969          37.800          18.300
 110573799.968 8  86161447.51547  21041496.148                    21041501.805
      2033.113        1584.520          52.600          42.600
 115901108.811 7  90312569.41446  22055254.602                    22055256.609
     -1264.031        -984.736          47.500          37.300
 121018409.578 7  94300116.57945  23029048.609                    23029054.953
     -3397.656       -2647.401          45.800          32.400
 18  2 20  9  3  0.0000000  0  9G05G16G07G13G09G23G30G02G06
 114009530.696 8  88838640.37246  21695300.289                    21695303.629
      2457.402        1914.985          52.900          41.000
 128628049.149 6                  24477111.672
     -1544.078                          37.100
 108920923.948 8  84873495.20947  20726968.078                    20726971.563
       266.898         208.200          52.200          42.500
 129573581.620 6 100966462.10243  24657038.945                    24657042.402
      3298.125        2570.025          41.100          18.600
 112536352.648 8  87690736.44447  21414963.531                    21414969.063
     -2270.387       -1768.991          53.000          42.400
 128653216.504 6 100249284.90943  24481901.883                    24481906.906
     -2998.406       -2336.665          37.700          18.600
 110513040.278 8  86114102.33347  21029933.656                    21029939.645
      2017.492        1572.221          53.200          42.200
 115939283.553 8  90342315.96346  22062518.813                    22062520.766
     -1280.965        -997.912          48.100          37.600
 121120449.371 7  94379628.06845  23048466.945                    23048472.965
     -3405.020       -2653.126          45.700          32.300
 18  2 20  9  3 30.0000000  0  9G05G16G07G13G09G23G30G02G06
 113935971.811 8  88781321.77246  21681302.430                    21681305.707
      2446.500        1906.539          52.700          40.800
 128674649.913 5                  24485977.195
     -1562.766                          34.300
 108913181.365 8  84867462.04047  20725494.711                    20725498.086
       249.313         194.490          52.800          42.800
 129474680.406 6 100889396.24243  24638218.086                    24638222.215
      3295.398        2567.782          37.500          19.000
 112604582.628 8  87743902.64947  21427947.047                    21427952.617
     -2278.348       -1775.189          52.500          42.700
 128743215.509 6 100319413.99043  24499028.484                    24499032.977
     -3001.023       -2338.505          37.900          18.600
 110452755.863 8  86067127.47147  21018462.039                    21018467.848
      2001.527        1559.854          53.400          42.400
 115977964.855 7  90372457.23646  22069880.188                    22069881.832
     -1297.805       -1011.061          47.200          37.600
 121222708.134 7  94459310.17545  23067925.320                    23067932.223
     -3412.355       -2658.818          45.300          32.600
 18  2 20  9  4  0.0000000  0  9G05G16G07G13G09G23G30G02G06
 113862738.598 8  88724256.94146  21667366.539                    21667369.922
      2435.578        1898.006          53.200          41.100
 128721812.989 5                  24494951.555
     -1581.488                          34.300
 108905965.984 8  84861839.67247  20724121.844                    20724125.480
       231.648         180.753          52.100          42.100
 129375864.488 6 100812396.85843  24619413.922                    24619418.574
      3292.297        2565.511          37.500          18.600
 112673049.311 8  87797253.29247  21440975.734                    21440981.270
     -2286.195       -1781.351          51.400          43.000
 128833280.543 6 100389594.41443  24516166.492                    24516171.906
     -3003.215       -2340.205          37.000          18.600
 110392948.232 8  86020524.14647  21007080.906                    21007087.223
      1985.594        1547.398          53.100          43.100
 116017151.343 7  90402992.15646  22077337.344                    22077338.875
     -1314.641       -1024.196          46.700          38.600
 121325182.924 7  94539160.61845  23087426.156                    23087432.453
     -3419.441       -2664.406          46.100          32.600
 18  2 20  9  4 30.0000000  0  9G05G16G07G13G09G23G30G02G06
 113789833.198 8  88667447.54446  21653493.039                    21653496.523
      2424.746        1889.508          53.100          41.200
 128769563.301 5                  24504033.813
     -1600.215                          33.700
 108899277.398 8  84856627.79347  20722848.945                    20722852.688
       214.188         167.090          52.800          42.400
 129277135.438 5 100735465.20843  24600625.383                    24600630.965
      3289.500        2563.267          35.700          18.600
 112741751.478 8  87850787.43247  21454049.453                    21454055.203
     -2293.996       -1787.442          52.400          42.600
 128923410.885 5 100459825.82442  24533317.516                    24533323.090
     -3005.461       -2341.906          35.700          17.800
 110333618.753 8  85974293.40247  20995790.945                    20995797.449
      1969.688        1534.980          52.700          42.700
 116056841.229 7  90433919.34546  22084890.273                    22084892.039
     -1331.422       -1037.247          47.500          38.800
 121427870.751 7  94619177.06245  23106966.781                    23106973.535
     -3426.418       -2669.897          46.100          33.100
 18  2 20  9  5  0.0000000  0  9G05G16G07G13G09G23G30G02G06
 113717257.517 8  88610895.06446  21639682.367                    21639685.844
      2413.605        1880.924          53.000          41.500
 128817847.026 5                  24513221.609
     -1619.105                          32.400
 108893115.578 8  84851826.37447  20721676.266                    20721680.246
       196.578         153.431          51.600          43.400
 129178494.195 6 100658601.89542  24581854.555                    24581859.340
      3286.625        2561.047          36.000          17.400
 112810688.385 8  87904504.49246  21467167.492                    21467173.031
     -2301.898       -1793.524          52.500          41.800
 129013606.254 5 100530107.81643  24550481.875                    24550486.980
     -3007.703       -2343.504          34.800          18.300
 110274769.190 8  85928436.60847  20984592.047                    20984598.500
      1953.543        1522.514          53.200          43.200
 116097033.325 7  90465237.87446  22092538.648                    22092540.328
     -1348.195       -1050.266          47.700          38.300
 121530768.900 7  94699357.38845  23126548.500                    23126554.480
     -3433.559       -2675.312          46.700          33.200
 18  2 20  9  5 30.0000000  0  9G05G16G07G13G09G23G30G02G06
 113645013.457 8  88554601.00046  21625934.727                    21625938.359
      2402.629        1872.285          53.700          41.300
 128866687.518 4                  24522514.281
     -1637.617                          28.900
 108887479.614 8  84847434.71147  20720603.867                    20720607.938
       179.156         139.786          51.900          42.500
 129079940.708 5 100581807.01542  24563099.953                    24563105.559
      3283.746        2558.697          34.600          16.900
 112879858.387 8  87958403.17947  21480330.320                    21480335.840
     -2309.590       -1799.547          51.000          42.500
 129103865.558 5 100600439.70142  24567657.672                    24567662.750
     -3009.789       -2345.179          34.300          16.900
 110216400.363 8  85882954.41547  20973485.148                    20973491.539
      1937.625        1510.015          52.900          43.600
 116137725.604 7  90496946.12446  22100282.391                    22100284.102
     -1364.727       -1063.222          45.900          38.000
 121633873.776 7  94779698.79745  23146168.430                    23146174.762
     -3440.199       -2680.617          46.500          32.200
 18  2 20  9  6  0.0000000  0  9G05G16G07G13G09G23G30G02G06
 113573102.806 8  88498566.72246  21612250.742                    21612254.078
      2391.430        1863.606          53.300          41.600
 128916083.734 5                  24531916.922
     -1655.848                          32.900
 108882369.471 8  84843452.78047  20719631.313                    20719635.402
       161.508         126.114          51.600          42.600
 128981475.707 6 100505081.04642  24544363.719                    24544368.793
      3280.617        2556.372          36.700          16.300
 112949260.451 8  88012482.70747  21493537.188                    21493542.602
     -2317.242       -1805.565          51.800          42.300
 129194187.707 5 100670820.51642  24584844.906                    24584850.332
     -3011.785       -2346.810          35.500          17.400
 110158513.728 8  85837847.96347  20962469.625                    20962476.258
      1921.457        1497.469          53.500          43.600
 116178916.350 7  90529042.80446  22108119.930                    22108122.230
     -1381.305       -1076.146          46.400          38.300
 121737182.524 7  94860199.07545  23165827.406                    23165833.996
     -3447.059       -2685.880          45.800          32.800
 18  2 20  9  6 30.0000000  0  9G05G16G07G13G09G23G30G02G06
 113501528.222 8  88442794.32046  21598630.539                    21598634.336
      2380.250        1854.867          52.800          41.400
 128966033.874 5                  24541421.258
     -1674.273                          31.500
 108877785.526 8  84839880.87247  20718759.133                    20718763.273
       144.090         112.487          51.500          42.600
 128883100.616 5 100428425.13542  24525643.828                    24525648.691
      3277.762        2554.069          32.600          16.900
 113018893.802 8  88066742.44847  21506787.836                    21506793.516
     -2324.906       -1811.536          50.700          42.300
 129284572.516 5 100741250.20542  24602044.508                    24602049.582
     -3013.832       -2348.432          34.200          17.400
 110101110.979 8  85793118.57247  20951546.313                    20951552.867
      1905.391        1484.907          53.400          43.900
 116220604.566 7  90561527.12246  22116053.039                    22116055.332
     -1397.816       -1089.034          45.200          38.300
 121840692.426 7  94940856.10345  23185524.953                    23185531.824
     -3453.578       -2691.058          45.500          32.400
 18  2 20  9  7  0.0000000  0  9G05G16G07G13G09G23G30G02G06
 113430291.627 8  88387285.29446  21585074.570                    21585078.125
      2368.902        1846.049          52.600          41.300
 129016536.084 5                  24551031.648
     -1692.684                          30.500
 108873726.630 8  84836718.09447  20717986.727                    20717990.207
       126.617          98.857          51.400          42.600
 128784815.781 6 100351839.50642  24506940.695                    24506945.523
      3274.629        2551.734          37.100          17.400
 113088757.155 8  88121181.42046  21520082.602                    21520087.895
     -2332.562       -1817.499          51.600          41.600
 129375019.066 6 100811727.92442  24619256.484                    24619260.902
     -3015.699       -2350.030          36.300          16.300
 110044193.268 8  85748767.11847  20940715.242                    20940721.355
      1889.215        1472.297          53.000          43.300
 116262788.298 7  90594397.55446  22124080.266                    22124082.391
     -1414.332       -1101.876          45.800          37.900
 121944400.323 7  95021667.40945  23205259.539                    23205266.563
     -3460.215       -2696.188          46.000          32.500
 18  2 20  9  7 30.0000000  0  9G05G16G07G13G09G23G30G02G06
 113359394.698 8  88332040.93946  21571583.484                    21571586.727
      2357.457        1837.156          52.600          40.700
 129067588.846 5                  24560749.063
     -1711.000                          30.800
 108870192.295 8  84833964.06047  20717314.266                    20717318.473
       109.016          85.202          51.300          42.900
 128686621.628 5 100275324.66842  24488256.063                    24488260.387
      3271.461        2549.313          35.000          17.400
 113158849.267 8  88175798.62546  21533420.570                    21533426.109
     -2340.371       -1823.464          51.000          41.500
 129465526.480 6 100882253.08142  24636479.375                    24636483.441
     -3018.129       -2351.629          36.500          17.400
 109987761.802 8  85704794.55947  20929976.828                    20929982.813
      1872.832        1459.596          53.100          44.100
 116305465.778 7  90627652.73046  22132201.453                    22132203.516
     -1430.883       -1114.712          45.100          37.200
 122048303.014 7  95102630.50845  23225031.695                    23225038.930
     -3466.801       -2701.240          46.400          33.000
 18  2 20  9  8  0.0000000  0  8G05G07G13G09G23G30G02G06
 113288839.784 8  88277063.08146  21558156.953                    21558160.172
      2346.098        1828.303          52.100          40.400
 108867182.892 8  84831619.07347  20716741.539                    20716745.734
        91.512          71.589          51.100          42.500
 128588519.960 6 100198881.76042  24469587.031                    24469591.441
      3268.426        2546.948          36.900          17.800
 113229169.487 8  88230593.58646  21546801.805                    21546807.305
     -2347.812       -1829.336          50.900          41.000
 129556094.641 6 100952825.63642  24653713.375                    24653718.203
     -3020.086       -2353.185          36.800          16.900
 109931818.284 8  85661202.21647  20919330.945                    20919337.230
      1856.543        1446.951          52.800          44.300
 116348635.745 7  90661291.66746  22140415.953                    22140418.219
     -1447.266       -1127.476          45.200          36.900
 122152397.923 7  95183743.39245  23244840.297                    23244847.574
     -3473.105       -2706.144          45.400          33.100
 18  2 20  9  8 30.0000000  0  8G05G07G13G09G23G30G02G06
 113218628.960 8  88222353.34246  21544796.336                    21544799.672
      2334.551        1819.292          52.900          40.700
 108864697.981 8  84829682.78347  20716268.680                    20716272.969
        73.984          57.943          51.800          42.600
 128490510.757 5 100122510.97642  24450937.125                    24450941.094
      3265.551        2544.466          34.200          16.900
 113299716.758 8  88285565.46746  21560226.844                    21560232.340
     -2355.379       -1835.242          51.300          41.600
 129646722.740 6 101023444.81842  24670959.922                    24670963.531
     -3021.965       -2354.744          37.100          17.400
 109876364.091 8  85617991.16647  20908778.430                    20908784.344
      1840.309        1434.206          52.700          43.600
 116392296.549 7  90695313.04646  22148724.430                    22148726.242
     -1463.641       -1140.213          45.200          36.300
 122256682.125 7  95265003.77145  23264684.375                    23264692.418
     -3479.293       -2711.057          44.600          33.000
 18  2 20  9  9  0.0000000  0  7G05G07G13G09G30G02G06
 113148764.611 8  88167913.58546  21531501.766                    21531504.676
      2323.102        1810.308          52.500          40.600
 108862737.128 8  84828154.85247  20715895.648                    20715899.512
        56.660          44.379          52.000          42.600
 128392595.324 6 100046213.17943  24432304.922                    24432307.926
      3262.262        2542.074          38.600          18.300
 113370489.875 8  88340713.33646  21573694.453                    21573700.063
     -2362.793       -1841.078          52.000          41.500
 109821400.378 8  85575162.31747  20898319.500                    20898325.645
      1823.988        1421.477          52.900          44.300
 116436446.126 7  90729715.28345  22157126.563                    22157127.539
     -1479.871       -1152.852          46.000          35.700
 122361152.445 7  95346409.17645  23284564.523                    23284572.457
     -3485.262       -2715.823          44.500          32.400
 18  2 20  9  9 30.0000000  0  7G05G07G13G09G30G02G06
 113079248.165 8  88113744.92646  21518273.133                    21518276.344
      2311.297        1801.201          52.800          40.600
 108861299.208 8  84827034.40547  20715621.625                    20715625.645
        39.117          30.743          52.200          42.600
 128294773.129 6  99969988.18143  24413689.547                    24413692.895
      3259.043        2539.603          38.400          18.300
 113441487.202 8  88396035.89647  21587204.828                    21587210.570
     -2370.344       -1846.923          52.700          42.300
 109766927.895 8  85532716.24547  20887953.383                    20887959.793
      1807.508        1408.669          52.600          44.300
 116481082.343 7  90764496.71945  22165620.570                    22165621.496
     -1496.039       -1165.502          46.400          35.400
 122465805.329 7  95427956.84545  23304479.320                    23304487.293
     -3491.508       -2720.540          44.900          33.200
 18  2 20  9 10  0.0000000  0  7G05G07G13G09G30G02G06
 113010082.117 8  88059849.30146  21505111.422                    21505114.723
      2299.668        1792.138          52.400          40.200
 108860384.189 8  84826321.40847  20715447.469                    20715451.234
        21.785          17.239          51.900          42.400
 128197046.465 6  99893837.54743  24395091.672                    24395096.645
      3255.895        2537.170          37.600          19.600
 113512708.215 8  88451532.77046  21600757.859                    21600763.621
     -2377.762       -1852.670          52.100          41.700
 109712948.392 8  85490654.31247  20877681.398                    20877687.648
      1791.156        1395.902          52.500          43.900
 116526203.733 7  90799656.20145  22174206.648                    22174207.867
     -1512.145       -1178.024          44.800          34.100
 122570638.369 7  95509644.87945  23324428.539                    23324436.746
     -3497.449       -2725.141          43.900          32.500
 18  2 20  9 10 30.0000000  0  7G05G07G13G09G30G02G06
 112941268.697 8  88006228.46146  21492016.305                    21492019.844
      2287.840        1782.911          52.300          40.400
 108859992.289 8  84826016.03847  20715373.086                    20715376.559
         4.355           3.600          52.500          42.200
 128099415.531 6  99817761.58542  24376513.539                    24376517.168
      3252.813        2534.617          40.400          17.800
 113584152.290 8  88507203.46447  21614353.000                    21614358.852
     -2385.180       -1858.493          51.900          42.100
 109659463.585 8  85448977.85547  20867503.320                    20867509.832
      1774.578        1382.978          52.000          44.400
 116571809.095 7  90835192.80745  22182884.938                    22182886.023
     -1528.266       -1190.636          45.700          34.400
 122675648.951 7  95591471.26245  23344411.195                    23344419.684
     -3503.312       -2729.769          43.600          32.400
 18  2 20  9 11  0.0000000  0  7G05G07G13G09G30G02G06
 112872809.082 8  87952883.31946  21478989.078                    21478992.543
      2276.105        1773.715          52.300          40.500
 108860122.277 8  84826117.34046  20715397.852                    20715401.434
       -12.969          -9.903          52.100          41.600
 128001881.157 6  99741760.72942  24357952.984                    24357956.500
      3249.660        2532.169          38.900          17.800
 113655817.742 8  88563046.65047  21627990.625                    21627996.434
     -2392.469       -1864.188          52.000          42.200
 109606474.062 8  85407687.32847  20857419.969                    20857425.992
      1758.176        1370.139          52.700          44.800
 116617896.858 7  90871105.31945  22191655.273                    22191656.391
     -1544.301       -1203.117          45.500          34.400
 122780833.470 6  95673433.16645  23364427.117                    23364435.980
     -3508.957       -2734.205          41.500          32.100
 18  2 20  9 11 30.0000000  0  7G05G07G13G09G30G02G06
 112804706.256 8  87899816.19146  21466029.617                    21466033.000
      2264.227        1764.430          52.300          41.100
 108860774.437 8  84826625.52047  20715521.992                    20715525.309
       -30.352         -23.449          51.700          42.000
 127904444.618 7  99665836.16543  24339411.977                    24339414.742
      3246.449        2529.631          42.700          20.900
 113727704.120 8  88619061.98347  21641669.852                    21641676.266
     -2399.789       -1869.904          52.000          42.600
 109553981.660 8  85366784.15947  20847431.055                    20847437.230
      1741.531        1357.233          52.500          44.900
 116664465.233 7  90907392.33445  22200517.039                    22200518.285
     -1560.172       -1215.544          45.500          33.800
 122886189.562 7  95755528.77045  23384475.867                    23384484.320
     -3514.660       -2738.628          42.900          32.000
 18  2 20  9 12  0.0000000  0  7G05G07G13G09G30G02G06
 112736962.563 8  87847028.90046  21453138.250                    21453141.785
      2252.141        1755.073          52.900          41.000
 108861948.219 8  84827540.16847  20715745.055                    20715748.805
       -47.789         -37.022          52.200          42.400
 127807106.173 6  99589988.04043  24320888.563                    24320892.270
      3242.770        2527.021          40.200          20.400
 113799810.105 8  88675248.45047  21655391.258                    21655398.105
     -2407.184       -1875.625          51.900          42.300
 109501987.345 8  85326269.12347  20837536.914                    20837542.820
      1724.852        1344.248          52.500          45.000
 116711511.924 7  90944052.09645  22209469.500                    22209470.906
     -1576.156       -1227.958          45.900          34.500
 122991713.983 7  95837755.54145  23404556.352                    23404565.082
     -3520.227       -2742.992          43.400          32.400
 18  2 20  9 12 30.0000000  0  7G05G07G13G09G30G02G06
 112669579.813 8  87794522.86446  21440316.023                    21440319.551
      2240.055        1745.684          52.500          41.400
 108863643.249 8  84828860.98047  20716068.063                    20716071.406
       -65.168         -50.541          51.300          42.200
 127709866.883 7  99514217.22843  24302384.641                    24302388.676
      3239.625        2524.497          43.200          22.300
 113872134.913 8  88731605.41947  21669154.195                    21669160.656
     -2414.457       -1881.275          52.100          42.400
 109450492.509 8  85286143.28647  20827737.766                    20827743.656
      1708.141        1331.289          51.900          45.100
 116759035.453 7  90981083.40145  22218513.016                    22218514.328
     -1592.109       -1240.329          46.700          34.700
 123097403.937 7  95920111.28945  23424668.898                    23424677.410
     -3525.812       -2747.233          43.400          31.500
 18  2 20  9 13  0.0000000  0  7G05G07G13G09G30G02G06
 112602559.606 8  87742299.33146  21427562.336                    21427566.270
      2227.957        1736.225          52.800          41.500
 108865858.692 8  84830587.30947  20716489.594                    20716493.039
       -82.559         -64.059          51.900          42.100
 127612727.606 6  99438524.28243  24283899.914                    24283903.941
      3236.328        2521.853          41.800          21.500
 113944677.288 8  88788131.92547  21682958.664                    21682965.477
     -2421.738       -1886.946          51.700          42.100
 109399498.155 8  85246407.43947  20818033.711                    20818040.273
      1691.465        1318.240          51.900          45.000
 116807034.120 7  91018484.94945  22227646.867                    22227648.547
     -1607.902       -1252.656          46.300          35.500
 123203256.292 7  96002593.59745  23444811.727                    23444820.352
     -3531.172       -2751.424          43.400          30.500
 18  2 20  9 13 30.0000000  0  7G05G07G13G09G30G02G06
 112535904.611 8  87690360.38546  21414878.352                    21414882.109
      2215.738        1726.724          52.700          41.800
 108868594.014 8  84832718.74147  20717010.344                    20717013.523
       -99.785         -77.524          52.700          42.900
 127515689.015 7  99362909.83443  24265434.898                    24265437.988
      3232.879        2519.246          43.500          21.500
 114017436.340 8  88844827.27147  21696804.273                    21696811.008
     -2428.859       -1892.514          51.200          42.400
 109349005.524 8  85207062.54747  20808425.344                    20808431.539
      1674.707        1305.221          51.800          45.100
 116855505.743 7  91056255.00345  22236870.813                    22236872.918
     -1623.555       -1264.899          47.300          35.400
 123309268.180 7  96085200.20044  23464984.680                    23464993.855
     -3536.332       -2755.508          42.800          29.900
 18  2 20  9 14  0.0000000  0  7G05G07G13G09G30G02G06
 112469616.908 8  87638707.64046  21402264.383                    21402267.883
      2203.410        1717.116          53.000          41.600
 108871849.022 8  84835255.12047  20717629.828                    20717632.988
      -117.254         -91.089          52.900          42.700
 127418752.224 7  99287374.67043  24246988.289                    24246991.094
      3229.520        2516.542          42.000          22.000
 114090411.194 8  88901690.77547  21710690.789                    21710697.359
     -2436.094       -1898.160          50.100          42.100
 109299015.995 8  85168109.67747  20798912.672                    20798918.926
      1657.875        1292.081          51.700          45.100
 116904448.902 7  91094392.48045  22246184.453                    22246186.684
     -1639.297       -1277.175          47.600          35.200
 123415436.816 7  96167928.94045  23485188.500                    23485197.125
     -3541.625       -2759.586          43.500          30.200
 18  2 20  9 14 30.0000000  0  7G05G07G13G09G30G02G06
 112403697.182 8  87587341.62546  21389719.844                    21389723.953
      2191.234        1707.549          51.900          41.000
 108875622.441 8  84838195.44947  20718347.461                    20718351.227
      -134.332        -104.508          52.100          42.600
 127321917.246 7  99211918.86643  24228560.727                    24228564.324
      3226.203        2513.903          42.300          23.000
 114163600.331 8  88958721.25146  21724618.086                    21724624.523
     -2443.180       -1903.696          49.600          41.100
 109249530.170 8  85129549.30447  20789495.719                    20789501.828
      1641.195        1279.012          50.900          44.600
 116953861.179 7  91132895.51046  22255587.727                    22255589.840
     -1654.816       -1289.288          46.600          36.900
 123521758.701 7  96250777.09444  23505421.039                    23505429.340
     -3546.598       -2763.501          43.800          29.300
 18  2 20  9 15  0.0000000  0  7G05G07G13G09G30G02G06
 112338149.560 8  87536265.56646  21377246.430                    21377250.578
      2178.719        1697.888          52.900          41.100
 108879914.427 8  84841539.86046  20719164.445                    20719167.891
      -151.695        -117.945          52.200          41.800
 127225184.618 6  99136542.85643  24210153.922                    24210157.113
      3222.695        2511.230          41.600          22.600
 114237003.246 8  89015918.31846  21738586.313                    21738592.715
     -2450.352       -1909.222          51.200          40.900
 109200549.687 8  85091382.71147  20780175.031                    20780180.969
      1624.285        1265.894          52.300          45.100
 117003741.136 7  91171762.99146  22265079.195                    22265081.477
     -1670.461       -1301.426          47.600          36.400
 123628231.393 7  96333742.78344  23525681.867                    23525690.219
     -3551.496       -2767.340          43.700          29.000
 18  2 20  9 15 30.0000000  0  7G05G07G13G09G30G02G06
 112272974.758 8  87485480.00746  21364844.172                    21364847.980
      2166.266        1688.165          52.500          41.400
 108884723.653 8  84845287.31247  20720079.313                    20720082.895
      -168.937        -131.394          52.200          42.700
 127128556.647 7  99061248.31843  24191765.633                    24191769.246
      3219.121        2508.511          42.300          23.300
 114310618.482 8  89073280.81746  21752594.734                    21752600.820
     -2457.426       -1914.726          50.700          40.600
 109152075.203 8  85053610.38947  20770950.641                    20770956.824
      1607.383        1252.738          53.600          45.300
 117054086.572 7  91210993.18346  22274659.703                    22274661.594
     -1685.898       -1313.484          46.000          36.400
 123734851.540 7  96416823.38144  23545971.398                    23545979.445
     -3556.449       -2771.168          43.800          28.400
 18  2 20  9 16  0.0000000  0  7G05G07G13G09G30G02G06
 112208174.945 8  87434986.65046  21352513.039                    21352517.133
      2153.762        1678.385          52.400          41.600
 108890049.566 8  84849437.37746  20721092.828                    20721096.309
      -186.098        -144.826          51.900          41.800
 127032032.931 6  98986035.08843  24173397.813                    24173401.109
      3215.734        2505.805          41.200          22.800
 114384444.889 8  89130807.86846  21766643.531                    21766649.223
     -2464.367       -1920.214          50.300          40.100
 109104107.666 8  85016233.10447  20761822.383                    20761828.688
      1590.438        1239.536          51.800          44.500
 117104895.223 7  91250584.32345  22284328.172                    22284330.230
     -1701.340       -1325.517          46.300          35.500
 123841615.941 7  96500016.37844  23566287.602                    23566295.938
     -3561.148       -2774.888          42.900          28.900
 18  2 20  9 16 30.0000000  0  7G05G07G13G09G30G02G06
 112143752.326 8  87384787.20646  21340253.773                    21340257.758
      2141.137        1668.559          52.600          40.900
 108895891.816 8  84853989.78146  20722204.219                    20722208.215
      -203.359        -158.219          52.100          41.500
 126935614.228 7  98910903.62144  24155049.547                    24155053.238
      3212.207        2503.042          43.800          24.800
 114458481.642 8  89188498.81846  21780732.125                    21780737.430
     -2471.344       -1925.669          49.900          39.100
 109056648.363 8  84979251.83147  20752791.438                    20752797.332
      1573.555        1226.322          51.300          44.800
 117156165.324 7  91290535.01946  22294084.070                    22294086.066
     -1716.707       -1337.462          45.300          36.000
 123948521.875 7  96583319.64344  23586631.219                    23586639.535
     -3565.824       -2778.521          42.600          29.300
 18  2 20  9 17  0.0000000  0  7G05G07G13G09G30G02G06
 112079709.570 8  87334883.76446  21328066.664                    21328070.668
      2128.289        1658.662          52.300          41.100
 108902250.703 8  84858944.77047  20723414.188                    20723418.367
      -220.641        -171.641          52.200          42.200
 126839302.047 6  98835855.24744  24136722.648                    24136725.703
      3208.598        2500.278          41.900          25.000
 114532728.422 8  89246353.43446  21794860.875                    21794866.117
     -2478.477       -1931.117          50.700          39.800
 109009698.998 8  84942667.91547  20743857.500                    20743863.457
      1556.367        1213.049          53.000          45.200
 117207895.584 7  91330844.28045  22303928.070                    22303930.023
     -1732.102       -1349.399          44.600          34.800
 124055567.059 7  96666731.43944  23607001.055                    23607009.352
     -3570.480       -2782.109          43.600          28.900
 18  2 20  9 17 30.0000000  0  7G05G07G13G09G30G02G06
 112016047.449 8  87285276.91246  21315952.445                    21315955.734
      2115.715        1648.760          53.000          41.300
 108909124.013 8  84864300.60447  20724722.117                    20724726.383
      -237.602        -184.979          52.300          42.000
 126743096.378 7  98760889.78644  24118414.234                    24118418.676
      3205.129        2497.509          42.600          24.700
 114607183.213 8  89304370.12646  21809029.469                    21809034.684
     -2485.250       -1936.504          50.800          39.300
 108963259.535 8  84906481.32647  20735020.148                    20735026.352
      1539.551        1199.816          53.300          44.700
 117260083.137 7  91371509.87645  22313859.133                    22313860.641
     -1747.113       -1361.245          43.900          35.300
 124162747.534 7  96750248.64344  23627396.992                    23627404.785
     -3574.812       -2785.574          42.000          28.900
 18  2 20  9 18  0.0000000  0  7G05G07G13G09G30G02G06
 111952768.901 8  87235968.95146  21303910.609                    21303914.762
      2102.781        1638.797          52.900          41.600
 108916511.704 8  84870057.25047  20726128.078                    20726132.039
      -254.949        -198.316          52.300          42.300
 126646998.092 7  98686008.07244  24100128.172                    24100131.578
      3201.359        2494.727          42.300          24.700
 114681845.423 8  89362548.44746  21823237.133                    21823242.641
     -2492.328       -1941.846          51.200          38.300
 108917331.465 8  84870693.23447  20726280.344                    20726286.227
      1522.324        1186.546          53.700          44.500
 117312726.509 7  91412530.66145  22323876.688                    22323878.156
     -1762.426       -1373.035          44.100          34.000
 124270060.728 7  96833869.27044  23647818.398                    23647826.258
     -3579.367       -2788.964          42.900          29.200
 18  2 20  9 18 30.0000000  0  7G05G07G13G09G30G02G06
 111889875.343 8  87186960.97746  21291942.742                    21291946.961
      2090.004        1628.747          52.500          41.800
 108924412.960 8  84876214.08047  20727631.625                    20727635.648
      -271.926        -211.667          51.900          42.200
 126551008.365 6  98611210.88643  24081861.109                    24081864.988
      3197.848        2491.878          41.300          23.800
 114756713.913 8  89420887.51046  21837484.430                    21837489.367
     -2498.949       -1947.204          51.900          38.900
 108871915.621 8  84835304.27547  20717638.023                    20717643.824
      1505.328        1173.196          53.500          44.300
 117365823.373 7  91453904.80745  22333981.055                    22333982.098
     -1777.402       -1384.796          45.200          34.300
 124377503.584 6  96917590.94444  23668263.672                    23668272.105
     -3583.551       -2792.316          41.800          29.700
 18  2 20  9 19  0.0000000  0  7G05G07G13G09G30G02G06
 111827368.920 8  87138254.67246  21280048.055                    21280051.734
      2077.063        1618.657          52.100          41.800
 108932827.011 8  84882770.48047  20729232.813                    20729236.641
      -289.023        -224.990          52.000          42.100
 126455127.656 6  98536498.68144  24063616.320                    24063619.270
      3194.125        2489.002          41.400          24.400
 114831787.621 8  89479386.48046  21851769.820                    21851775.094
     -2505.918       -1952.540          50.300          38.800
 108827012.950 8  84800315.18547  20709093.547                    20709098.902
      1488.215        1159.842          53.800          44.100
 117419371.640 7  91495630.70645  22344171.141                    22344171.867
     -1792.496       -1396.521          45.500          34.300
 124485073.015 7  97001411.22844  23688733.109                    23688741.887
     -3587.781       -2795.581          42.700          28.900
 18  2 20  9 19 30.0000000  0  7G05G07G13G09G30G02G06
 111765252.176 8  87089852.01246  21268227.555                    21268231.375
      2063.973        1608.479          52.500          41.600
 108941753.342 8  84889726.06047  20730931.617                    20730935.211
      -306.133        -238.304          52.100          42.100
 126359356.471 6  98461871.78444  24045391.039                    24045394.738
      3190.293        2486.150          41.500          25.000
 114907065.827 8  89538044.79046  21866095.234                    21866100.645
     -2512.773       -1957.860          51.000          38.900
 108782624.619 9  84765726.89447  20700646.547                    20700652.309
      1470.961        1146.453          54.300          44.600
 117473369.552 7  91537706.95945  22354446.563                    22354447.441
     -1807.496       -1408.199          45.400          34.700
 124592766.428 6  97085328.14244  23709227.211                    23709235.008
     -3591.785       -2798.781          41.700          28.400
 18  2 20  9 20  0.0000000  0  7G05G07G13G09G30G02G06
 111703526.926 8  87041754.40246  21256481.836                    21256485.629
      2050.980        1598.296          52.100          41.800
 108951190.844 8  84897079.96047  20732727.836                    20732731.188
      -323.187        -251.587          52.100          42.400
 126263695.826 7  98387331.08444  24027188.102                    24027191.625
      3186.734        2483.268          43.100          25.400
 114982547.243 8  89596861.46546  21880458.633                    21880464.102
     -2519.434       -1963.134          49.700          39.000
 108738751.368 8  84731539.96047  20692297.742                    20692303.609
      1453.785        1133.059          53.500          44.600
 117527814.798 7  91580131.79745  22364806.813                    22364808.277
     -1822.340       -1419.778          45.700          34.600
 124700580.606 6  97169339.15444  23729743.688                    23729751.719
     -3595.824       -2801.882          41.300          29.100
 18  2 20  9 20 30.0000000  0  7G05G07G13G09G30G02G06
 111642194.913 8  86993963.22246  21244810.648                    21244814.293
      2037.809        1588.054          51.800          41.400
 108961138.974 8  84904831.73747  20734620.648                    20734624.047
      -340.102        -264.824          52.500          42.800
 126168146.740 7  98312877.27644  24009004.406                    24009008.629
      3183.070        2480.358          42.100          25.700
 115058231.024 8  89655835.80346  21894860.734                    21894866.801
     -2526.191       -1968.361          50.100          39.200
 108695394.127 8  84697755.11547  20684047.148                    20684052.949
      1436.598        1119.657          53.100          45.000
 117582705.511 7  91622903.76045  22375253.023                    22375253.641
     -1837.082       -1431.330          45.500          35.100
 124808512.515 6  97253441.91844  23750282.305                    23750290.762
     -3599.633       -2804.876          41.400          29.700
 18  2 20  9 21  0.0000000  0  7G05G07G13G09G30G02G06
 111581257.717 8  86946479.69046  21233214.805                    21233218.574
      2024.543        1577.759          52.100          41.700
 108971596.817 8  84912980.69547  20736610.602                    20736613.898
      -357.191        -278.070          52.300          42.800
 126072709.715 7  98238510.78744  23990843.773                    23990847.980
      3179.145        2477.431          43.000          27.200
 115134115.772 8  89714966.75846  21909301.508                    21909307.309
     -2532.898       -1973.589          49.500          39.400
 108652553.565 8  84664372.86847  20675894.805                    20675900.781
      1419.309        1106.196          52.600          44.900
 117638039.047 7  91666020.77645  22385782.227                    22385783.547
     -1851.941       -1442.818          45.100          34.800
 124916559.063 7  97337633.99544  23770843.070                    23770851.238
     -3603.586       -2807.888          43.900          29.400
 18  2 20  9 21 30.0000000  0  7G05G07G13G09G30G02G06
 111520718.075 8  86899305.94146  21221694.250                    21221697.887
      2011.281        1567.421          52.100          41.700
 108982563.903 8  84921526.47247  20738697.781                    20738700.996
      -374.121        -291.283          52.900          42.200
 125977385.645 7  98164232.34244  23972704.563                    23972708.543
      3175.441        2474.489          42.500          25.400
 115210201.127 8  89774254.02046  21923779.531                    21923785.934
     -2539.578       -1978.785          48.500          39.300
 108610231.062 8  84631394.30147  20667841.133                    20667846.887
      1402.031        1092.737          52.100          44.800
 117693814.003 7  91709481.76745  22396395.586                    22396397.215
     -1866.605       -1454.262          45.500          34.400
 125024717.768 7  97421913.46744  23791424.609                    23791433.414
     -3607.309       -2810.718          42.900          29.100
 18  2 20  9 22  0.0000000  0  7G05G07G13G09G30G02G06
 111460577.905 8  86852443.47146  21210249.766                    21210253.797
      1997.992        1557.051          51.600          41.300
 108994039.299 8  84930468.33347  20740881.492                    20740885.215
      -390.941        -304.432          52.500          42.700
 125882175.369 7  98090042.55244  23954586.664                    23954590.695
      3171.758        2471.562          42.700          25.500
 115286485.807 8  89833696.60546  21938296.391                    21938302.547
     -2546.039       -1983.903          49.300          39.200
 108568427.224 8  84598819.88847  20659885.992                    20659891.848
      1384.781        1079.297          52.500          44.600
 117750027.824 7  91753284.71845  22407092.898                    22407094.406
     -1881.105       -1465.595          45.800          34.100
 125132985.447 7  97506277.84944  23812027.484                    23812036.094
     -3610.676       -2813.474          42.400          29.800
 18  2 20  9 22 30.0000000  0  7G05G07G13G09G30G02G06
 111400839.106 8  86805893.77046  21198882.086                    21198886.203
      1984.539        1546.582          53.000          41.700
 109006022.134 8  84939805.60147  20743161.742                    20743165.266
      -407.883        -317.613          53.100          43.100
 125787079.418 7  98015941.81444  23936489.781                    23936494.414
      3167.965        2468.591          42.500          25.500
 115362968.941 8  89893293.83546  21952850.789                    21952857.066
     -2552.863       -1989.076          50.100          39.500
 108527143.031 8  84566650.39147  20652029.844                    20652035.582
      1367.398        1065.773          51.900          44.300
 117806678.639 7  91797428.18945  22417872.820                    22417874.652
     -1895.676       -1476.909          43.400          34.000
 125241359.268 7  97590724.92544  23832650.516                    23832658.797
     -3614.230       -2816.210          44.600          28.900
 18  2 20  9 23  0.0000000  0  7G05G07G13G09G30G02G06
 111341503.996 8  86759658.61446  21187590.672                    21187595.141
      1970.906        1536.053          52.000          41.800
 109018511.621 8  84949537.65847  20745538.422                    20745541.895
      -424.840        -330.794          53.400          42.900
 125692098.771 7  97941930.95644  23918415.492                    23918419.965
      3163.988        2465.546          42.600          26.500
 115439649.614 8  89953044.98246  21967442.789                    21967449.121
     -2559.457       -1994.203          48.800          38.900
 108486379.378 8  84534886.51547  20644272.781                    20644279.039
      1350.035        1052.220          51.100          44.900
 117863764.356 7  91841910.52845  22428735.945                    22428737.824
     -1910.164       -1488.210          43.900          33.600
 125349836.309 7  97675252.45544  23853293.000                    23853300.965
     -3617.656       -2818.908          42.600          27.900
 18  2 20  9 23 30.0000000  0  7G05G07G13G09G30G02G06
 111282574.014 8  86713739.14646  21176376.648                    21176380.723
      1957.539        1525.553          51.500          41.900
 109031507.031 8  84959663.94747  20748011.258                    20748015.055
      -441.574        -343.879          52.000          43.100
 125597234.168 7  97868010.51444  23900363.734                    23900367.973
      3160.180        2462.542          43.000          26.700
 115516526.681 8  90012949.17246  21982071.664                    21982078.402
     -2565.793       -1999.255          48.500          40.200
 108446136.870 8  84503528.73247  20636614.703                    20636621.258
      1332.715        1038.710          52.700          45.000
 117921282.624 7  91886729.91345  22439681.297                    22439683.289
     -1924.484       -1499.389          43.900          34.100
 125458413.483 6  97759857.98944  23873954.195                    23873962.477
     -3620.898       -2821.408          41.800          27.200
 18  2 20  9 24  0.0000000  0  7G05G07G13G09G30G02G06
 111224051.359 8  86668137.09046  21165240.320                    21165243.980
      1943.969        1514.945          51.400          41.500
 109045007.249 8  84970183.59147  20750580.188                    20750584.027
      -458.359        -356.984          52.200          42.600
 125502486.575 6  97794181.23044  23882333.852                    23882338.305
      3156.211        2459.502          41.800          24.800
 115593599.279 8  90073005.71146  21996738.211                    21996744.652
     -2572.395       -2004.334          50.000          39.700
 108406416.404 8  84472577.73347  20629056.344                    20629062.445
      1315.281        1025.135          52.200          44.800
 117979231.228 7  91931884.63145  22450708.836                    22450710.480
     -1938.766       -1510.541          44.100          33.600
 125567087.960 7  97844539.36144  23894633.977                    23894642.680
     -3623.910       -2823.908          42.000          27.700
 18  2 20  9 24 30.0000000  0  7G05G07G13G09G30G02G06
 111165938.422 8  86622854.28746  21154182.102                    21154185.820
      1930.133        1504.202          52.500          41.600
 109059011.381 8  84981095.89847  20753245.477                    20753248.973
      -475.297        -370.119          52.100          42.800
 125407856.463 7  97720443.51944  23864325.609                    23864330.648
      3152.184        2456.356          43.300          24.700
 115670866.358 8  90133213.81146  22011441.500                    22011448.125
     -2578.891       -2009.441          48.800          39.600
 108367218.761 8  84442034.13347  20621597.500                    20621603.535
      1297.746        1011.487          52.500          45.200
 118037608.118 7  91977373.08945  22461817.766                    22461819.609
     -1953.102       -1521.703          44.600          33.800
 125675856.787 6  97929294.23144  23915332.375                    23915341.316
     -3627.262       -2826.374          41.200          26.900
 18  2 20  9 25  0.0000000  0  7G05G07G13G09G30G02G06
 111108237.503 8  86577892.52546  21143201.406                    21143205.797
      1916.410        1493.540          52.100          41.300
 109073519.211 8  84992400.69747  20756006.211                    20756009.957
      -491.973        -383.135          52.000          43.000
 125313345.357 6  97646798.54444  23846341.211                    23846345.887
      3148.258        2453.335          41.800          24.800
 115748327.637 8  90193573.20746  22026182.516                    22026188.266
     -2585.328       -2014.402          49.700          39.500
 108328545.308 8  84411898.97647  20614237.891                    20614243.746
      1280.316         997.920          52.700          45.200
 118096411.508 7  92023193.88645  22473007.555                    22473009.887
     -1967.262       -1532.689          44.600          33.900
 125784717.651 6  98014120.81544  23936048.203                    23936057.039
     -3630.273       -2828.686          41.600          27.000
 18  2 20  9 25 30.0000000  0  7G05G07G13G09G30G02G06
 111050949.671 8  86533252.66746  21132300.508                    21132303.797
      1902.680        1482.788          52.100          41.400
 109088529.124 8  85004096.73647  20758862.477                    20758866.012
      -508.711        -396.168          51.600          42.300
 125218953.339 6  97573246.32943  23828378.836                    23828382.906
      3144.438        2450.252          41.100          22.800
 115825981.441 8  90254082.65346  22040959.195                    22040965.492
     -2591.672       -2019.375          49.100          39.800
 108290396.102 8  84382172.33847  20606978.180                    20606984.703
      1262.895         984.306          53.400          45.300
 118155638.651 7  92069344.87545  22484278.367                    22484280.469
     -1981.262       -1543.666          44.800          34.000
 125893666.920 6  98099016.31344  23956780.055                    23956789.254
     -3633.074       -2830.943          40.700          27.600
 18  2 20  9 26  0.0000000  0  7G05G07G13G09G30G02G06
 110994076.954 8  86488936.26946  21121478.125                    21121481.113
      1888.828        1472.053          52.200          40.800
 109104040.326 8  85016183.40547  20761813.820                    20761817.789
      -525.445        -409.136          50.500          43.400
 125124681.164 6  97499787.52043  23810439.656                    23810443.590
      3140.414        2447.174          41.200          23.500
 115903826.770 8  90314741.32446  22055773.117                    22055778.707
     -2598.031       -2024.280          49.100          38.800
 108252771.828 8  84352854.73747  20599818.539                    20599824.672
      1245.383         970.718          53.700          45.200
 118215287.163 7  92115824.21745  22495628.781                    22495631.094
     -1995.199       -1554.507          44.700          34.200
 126002701.653 7  98183978.37544  23977529.281                    23977538.266
     -3635.879       -2833.026          42.000          27.100
 18  2 20  9 26 30.0000000  0  7G05G07G13G09G30G02G06
 110937621.521 8  86444945.01746  21110734.859                    21110738.199
      1874.938        1461.132          52.200          41.100
 109120051.869 8  85028659.93747  20764860.930                    20764864.516
      -541.988        -422.149          50.900          43.200
 125030529.670 6  97426422.73543  23792522.805                    23792526.758
      3136.449        2443.973          41.000          22.500
 115981862.829 8  90375548.62346  22070622.320                    22070628.461
     -2604.348       -2029.298          49.600          38.800
 108215673.307 8  84323946.79947  20592758.906                    20592765.328
      1227.902         957.012          52.800          45.000
 118275354.878 7  92162630.19945  22507059.945                    22507062.434
     -2009.156       -1565.442          45.800          34.300
 126111819.102 6  98269004.91044  23998293.672                    23998302.551
     -3638.559       -2835.222          41.400          26.800
 18  2 20  9 27  0.0000000  0  7G05G07G13G09G30G02G06
 110881585.234 8  86401280.37446  21100071.484                    21100074.699
      1860.691        1450.189          51.700          40.900
 109136562.564 8  85041525.41247  20768002.305                    20768006.684
      -558.828        -435.121          51.400          43.600
 124936499.506 6  97353152.50243  23774629.031                    23774632.887
      3132.145        2440.800          39.200          23.000
 116060088.498 8  90436503.65746  22085508.719                    22085514.027
     -2610.871       -2034.222          50.200          39.200
 108179101.119 8  84295448.99547  20585799.531                    20585805.957
      1210.133         943.311          53.200          45.000
 118335839.485 7  92209761.03545  22518569.125                    22518571.617
     -2023.117       -1576.254          45.400          33.800
 126221016.161 7  98354093.45944  24019073.281                    24019082.609
     -3641.254       -2837.266          42.200          26.800
 18  2 20  9 27 30.0000000  0  7G05G07G13G09G30G02G06
 110825970.353 8  86357944.11546  21089487.961                    21089491.555
      1846.855        1439.230          52.500          40.900
 109153571.932 8  85054779.46147  20771239.227                    20771243.293
      -575.191        -448.061          51.200          42.800
 124842591.721 6  97279977.63843  23756759.422                    23756763.016
      3128.324        2437.586          40.100          22.000
 116138502.924 8  90497605.78446  22100429.891                    22100435.703
     -2616.855       -2039.109          50.100          38.800
 108143056.067 8  84267361.95347  20578940.297                    20578946.672
      1192.703         929.595          53.900          45.400
 118396738.822 7  92257215.04345  22530158.703                    22530160.641
     -2036.848       -1586.977          45.100          33.700
 126330290.117 7  98439241.95044  24039867.875                    24039876.652
     -3643.633       -2839.254          42.100          27.900
 18  2 20  9 28  0.0000000  0  7G05G07G13G09G30G02G06
 110770778.481 8  86314937.45746  21078985.617                    21078988.938
      1832.559        1428.198          52.700          40.600
 109171078.473 8  85068420.91347  20774570.766                    20774574.363
      -592.000        -461.001          51.300          42.300
 124748807.067 6  97206898.71143  23738912.867                    23738916.277
      3123.992        2434.376          39.200          22.500
 116217105.140 8  90558854.22346  22115387.695                    22115393.219
     -2623.312       -2044.010          51.100          38.600
 108107538.639 8  84239686.05247  20572181.695                    20572187.852
      1175.020         915.866          53.100          44.600
 118458050.417 7  92304990.28745  22541825.344                    22541827.641
     -2050.641       -1597.701          44.500          33.800
 126439637.860 6  98524447.92844  24060674.852                    24060685.355
     -3646.211       -2841.137          41.600          28.400
 18  2 20  9 28 30.0000000  0  7G05G07G13G09G30G02G06
 110716011.661 8  86272262.00846  21068563.805                    21068567.406
      1818.371        1417.169          52.500          40.700
 109189081.628 8  85082449.33347  20777996.680                    20778000.152
      -608.367        -473.826          51.500          42.300
 124655145.858 6  97133915.98943  23721088.891                    23721093.434
      3119.813        2431.193          40.400          22.800
 116295894.243 8  90620248.30646  22130380.516                    22130386.035
     -2629.453       -2048.804          51.100          38.800
 108072549.714 8  84212421.96847  20565523.422                    20565529.594
      1157.371         902.162          53.900          44.500
 118519772.238 7  92353085.17845  22553570.969                    22553572.941
     -2064.293       -1608.281          44.500          33.300
 126549056.729 6  98609709.32544  24081496.883                    24081507.535
     -3648.465       -2842.930          41.700          26.900
 18  2 20  9 29  0.0000000  0  7G05G07G13G09G30G02G06
 110661671.296 8  86229918.85946  21058223.188                    21058226.660
      1804.324        1406.086          52.400          40.700
 109207579.477 8  85096863.22747  20781516.484                    20781520.484
      -624.812        -486.659          50.900          42.300
 124561609.102 6  97061030.24243  23703289.563                    23703293.863
      3115.816        2427.985          41.100          22.900
 116374868.852 8  90681786.92546  22145409.461                    22145414.906
     -2635.422       -2053.597          51.500          38.400
 108038089.324 8  84185569.71947  20558965.836                    20558972.004
      1139.961         888.441          53.800          45.100
 118581901.375 7  92401497.46445  22565393.734                    22565396.051
     -2077.629       -1618.823          44.500          33.500
 126658543.198 7  98695023.40644  24102331.766                    24102342.367
     -3650.496       -2844.592          43.400          29.100
 18  2 20  9 29 30.0000000  0  7G05G07G13G09G30G02G06
 110607759.880 8  86187909.96746  21047964.281                    21047967.781
      1789.922        1394.877          51.900          40.500
 109226571.892 8  85111662.49847  20785131.195                    20785135.270
      -641.270        -499.517          51.500          42.700
 124468197.476 7  96988241.95344  23685513.547                    23685518.609
      3111.750        2424.687          42.300          27.100
 116454028.544 8  90743469.77346  22160472.438                    22160478.223
     -2641.684       -2058.419          51.200          38.300
 108004158.608 8  84159130.21147  20552508.953                    20552515.285
      1122.258         874.660          53.800          44.600
 118644435.982 7  92450225.69245  22577294.055                    22577296.043
     -2091.066       -1629.346          45.000          32.700
 126768095.073 7  98780388.43144  24123178.953                    24123189.883
     -3652.645       -2846.306          43.100          27.500
 18  2 20  9 30  0.0000000  0  7G05G07G13G09G30G02G06
 110554279.278 8  86146236.76846  21037787.094                    21037790.895
      1775.488        1383.686          52.300          40.900
 109246057.414 8  85126846.01547  20788838.922                    20788842.215
      -657.773        -512.316          52.200          42.500
 124374912.265 7  96915552.23244  23667762.977                    23667767.488
      3107.355        2421.360          43.000          25.500
 116533372.221 8  90805295.96446  22175571.609                    22175576.754
     -2647.859       -2063.171          50.500          38.400
 107970757.969 8  84133103.74147  20546153.195                    20546159.352
      1104.535         860.886          53.700          44.700
 118707373.554 7  92499267.91145  22589270.922                    22589272.895
     -2104.547       -1639.778          44.700          33.800
 126877709.166 7  98865801.93444  24144038.281                    24144048.293
     -3654.883       -2847.897          45.100          28.400
 18  2 20  9 30 30.0000000  0  7G05G07G13G09G30G02G06
 110501231.468 8  86104900.81446  21027692.523                    21027695.809
      1761.012        1372.387          51.900          41.300
 109266035.473 8  85142413.32847  20792640.781                    20792644.094
      -674.187        -525.104          51.100          42.400
 124281754.190 7  96842961.55244  23650035.227                    23650040.023
      3103.125        2418.073          43.300          24.100
 116612899.052 8  90867264.90246  22190704.391                    22190710.273
     -2654.031       -2067.946          49.100          37.600
 107937888.118 8  84107490.87647  20539898.219                    20539904.383
      1086.789         847.069          53.700          44.800
 118770712.005 7  92548622.51145  22601323.586                    22601325.754
     -2117.934       -1650.175          44.300          33.500
 126987382.724 7  98951261.76544  24164909.820                    24164918.836
     -3656.680       -2849.361          43.800          29.100
 18  2 20  9 31  0.0000000  0  7G05G07G13G09G30G02G06
 110448618.868 8  86063903.97646  21017679.828                    21017684.234
      1746.559        1361.091          51.600          41.700
 109286504.943 8  85158363.56747  20796535.938                    20796539.699
      -690.437        -537.824          51.900          42.800
 124188723.821 6  96770470.41844  23632332.383                    23632336.887
      3098.680        2414.737          41.700          26.400
 116692608.286 8  90929375.93746  22205873.422                    22205878.531
     -2659.930       -2072.652          50.700          37.900
 107905549.733 8  84082292.13347  20533744.570                    20533750.418
      1069.078         833.276          53.600          45.000
 118834448.990 7  92598287.65445  22613451.797                    22613453.773
     -2131.078       -1660.482          44.300          33.800
 127097113.061 6  99036765.88644  24185789.438                    24185799.063
     -3658.621       -2850.805          41.000          27.200
 18  2 20  9 31 30.0000000  0  7G05G07G13G09G30G02G06
 110396442.368 8  86023246.95946  21007751.641                    21007755.766
      1731.863        1349.749          52.300          41.900
 109307464.380 8  85174695.60347  20800524.492                    20800528.277
      -706.773        -550.530          51.500          42.600
 124095821.561 6  96698079.08744  23614653.859                    23614658.664
      3094.629        2411.410          41.300          26.200
 116772498.636 8  90991628.12846  22221075.594                    22221081.375
     -2665.914       -2077.313          50.200          37.900
 107873743.026 8  84057507.68847  20527691.898                    20527697.859
      1051.387         819.489          53.000          44.900
 118898581.747 7  92648261.19645  22625656.297                    22625658.453
     -2144.344       -1670.732          44.600          34.000
 127206896.923 6  99122311.69144  24206680.297                    24206690.527
     -3660.293       -2852.133          41.100          28.700
 18  2 20  9 32  0.0000000  0  7G05G07G13G09G30G02G06
 110344704.010 8  85982931.34947  20997906.172                    20997909.926
      1717.246        1338.323          52.500          42.000
 109328912.509 8  85191408.43047  20804605.727                    20804609.395
      -723.109        -563.245          52.000          42.700
 124003048.741 7  96625788.63044  23596999.984                    23597003.816
      3090.191        2408.047          42.600          26.100
 116852569.265 8  91054020.77646  22236312.750                    22236318.309
     -2672.082       -2082.034          49.100          37.700
 107842468.484 8  84033137.92547  20521740.836                    20521747.035
      1033.559         805.620          53.500          45.100
 118963108.016 7  92698541.37245  22637935.180                    22637937.590
     -2157.477       -1680.951          44.700          33.900
 127316731.487 6  99207897.02844  24227580.438                    24227591.125
     -3661.898       -2853.468          39.200          27.800
 18  2 20  9 32 30.0000000  0  7G05G07G13G09G30G02G06
 110293406.164 8  85942958.99147  20988144.469                    20988148.590
      1702.621        1326.846          52.300          42.100
 109350848.625 8  85208501.50747  20808780.164                    20808783.949
      -739.273        -575.899          51.000          42.600
 123910405.990 6  96553599.52844  23579370.172                    23579374.766
      3085.941        2404.657          41.500          27.500
 116932819.189 8  91116553.16346  22251583.648                    22251589.578
     -2677.992       -2086.681          48.800          36.700
 107811726.663 8  84009183.26047  20515890.711                    20515896.777
      1015.871         791.780          53.400          44.700
 119028025.278 7  92749126.21345  22650288.508                    22650290.809
     -2170.309       -1691.073          44.200          33.900
 127426613.948 6  99293519.63944  24248491.352                    24248500.578
     -3663.441       -2854.692          40.400          29.300
 18  2 20  9 33  0.0000000  0  7G05G07G13G09G30G02G06
 110242551.056 8  85903331.62347  20978466.961                    20978471.008
      1687.664        1315.330          52.500          42.100
 109373271.639 8  85225973.98547  20813047.031                    20813050.527
      -755.621        -588.546          51.200          43.200
 123817893.951 7  96481512.27544  23561766.188                    23561770.125
      3081.480        2401.248          42.300          27.200
 117013247.857 8  91179224.80446  22266889.102                    22266894.574
     -2683.969       -2091.300          48.000          37.100
 107781518.307 8  83985644.29047  20510142.141                    20510148.363
       997.973         777.912          53.500          44.900
 119093331.702 7  92800014.30245  22662716.102                    22662718.609
     -2183.441       -1701.149          45.400          34.100
 127536541.707 6  99379177.52844  24269410.516                    24269419.559
     -3665.051       -2855.825          40.000          28.000
 18  2 20  9 33 30.0000000  0  7G05G07G13G09G30G02G06
 110192140.167 8  85864050.40747  20968874.398                    20968878.379
      1672.906        1303.785          52.400          42.600
 109396180.370 8  85243824.93847  20817406.547                    20817410.090
      -771.762        -601.120          52.300          43.400
 123725513.728 6  96409527.70244  23544186.617                    23544190.270
      3077.059        2397.832          41.300          27.700
 117093854.188 8  91242034.90646  22282227.773                    22282233.238
     -2689.789       -2095.885          50.000          37.100
 107751843.725 8  83962521.24047  20504495.508                    20504501.289
       980.219         764.072          53.200          44.900
 119159024.637 7  92851203.56345  22675217.102                    22675219.250
     -2196.215       -1711.119          45.400          34.800
 127646511.708 6  99464868.37944  24290337.609                    24290345.695
     -3666.254       -2856.832          38.900          26.200
 18  2 20  9 34  0.0000000  0  7G05G07G13G09G30G02G06
 110142175.016 8  85825116.51847  20959365.992                    20959370.215
      1658.051        1292.148          51.900          42.600
 109419573.543 8  85262053.37647  20821858.195                    20821861.609
      -787.887        -613.723          51.900          42.700
 123633265.822 7  96337646.25144  23526632.398                    23526636.750
      3072.723        2394.348          43.700          27.700
 117174637.128 8  91304982.61546  22297600.523                    22297606.180
     -2695.668       -2100.494          49.000          37.200
 107722703.213 8  83939814.35147  20498950.359                    20498956.105
       962.348         750.149          53.400          45.200
 119225101.339 7  92902691.85945  22687791.180                    22687793.258
     -2209.020       -1721.105          44.600          33.400
 127756520.967 6  99550589.86544  24311270.297                    24311279.594
     -3667.574       -2857.885          38.800          27.200
 18  2 20  9 34 30.0000000  0  7G05G07G13G09G30G02G06
 110092657.309 8  85786531.29147  20949943.594                    20949947.172
      1643.227        1280.530          53.000          42.600
 109443450.073 8  85280658.45647  20826401.734                    20826405.203
      -803.902        -626.244          50.700          43.100
 123541150.950 6  96265868.42844  23509103.375                    23509107.293
      3068.344        2390.927          41.700          26.500
 117255595.688 8  91368067.17746  22313006.703                    22313011.773
     -2701.457       -2105.021          49.600          36.800
 107694097.111 8  83917523.89047  20493506.734                    20493512.258
       944.711         736.288          52.900          44.900
 119291559.225 7  92954477.18645  22700437.430                    22700439.895
     -2221.574       -1730.947          45.600          33.900
 127866566.591 6  99636339.61444  24332210.727                    24332221.242
     -3668.590       -2858.771          41.100          26.400
 18  2 20  9 35  0.0000000  0  7G05G07G13G09G30G02G06
 110043589.180 8  85748296.38447  20940606.172                    20940609.941
      1628.047        1268.811          53.000          42.500
 109467808.576 8  85299639.09447  20831037.063                    20831040.270
      -819.977        -638.739          51.500          43.200
 123449169.829 7  96194194.83144  23491600.383                    23491604.133
      3063.750        2387.415          42.800          27.900
 117336729.087 8  91431287.98146  22328445.320                    22328451.395
     -2707.312       -2109.548          49.100          37.300
 107666025.962 9  83895650.26747  20488164.852                    20488170.707
       926.758         722.377          54.300          44.900
 119358395.963 7  93006557.73345  22713155.883                    22713158.484
     -2234.129       -1740.759          44.700          33.900
 127976645.936 7  99722115.65444  24353160.063                    24353166.996
     -3669.891       -2859.638          43.000          26.700
 18  2 20  9 35 30.0000000  0  7G05G07G13G09G30G02G06
 109994972.237 8  85710413.04647  20931354.844                    20931358.582
      1613.109        1257.106          52.600          42.600
 109492648.087 8  85318994.54947  20835763.813                    20835766.961
      -835.937        -651.218          52.300          42.700
 123357323.650 7  96122626.38544  23474122.086                    23474125.727
      3059.359        2383.913          42.200          26.800
 117418036.448 8  91494644.32646  22343917.891                    22343923.293
     -2713.059       -2114.060          50.000          37.600
 107638490.093 9  83874193.74147  20482924.750                    20482930.617
       909.023         708.497          54.200          44.600
 119425608.954 7  93058931.45345  22725946.594                    22725948.438
     -2246.625       -1750.497          45.800          34.700
 128086756.041 6  99807915.57344  24374114.711                    24374122.035
     -3670.660       -2860.347          41.700          28.900
 18  2 20  9 36  0.0000000  0  7G05G07G13G09G30G02G06
 109946809.283 8  85672883.47747  20922189.711                    20922193.551
      1597.914        1245.310          53.100          42.300
 109517967.613 8  85338724.04547  20840581.914                    20840585.164
      -851.887        -663.618          53.100          42.800
 123265613.361 7  96051163.82544  23456670.430                    23456673.848
      3054.758        2380.414          43.400          27.800
 117499516.906 8  91558135.55746  22359423.063                    22359428.551
     -2718.809       -2118.500          51.000          37.400
 107611489.983 9  83853154.69247  20477786.953                    20477792.688
       891.074         694.615          54.300          44.700
 119493196.067 7  93111596.69645  22738808.344                    22738810.457
     -2259.129       -1760.151          44.900          33.600
 128196894.174 6  99893737.44543  24395071.953                    24395079.594
     -3671.770       -2861.025          37.200          23.000
 18  2 20  9 36 30.0000000  0  7G05G07G13G09G30G02G06
 109899101.577 8  85635708.64847  20913111.148                    20913114.914
      1582.535        1233.403          52.300          42.100
 109543765.511 8  85358826.30347  20845491.266                    20845494.512
      -867.922        -676.106          53.200          42.700
 123174039.049 7  95979807.22744  23439244.648                    23439247.867
      3050.148        2376.832          43.500          28.800
 117581169.482 8  91621760.91546  22374960.836                    22374966.668
     -2724.598       -2123.015          50.100          36.700
 107585025.828 8  83832533.27547  20472750.656                    20472756.734
       873.211         680.621          53.800          44.900
 119561154.588 7  93164551.35445  22751740.211                    22751742.004
     -2271.496       -1769.819          45.400          34.000
 128307057.362 6  99979578.91744  24416033.508                    24416042.941
     -3672.527       -2861.722          37.000          26.600
 18  2 20  9 37  0.0000000  0  7G05G07G13G09G30G02G06
 109851850.798 8  85598889.86046  20904119.258                    20904123.219
      1567.332        1221.541          51.900          41.700
 109570040.677 8  85379300.45547  20850491.398                    20850494.398
      -883.816        -688.437          53.400          43.400
 123082601.579 7  95908557.25744  23421844.531                    23421848.203
      3045.652        2373.270          43.100          27.200
 117662993.221 8  91685519.63346  22390531.469                    22390537.168
     -2730.266       -2127.435          50.800          37.100
 107559097.930 8  83812329.72947  20467816.969                    20467822.801
       855.281         666.719          53.300          45.100
 119629482.130 7  93217793.56745  22764742.742                    22764744.648
     -2283.766       -1779.351          44.700          34.400
 128417242.758 6 100065437.52244  24437001.773                    24437011.977
     -3673.312       -2862.227          40.200          25.500
 18  2 20  9 37 30.0000000  0  7G05G07G13G09G30G02G06
 109805058.867 8  85562428.61946  20895215.328                    20895218.754
      1552.070        1209.603          52.900          41.300
 109596791.938 8  85400145.59547  20855581.484                    20855585.484
      -899.660        -700.806          52.900          42.400
 122991302.600 7  95837415.18544  23404470.781                    23404474.914
      3041.039        2369.673          44.100          29.900
 117744987.477 8  91749411.22746  22406134.664                    22406140.586
     -2735.992       -2131.850          50.600          36.100
 107533706.786 8  83792544.42547  20462985.188                    20462991.320
       837.453         652.784          53.400          45.300
 119698176.240 7  93271321.41045  22777814.578                    22777816.945
     -2295.910       -1788.847          45.200          33.400
 128527447.835 6 100151311.59544  24457974.703                    24457981.902
     -3673.898       -2862.702          41.400          26.400
 18  2 20  9 38  0.0000000  0  7G05G07G13G09G30G02G06
 109758727.673 8  85526326.39346  20886398.633                    20886401.930
      1536.590        1197.590          52.700          40.900
 109624018.032 8  85421360.73347  20860762.531                    20860766.133
      -915.473        -713.140          51.600          42.400
 122900142.334 7  95766381.20344  23387123.258                    23387127.793
      3036.273        2366.038          43.500          28.100
 117827151.247 8  91813434.89046  22421769.766                    22421775.105
     -2741.586       -2136.243          50.500          36.400
 107508852.619 8  83773177.54647  20458255.484                    20458261.848
       819.418         638.789          53.100          45.400
 119767234.263 7  93325132.82345  22790955.836                    22790958.195
     -2308.070       -1798.293          44.700          32.800
 128637669.657 6 100237198.54744  24478949.914                    24478957.445
     -3674.312       -2863.095          40.600          25.900
 18  2 20  9 38 30.0000000  0  7G05G07G13G09G30G02G06
 109712858.798 8  85490584.40946  20877670.211                    20877673.270
      1521.207        1185.577          52.600          40.800
 109651717.792 8  85442944.96347  20866033.516                    20866037.105
      -931.152        -725.399          51.500          42.600
 122809121.376 7  95695455.76744  23369802.836                    23369807.199
      3031.684        2362.430          44.700          29.400
 117909483.536 8  91877589.88245  22437437.141                    22437442.945
     -2747.246       -2140.608          50.500          35.800
 107484535.530 8  83754229.16547  20453628.227                    20453634.473
       801.598         624.868          53.000          45.400
 119836653.846 7  93379225.97245  22804165.906                    22804168.602
     -2320.055       -1807.640          43.900          33.400
 128747905.234 6 100323096.34543  24499926.961                    24499934.258
     -3674.895       -2863.430          38.700          22.000
 18  2 20  9 39  0.0000000  0  8G05G07G13G28G09G30G02G06
 109667453.758 8  85455203.84946  20869029.836                    20869032.746
      1505.742        1173.516          52.900          41.300
 109679889.410 8  85464896.87446  20871394.172                    20871398.086
      -946.965        -737.661          51.400          41.600
 122718240.373 7  95624639.40744  23352509.523                    23352513.438
      3027.051        2358.804          45.200          29.800
 127612496.925 6  99438365.61643  24283860.563                    24283865.492
      3231.090        2517.718          39.000          20.900
 117991983.203 8  91941875.30045  22453136.625                    22453142.180
     -2752.836       -2144.945          49.900          35.400
 107460755.598 8  83735699.35347  20449102.641                    20449109.355
       783.656         610.915          53.400          46.100
 119906431.890 7  93433598.43245  22817444.297                    22817447.152
     -2331.875       -1816.890          43.900          33.800
 128858151.508 6 100409002.52844  24520904.844                    24520913.641
     -3675.078       -2863.638          39.300          25.800
 18  2 20  9 39 30.0000000  0  8G05G07G13G28G09G30G02G06
 109622514.620 8  85420186.33246  20860478.352                    20860481.254
      1490.102        1161.387          52.100          40.600
 109708531.779 8  85487215.59947  20876844.805                    20876848.742
      -962.598        -749.851          51.700          42.000
 122627500.070 7  95553932.68644  23335242.109                    23335246.680
      3022.270        2355.114          45.700          29.300
 127515597.275 6  99362859.51943  24265419.633                    24265426.531
      3228.992        2516.114          38.400          21.500
 118074649.442 8  92006290.51845  22468866.727                    22468872.852
     -2758.234       -2149.261          49.200          35.000
 107437513.042 8  83717588.27747  20444680.000                    20444686.453
       765.801         596.960          52.900          45.400
 119976565.738 7  93488248.13945  22830790.891                    22830792.469
     -2343.730       -1826.108          43.900          34.000
 128968405.760 6 100494914.82744  24541885.531                    24541895.789
     -3675.176       -2863.807          40.600          26.200
 18  2 20  9 40  0.0000000  0  7G05G07G13G28G09G30G02
 109578043.251 8  85385533.31246  20852015.680                    20852018.797
      1474.426        1149.166          51.700          40.900
 109737644.079 8  85509900.49747  20882384.797                    20882388.777
      -978.285        -762.101          51.400          42.000
 122536901.872 7  95483336.67644  23318001.555                    23318005.641
      3017.473        2351.354          45.900          29.800
 127418760.664 6  99287402.46643  24246992.750                    24246999.488
      3226.684        2514.363          38.300          21.700
 118157481.786 8  92070835.14845  22484629.523                    22484635.336
     -2763.898       -2153.599          49.400          34.900
 107414808.550 8  83699896.46047  20440359.305                    20440365.766
       747.789         582.922          52.500          45.400
 120047053.572 7  93543173.67745  22844204.703                    22844206.105
     -2355.562       -1835.302          42.700          33.800
 18  2 20  9 40 30.0000000  0  7G05G07G13G28G09G30G02
 109534041.489 8  85351246.23146  20843642.234                    20843645.238
      1458.957        1137.012          51.200          41.500
 109767224.762 8  85532950.37147  20888013.914                    20888017.387
      -993.707        -774.195          52.300          42.300
 122446446.342 7  95412851.85145  23300788.055                    23300792.516
      3012.918        2347.701          45.800          30.000
 127321989.719 6  99211996.60943  24228578.023                    24228584.328
      3224.520        2512.694          37.400          21.100
 118240479.208 8  92135508.42945  22500422.773                    22500429.098
     -2769.340       -2157.833          49.100          34.400
 107392642.053 8  83682623.86947  20436141.539                    20436147.762
       730.027         569.002          52.300          45.400
 120117892.339 7  93598372.67845  22857684.141                    22857686.590
     -2367.043       -1844.348          43.800          33.600
 18  2 20  9 41  0.0000000  0  7G05G07G13G28G09G30G02
 109490510.482 8  85317325.96446  20835358.563                    20835362.191
      1443.262        1124.752          52.100          41.400
 109797272.242 8  85556363.98347  20893731.898                    20893735.570
     -1009.250        -786.299          51.900          42.300
 122356134.203 7  95342478.77044  23283602.680                    23283607.086
      3008.035        2343.950          44.900          29.200
 127225286.972 6  99136643.90243  24210176.008                    24210182.426
      3222.215        2510.865          38.300          19.900
 118323640.624 8  92200309.48345  22516248.602                    22516254.141
     -2774.680       -2162.078          48.700          33.700
 107371013.583 8  83665770.51447  20432025.570                    20432031.945
       712.094         555.029          52.200          44.700
 120189079.380 7  93653843.04945  22871231.109                    22871233.355
     -2378.641       -1853.361          42.900          34.100
 18  2 20  9 41 30.0000000  0  7G05G07G13G28G09G30G02
 109447452.577 8  85283774.34246  20827164.844                    20827168.438
      1427.340        1112.439          53.400          41.600
 109827785.628 8  85580140.63647  20899538.609                    20899541.898
     -1024.887        -798.404          52.100          42.400
 122265966.393 7  95272218.13544  23266444.203                    23266448.926
      3003.102        2340.189          44.600          29.900
 127128655.725 6  99061346.91543  24191787.305                    24191793.637
      3219.809        2508.956          37.900          19.300
 118406965.364 8  92265237.81445  22532104.711                    22532110.348
     -2780.246       -2166.323          48.700          33.200
 107349923.542 8  83649336.71547  20428012.086                    20428018.648
       693.992         541.023          52.800          44.800
 120260612.617 7  93709583.19945  22884843.828                    22884845.336
     -2390.230       -1862.340          44.000          33.700
 18  2 20  9 42  0.0000000  0  7G05G07G13G28G09G30G02
 109404868.974 8  85250592.31147  20819061.852                    20819065.160
      1411.418        1100.051          53.800          42.300
 109858763.322 8  85604279.09347  20905433.492                    20905436.703
     -1040.379        -810.465          52.400          42.200
 122175943.398 7  95202070.32744  23249313.242                    23249317.602
      2998.270        2336.402          44.500          28.600
 127032099.007 6  98986107.96643  24173412.914                    24173419.051
      3217.207        2506.984          38.400          19.600
 118490452.441 8  92330292.63145  22547991.773                    22547997.281
     -2785.633       -2170.544          48.400          33.300
 107329371.884 8  83633322.43847  20424101.133                    20424107.395
       675.996         527.010          53.300          44.700
 120332488.979 7  93765590.71845  22898521.039                    22898522.387
     -2401.629       -1871.234          45.200          33.200
 18  2 20  9 42 30.0000000  0  7G05G07G13G28G09G30G02
 109362762.365 8  85217781.95747  20811049.188                    20811052.777
      1395.637        1087.687          53.600          42.900
 109890204.564 8  85628778.75147  20911416.477                    20911419.535
     -1055.695        -822.455          52.600          42.200
 122086066.289 7  95132036.19144  23232209.961                    23232214.637
      2993.434        2332.653          43.900          28.900
 126935619.854 6  98910929.42743  24155053.242                    24155059.422
      3214.477        2504.970          37.600          20.100
 118574101.305 8  92395473.53545  22563909.469                    22563915.480
     -2791.000       -2174.720          48.300          33.100
 107309359.045 8  83617728.00747  20420292.961                    20420299.070
       658.121         513.054          52.800          44.900
 120404706.059 7  93821863.74945  22912263.141                    22912264.977
     -2412.797       -1880.025          43.900          33.000
 18  2 20  9 43  0.0000000  0  7G05G07G13G28G09G30G02
 109321133.566 8  85185343.92547  20803127.664                    20803131.129
      1379.566        1075.254          53.200          42.800
 109922107.594 8  85653638.25146  20917487.117                    20917490.555
     -1071.176        -834.419          51.700          41.800
 121996335.988 7  95062116.46044  23215134.766                    23215139.461
      2988.484        2328.813          43.400          28.500
 126839220.424 6  98835813.04243  24136709.547                    24136714.801
      3211.855        2502.840          38.600          20.600
 118657910.793 7  92460779.58145  22579858.164                    22579863.672
     -2796.348       -2178.877          47.900          32.700
 107289884.835 8  83602553.29947  20416587.125                    20416593.625
       640.117         499.055          52.600          45.100
 120477261.048 7  93878400.08145  22926069.969                    22926071.480
     -2424.191       -1888.766          43.600          32.700
 18  2 20  9 43 30.0000000  0  7G05G07G13G28G09G30G02
 109279984.454 8  85153279.67847  20795296.961                    20795300.488
      1363.527        1062.766          53.500          42.600
 109954470.382 8  85678856.00146  20923645.805                    20923649.258
     -1086.523        -846.364          51.100          41.900
 121906752.702 7  94992311.31544  23198087.500                    23198091.969
      2983.555        2324.960          42.900          28.500
 126742904.134 6  98760761.46643  24118379.641                    24118386.074
      3209.121        2500.643          39.200          19.300
 118741879.958 7  92526210.05745  22595836.977                    22595842.215
     -2801.777       -2183.018          47.400          33.100
 107270949.240 8  83587798.27847  20412983.563                    20412990.352
       622.117         485.078          53.300          45.000
 120550151.378 7  93935197.72745  22939939.961                    22939942.105
     -2435.316       -1897.434          44.300          33.000
 18  2 20  9 44  0.0000000  0  7G05G07G13G28G09G30G02
 109239316.890 8  85121590.66447  20787558.086                    20787561.914
      1347.625        1050.217          53.700          43.700
 109987292.215 8  85704431.45246  20929891.438                    20929895.285
     -1101.645        -858.302          51.700          41.100
 121817317.805 7  94922621.79944  23181068.109                    23181072.594
      2978.684        2321.070          43.700          27.900
 126646674.141 6  98685777.08243  24100068.906                    24100073.559
      3206.305        2498.334          37.700          19.600
 118826008.088 7  92591764.40345  22611846.727                    22611851.180
     -2806.848       -2187.177          47.800          33.200
 107252552.494 8  83573463.14847  20409483.047                    20409489.281
       604.277         471.031          53.000          45.300
 120623374.314 7  93992254.53645  22953873.883                    22953875.945
     -2446.254       -1906.088          43.400          31.600
 18  2 20  9 44 30.0000000  0  7G05G07G13G28G09G30G02
 109199132.467 8  85090278.12347  20779911.438                    20779915.172
      1331.484        1037.683          53.100          43.600
 110020571.447 8  85730363.31946  20936223.719                    20936228.090
     -1116.867        -870.127          51.100          40.700
 121728032.011 7  94853048.47144  23164077.531                    23164082.020
      2973.758        2317.242          42.700          28.700
 126550532.605 6  98610861.64943  24081774.156                    24081778.098
      3203.277        2496.050          38.600          19.600
 118910294.225 7  92657441.87345  22627885.617                    22627890.629
     -2812.113       -2191.228          47.300          32.500
 107234694.507 8  83559547.84147  20406084.805                    20406091.043
       586.301         457.096          53.500          45.800
 120696927.388 7  94049568.58545  22967870.648                    22967872.020
     -2457.207       -1914.572          45.000          31.200
 18  2 20  9 45  0.0000000  0  7G05G07G13G28G09G30G02
 109159432.336 8  85059342.95847  20772356.492                    20772360.328
      1315.207        1025.052          52.400          43.000
 110054306.413 8  85756650.29846  20942643.117                    20942647.496
     -1132.082        -881.961          51.400          40.800
 121638895.860 7  94783591.73244  23147115.656                    23147120.156
      2968.719        2313.320          42.700          28.300
 126454482.413 6  98536017.41743  24063495.883                    24063499.883
      3200.207        2493.606          37.600          19.000
 118994737.412 7  92723241.71845  22643954.781                    22643959.543
     -2817.395       -2195.292          47.200          31.900
 107217375.217 8  83546052.28647  20402788.688                    20402795.309
       568.313         443.065          53.600          45.600
 120770807.728 7  94107137.66245  22981930.000                    22981931.266
     -2467.949       -1923.065          43.900          31.400
 18  2 20  9 45 30.0000000  0  7G05G07G13G28G09G30G02
 109120218.519 8  85028786.73347  20764894.234                    20764898.266
      1299.008        1012.420          52.100          42.800
 110088496.377 8  85783291.81046  20949149.570                    20949153.793
     -1147.242        -893.743          50.800          40.900
 121549910.313 7  94714252.37944  23130182.445                    23130186.695
      2963.656        2309.417          44.600          28.600
 126358527.211 6  98461247.15743  24045236.289                    24045240.160
      3197.016        2491.137          39.200          19.300
 119079336.897 7  92789163.37045  22660053.477                    22660058.469
     -2822.586       -2199.330          46.700          32.700
 107200594.662 8  83532976.52447  20399596.039                    20399601.863
       550.469         429.107          53.500          45.400
 120845012.726 7  94164959.71145  22996050.383                    22996051.648
     -2478.809       -1931.464          43.800          31.300
 18  2 20  9 46  0.0000000  0  7G05G07G13G28G09G30G02
 109081493.192 8  84998611.15147  20757524.875                    20757529.133
      1282.691         999.725          52.000          42.600
 110123139.468 8  85810286.40446  20955741.516                    20955746.242
     -1162.328        -905.478          51.500          41.500
 121461075.995 7  94645030.85844  23113278.141                    23113281.785
      2958.594        2305.485          44.500          29.600
 126262670.000 6  98386553.26943  24026995.125                    24026998.641
      3193.566        2488.564          39.000          20.400
 119164092.065 7  92855206.32845  22676181.914                    22676186.957
     -2827.707       -2203.359          46.400          31.700
 107184353.178 8  83520320.82547  20396505.109                    20396511.410
       532.438         415.115          52.900          45.200
 120919539.784 7  94223032.71344  23010232.086                    23010233.777
     -2489.539       -1939.779          44.500          29.400
 18  2 20  9 46 30.0000000  0  7G05G07G13G28G09G30G02
 109043257.648 8  84968817.21047  20750249.070                    20750253.082
      1266.336         986.945          51.800          42.400
 110158234.391 8  85837633.09046  20962420.461                    20962424.242
     -1177.250        -917.223          52.300          41.400
 121372393.819 7  94575927.87244  23096402.453                    23096406.375
      2953.590        2301.494          44.500          29.700
 126166913.091 6  98311937.58043  24008773.461                    24008777.277
      3190.258        2485.915          37.700          18.300
 119249002.024 7  92921369.90245  22692339.828                    22692345.023
     -2832.848       -2207.420          46.000          32.300
 107168650.630 8  83508085.07147  20393517.078                    20393523.758
       514.488         401.068          52.900          45.200
 120994386.309 7  94281354.63544  23024475.500                    23024476.313
     -2500.062       -1948.052          44.600          29.300
 18  2 20  9 47  0.0000000  0  7G05G07G13G28G09G30G02
 109005513.724 8  84939406.36446  20743066.430                    20743070.898
      1249.992         974.182          51.400          41.400
 110193779.626 8  85865330.66047  20969184.219                    20969188.293
     -1192.305        -928.904          52.100          42.000
 121283865.058 7  94506944.45244  23079556.180                    23079560.254
      2948.352        2297.508          45.000          29.800
 126071259.722 5  98237402.53743  23990570.930                    23990574.945
      3186.695        2483.164          35.200          18.600
 119334065.821 7  92987653.35845  22708526.320                    22708532.047
     -2838.051       -2211.374          46.000          31.900
 107153486.887 8  83496269.15847  20390631.688                    20390637.668
       496.406         387.082          53.200          45.500
 121069549.520 7  94339923.33944  23038778.750                    23038780.008
     -2510.754       -1956.264          43.500          28.600
 18  2 20  9 47 30.0000000  0  7G05G07G13G28G09G30G02
 108968262.157 8  84910379.16046  20735978.125                    20735982.375
      1233.672         961.443          51.000          41.600
 110229773.504 8  85893377.82346  20976034.195                    20976037.582
     -1207.133        -940.466          52.900          41.800
 121195489.964 7  94438080.75345  23062738.688                    23062742.543
      2943.348        2293.569          45.100          30.400
 125975712.297 6  98162950.01543  23972389.320                    23972392.941
      3183.316        2480.475          36.400          20.400
 119419282.357 7  93054055.80545  22724742.828                    22724748.504
     -2842.934       -2215.261          45.800          32.000
 107138861.536 8  83484872.77547  20387848.617                    20387854.676
       478.699         373.168          53.400          45.400
 121145026.339 7  94398736.39744  23053140.563                    23053142.699
     -2520.984       -1964.318          42.900          27.800
 18  2 20  9 48  0.0000000  0  7G05G07G13G28G09G30G02
 108931505.058 8  84881737.26946  20728983.250                    20728987.422
      1216.945         948.467          50.700          41.500
 110266214.832 8  85921773.64346  20982968.531                    20982972.391
     -1222.195        -952.169          53.200          41.600
 121107269.439 7  94369337.49545  23045951.117                    23045954.961
      2938.191        2289.467          45.400          30.600
 125880274.197 6  98088582.77343  23954228.055                    23954232.105
      3179.578        2477.497          39.000          19.900
 119504650.979 7  93120576.78345  22740987.727                    22740993.660
     -2848.055       -2219.281          45.300          32.000
 107124774.754 8  83473896.06147  20385167.953                    20385174.176
       460.574         359.104          53.200          45.600
 121220814.503 7  94457792.06544  23067563.297                    23067564.652
     -2531.422       -1972.422          42.800          28.500
 18  2 20  9 48 30.0000000  0  7G05G07G13G28G09G30G02
 108895243.953 8  84853481.85246  20722083.297                    20722086.992
      1200.531         935.635          52.100          41.700
 110303102.157 8  85950517.00746  20989988.242                    20989991.902
     -1236.926        -963.688          53.400          41.900
 121019204.205 7  94300715.24645  23029192.742                    23029196.430
      2933.031        2285.471          44.900          30.800
 125784948.355 6  98014302.95943  23936088.133                    23936091.934
      3175.715        2474.583          39.200          20.400
 119590170.865 7  93187215.62245  22757261.422                    22757267.145
     -2853.113       -2223.173          45.500          31.300
 107111226.427 8  83463338.91647  20382589.844                    20382595.598
       442.746         345.176          53.500          45.500
 121296910.912 7  94517087.92244  23082043.969                    23082045.270
     -2541.461       -1980.360          42.200          28.900
 18  2 20  9 49  0.0000000  0  7G05G07G13G28G09G30G02
 108859480.469 8  84825614.20547  20715277.523                    20715281.570
      1183.930         922.682          51.300          42.200
 110340434.137 8  85979606.84146  20997091.844                    20997095.684
     -1251.781        -975.211          53.000          41.700
 120931295.300 7  94232214.80745  23012464.305                    23012467.871
      2927.734        2281.396          45.300          30.400
 125689737.566 6  97940112.81443  23917970.195                    23917973.699
      3171.629        2471.532          39.800          19.600
 119675841.301 7  93253971.77045  22773564.406                    22773570.410
     -2858.109       -2227.060          45.900          31.600
 107098216.527 9  83453201.34047  20380114.188                    20380120.320
       424.742         331.173          54.300          46.000
 121373313.261 7  94576622.17044  23096583.297                    23096584.496
     -2551.875       -1988.294          42.600          29.700
 18  2 20  9 49 30.0000000  0  7G05G07G13G28G09G30G02
 108824216.372 8  84798135.69047  20708566.414                    20708571.141
      1167.176         909.685          51.900          42.700
 110378208.810 8  86009041.66246  21004280.211                    21004283.945
     -1266.500        -986.704          53.200          40.700
 120843543.333 7  94163836.64845  22995765.766                    22995769.461
      2922.504        2277.324          44.700          30.000
 125594644.805 6  97866014.64343  23899874.938                    23899878.699
      3167.832        2468.446          40.100          21.300
 119761661.282 7  93320844.44045  22789895.602                    22789901.195
     -2863.109       -2230.958          45.300          32.400
 107085744.829 8  83443483.13847  20377740.938                    20377746.816
       406.805         317.199          53.100          45.700
 121450018.584 7  94636392.51944  23111179.477                    23111180.648
     -2561.879       -1996.115          42.400          29.400
 18  2 20  9 50  0.0000000  0  7G05G07G13G28G09G30G02
 108789453.077 8  84771047.40247  20701951.758                    20701955.746
      1150.531         896.686          51.900          42.600
 110416425.002 8  86038820.49946  21011552.477                    21011556.266
     -1281.090        -998.129          53.100          40.500
 120755949.344 7  94095581.59944  22979096.867                    22979100.855
      2917.258        2273.203          45.300          29.800
 125499672.922 6  97792010.68043  23881802.023                    23881806.059
      3164.074        2465.269          39.700          20.400
 119847630.205 7  93387833.15545  22806254.734                    22806260.746
     -2867.930       -2234.790          45.800          31.600
 107073811.293 8  83434184.28647  20375470.438                    20375476.316
       388.996         303.239          53.300          45.800
 121527024.067 7  94696396.75144  23125833.563                    23125834.863
     -2571.621       -2003.862          43.000          29.900
 18  2 20  9 50 30.0000000  0  7G05G07G13G28G09G30G02
 108755192.013 8  84744350.46947  20695432.383                    20695436.043
      1133.613         883.546          53.000          42.600
 110455081.048 8  86068942.07946  21018908.469                    21018911.992
     -1295.840       -1009.594          53.000          40.900
 120668513.949 7  94027450.12544  22962458.805                    22962462.371
      2911.816        2269.009          45.100          29.600
 125404824.945 6  97718103.23543  23863752.828                    23863757.246
      3159.457        2461.982          39.200          20.900
 119933746.977 7  93454937.08845  22822642.867                    22822648.414
     -2873.141       -2238.684          46.200          32.700
 107062415.541 8  83425304.47547  20373301.867                    20373307.520
       370.840         289.213          53.600          45.800
 121604327.069 7  94756632.81345  23140543.898                    23140545.133
     -2581.684       -2011.608          42.200          31.600
 18  2 20  9 51  0.0000000  0  7G05G07G13G28G09G30G02
 108721434.482 8  84718045.90147  20689008.633                    20689012.035
      1116.973         870.516          52.300          43.400
 110494175.158 8  86099405.01546  21026347.859                    21026351.238
     -1310.309       -1020.888          53.300          40.600
 120581237.857 7  93959442.78044  22945849.805                    22945854.367
      2906.777        2264.968          45.000          28.600
 125310103.724 6  97644294.60343  23845727.602                    23845733.027
      3155.496        2458.716          38.600          20.900
 120020010.757 7  93522155.57645  22839058.188                    22839064.445
     -2877.715       -2242.418          46.200          33.000
 107051557.342 8  83416843.54747  20371235.133                    20371241.363
       353.137         275.318          53.400          45.100
 121681924.781 7  94817098.51245  23155310.570                    23155311.441
     -2591.344       -2019.169          42.100          31.900
 18  2 20  9 51 30.0000000  0  7G05G07G13G28G09G30G02
 108688182.465 8  84692135.23747  20682680.641                    20682684.813
      1099.824         857.294          52.800          43.400
 110533706.459 8  86130208.60646  21033870.625                    21033873.930
     -1325.059       -1032.285          53.500          40.800
 120494122.052 7  93891560.35844  22929272.453                    22929276.773
      2901.109        2260.684          45.000          28.900
 125215512.411 6  97570587.19143  23827727.734                    23827732.711
      3150.785        2455.200          40.300          22.800
 120106420.970 7  93589488.16045  22855501.336                    22855507.215
     -2882.809       -2246.279          46.400          32.300
 107041236.685 8  83408801.48247  20369271.266                    20369277.066
       335.055         261.305          52.800          44.500
 121759814.576 7  94877791.82545  23170131.805                    23170133.348
     -2601.176       -2026.791          44.100          31.400
 18  2 20  9 52  0.0000000  0  7G05G07G13G28G09G30G02
 108655437.148 8  84666619.40647  20676449.227                    20676453.363
      1083.039         844.130          52.200          43.000
 110573673.023 8  86161351.37346  21041475.922                    21041479.215
     -1339.441       -1043.563          53.900          41.700
 120407167.388 7  93823803.48744  22912726.000                    22912730.301
      2895.902        2256.504          45.500          29.300
 125121053.630 6  97496983.02343  23809752.805                    23809757.445
      3146.422        2451.775          39.400          22.800
 120192976.533 7  93656934.00445  22871971.594                    22871978.371
     -2887.559       -2250.051          45.100          32.000
 107031453.142 8  83401177.94147  20367409.328                    20367415.480
       317.199         247.369          52.900          44.700
 121837993.505 7  94938710.42345  23185008.688                    23185010.016
     -2610.770       -2034.249          44.500          31.400
 18  2 20  9 52 30.0000000  0  7G05G07G13G28G09G30G02
 108623199.862 8  84641499.43647  20670314.930                    20670318.590
      1066.008         830.953          51.800          43.600
 110614073.380 9  86192832.16146  21049163.977                    21049167.125
     -1353.937       -1054.772          54.500          41.100
 120320374.411 7  93756172.60645  22896209.461                    22896214.027
      2890.336        2252.356          45.900          30.100
 125026730.355 6  97423484.44643  23791802.664                    23791808.797
      3141.809        2448.263          38.600          22.300
 120279676.616 7  93724492.45045  22888470.969                    22888476.844
     -2892.430       -2253.740          45.200          32.600
 107022206.470 8  83393972.74847  20365649.844                    20365655.688
       299.309         233.462          52.700          45.300
 121916458.742 7  94999852.11845  23199939.984                    23199941.809
     -2620.309       -2041.620          42.600          31.600
 18  2 20  9 53  0.0000000  0  7G05G07G13G28G09G30G02
 108591471.870 8  84616776.32347  20664277.258                    20664281.063
      1049.063         817.707          51.900          43.100
 110654905.500 9  86224649.39046  21056934.195                    21056937.777
     -1368.262       -1065.971          54.500          41.400
 120233744.218 7  93688668.58944  22879724.766                    22879728.281
      2884.926        2248.108          45.800          29.400
 124932545.336 6  97350093.61743  23773880.180                    23773885.191
      3137.172        2444.621          39.200          21.700
 120366520.283 7  93792162.79645  22904996.609                    22905002.523
     -2897.180       -2257.453          45.800          32.900
 107013496.258 8  83387185.57947  20363992.195                    20363998.316
       281.449         219.529          52.700          44.600
 121995207.473 7  95061214.72545  23214925.234                    23214926.996
     -2629.652       -2048.938          43.400          31.700
 18  2 20  9 53 30.0000000  0  7G05G07G13G28G09G30G02
 108560255.343 8  84592451.75747  20658337.258                    20658340.633
      1032.016         804.460          52.100          43.400
 110696168.448 9  86256802.32546  21064786.602                    21064789.859
     -1382.629       -1077.094          54.200          41.800
 120147277.686 7  93621292.08345  22863270.391                    22863274.590
      2879.449        2243.878          45.800          30.300
 124838501.818 6  97276813.02443  23755984.727                    23755989.203
      3132.559        2440.966          38.400          22.200
 120453507.122 7  93859944.69145  22921549.391                    22921555.895
     -2901.926       -2261.124          44.700          32.100
 107005322.545 8  83380816.46247  20362436.883                    20362443.004
       263.477         205.642          52.500          45.700
 122074237.243 7  95122796.32045  23229964.203                    23229966.465
     -2638.996       -2056.175          44.500          31.400
 18  2 20  9 54  0.0000000  0  7G05G07G13G28G09G30G02
 108529551.383 8  84568526.59047  20652494.438                    20652497.813
      1014.816         791.039          52.500          43.700
 110737860.478 9  86289289.61047  21072720.320                    21072723.418
     -1396.953       -1088.287          54.300          42.200
 120060975.408 7  93554043.55545  22846847.641                    22846851.613
      2873.832        2239.547          47.100          30.600
 124744602.606 6  97203644.85743  23738115.539                    23738120.484
      3127.344        2437.095          39.100          22.900
 120540636.085 7  93927837.35345  22938129.281                    22938136.328
     -2906.703       -2264.877          43.900          32.100
 106997684.875 8  83374865.04247  20360983.820                    20360989.707
       245.578         191.654          53.700          45.200
 122153545.140 7  95184594.64645  23245056.586                    23245058.160
     -2648.316       -2063.432          44.400          31.500
 18  2 20  9 54 30.0000000  0  7G05G07G13G28G09G30G02
 108499361.301 8  84545001.84247  20646749.313                    20646752.965
       997.754         777.705          52.500          43.600
 110779979.866 9  86322109.91447  21080735.523                    21080738.582
     -1411.066       -1099.355          54.400          42.200
 119974838.194 7  93486923.67345  22830456.813                    22830460.262
      2868.590        2235.274          46.200          30.600
 124650850.506 6  97130591.31743  23720275.297                    23720279.871
      3122.613        2433.283          38.800          22.500
 120627906.265 7  93995840.03245  22954736.922                    22954743.094
     -2911.223       -2268.489          44.300          31.900
 106990582.822 8  83369330.97747  20359632.344                    20359638.906
       227.852         177.762          53.500          46.400
 122233128.155 7  95246607.35745  23260200.648                    23260202.258
     -2657.277       -2070.502          43.600          30.900
 18  2 20  9 55  0.0000000  0  7G05G07G13G28G09G30G02
 108469686.696 8  84521878.76447  20641102.305                    20641106.254
       980.707         764.372          52.000          43.500
 110822524.954 9  86355261.93647  21088831.211                    21088834.672
     -1425.137       -1110.319          54.300          42.100
 119888867.104 7  93419933.23245  22814096.719                    22814100.496
      2863.066        2231.007          45.700          30.900
 124557248.624 6  97057654.86043  23702463.289                    23702467.746
      3117.621        2429.372          39.900          22.800
 120715317.061 7  94063952.29545  22971370.570                    22971376.715
     -2915.875       -2272.081          43.000          32.100
 106984016.207 8  83364214.13847  20358382.898                    20358389.117
       210.094         163.922          53.800          46.400
 122312983.645 7  95308832.37945  23275396.531                    23275398.176
     -2666.246       -2077.491          44.800          30.100
 18  2 20  9 55 30.0000000  0  7G05G07G13G28G09G30G02
 108440528.932 8  84499158.41947  20635553.992                    20635557.602
       963.238         750.851          51.400          43.500
 110865494.398 8  86388744.61346  21097008.344                    21097011.680
     -1439.395       -1121.397          53.800          41.800
 119803062.780 7  93353072.74445  22797768.867                    22797772.406
      2857.305        2226.594          45.800          32.200
 124463799.957 6  96984837.75543  23684680.883                    23684684.828
      3112.289        2425.302          39.300          23.200
 120802867.585 7  94132173.45745  22988030.766                    22988037.496
     -2920.723       -2275.780          42.600          32.200
 106977984.679 8  83359514.24947  20357235.289                    20357241.598
       192.152         149.968          53.400          46.700
 122393108.807 7  95371267.53844  23290643.688                    23290645.410
     -2675.332       -2084.523          43.900          29.400
 18  2 20  9 56  0.0000000  0  7G05G07G13G28G09G30G02
 108411889.394 8  84476841.89247  20630104.180                    20630107.852
       945.949         737.340          51.800          43.100
 110908886.402 8  86422556.57846  21105265.234                    21105268.898
     -1453.414       -1132.382          53.400          41.600
 119717426.494 7  93286343.18245  22781472.594                    22781476.844
      2851.699        2222.198          46.500          32.200
 124370507.334 6  96912142.28643  23666927.867                    23666931.762
      3107.203        2421.167          40.600          22.600
 120890557.189 7  94200502.97245  23004717.602                    23004724.344
     -2925.387       -2279.419          43.100          32.300
 106972487.962 8  83355231.09447  20356188.852                    20356195.219
       174.258         136.033          52.900          46.000
 122473500.923 7  95433910.70044  23305942.148                    23305944.246
     -2684.262       -2091.459          43.800          29.500
 18  2 20  9 56 30.0000000  0  8G05G07G13G28G09G30G20G02
 108383770.320 8  84454930.91947  20624753.047                    20624756.871
       928.484         723.810          51.100          43.400
 110952700.342 8  86456697.28946  21113602.406                    21113605.961
     -1467.586       -1143.312          52.900          41.400
 119631959.421 7  93219745.48345  22765208.828                    22765212.500
      2845.941        2217.788          45.200          32.600
 124277374.535 6  96839571.32044  23649205.258                    23649208.563
      3101.734        2416.989          40.100          24.100
 120978385.751 7  94268940.77845  23021431.227                    23021437.750
     -2930.055       -2283.017          43.300          32.100
 106967526.334 8  83351364.88647  20355244.781                    20355250.926
       156.410         122.154          52.100          45.600
 128323865.979 6  99992680.29243  24419230.734                    24419234.281
      3550.051        2766.424          39.100          20.100
 122554157.735 7  95496760.12444  23321290.578                    23321292.426
     -2693.055       -2098.276          44.100          28.500
 18  2 20  9 57  0.0000000  0  8G05G07G13G28G09G30G20G02
 108356172.340 8  84433425.99647  20619501.367                    20619505.059
       911.313         710.292          51.400          43.400
 110996934.123 8  86491165.18646  21122019.727                    21122023.465
     -1481.352       -1154.177          53.400          40.900
 119546661.814 7  93153279.81745  22748977.406                    22748981.090
      2840.531        2213.408          45.900          31.900
 124184403.884 6  96767126.73444  23631512.844                    23631517.242
      3096.520        2412.781          41.700          24.400
 121066351.865 7  94337485.75145  23038170.945                    23038177.105
     -2934.320       -2286.539          43.300          32.900
 106963098.824 8  83347914.88447  20354402.297                    20354408.172
       138.758         108.300          52.900          45.400
 128217427.325 6  99909741.07543  24398975.766                    24398980.098
      3545.777        2762.901          39.400          19.300
 122635076.114 7  95559813.35544  23336689.031                    23336690.902
     -2701.434       -2105.021          44.200          28.600
 18  2 20  9 57 30.0000000  0  8G05G07G13G28G09G30G20G02
 108329096.535 8  84412327.96047  20614348.945                    20614352.918
       893.676         696.705          51.900          43.600
 111041585.836 8  86525958.72746  21130516.625                    21130520.898
     -1495.508       -1165.008          52.200          40.600
 119461534.127 7  93086946.57445  22732778.180                    22732781.824
      2834.551        2208.974          45.300          32.300
 124091597.833 6  96694810.39044  23613853.297                    23613856.500
      3090.473        2408.479          41.700          25.700
 121154454.382 7  94406137.00945  23054935.945                    23054942.137
     -2939.230       -2290.079          43.600          32.400
 106959204.597 8  83344880.41947  20353661.141                    20353667.008
       120.766          94.467          53.700          45.800
 128111127.497 6  99826910.02342  24378748.320                    24378751.242
      3540.805        2759.269          37.300          17.800
 122716252.776 7  95623067.83444  23352136.609                    23352138.449
     -2710.246       -2111.672          44.100          28.300
 18  2 20  9 58  0.0000000  0  8G05G07G13G28G09G30G20G02
 108302544.125 8  84391637.76347  20609296.594                    20609300.133
       876.254         683.123          52.000          43.200
 111086653.143 8  86561076.11646  21139092.414                    21139096.637
     -1509.184       -1175.766          51.600          40.200
 119376577.292 7  93020746.44045  22716611.523                    22716615.070
      2828.957        2204.537          47.000          31.900
 123998959.445 7  96622624.71544  23596224.266                    23596227.848
      3085.102        2404.088          43.200          24.900
 121242692.409 7  94474893.86345  23071727.031                    23071733.695
     -2943.543       -2293.576          43.800          32.300
 106955843.161 8  83342261.12947  20353021.383                    20353027.516
       103.160          80.640          53.000          46.400
 128004968.918 6  99744189.07043  24358546.586                    24358550.227
      3536.176        2755.596          36.600          18.300
 122797684.491 7  95686521.07144  23367632.633                    23367634.141
     -2718.648       -2118.265          44.800          27.900
 18  2 20  9 58 30.0000000  0  8G05G07G13G28G09G30G20G02
 108276516.669 8  84371356.62247  20604343.523                    20604347.277
       858.840         669.441          51.700          42.700
 111132134.930 8  86596516.47846  21147746.891                    21147751.363
     -1522.949       -1186.557          51.700          40.100
 119291791.848 7  92954679.86945  22700476.500                    22700480.570
      2823.332        2200.050          45.900          31.800
 123906491.649 7  96550571.97543  23578627.063                    23578632.250
      3079.527        2399.581          43.100          23.300
 121331065.271 7  94543755.80345  23088543.609                    23088550.777
     -2948.039       -2297.094          45.100          32.900
 106953014.164 9  83340056.72447  20352483.109                    20352489.340
        85.500          66.800          54.000          46.100
 127898953.683 6  99661579.83843  24338373.633                    24338377.074
      3531.477        2751.833          39.700          20.900
 122879369.119 7  95750171.36744  23383176.563                    23383177.664
     -2726.953       -2124.829          44.400          27.500
 18  2 20  9 59  0.0000000  0  8G05G07G13G28G09G30G20G02
 108251014.963 8  84351485.17347  20599490.586                    20599494.633
       841.199         655.768          51.900          43.500
 111178029.452 8  86632278.47246  21156480.414                    21156484.359
     -1536.770       -1197.249          51.900          39.400
 119207179.053 7  92888747.82845  22684375.820                    22684379.707
      2817.461        2195.541          46.700          32.800
 123814197.062 7  96478654.19644  23561064.844                    23561069.254
      3073.477        2395.050          43.900          24.000
 121419571.931 7  94612721.96545  23105386.594                    23105393.016
     -2952.461       -2300.547          45.500          32.800
 106950716.827 8  83338266.59847  20352045.758                    20352051.516
        67.742          52.994          52.900          46.200
 127793084.353 6  99579084.24243  24318226.961                    24318230.047
      3526.340        2748.028          38.300          22.300
 122961303.059 7  95814015.94444  23398767.797                    23398769.375
     -2735.312       -2131.259          44.900          26.400
 18  2 20  9 59 30.0000000  0  8G05G07G13G28G09G30G20G02
 108226040.724 8  84332024.73147  20594738.055                    20594741.691
       823.625         642.050          52.300          43.000
 111224334.972 8  86668360.65946  21165292.375                    21165296.449
     -1550.359       -1207.891          51.300          39.700
 119122739.962 7  92822951.14145  22668307.313                    22668311.074
      2811.730        2191.040          46.100          31.800
 123722078.956 7  96406873.92844  23543536.039                    23543540.363
      3067.668        2390.436          42.200          25.500
 121508211.911 7  94681792.05045  23122253.906                    23122260.242
     -2956.980       -2304.013          45.800          32.600
 106948951.024 8  83336890.64847  20351710.242                    20351716.082
        50.004          39.201          53.400          46.000
 127687363.489 6  99496704.34543  24298109.570                    24298112.281
      3521.520        2744.096          38.800          20.900
 123043483.809 7  95878052.84044  23414406.094                    23414407.938
     -2743.445       -2137.642          44.000          27.600
                            4  1
RINEX FILE SPLICE; other post-header comments skipped       COMMENT
 18  2 20 10  0  0.0000000  0  8G05G07G13G28G09G30G20G02
 108201595.339 8  84312976.38147  20590086.242                    20590089.617
       805.938                          52.300          42.700
 111271049.978 8  86704761.95946  21174181.797                    21174185.441
     -1564.000                          51.700          40.000
 119038475.023 7  92757290.16845  22652272.820                    22652276.250
      2805.840                          47.500          32.600
 123630140.405 6  96335233.57544  23526039.469                    23526044.379
      3061.645                          39.700          24.100
 121596984.370 7  94750965.36345  23139146.648                    23139153.449
     -2961.359                          46.500          32.100
 106947716.197 8  83335928.45647  20351475.016                    20351481.176
        32.234                          53.800          46.900
 127581793.152 6  99414441.73443  24278019.469                    24278022.578
      3516.555                          37.000          20.100
 123125908.907 7  95942280.14244  23430091.531                    23430092.582
     -2751.641                          44.500          26.100
 18  2 20 10  0 30.0000000  0  8G05G07G13G28G09G30G20G02
 108177679.765 8  84294340.87147  20585535.344                    20585538.793
       788.336         614.503          52.900          42.900
 111318172.540 8  86741480.83946  21183149.031                    21183152.645
     -1577.523       -1229.083          51.700          40.300
 118954385.182 7  92691765.62745  22636270.617                    22636274.180
      2799.984        2181.926          47.100          32.100
 123538383.990 6  96263735.14344  23508578.336                    23508583.629
      3055.426        2380.972          39.900          24.900
 121685888.480 7  94820241.26145  23156064.883                    23156071.273
     -2965.789       -2310.862          46.000          32.400
 106947011.772 9  83335379.55347  20351341.203                    20351347.453
        14.625          11.625          54.100          46.900
 127476375.743 5  99332298.33542  24257959.414                    24257962.207
      3511.094        2736.099          35.200          17.800
 123208574.970 7  96006695.19944  23445822.227                    23445823.652
     -2759.598       -2150.203          44.300          27.100
 18  2 20 10  1  0.0000000  0  8G05G07G13G28G09G30G20G02
 108154295.206 8  84276119.14347  20581085.617                    20581088.488
       770.652         600.729          51.800          42.000
 111365701.356 8  86778516.27546  21192193.703                    21192197.371
     -1590.969       -1239.594          52.600          40.300
 118870471.400 7  92626378.27845  22620302.430                    22620306.219
      2794.180        2177.354          47.000          32.400
 123446812.707 6  96192380.96344  23491153.141                    23491158.324
      3049.219        2376.135          40.500          25.300
 121774923.482 7  94889619.15245  23173007.609                    23173014.238
     -2970.016       -2314.229          45.000          32.100
 106946837.161 8  83335243.49247  20351307.781                    20351313.898
        -3.031          -2.113          53.600          46.300
 127371113.580 6  99250275.86143  24237928.633                    24237931.711
      3506.121        2732.114          38.700          19.600
 123291479.453 7  96071296.04944  23461598.406                    23461599.605
     -2767.348       -2156.330          44.200          27.600
 18  2 20 10  1 30.0000000  0  8G05G07G13G28G09G30G20G02
 108131442.784 8  84258312.06047  20576736.578                    20576740.113
       752.855         586.875          51.900          42.300
 111413634.507 8  86815866.77246  21201315.297                    21201318.977
     -1604.520       -1250.086          52.600          40.900
 118786733.985 7  92561128.36645  22604367.813                    22604371.543
      2788.242        2172.779          47.600          32.300
 123355429.355 6  96121173.22044  23473763.820                    23473768.621
      3042.793        2371.211          38.700          24.200
 121864088.565 7  94959098.39845  23189975.008                    23189981.660
     -2974.383       -2317.603          46.300          32.500
 106947191.833 8  83335519.85647  20351375.414                    20351381.844
       -20.602         -15.825          53.700          46.300
 127266009.120 6  99168376.29243  24217927.773                    24217930.809
      3500.813        2727.990          38.900          21.100
 123374619.341 7  96136080.31344  23477419.617                    23477421.004
     -2775.164       -2162.380          43.200          26.200
 18  2 20 10  2  0.0000000  0  8G05G07G13G28G09G30G20G02
 108109124.168 8  84240920.92947  20572489.602                    20572492.813
       734.918         573.026          52.000          42.300
 111461970.567 8  86853531.23046  21210513.359                    21210516.949
     -1618.023       -1260.502          52.500          41.400
 118703174.498 7  92496017.09745  22588466.492                    22588470.047
      2782.234        2168.150          46.600          32.200
 123264237.105 6  96050114.37743  23456409.930                    23456415.195
      3036.473        2366.234          39.700          23.200
 121953383.044 7  95028678.46645  23206967.320                    23206974.238
     -2978.754       -2320.921          44.700          32.000
 106948075.334 8  83336208.30447  20351543.250                    20351549.785
       -38.309         -29.549          52.200          46.500
 127161064.954 6  99086601.62343  24197957.914                    24197961.133
      3495.293        2723.806          40.200          20.900
 123457991.889 7  96201045.87844  23493285.234                    23493286.359
     -2783.055       -2168.393          43.800          26.400
 18  2 20 10  2 30.0000000  0  8G05G07G13G28G09G30G20G02
 108087340.440 8  84223946.60447  20568344.438                    20568347.902
       717.082         559.072          51.700          42.400
 111510707.611 8  86891508.14647  21219788.273                    21219791.707
     -1631.320       -1270.938          53.400          42.000
 118619793.568 7  92431044.96745  22572599.906                    22572603.504
      2776.398        2163.489          46.100          32.300
 123173238.312 6  95979206.28644  23439092.852                    23439098.027
      3030.020        2361.136          37.800          24.500
 122042806.113 7  95098358.75145  23223983.711                    23223990.371
     -2982.961       -2324.291          45.200          32.800
 106949486.957 8  83337308.27547  20351811.805                    20351818.281
       -55.926         -43.299          52.200          46.100
 127056283.186 6  99004953.48143  24178017.891                    24178021.215
      3489.859        2719.528          39.100          19.000
 123541594.082 7  96266190.36544  23509194.867                    23509195.355
     -2790.539       -2174.352          43.500          26.200
 18  2 20 10  3  0.0000000  0  8G05G07G13G28G09G30G20G02
 108066092.655 8  84207389.88947  20564301.102                    20564304.680
       699.297         545.116          52.800          43.000
 111559843.922 8  86929796.19046  21229138.461                    21229141.996
     -1644.477       -1281.296          53.000          41.300
 118536591.900 7  92366212.52745  22556767.383                    22556770.961
      2770.461        2158.795          45.900          32.600
 123082436.551 6  95908451.70743  23421814.438                    23421818.645
      3023.457        2355.946          38.300          22.500
 122132356.846 7  95168138.50945  23241024.859                    23241031.676
     -2987.203       -2327.635          45.000          33.100
 106951426.007 8  83338819.22747  20352181.102                    20352187.410
       -73.395         -57.026          51.900          45.700
 126951666.154 6  98923433.73043  24158110.156                    24158113.406
      3484.492        2715.223          38.600          19.300
 123625423.276 7  96331511.74244  23525146.656                    23525147.668
     -2798.043       -2180.243          42.600          26.000
 18  2 20 10  3 30.0000000  0  8G05G07G13G28G09G30G20G02
 108045382.029 8  84191251.74847  20560359.867                    20560363.676
       681.270         531.169          52.400          43.500
 111609377.875 8  86968394.07346  21238564.305                    21238568.359
     -1657.922       -1291.591          52.700          41.800
 118453570.479 7  92301520.52945  22540968.648                    22540972.395
      2764.301        2154.115          46.200          32.600
 122991834.700 6  95837852.89744  23404574.031                    23404577.582
      3016.652        2350.754          39.400          24.400
 122222034.533 7  95238017.17945  23258090.164                    23258096.938
     -2991.527       -2330.903          45.800          32.400
 106953891.912 8  83340740.71847  20352650.078                    20352656.219
       -91.102         -70.680          52.800          46.500
 126847216.193 6  98842044.15943  24138233.492                    24138236.613
      3478.730        2710.845          39.700          19.000
 123709476.329 7  96397007.55844  23541141.727                    23541142.422
     -2805.543       -2185.978          43.000          25.400
 18  2 20 10  4  0.0000000  0  8G05G07G13G28G09G30G20G02
 108025209.630 8  84175532.99547  20556521.164                    20556524.699
       663.352         517.197          52.300          43.300
 111659307.568 8  87007300.33046  21248065.547                    21248069.344
     -1670.984       -1301.830          52.300          41.700
 118370730.140 7  92236969.63445  22525204.586                    22525208.715
      2758.277        2149.414          45.800          32.400
 122901435.370 6  95767411.91044  23387371.125                    23387374.594
      3009.801        2345.470          41.100          25.300
 122311838.548 7  95307994.27645  23275179.492                    23275186.066
     -2995.676       -2334.146          45.100          31.900
 106956884.137 8  83343072.32247  20353219.281                    20353225.453
      -108.551         -84.325          53.000          45.900
 126742936.030 6  98760786.87543  24118390.383                    24118393.090
      3472.988        2706.433          41.100          21.500
 123793750.571 7  96462675.74244  23557179.203                    23557179.625
     -2812.875       -2191.714          42.600          27.200
 18  2 20 10  4 30.0000000  0  8G05G07G13G28G09G30G20G02
 108005576.446 8  84160234.41847  20552785.070                    20552788.891
       645.520         503.202          52.600          43.500
 111709631.890 8  87046514.08846  21257641.859                    21257645.781
     -1683.996       -1312.057          52.500          41.700
 118288071.549 7  92172560.34145  22509475.063                    22509479.090
      2752.316        2144.711          46.300          32.400
 122811241.575 7  95697131.07243  23370207.766                    23370211.543
      3003.023        2340.109          42.000          23.900
 122401767.881 7  95378069.05745  23292291.289                    23292298.816
     -2999.676       -2337.373          46.000          31.900
 106960401.853 8  83345813.39847  20353888.883                    20353895.145
      -125.996         -97.950          52.900          45.300
 126638827.669 6  98679663.49443  24098579.555                    24098582.488
      3467.453        2701.948          39.700          21.500
 123878242.981 6  96528513.93044  23573256.445                    23573258.223
     -2819.961       -2197.306          41.400          25.900
 18  2 20 10  5  0.0000000  0  8G05G07G13G28G09G30G20G02
 107986483.622 8  84145356.90047  20549151.906                    20549155.883
       627.313         489.117          53.000          43.600
 111760349.094 8  87086033.99446  21267292.938                    21267296.719
     -1697.117       -1322.215          51.900          41.200
 118205595.635 7  92108293.41345  22493780.219                    22493784.422
      2746.180        2139.935          45.900          31.900
 122721256.036 7  95627012.51244  23353084.258                    23353088.371
      2996.023        2334.667          43.500          25.800
 122491821.866 7  95448240.93145  23309429.102                    23309435.523
     -3003.785       -2340.602          46.300          31.600
 106964444.394 8  83348963.42947  20354658.219                    20354664.000
      -143.492        -111.578          52.800          45.600
 126534893.865 6  98598676.14043  24078801.398                    24078804.438
      3461.547        2697.404          38.800          20.100
 123962950.599 7  96594519.81244  23589375.648                    23589376.957
     -2827.152       -2202.882          42.300          25.400
 18  2 20 10  5 30.0000000  0  8G05G07G13G28G09G30G20G02
 107967932.154 8  84130901.20847  20545621.531                    20545625.629
       609.293         475.033          53.000          43.700
 111811456.528 8  87125857.96246  21277017.914                    21277022.117
     -1710.129       -1332.366          51.700          40.600
 118123303.456 7  92044169.64545  22478120.727                    22478125.086
      2739.902        2135.129          46.300          32.000
 122631481.989 7  95557058.71044  23336000.984                    23336005.047
      2988.820        2329.084          44.300          26.500
 122581999.813 7  95518509.43045  23326588.938                    23326596.301
     -3007.996       -2343.827          46.700          30.200
 106969011.244 8  83352522.01147  20355527.234                    20355532.961
      -161.023        -125.217          53.900          45.800
 126431136.979 6  98517826.70243  24059056.539                    24059060.195
      3455.523        2692.768          37.600          20.400
 124047870.698 7  96660691.24444  23605535.445                    23605537.238
     -2834.250       -2208.394          42.300          24.900
 18  2 20 10  6  0.0000000  0  8G05G07G13G28G09G30G20G02
 107949923.588 8  84116868.55747  20542194.609                    20542198.414
       591.242         460.958          52.900          43.900
 111862953.044 8  87165985.11346  21286817.648                    21286821.555
     -1723.023       -1342.425          51.900          40.600
 118041195.574 7  91980189.49045  22462496.031                    22462500.348
      2733.840        2130.352          45.500          31.600
 122541922.201 7  95487271.88844  23318958.094                    23318962.914
      2981.672        2323.521          44.700          27.200
 122672301.017 7  95588873.92944  23343772.836                    23343779.969
     -3012.082       -2347.005          46.200          29.800
 106974101.624 8  83356488.54647  20356495.836                    20356501.660
      -178.426        -138.762          53.400          45.400
 126327559.045 6  98437116.65543  24039346.336                    24039349.988
      3449.547        2688.066          39.200          19.600
 124133000.630 7  96727026.21544  23621735.461                    23621736.949
     -2841.215       -2213.748          42.200          25.100
 18  2 20 10  6 30.0000000  0  8G05G07G13G28G09G30G20G02
 107932458.825 8  84103259.65047  20538871.211                    20538875.336
       572.961         446.766          53.700          43.500
 111914836.841 8  87206414.03446  21296690.695                    21296694.566
     -1736.020       -1352.511          51.900          40.800
 117959273.475 7  91916354.08845  22446906.531                    22446911.152
      2727.480        2125.485          44.700          32.400
 122452579.606 7  95417654.28244  23301957.375                    23301961.367
      2974.371        2317.821          44.600          27.500
 122762724.528 7  95659333.77045  23360979.625                    23360987.207
     -3016.270       -2350.205          45.900          30.200
 106979714.736 8  83360862.39647  20357563.844                    20357569.703
      -195.879        -152.381          53.800          45.800
 126224163.048 6  98356548.27943  24019670.719                    24019673.676
      3443.430        2683.273          38.600          19.600
 124218336.951 6  96793521.99444  23637973.969                    23637975.352
     -2847.984       -2219.096          41.400          24.700
 18  2 20 10  7  0.0000000  0  8G05G07G13G28G09G30G20G02
 107915538.683 8  84090075.12347  20535651.531                    20535655.148
       554.969         432.636          52.600          43.800
 111967106.027 8  87247143.26146  21306637.570                    21306641.023
     -1748.617       -1362.476          52.300          40.400
 117877537.438 7  91852663.67145  22431352.758                    22431357.227
      2721.508        2120.671          44.700          32.600
 122363456.884 7  95348208.00344  23284997.875                    23285002.430
      2967.242        2312.095          45.300          29.800
 122853269.589 7  95729888.33544  23378209.539                    23378216.770
     -3020.078       -2353.338          45.700          27.500
 106985849.791 8  83365642.96047  20358731.672                    20358737.352
      -213.090        -165.907          53.500          45.400
 126120951.041 6  98276123.33643  24000029.438                    24000032.535
      3437.426        2678.498          37.800          19.600
 124303876.953 7  96860176.47244  23654251.781                    23654253.285
     -2854.629       -2224.368          42.800          24.900
 18  2 20 10  7 30.0000000  0  8G05G07G13G28G09G30G20G02
 107899164.092 8  84077315.68547  20532535.625                    20532539.719
       536.691         418.462          53.200          43.600
 112019758.925 8  87288171.48246  21316657.055                    21316660.211
     -1761.590       -1372.411          52.600          40.800
 117795988.280 7  91789118.90045  22415834.586                    22415839.531
      2715.031        2115.793          44.800          32.400
 122274556.726 7  95278935.17744  23268080.516                    23268085.324
      2959.574        2306.279          45.200          29.500
 122943935.328 7  95800536.91144  23395463.391                    23395469.926
     -3024.305       -2356.450          45.000          28.900
 106992505.948 8  83370829.57847  20359997.977                    20360004.301
      -230.598        -179.418          53.300          45.600
 126017925.390 5  98195843.66243  23980423.633                    23980428.293
      3430.965        2673.630          35.900          18.600
 124389617.856 6  96926987.50243  23670568.539                    23670568.941
     -2861.508       -2229.507          41.500          22.900
 18  2 20 10  8  0.0000000  0  8G05G07G13G28G09G30G20G02
 107883336.415 8  84064982.42947  20529523.398                    20529527.488
       518.570         404.252          51.900          43.400
 112072794.076 8  87329497.55646  21326749.438                    21326752.809
     -1774.047       -1382.308          53.100          40.600
 117714627.094 7  91725720.58245  22400352.242                    22400357.059
      2709.008        2110.904          46.000          33.200
 122185882.431 7  95209838.35645  23251206.766                    23251210.746
      2952.219        2300.387          46.200          30.800
 123034721.229 7  95871279.17644  23412738.188                    23412745.523
     -3028.047       -2359.562          43.500          28.600
 106999682.669 8  83376421.82847  20361363.852                    20361370.000
      -247.754        -192.928          53.600          46.300
 125915088.692 6  98115711.23643  23960854.508                    23960859.461
      3424.922        2668.684          38.000          21.800
 124475556.537 6  96993952.64743  23686920.969                    23686922.609
     -2867.793       -2234.628          41.200          22.500
 18  2 20 10  8 30.0000000  0  8G05G07G13G28G09G30G20G02
 107868056.475 8  84053075.97347  20526615.586                    20526620.004
       500.289         390.005          50.700          43.400
 112126209.538 8  87371119.98546  21336914.352                    21336917.359
     -1786.742       -1392.160          53.000          40.600
 117633454.796 7  91662469.45845  22384905.250                    22384909.793
      2702.645        2105.989          46.100          34.000
 122097436.790 7  95140919.71045  23234375.391                    23234380.492
      2944.430        2294.387          46.000          30.600
 123125626.480 7  95942114.35144  23430038.273                    23430044.582
     -3032.055       -2362.665          45.100          26.800
 107007379.082 8  83382419.02647  20362828.398                    20362834.547
      -265.180        -206.429          53.500          46.000
 125812443.457 6  98035727.94643  23941322.906                    23941326.852
      3418.336        2663.685          38.000          22.300
 124561690.130 6  97061069.66343  23703313.266                    23703313.723
     -2874.230       -2239.655          41.400          22.600
 18  2 20 10  9  0.0000000  0  8G05G07G13G28G09G30G20G02
 107853325.185 8  84041597.03747  20523812.352                    20523816.645
       481.758         375.730          50.400          42.800
 112180003.764 8  87413037.55846  21347150.695                    21347153.758
     -1799.602       -1402.013          52.900          41.000
 117552472.123 7  91599366.09245  22369495.102                    22369499.613
      2696.039        2101.026          46.800          33.900
 122009222.715 7  95072181.52444  23217588.984                    23217593.746
      2936.367        2288.312          46.600          29.900
 123216650.098 7  96013041.84244  23447358.352                    23447365.980
     -3036.215       -2365.748          42.900          26.900
 107015594.201 8  83388820.42247  20364391.680                    20364398.262
      -282.633        -219.906          53.400          46.300
 125709991.927 6  97955895.59243  23921826.367                    23921830.516
      3411.715        2658.595          39.100          20.600
 124648015.882 6  97128336.45843  23719740.000                    23719741.168
     -2880.902       -2244.653          39.500          22.600
