     2.11           OBSERVATION DATA    G (GPS)             RINEX VERSION / TYPE
teqc  2016Nov7                          20180328 12:23:34UTCPGM / RUN BY / DATE
Linux 2.4.21-27.ELsmp|Opteron|gcc|Linux x86_64|=+           COMMENT
teqc  2016Nov7                          20180328 12:23:33UTCCOMMENT
     2.11           OBSERVATION DATA    M (MIXED)           COMMENT
teqc  2016Nov7                          20180328 12:23:30UTCCOMMENT
teqc  2016Nov7      IGN-RGP             20180220 09:16:10UTCCOMMENT
teqc  2015Jun23     IGN-RGP             20180220 09:06:36UTCCOMMENT
Linux2.4.20-8|i386|gcc|Win32-MinGW32|=                      COMMENT
   0.000      (antenna height)                              COMMENT
 +48.96934423 (latitude)                                    COMMENT
  +2.74931221 (longitude)                                   COMMENT
0175.602      (elevation)                                   COMMENT
BIT 2 OF LLI FLAGS DATA COLLECTED UNDER A/S CONDITION       COMMENT
19787M001 (COGO code)                                       COMMENT
SXJ4                                                        MARKER NAME
19787M001                                                   MARKER NUMBER
Automatic           GIE COOP&TECH                           OBSERVER / AGENCY
5132K77647          TRIMBLE NETR5       4.15                REC # / TYPE / VERS
1441009107          TRM55971.00     NONE                    ANT # / TYPE
  4190293.8430   201223.8300  4788453.8890                  APPROX POSITION XYZ
        1.1000        0.0000        0.0000                  ANTENNA: DELTA H/E/N
     1     1                                                WAVELENGTH FACT L1/2
     9    L1    L2    C1    P1    P2    D1    D2    S1    S2# / TYPES OF OBSERV
    30.0000                                                 INTERVAL
    18                                                      LEAP SECONDS
 SNR is mapped to RINEX snr flag value [0-9]                COMMENT
  L1 & L2: min(max(int(snr_dBHz/6), 0), 9)                  COMMENT
teqc_2016 edited: GLONASS # 25 - 30 excluded                COMMENT
Forced Modulo Decimation to 30 seconds                      COMMENT
teqc_2016 edited: all GLONASS satellites excluded           COMMENT
teqc_2016 edited: all SBAS satellites excluded              COMMENT
teqc_2016 edited: all Galileo satellites excluded           COMMENT
  2018     2    20     8     0    0.0000000     GPS         TIME OF FIRST OBS
                                                            END OF HEADER
 18  2 20  8  0  0.0000000  0  8G05G23G30G07G09G16G02G06
 125095575.484 7  97477147.32444  23804909.727                    23804909.582
      3303.281                          44.500          25.000
 118080011.073 8  92010408.40045  22469878.359                    22469878.961
     -2494.207                          48.800          33.500
 121455413.562 7  94640583.68243  23112192.633                    23112198.762
      3501.605                          42.300          22.200
 114111634.175 8  88918216.54945  21714730.070                    21714733.020
      2350.070                          51.400          35.900
 106201487.662 8  82754456.39847  20209473.016                    20209477.434
      -958.961                          52.500          44.600
 127464717.303 6  99323194.13843  24255735.125                    24255736.188
       989.594                          40.800          19.900
 115333943.873 7  89870628.12145  21947327.836                    21947327.629
       978.770                          46.600          35.800
 111006968.886 8  86498985.25846  21123928.313                    21123933.496
     -1783.223                          49.500          41.100
 18  2 20  8  0 30.0000000  0  8G05G23G30G07G09G16G02G06
 124996524.836 7  97399965.00244  23786061.359                    23786060.863
      3300.188        2571.561          45.300          25.500
 118154932.607 8  92068788.79045  22484135.398                    22484136.215
     -2500.371       -1948.366          48.500          33.300
 121350472.363 6  94558811.37443  23092222.172                    23092229.215
      3494.805        2723.234          40.900          21.500
 114041339.735 8  88863441.67145  21701353.367                    21701356.297
      2336.527        1820.709          51.300          35.600
 106230452.349 8  82777026.27447  20214984.914                    20214988.914
      -971.828        -757.177          53.000          45.100
 127435312.351 6  99300281.22543  24250138.836                    24250142.020
       971.016         756.670          39.700          20.400
 115304844.277 7  89847953.10445  21941789.977                    21941790.320
       961.293         749.231          46.400          34.900
 111060734.089 8  86540880.20446  21134159.680                    21134164.629
     -1800.965       -1403.209          51.100          41.500
 18  2 20  8  1  0.0000000  0  8G05G23G30G07G09G16G02G06
 124897569.671 7  97322857.07944  23767230.414                    23767230.176
      3296.766        2569.045          45.500          26.200
 118230041.535 8  92127315.21245  22498427.930                    22498428.777
     -2506.852       -1953.244          49.200          32.700
 121245734.615 6  94477197.59243  23072292.336                    23072297.230
      3487.902        2717.868          41.900          21.800
 113971454.909 8  88808985.97246  21688054.961                    21688057.465
      2322.594        1810.010          51.600          36.000
 106259803.979 8  82799897.66747  20220570.273                    20220574.762
      -984.918        -767.253          53.200          44.700
 127406471.672 6  99277807.94643  24244651.234                    24244649.703
       951.781         741.977          40.600          19.000
 115276270.414 7  89825687.74445  21936352.859                    21936353.090
       943.578         735.542          46.000          35.000
 111115033.928 8  86583191.75046  21144492.586                    21144497.840
     -1818.961       -1417.105          50.500          40.500
 18  2 20  8  1 30.0000000  0  8G05G23G30G07G09G16G02G06
 124798711.266 7  97245824.57244  23748418.711                    23748418.570
      3293.797        2566.504          45.400          26.500
 118305336.686 8  92185986.73145  22512755.984                    22512756.816
     -2512.820       -1958.062          48.400          33.100
 121141202.921 6  94395744.32943  23052400.703                    23052405.781
      3481.141        2712.523          41.300          22.300
 113901981.953 8  88754851.21346  21674834.570                    21674837.609
      2309.043        1799.289          51.900          36.200
 106289541.539 8  82823069.78947  20226229.195                    20226233.824
      -997.535        -777.266          52.800          45.100
 127378197.229 6  99255775.86843  24239270.047                    24239273.328
       933.191         727.290          40.100          21.300
 115248223.541 7  89803833.01445  21931015.063                    21931015.660
       926.211         721.859          45.800          35.000
 111169866.714 8  86625918.57746  21154927.148                    21154931.910
     -1836.535       -1430.920          51.400          40.800
 18  2 20  8  2  0.0000000  0  8G05G23G30G07G09G16G02G06
 124699951.422 7  97168868.83444  23729624.695                    23729625.203
      3290.477        2563.971          46.200          26.900
 118380816.919 8  92244802.48245  22527119.594                    22527120.434
     -2519.051       -1962.799          48.900          33.000
 121036879.778 6  94314453.62543  23032549.117                    23032553.160
      3474.051        2707.110          41.800          21.500
 113832922.492 8  88701038.66746  21661693.008                    21661695.367
      2295.031        1788.592          51.000          36.800
 106319663.888 8  82846541.75047  20231961.289                    20231965.719
     -1010.473        -787.186          53.400          45.200
 127350490.734 6  99234186.48043  24233998.781                    24234000.973
       914.051         712.525          39.600          20.100
 115220704.333 7  89782389.46645  21925779.016                    21925779.168
       908.504         708.193          45.200          35.500
 111225230.698 8  86669059.33446  21165461.914                    21165467.141
     -1854.363       -1444.646          51.700          41.300
 18  2 20  8  2 30.0000000  0  8G05G23G30G07G09G16G02G06
 124601292.173 7  97091991.50944  23710850.500                    23710851.586
      3286.832        2561.239          46.100          27.900
 118456480.712 8  92303761.25745  22541518.273                    22541518.797
     -2525.359       -1967.646          49.300          33.100
 120932767.545 7  94233327.24443  23012737.000                    23012741.262
      3466.590        2701.469          43.400          22.300
 113764278.266 8  88647549.66746  21648630.203                    21648632.527
      2281.121        1777.670          51.900          36.300
 106350169.650 8  82870312.46447  20237766.414                    20237770.863
     -1023.410        -797.224          52.400          45.200
 127323353.633 6  99213040.55543  24228834.133                    24228833.223
       894.941         697.673          40.100          19.600
 115193714.057 7  89761358.06645  21920642.219                    21920643.148
       890.695         694.346          46.300          34.800
 111281123.798 8  86712612.39146  21176098.719                    21176103.590
     -1872.004       -1458.449          52.000          41.000
 18  2 20  8  3  0.0000000  0  8G05G23G30G07G09G16G02G06
 124502734.843 7  97015193.60044  23692096.773                    23692097.219
      3283.480        2558.624          46.000          27.500
 118532327.138 8  92362862.35645  22555951.164                    22555951.996
     -2531.254       -1972.320          49.300          33.700
 120828868.853 7  94152367.26843  22992965.469                    22992970.188
      3459.691        2695.953          43.000          21.800
 113696051.465 8  88594385.93045  21635647.102                    21635649.703
      2267.215        1766.867          51.600          35.900
 106381057.900 8  82894381.22047  20243644.148                    20243648.527
     -1035.945        -807.089          52.800          44.700
 127296787.418 5  99192339.70443  24223777.648                    24223782.664
       876.004         682.848          35.000          18.600
 115167254.149 7  89740739.94345  21915607.367                    21915608.020
       873.246         680.620          45.700          34.900
 111337544.458 8  86756576.54546  21186834.891                    21186840.113
     -1889.457       -1472.083          52.000          40.400
 18  2 20  8  3 30.0000000  0  8G05G23G30G07G09G16G02G06
 124404281.040 7  96938476.33044  23673360.313                    23673363.176
      3279.941        2555.897          46.600          26.800
 118608355.112 8  92422104.91545  22570418.766                    22570419.906
     -2537.309       -1977.045          49.300          32.900
 120725186.305 7  94071575.69843  22973235.891                    22973239.254
      3452.410        2690.268          42.600          22.600
 113628243.835 8  88541548.81946  21622743.398                    21622746.258
      2253.184        1755.934          52.400          36.700
 106412327.600 8  82918747.21147  20249594.586                    20249598.910
     -1048.656        -817.017          53.000          44.400
 127270793.652 6  99172084.82243  24218832.195                    24218835.984
       856.887         667.943          39.200          20.600
 115141325.292 7  89720535.62245  21910673.836                    21910674.051
       855.320         666.771          47.300          35.500
 111394490.907 8  86800950.39946  21197671.797                    21197676.734
     -1906.953       -1485.735          52.000          40.500
 18  2 20  8  4  0.0000000  0  8G05G23G30G07G09G16G02G06
 124305931.561 7  96861840.37744  23654644.391                    23654647.797
      3276.453        2553.167          44.700          28.500
 118684563.201 8  92481487.81945  22584920.609                    22584921.945
     -2543.273       -1981.690          49.100          33.600
 120621722.404 7  93990954.49743  22953546.641                    22953550.742
      3445.090        2684.589          43.500          22.600
 113560857.213 8  88489039.76646  21609920.211                    21609923.035
      2239.082        1744.970          52.300          36.200
 106443977.534 8  82943409.48947  20255617.313                    20255621.578
     -1061.379        -826.863          52.400          44.400
 127245373.735 5  99152277.08542  24213991.086                    24213994.285
       837.617         653.015          32.200          17.400
 115115928.566 7  89700745.95145  21905841.016                    21905840.969
       837.539         652.932          46.300          35.200
 111451961.230 8  86845732.45646  21208607.844                    21208613.277
     -1924.488       -1499.320          51.200          39.900
 18  2 20  8  4 30.0000000  0  8G05G23G30G07G09G16G02G06
 124207688.448 7  96785287.31544  23635950.055                    23635953.215
      3273.055        2550.399          44.100          27.300
 118760950.613 8  92541010.45545  22599456.828                    22599458.160
     -2549.137       -1986.300          48.700          32.800
 120518479.893 7  93910505.83043  22933900.766                    22933904.738
      3437.797        2678.823          43.900          22.600
 113493893.694 8  88436860.40646  21597177.461                    21597180.348
      2225.113        1733.998          52.000          36.500
 106476006.821 8  82968367.37247  20261712.172                    20261716.508
     -1073.875        -836.678          53.100          44.300
 127220529.611 6  99132918.11543  24209269.438                    24209270.641
       818.590         638.066          40.700          22.300
 115091065.262 7  89681371.93545  21901109.531                    21901109.266
       819.934         639.097          46.900          35.200
 111509953.793 8  86890921.45946  21219643.477                    21219648.398
     -1941.703       -1512.832          51.700          40.700
 18  2 20  8  5  0.0000000  0  8G05G23G30G07G09G16G02G06
 124109553.028 7  96708818.14344  23617275.586                    23617278.734
      3269.496        2547.582          44.000          27.000
 118837515.262 8  92600671.20045  22614026.453                    22614027.582
     -2555.055       -1990.941          49.300          33.500
 120415460.631 7  93830231.10543  22914296.859                    22914300.344
      3430.195        2672.975          44.400          22.500
 113427354.442 8  88385011.64546  21584515.836                    21584518.770
      2210.918        1722.920          51.900          36.500
 106508413.649 8  82993619.43747  20267879.156                    20267883.348
     -1086.484        -846.490          52.700          44.100
 127196262.472 6  99114008.58743  24204648.383                    24204654.043
       799.293         623.019          37.900          21.300
 115066735.847 7  89662413.93545  21896480.039                    21896479.984
       802.098         625.212          46.500          34.500
 111568466.059 8  86936515.41246  21230777.781                    21230783.383
     -1959.102       -1526.339          50.300          40.200
 18  2 20  8  5 30.0000000  0  8G05G23G30G07G09G16G02G06
 124011527.082 7  96632434.28044  23598621.023                    23598625.637
      3265.691        2544.773          43.800          27.900
 118914256.576 8  92660469.60845  22628630.188                    22628631.383
     -2561.074       -1995.480          49.300          33.300
 120312667.524 7  93750132.58143  22894735.773                    22894739.848
      3422.563        2667.120          43.800          22.600
 113361241.586 8  88333495.12846  21571934.938                    21571937.484
      2196.543        1711.862          52.900          37.700
 106541197.227 8  83019165.07747  20274117.633                    20274121.918
     -1099.133        -856.214          51.600          44.000
 127172573.299 6  99095549.61843  24200143.367                    24200142.172
       779.855         608.045          38.600          19.000
 115042941.591 7  89643872.95045  21891952.094                    21891951.582
       784.125         611.323          47.900          35.500
 111627496.473 8  86982513.11846  21242011.234                    21242016.590
     -1976.359       -1539.721          49.800          40.200
 18  2 20  8  6  0.0000000  0  8G05G23G30G07G09G16G02G06
 123913611.391 7  96556136.32444  23579988.406                    23579992.742
      3261.969        2541.812          43.100          28.200
 118991173.240 8  92720404.64745  22643267.047                    22643268.133
     -2566.848       -2000.082          48.900          33.200
 120210102.832 7  93670212.06143  22875218.344                    22875222.594
      3415.066        2661.114          42.700          22.800
 113295556.632 8  88282312.03946  21559435.547                    21559438.566
      2182.305        1700.671          52.700          38.600
 106574356.219 8  83045003.24647  20280427.477                    20280431.875
     -1111.598        -866.025          52.200          44.100
 127149463.995 7  99077542.26543  24195747.250                    24195746.508
       760.688         592.896          44.700          23.500
 115019683.470 7  89625749.72445  21887526.391                    21887525.727
       766.336         597.331          47.700          35.200
 111687042.985 8  87028912.98346  21253342.742                    21253347.980
     -1993.492       -1553.177          49.800          39.800
 18  2 20  8  6 30.0000000  0  8G05G23G30G07G09G16G02G06
 123815808.037 7  96479925.91044  23561377.016                    23561381.320
      3258.258        2538.927          44.400          28.000
 119068263.631 8  92780475.05945  22657936.820                    22657938.137
     -2572.562       -2004.524          48.000          32.800
 120107768.652 7  93590471.17443  22855745.344                    22855748.621
      3407.266        2655.079          43.400          22.900
 113230301.030 8  88231463.51346  21547017.883                    21547020.895
      2168.008        1689.537          52.300          38.500
 106607889.031 8  83071132.69147  20286808.258                    20286813.023
     -1123.937        -875.672          52.900          44.500
 127126935.224 5  99059987.40943  24191455.820                    24191462.113
       741.277         577.876          35.800          20.600
 114996961.569 8  89608044.33145  21883202.555                    21883201.879
       748.387         583.429          48.400          35.900
 111747103.142 8  87075713.07446  21264771.680                    21264777.152
     -2010.551       -1566.437          51.200          39.700
 18  2 20  8  7  0.0000000  0  8G05G23G30G07G09G16G02G06
 123718119.131 7  96403804.67844  23542787.578                    23542791.629
      3254.441        2535.969          43.900          27.500
 119145527.391 7  92840680.55645  22672640.273                    22672640.719
     -2578.250       -2008.954          47.600          32.100
 120005668.549 7  93510912.66243  22836315.383                    22836320.609
      3399.563        2649.072          42.100          21.700
 113165477.344 8  88180951.55546  21534682.000                    21534685.227
      2153.684        1678.355          52.300          38.200
 106641795.596 8  83097553.39547  20293260.641                    20293265.238
     -1136.297        -885.309          53.000          44.100
 127104989.326 7  99042886.78743  24187284.133                    24187283.047
       721.988         562.750          42.600          20.400
 114974778.093 8  89590758.50045  21878981.195                    21878980.707
       730.563         569.480          48.800          35.500
 111807676.108 8  87122912.76846  21276298.664                    21276303.699
     -2027.457       -1579.665          51.300          40.000
 18  2 20  8  7 30.0000000  0  8G05G23G30G07G09G16G02G06
 123620546.086 7  96327773.74344  23524220.727                    23524224.625
      3250.535        2532.835          44.700          28.100
 119222962.827 7  92901019.83145  22687374.563                    22687376.332
     -2583.996       -2013.518          47.000          31.900
 119903804.607 7  93431538.18543  22816932.023                    22816937.031
      3391.457        2642.782          42.700          21.800
 113101087.208 8  88130777.43346  21522429.156                    21522432.145
      2139.109        1666.949          51.900          38.900
 106676074.304 8  83124264.07447  20299783.695                    20299787.656
     -1148.785        -895.071          52.000          43.900
 127083627.664 7  99026241.18543  24183217.242                    24183215.086
       702.438         547.457          42.400          19.000
 114953133.400 8  89573892.49645  21874862.227                    21874861.867
       712.574         555.389          48.500          35.500
 111868759.464 8  87170510.15146  21287921.953                    21287927.313
     -2044.504       -1593.017          49.300          39.700
 18  2 20  8  8  0.0000000  0  8G05G23G30G07G09G16G02G06
 123523090.506 7  96251834.30544  23505674.883                    23505679.063
      3246.375        2529.826          45.100          27.600
 119300569.272 7  92961492.36745  22702142.758                    22702144.191
     -2589.828       -2017.902          47.600          32.700
 119802179.459 6  93352349.75543  22797592.633                    22797598.055
      3383.473        2636.563          40.500          22.200
 113037132.757 8  88080942.81046  21510258.195                    21510262.367
      2124.371        1655.645          51.900          38.900
 106710724.123 8  83151263.92147  20306377.695                    20306381.750
     -1161.203        -904.654          52.700          44.400
 127062851.027 5  99010051.66942  24179261.148                    24179264.238
       682.734         532.316          34.200          17.400
 114932028.640 8  89557447.22846  21870846.117                    21870845.723
       694.344         541.379          49.300          36.200
 111930351.376 8  87218503.82046  21299642.734                    21299648.363
     -2061.664       -1606.177          48.900          39.800
 18  2 20  8  8 30.0000000  0  8G05G23G30G07G09G16G02G06
 123425753.641 7  96175987.38944  23487151.703                    23487156.500
      3242.672        2526.756          44.700          28.900
 119378346.422 7  93022097.91145  22716943.391                    22716944.539
     -2595.289       -2022.287          47.500          31.800
 119700796.112 6  93273349.77343  22778299.859                    22778305.367
      3375.590        2630.332          40.600          23.000
 112973615.761 8  88031449.07146  21498171.641                    21498175.086
      2110.027        1644.325          52.500          38.900
 106745744.509 8  83178552.52947  20313041.859                    20313045.836
     -1173.383        -914.215          53.400          44.100
 127042661.788 7  98994319.80843  24175420.961                    24175423.082
       663.344         517.052          42.600          18.600
 114911465.523 8  89541424.01246  21866933.094                    21866932.961
       676.570         527.343          48.600          36.300
 111992450.367 8  87266892.61046  21311459.813                    21311464.910
     -2078.273       -1619.283          50.600          39.800
 18  2 20  8  9  0.0000000  0  8G05G23G30G07G09G16G02G06
 123328537.742 7  96100234.76344  23468652.508                    23468656.801
      3238.648        2523.566          44.900          28.400
 119456292.251 7  93082834.88945  22731776.688                    22731777.398
     -2600.793       -2026.659          47.300          31.800
 119599656.810 6  93194539.93743  22759054.281                    22759059.953
      3367.453        2623.940          41.800          22.900
 112910537.875 8  87982297.50246  21486168.336                    21486171.465
      2095.484        1632.880          52.100          39.400
 106781133.890 8  83206128.66447  20319776.227                    20319780.281
     -1185.625        -923.812          52.900          44.500
 127023060.633 6  98979046.13242  24171689.063                    24171690.898
       643.805         501.775          39.800          17.400
 114891444.283 8  89525823.03946  21863123.125                    21863123.141
       658.473         513.230          50.200          37.200
 112055054.095 8  87315674.69946  21323372.789                    21323378.094
     -2094.953       -1632.368          49.000          39.800
 18  2 20  8  9 30.0000000  0  8G05G23G30G07G09G16G02G06
 123231444.861 7  96024577.96844  23450176.977                    23450180.441
      3234.273        2520.306          45.100          29.600
 119534405.545 7  93143702.37745  22746640.719                    22746642.426
     -2606.590       -2031.037          47.200          31.400
 119498763.989 6  93115922.14643  22739855.281                    22739860.785
      3359.133        2617.444          41.100          23.600
 112847900.523 8  87933489.18946  21474248.695                    21474252.289
      2080.504        1621.378          51.600          39.000
 106816891.101 8  83233991.41947  20326580.656                    20326584.516
     -1198.094        -933.398          53.500          44.700
 127004048.691 6  98964231.63242  24168071.359                    24168072.930
       623.758         486.424          37.800          16.300
 114871965.491 8  89510644.74046  21859416.758                    21859416.680
       640.148         499.101          49.600          36.400
 112118160.550 8  87364848.54346  21335381.602                    21335387.074
     -2111.984       -1645.449          50.200          39.500
 18  2 20  8 10  0.0000000  0  8G05G23G30G07G09G16G02G06
 123134475.223 7  95949017.20444  23431723.008                    23431727.840
      3230.336        2517.161          46.200          28.900
 119612684.886 7  93204699.24045  22761536.844                    22761537.785
     -2612.027       -2035.280          47.800          32.100
 119398119.711 6  93037498.04443  22720702.500                    22720708.699
      3350.648        2611.005          40.900          23.600
 112785705.219 8  87885025.33346  21462413.445                    21462417.035
      2065.859        1609.924          52.200          39.600
 106853014.571 8  83262139.58047  20333454.727                    20333458.664
     -1210.133        -942.849          53.000          44.900
 126985627.196 6  98949877.22243  24164566.688                    24164568.500
       604.277         471.108          39.400          18.600
 114853029.734 8  89495889.59746  21855813.461                    21855813.594
       622.191         485.043          49.900          37.400
 112181767.243 8  87414412.18146  21347485.727                    21347490.895
     -2128.547       -1658.371          48.700          39.000
 18  2 20  8 10 30.0000000  0  8G05G23G30G07G09G16G02G06
 123037631.088 7  95873554.24144  23413294.172                    23413299.160
      3226.066        2513.854          45.200          29.000
 119691129.610 8  93265824.98145  22776464.523                    22776466.031
     -2617.559       -2039.587          48.100          33.000
 119297726.804 6  92959269.84243  22701598.836                    22701604.461
      3342.234        2604.401          39.400          22.300
 112723953.813 8  87836907.35946  21450662.805                    21450665.832
      2050.988        1598.338          52.800          40.200
 106889503.499 8  83290572.50547  20340398.406                    20340402.586
     -1222.387        -952.334          52.900          44.900
 126967797.617 6  98935984.07543  24161172.969                    24161177.797
       584.270         455.633          39.000          19.300
 114834638.173 8  89481558.50246  21852313.742                    21852313.770
       603.961         470.859          50.000          37.100
 112245872.417 8  87464364.23746  21359683.992                    21359689.770
     -2145.078       -1671.306          48.500          39.400
 18  2 20  8 11  0.0000000  0  8G05G23G30G07G09G16G02G06
 122940913.589 7  95798189.96344  23394889.219                    23394893.879
      3221.707        2510.478          45.400          29.100
 119769738.684 8  93327078.78345  22791423.102                    22791424.441
     -2623.055       -2043.906          48.700          32.800
 119197588.042 6  92881239.62343  22682543.266                    22682548.844
      3333.625        2597.765          41.500          22.500
 112662648.244 8  87789136.79546  21438996.852                    21439000.141
      2036.031        1586.694          52.800          40.100
 106926356.918 8  83319289.44147  20347411.234                    20347415.406
     -1234.508        -961.833          53.200          45.000
 126950561.123 6  98922553.05343  24157892.813                    24157897.480
       564.555         440.206          39.400          20.900
 114816791.805 8  89467652.23346  21848917.328                    21848917.848
       585.797         456.664          49.100          37.800
 112310474.240 8  87514703.30346  21371977.508                    21371982.898
     -2161.672       -1684.225          49.700          39.500
 18  2 20  8 11 30.0000000  0  8G05G23G30G07G09G16G02G06
 122844325.185 7  95722926.27044  23376509.094                    23376513.813
      3217.500        2507.191          44.700          29.100
 119848510.584 8  93388459.45445  22806412.656                    22806413.855
     -2628.398       -2048.046          48.200          33.100
 119097705.422 6  92803409.01944  22663536.508                    22663541.195
      3325.043        2591.112          40.000          25.100
 112601789.769 8  87741714.60446  21427415.945                    21427419.043
      2021.125        1575.139          53.200          40.800
 106963573.217 8  83348289.15647  20354493.281                    20354497.609
     -1246.641        -971.182          53.100          45.200
 126933918.390 6  98909584.70543  24154725.734                    24154729.488
       544.797         424.851          39.300          19.300
 114799490.766 8  89454170.90346  21845624.984                    21845625.266
       567.617         442.539          49.600          37.600
 112375570.123 8  87565427.34346  21384364.922                    21384370.234
     -2178.148       -1696.973          49.100          39.700
 18  2 20  8 12  0.0000000  0  8G05G23G30G07G09G16G02G06
 122747867.568 7  95647764.47444  23358153.734                    23358157.895
      3213.074        2503.703          44.900          28.700
 119927444.394 8  93449966.30145  22821433.367                    22821435.020
     -2633.730       -2052.270          48.800          33.800
 118998081.678 6  92725780.12343  22644578.406                    22644583.371
      3316.484        2584.332          40.400          21.800
 112541380.346 8  87694642.32446  21415920.305                    21415923.359
      2006.156        1563.398          52.400          40.400
 107001151.470 8  83377570.90747  20361644.273                    20361648.602
     -1258.684        -980.629          52.400          45.000
 126917870.713 6  98897080.06643  24151672.547                    24151674.523
       524.934         409.306          40.800          20.100
 114782736.310 8  89441115.47346  21842436.938                    21842437.082
       549.367         428.296          49.100          37.500
 112441158.234 8  87616534.92746  21396845.984                    21396851.016
     -2194.441       -1709.771          48.500          38.800
 18  2 20  8 12 30.0000000  0  8G05G23G30G07G09G16G02G06
 122651541.775 7  95572705.41944  23339823.789                    23339827.480
      3208.664        2500.250          44.900          28.100
 120006538.794 8  93511598.27645  22836484.609                    22836486.238
     -2639.129       -2056.445          48.300          32.500
 118898718.920 6  92648354.59443  22625670.883                    22625675.547
      3307.844        2577.508          40.400          22.200
 112481421.155 8  87647920.87846  21404510.328                    21404513.582
      1991.063        1551.666          52.300          41.100
 107039090.143 8  83407133.50547  20368863.695                    20368867.844
     -1270.555        -989.983          51.300          44.600
 126902419.203 7  98885039.90643  24148733.469                    24148736.305
       505.070         393.811          42.200          22.200
 114766528.733 8  89428486.18946  21839352.797                    21839353.137
       531.098         414.065          49.000          36.600
 112507236.063 8  87668024.12246  21409420.578                    21409425.566
     -2210.730       -1722.487          48.400          39.300
 18  2 20  8 13  0.0000000  0  8G05G23G30G07G09G16G02G06
 122555349.398 7  95497750.32544  23321519.063                    23321522.879
      3204.004        2496.780          43.600          28.400
 120085792.835 8  93573354.65145  22851566.156                    22851567.434
     -2644.613       -2060.582          48.500          33.600
 118799619.923 6  92571134.60943  22606812.906                    22606817.230
      3298.730        2570.673          40.800          23.900
 112421913.897 8  87601551.58846  21393186.477                    21393189.621
      1975.816        1539.919          52.000          40.900
 107077388.354 8  83436976.25947  20376151.773                    20376156.039
     -1282.746        -999.303          53.200          44.600
 126887564.931 6  98873465.16543  24145904.695                    24145910.316
       484.844         378.279          39.400          20.600
 114750868.981 8  89416283.78046  21836373.008                    21836373.105
       512.652         399.831          48.700          37.000
 112573801.826 8  87719893.53146  21422087.430                    21422092.363
     -2227.121       -1735.127          49.100          38.600
 18  2 20  8 13 30.0000000  0  8G05G23G30G07G09G16G02G06
 122459292.903 7  95422901.10644  23303240.633                    23303243.559
      3199.430        2493.231          46.000          29.000
 120165205.599 7  93635234.70145  22866678.094                    22866679.813
     -2649.879       -2064.658          47.900          33.100
 118700787.440 6  92494122.29043  22588005.430                    22588010.219
      3289.754        2563.719          41.800          22.000
 112362860.626 8  87555536.06246  21381949.141                    21381952.035
      1960.699        1528.136          51.400          40.600
 107116045.169 8  83467098.44147  20383507.914                    20383512.023
     -1294.676       -1008.565          51.100          44.600
 126873309.149 6  98862356.83943  24143192.750                    24143195.957
       464.926         362.772          38.400          19.900
 114735758.055 8  89404509.02346  21833496.984                    21833497.703
       494.348         385.605          48.100          36.300
 112640853.552 8  87772141.61046  21434847.070                    21434851.691
     -2243.289       -1747.691          49.100          38.800
 18  2 20  8 14  0.0000000  0  8G05G23G30G07G09G16G02G06
 122363373.431 7  95348158.64944  23284987.094                    23284991.297
      3195.098        2489.750          45.000          28.500
 120244776.407 7  93697237.89645  22881819.563                    22881821.055
     -2654.898       -2068.671          47.000          33.200
 118602224.120 7  92417319.71943  22569249.352                    22569253.629
      3280.938        2556.748          42.000          22.800
 112304263.269 8  87509875.81246  21370798.648                    21370801.711
      1945.660        1516.336          51.800          40.600
 107155059.677 8  83497499.35147  20390932.086                    20390936.605
     -1306.371       -1017.781          52.100          44.600
 126859653.412 7  98851715.98343  24140595.477                    24140595.063
       445.195         347.218          43.400          20.100
 114721196.741 7  89393162.54345  21830726.109                    21830726.398
       476.215         371.369          47.900          35.800
 112708389.304 8  87824766.84246  21447698.820                    21447703.586
     -2259.195       -1760.164          49.200          38.100
 18  2 20  8 14 30.0000000  0  8G05G23G30G07G09G16G02G06
 122267592.352 7  95273524.07644  23266761.242                    23266764.574
      3190.359        2486.105          43.600          29.600
 120324503.470 7  93759362.85045  22896991.719                    22896992.773
     -2660.031       -2072.735          46.600          32.600
 118503931.909 6  92340728.39443  22550544.547                    22550549.840
      3271.953        2549.647          40.900          23.000
 112246122.826 8  87464571.60046  21359734.461                    21359737.445
      1930.488        1504.443          50.600          40.200
 107194430.096 8  83528177.59747  20398424.234                    20398428.230
     -1318.211       -1027.021          51.400          44.000
 126846598.003 7  98841542.88843  24138111.242                    24138111.039
       425.383         331.602          43.400          21.100
 114707185.395 8  89382244.60345  21828060.008                    21828060.160
       457.977         357.069          48.300          35.900
 112776406.309 7  87877767.06246  21460642.109                    21460647.055
     -2275.074       -1772.643          47.800          37.900
 18  2 20  8 15  0.0000000  0  8G05G23G30G07G09G16G02G06
 122171952.017 7  95198999.13744  23248561.727                    23248564.918
      3185.695        2482.425          47.500          29.700
 120404385.452 7  93821608.51345  22912192.234                    22912194.148
     -2665.148       -2076.739          46.500          32.800
 118405912.955 7  92264350.00443  22531893.297                    22531897.496
      3262.695        2542.550          42.900          22.000
 112188440.431 8  87419624.29746  21348757.758                    21348760.883
      1915.195        1492.540          52.800          40.700
 107234154.999 9  83559132.06147  20405983.742                    20405987.551
     -1329.969       -1036.211          54.300          44.500
 126834143.620 6  98831838.15643  24135739.648                    24135741.219
       405.188         315.988          40.000          20.100
 114693723.716 8  89371754.96645  21825498.125                    21825498.680
       439.621         342.791          48.000          35.500
 112844902.162 8  87931140.41846  21473676.313                    21473681.223
     -2290.980       -1785.060          49.900          38.000
 18  2 20  8 15 30.0000000  0  8G05G23G30G07G09G16G02G06
 122076453.342 7  95124584.56844  23230388.375                    23230392.020
      3180.719        2478.726          45.400          29.600
 120484421.531 7  93883974.26645  22927422.578                    22927424.398
     -2670.664       -2080.773          46.500          32.200
 118308170.173 6  92188186.80143  22513292.477                    22513297.449
      3253.262        2535.320          40.500          22.900
 112131218.153 8  87375035.53046  21337868.734                    21337871.742
      1899.527        1480.546          51.200          40.700
 107274233.663 8  83590362.18947  20413610.281                    20413614.301
     -1341.934       -1045.396          52.500          44.000
 126822291.556 6  98822602.82443  24133484.383                    24133487.824
       384.910         300.323          40.500          20.400
 114680813.065 7  89361694.71946  21823041.305                    21823041.637
       421.012         328.426          46.900          36.200
 112913875.022 8  87984885.46046  21486801.438                    21486806.180
     -2307.195       -1797.433          48.300          38.200
 18  2 20  8 16  0.0000000  0  8G05G23G30G07G09G16G02G06
 121981098.133 7  95050281.83245  23212242.305                    23212246.973
      3176.160        2474.921          45.000          30.000
 120564610.189 7  93946458.90845  22942682.008                    22942683.398
     -2675.363       -2084.726          46.300          32.500
 118210705.304 7  92112240.18643  22494745.344                    22494750.383
      3244.285        2528.039          42.500          22.900
 112074456.525 8  87330805.70246  21327067.844                    21327070.555
      1884.535        1468.522          52.800          40.600
 107314664.159 8  83621866.46747  20421303.844                    20421308.031
     -1353.426       -1054.559          53.200          43.700
 126811042.103 6  98813837.04343  24131343.977                    24131347.762
       365.039         284.621          40.900          20.900
 114668453.584 7  89352063.94945  21820689.398                    21820689.930
       402.957         314.094          47.400          35.800
 112983321.966 8  88038999.91846  21500016.773                    21500021.836
     -2322.625       -1809.748          48.700          37.400
 18  2 20  8 16 30.0000000  0  8G05G23G30G07G09G16G02G06
 121885888.633 7  94976092.61944  23194125.477                    23194128.898
      3171.355        2471.107          46.400          29.400
 120644950.726 7  94009061.88745  22957970.664                    22957971.441
     -2680.336       -2088.678          46.400          32.300
 118113521.379 6  92036512.45044  22476251.602                    22476256.848
      3234.844        2520.697          40.500          24.600
 112018157.828 8  87286936.60646  21316354.750                    21316356.898
      1869.059        1456.462          53.100          40.200
 107355445.933 8  83653644.47047  20429064.242                    20429068.410
     -1365.098       -1063.691          52.900          43.600
 126800396.661 7  98805541.88343  24129319.133                    24129320.453
       344.953         268.891          42.300          20.400
 114656645.967 7  89342863.20345  21818442.344                    21818443.379
       384.492         299.737          47.000          35.700
 113053241.340 8  88093482.51346  21513321.359                    21513326.961
     -2338.312       -1822.003          48.300          37.500
 18  2 20  8 17  0.0000000  0  8G05G23G30G07G09G16G02G06
 121790825.324 7  94902017.30045  23176035.094                    23176038.500
      3166.363        2467.319          45.900          30.000
 120725442.004 7  94071782.32945  22973288.039                    22973288.777
     -2685.434       -2092.547          47.000          32.100
 118016620.527 7  91961005.31244  22457812.094                    22457817.215
      3225.336        2513.317          42.500          25.600
 111962323.095 9  87243429.04246  21305729.883                    21305731.906
      1853.480        1444.400          54.500          41.000
 107396577.405 8  83685694.96147  20436891.516                    20436895.703
     -1376.836       -1072.735          53.800          43.900
 126790356.089 6  98797718.03343  24127407.672                    24127407.672
       324.652         253.175          41.200          21.100
 114645390.720 7  89334092.86845  21816300.695                    21816301.262
       366.051         285.386          47.900          35.000
 113123630.576 8  88148331.24146  21526716.078                    21526721.383
     -2354.082       -1834.171          48.100          37.900
 18  2 20  8 17 30.0000000  0  8G05G23G30G07G09G16G02G06
 121695911.071 7  94828058.15545  23157973.703                    23157976.945
      3161.219        2463.408          47.000          30.000
 120806083.476 7  94134619.81145  22988633.117                    22988634.617
     -2690.578       -2096.447          46.300          32.000
 117920005.549 7  91885720.94744  22439427.383                    22439432.379
      3215.699        2505.885          43.600          26.500
 111906954.443 8  87200284.65446  21295193.313                    21295195.406
      1837.840        1432.283          53.800          40.500
 107438057.885 9  83718017.40547  20444784.703                    20444788.992
     -1388.465       -1081.784          54.400          43.100
 126780921.160 6  98790366.10643  24125611.711                    24125612.336
       304.254         237.447          39.400          20.100
 114634688.913 8  89325753.79146  21814264.680                    21814264.605
       347.516         271.038          48.600          36.000
 113194487.793 8  88203544.64346  21540199.828                    21540205.273
     -2369.738       -1846.301          49.700          37.900
 18  2 20  8 18  0.0000000  0  8G05G23G30G07G09G16G02G06
 121601147.704 7  94754216.56544  23139940.695                    23139943.715
      3156.246        2459.436          46.900          29.700
 120886873.199 7  94197572.81245  23004006.719                    23004008.219
     -2695.398       -2100.323          46.900          32.600
 117823678.710 7  91810661.09944  22421096.703                    22421101.680
      3206.105        2498.304          43.400          25.400
 111852053.191 9  87157504.46446  21284745.883                    21284748.164
      1822.387        1420.099          54.400          39.800
 107479885.863 9  83750610.62247  20452744.461                    20452748.805
     -1399.988       -1090.831          54.300          43.100
 126772092.634 5  98783486.74443  24123931.195                    24123934.023
       284.156         221.659          35.700          19.600
 114624540.394 7  89317845.85845  21812333.281                    21812333.352
       329.082         256.581          47.900          35.700
 113265810.405 8  88259120.68746  21553772.102                    21553777.383
     -2385.141       -1858.403          49.200          37.700
 18  2 20  8 18 30.0000000  0  8G05G23G30G07G09G16G02G06
 121506536.601 7  94680493.63744  23121936.797                    23121939.887
      3151.098        2455.450          47.000          29.300
 120967810.379 7  94260640.71145  23019408.797                    23019410.148
     -2700.430       -2104.155          46.700          31.000
 117727642.331 7  91735827.55044  22402821.273                    22402826.980
      3196.266        2490.751          43.000          27.900
 111797620.433 8  87115089.33146  21274387.406                    21274389.820
      1806.602        1407.905          53.600          40.000
 107522060.169 8  83783473.71247  20460769.922                    20460774.438
     -1411.680       -1099.819          53.900          43.300
 126763871.107 6  98777080.41843  24122367.742                    24122371.871
       263.910         205.887          39.400          19.600
 114614945.973 8  89310369.68746  21810507.914                    21810507.395
       310.469         242.203          48.000          36.000
 113337596.087 8  88315057.56246  21567432.555                    21567438.082
     -2400.637       -1870.396          48.800          37.600
 18  2 20  8 19  0.0000000  0  8G05G23G30G07G09G16G02G06
 121412079.509 7  94606890.70244  23103962.570                    23103965.320
      3146.117        2451.532          47.500          29.300
 121048894.020 7  94323822.73745  23034838.766                    23034840.078
     -2705.184       -2107.840          46.700          31.600
 117631898.796 7  91661222.23544  22384602.188                    22384607.566
      3186.582        2483.199          42.800          28.000
 111743657.730 8  87073040.49646  21264118.445                    21264120.922
      1790.941        1395.768          53.700          39.800
 107564579.516 8  83816605.66347  20468860.867                    20468865.570
     -1423.004       -1108.665          52.800          43.700
 126756257.464 7  98771147.70643  24120918.961                    24120923.531
       243.715         190.167          42.500          22.800
 114605905.654 8  89303325.28045  21808786.984                    21808786.922
       292.188         227.911          48.900          35.700
 113409842.463 8  88371353.42346  21581180.438                    21581186.035
     -2415.812       -1882.243          49.200          37.400
 18  2 20  8 19 30.0000000  0  8G05G23G30G07G09G16G02G06
 121317777.720 7  94533408.80445  23086017.336                    23086020.219
      3140.977        2447.399          46.600          30.200
 121130123.046 7  94387118.05545  23050295.719                    23050297.559
     -2709.902       -2111.707          46.300          31.600
 117536450.590 7  91586847.02544  22366438.969                    22366444.785
      3176.863        2475.396          42.600          29.000
 111690166.562 8  87031359.08446  21253939.320                    21253941.809
      1775.281        1383.407          53.400          39.700
 107607442.784 9  83850005.60147  20477017.578                    20477021.988
     -1434.305       -1117.681          54.200          44.100
 126749252.492 7  98765689.26643  24119586.313                    24119590.355
       223.496         174.289          42.200          23.600
 114597419.987 8  89296713.06545  21807172.961                    21807172.461
       273.777         213.406          48.300          35.800
 113482547.267 8  88428006.49946  21595015.789                    21595021.484
     -2431.043       -1894.222          50.000          38.500
 18  2 20  8 20  0.0000000  0  8G05G23G30G07G09G16G02G06
 121223632.929 7  94460049.22745  23068102.117                    23068104.957
      3135.434        2443.329          47.300          30.400
 121211496.853 7  94450526.17945  23065781.242                    23065781.852
     -2714.949       -2115.418          46.600          31.600
 117441300.372 7  91512704.02145  22348332.406                    22348337.949
      3166.613        2467.650          43.100          30.100
 111637148.654 8  86990046.45046  21243849.859                    21243852.996
      1759.234        1371.125          53.300          39.600
 107650649.036 9  83883672.79447  20485239.336                    20485244.039
     -1445.980       -1126.536          54.100          43.900
 126742857.019 7  98760705.75143  24118369.031                    24118371.320
       202.977         158.465          42.100          22.200
 114589489.938 8  89290533.80546  21805663.234                    21805663.293
       255.023         199.001          48.400          36.300
 113555708.359 8  88485015.10746  21608937.906                    21608943.359
     -2446.430       -1906.015          49.400          38.400
 18  2 20  8 20 30.0000000  0  8G05G23G30G07G09G16G02G06
 121129647.093 7  94386813.52444  23050217.070                    23050220.379
      3130.113        2439.130          47.000          29.500
 121293014.026 7  94514046.02545  23081293.305                    23081294.180
     -2719.695       -2119.165          47.000          31.400
 117346450.303 7  91438794.89244  22330283.563                    22330288.707
      3156.621        2459.805          43.600          29.300
 111584605.016 8  86949103.38046  21233851.234                    21233854.426
      1743.488        1358.750          53.500          39.700
 107694196.885 9  83917606.17247  20493526.023                    20493530.582
     -1457.402       -1135.452          54.600          43.200
 126737071.582 7  98756197.58943  24117268.773                    24117269.402
       182.590         142.555          43.000          20.900
 114582115.533 7  89284787.51346  21804260.250                    21804260.199
       236.488         184.517          47.900          36.600
 113629323.235 8  88542377.33246  21622946.930                    21622952.238
     -2461.391       -1917.805          50.500          38.700
 18  2 20  8 21  0.0000000  0  8G05G23G30G07G09G16G02G06
 121035822.787 7  94313703.69445  23032363.484                    23032366.102
      3124.742        2434.904          47.500          30.200
 121374673.191 7  94577676.51245  23096832.281                    23096833.559
     -2724.301       -2122.846          47.200          31.200
 117251902.642 7  91365121.40545  22312290.453                    22312296.512
      3146.531        2451.909          42.900          30.400
 111532536.827 8  86908530.78246  21223943.211                    21223946.469
      1727.703        1346.393          53.000          40.000
 107738084.911 9  83951804.62147  20501877.906                    20501882.297
     -1468.664       -1144.271          54.100          42.600
 126731896.749 6  98752165.20143  24116282.648                    24116283.156
       162.273         126.652          40.500          20.600
 114575296.815 8  89279474.21945  21802962.328                    21802962.352
       218.051         170.081          48.300          35.900
 113703389.320 8  88600091.15046  21637041.219                    21637046.781
     -2476.437       -1929.513          49.900          38.600
 18  2 20  8 21 30.0000000  0  8G05G23G30G07G09G16G02G06
 120942161.488 7  94240720.86144  23014540.508                    23014543.070
      3119.285        2430.649          47.600          29.900
 121456473.539 7  94641417.01245  23112398.930                    23112399.988
     -2729.145       -2126.490          47.100          31.800
 117157659.979 7  91291685.57245  22294357.563                    22294363.586
      3136.219        2443.969          42.900          30.400
 111480945.647 8  86868329.89346  21214126.242                    21214128.723
      1711.570        1333.973          53.400          40.600
 107782312.139 8  83986267.38447  20510293.875                    20510298.344
     -1479.934       -1153.056          53.700          42.700
 126727333.273 6  98748609.24543  24115414.695                    24115414.852
       141.773         110.794          39.900          20.100
 114569034.411 7  89274594.42346  21801770.930                    21801770.992
       199.355         155.622          47.300          36.100
 113777904.368 8  88658154.80246  21651220.828                    21651226.445
     -2491.363       -1941.121          49.200          38.200
 18  2 20  8 22  0.0000000  0  8G05G23G30G07G09G16G02G06
 120848664.845 7  94167866.34745  22996748.156                    22996751.055
      3113.703        2426.400          46.500          30.200
 121538414.125 7  94705266.78145  23127991.445                    23127992.410
     -2733.668       -2130.074          47.400          31.300
 117063724.767 7  91218489.32445  22276481.953                    22276487.668
      3126.094        2435.997          42.600          31.600
 111429832.979 8  86828501.86246  21204399.555                    21204402.289
      1695.738        1321.581          53.800          40.400
 107826877.443 9  84020993.57847  20518774.641                    20518778.922
     -1491.230       -1161.782          54.300          43.000
 126723381.810 6  98745530.21743  24114662.359                    24114663.738
       121.578          94.948          39.900          19.600
 114563328.701 7  89270148.40646  21800685.148                    21800685.684
       180.852         141.204          47.700          36.500
 113852866.070 8  88716566.48946  21665485.539                    21665491.383
     -2506.168       -1952.645          49.200          38.200
 18  2 20  8 22 30.0000000  0  8G05G23G30G07G09G16G02G06
 120755333.716 7  94095140.80645  22978988.250                    22978990.625
      3108.359        2422.138          46.700          30.900
 121620493.845 7  94769224.97245  23143610.727                    23143611.777
     -2738.281       -2133.661          46.900          31.300
 116970099.189 7  91145534.34945  22258665.078                    22258671.297
      3115.613        2427.959          43.800          31.800
 111379199.785 9  86789047.43847  21194764.570                    21194767.258
      1679.773        1309.149          54.300          42.000
 107871779.406 8  84055982.11147  20527319.094                    20527323.246
     -1502.367       -1170.487          53.500          43.600
 126720042.546 6  98742928.18143  24114026.633                    24114030.445
       101.180          79.081          40.400          19.300
 114558179.618 7  89266136.13246  21799705.195                    21799706.070
       162.234         126.758          47.200          37.500
 113928271.791 8  88775324.18046  21679834.953                    21679840.457
     -2520.875       -1964.122          48.800          37.700
 18  2 20  8 23  0.0000000  0  8G05G23G30G07G09G16G02G06
 120662170.351 7  94022545.98345  22961259.664                    22961261.773
      3102.664        2417.726          46.800          30.600
 121702711.781 7  94833290.87345  23159256.438                    23159257.590
     -2742.715       -2137.220          47.500          31.400
 116876785.639 7  91072822.51445  22240908.164                    22240914.969
      3105.414        2419.815          44.100          31.900
 111329047.509 8  86749967.75446  21185221.000                    21185223.664
      1663.781        1296.637          53.700          41.500
 107917016.866 8  84091232.06247  20535927.461                    20535931.965
     -1513.395       -1179.165          53.500          43.000
 126717316.456 6  98740803.97343  24113507.961                    24113512.379
        80.852          63.169          40.400          21.100
 114553587.686 8  89262558.00046  21798831.438                    21798831.961
       143.914         112.327          48.200          37.200
 114004119.169 8  88834426.00846  21694268.000                    21694273.574
     -2535.465       -1975.552          49.300          37.900
 18  2 20  8 23 30.0000000  0  8G05G23G30G07G09G16G02G06
 120569177.454 7  93950083.99345  22943564.063                    22943566.305
      3097.086        2413.284          47.400          30.100
 121785066.753 7  94897463.52645  23174928.414                    23174929.160
     -2747.273       -2140.787          46.600          30.700
 116783786.480 7  91000355.66345  22223211.281                    22223217.633
      3094.898        2411.608          44.300          32.400
 111279377.375 8  86711263.76446  21175768.961                    21175771.781
      1647.770        1284.081          53.500          41.600
 107962588.602 8  84126742.49547  20544599.727                    20544603.914
     -1524.453       -1187.852          53.900          43.600
 126715203.594 6  98739157.59643  24113106.375                    24113111.105
        60.281          47.217          39.000          20.900
 114549553.102 8  89259414.16146  21798064.297                    21798064.387
       125.320          97.812          48.000          37.400
 114080405.725 8  88893870.05046  21708784.602                    21708790.750
     -2550.000       -1986.941          48.300          38.400
 18  2 20  8 24  0.0000000  0  8G05G23G30G07G09G16G02G06
 120476355.799 7  93877755.43545  22925900.180                    22925902.957
      3091.012        2408.808          47.500          30.400
 121867557.427 7  94961741.95245  23190625.039                    23190626.848
     -2752.062       -2144.292          47.800          31.800
 116691103.921 7  90928135.52845  22205574.484                    22205580.777
      3083.891        2403.377          45.400          32.600
 111230190.649 8  86672936.46246  21166408.609                    21166411.898
      1631.359        1271.523          53.100          41.600
 108008493.273 9  84162512.35847  20553334.984                    20553339.133
     -1535.875       -1196.484          54.000          43.700
 126713704.211 6  98737989.26143  24112821.781                    24112825.430
        39.527          31.257          41.100          21.500
 114546076.069 8  89256704.77946  21797402.359                    21797402.684
       106.496          83.348          49.300          37.300
 114157128.883 8  88953654.30046  21723384.750                    21723390.359
     -2564.848       -1998.247          48.300          38.100
 18  2 20  8 24 30.0000000  0  8G05G23G30G07G09G16G02G06
 120383707.119 7  93805561.67645  22908270.055                    22908272.371
      3085.352        2404.307          47.900          30.000
 121950183.173 7  95026125.60445  23206348.367                    23206349.867
     -2756.418       -2147.790          46.600          30.500
 116598740.370 7  90856163.96345  22187998.141                    22188005.031
      3073.438        2395.039          45.200          33.800
 111181488.768 8  86634986.96546  21157141.266                    21157144.207
      1615.234        1258.899          53.400          41.700
 108054729.711 9  84198540.73647  20562133.648                    20562137.285
     -1546.750       -1205.078          54.400          43.600
 126712819.129 6  98737299.59443  24112653.281                    24112656.055
        19.230          15.293          40.100          21.300
 114543156.387 7  89254429.68746  21796846.594                    21796846.887
        87.941          68.840          47.800          37.100
 114234286.202 8  89013776.87746  21738067.227                    21738072.945
     -2579.191       -2009.499          48.300          37.300
 18  2 20  8 25  0.0000000  0  8G05G23G30G07G09G16G02G06
 120291233.116 7  93733504.01545  22890672.656                    22890674.738
      3079.504        2399.673          47.600          30.400
 122032943.423 7  95090614.06345  23222096.828                    23222098.789
     -2760.961       -2151.308          46.300          30.300
 116506698.623 7  90784443.15745  22170483.664                    22170489.262
      3062.656        2386.629          46.000          33.600
 111133272.706 8  86597416.02447  21147965.844                    21147968.527
      1599.133        1246.235          53.000          42.200
 108101297.156 9  84234827.05147  20570995.344                    20570999.375
     -1557.680       -1213.681          54.100          43.800
 126712549.523 6  98737089.48543  24112601.172                    24112604.332
        -1.230          -0.725          40.200          21.300
 114540794.992 7  89252589.63746  21796396.938                    21796397.824
        69.449          54.306          47.800          37.900
 114311875.608 8  89074236.12746  21752831.711                    21752837.910
     -2593.418       -2020.719          48.100          37.800
 18  2 20  8 25 30.0000000  0  8G05G23G30G07G09G16G02G06
 120198937.092 8  93661585.04745  22873109.063                    22873111.090
      3073.527        2395.068          48.100          31.300
 122115836.589 7  95155206.09345  23237870.992                    23237872.688
     -2765.410       -2154.725          46.600          30.400
 116414980.747 7  90712974.71145  22153029.297                    22153035.867
      3051.820        2378.209          46.600          33.300
 111085544.056 8  86560224.88046  21138883.586                    21138886.492
      1582.754        1233.582          53.400          41.800
 108148194.181 9  84271370.17647  20579919.742                    20579923.590
     -1568.687       -1222.213          54.300          44.700
 126712895.137 7  98737358.81043  24112667.266                    24112670.246
       -21.836         -16.693          42.000          20.400
 114538991.608 8  89251184.38846  21796054.180                    21796054.625
        50.746          39.835          48.300          37.000
 114389894.397 7  89135029.96646  21767678.445                    21767684.098
     -2607.801       -2031.842          47.300          37.300
 18  2 20  8 26  0.0000000  0  8G05G23G30G07G09G16G02G06
 120106819.338 7  93589804.98545  22855579.734                    22855582.363
      3067.605        2390.431          47.500          30.900
 122198861.936 7  95219901.13644  23253670.563                    23253672.145
     -2769.598       -2158.138          47.000          29.900
 116323589.181 7  90641760.54445  22135638.414                    22135644.332
      3040.938        2369.718          47.100          32.600
 111038303.976 8  86523414.44747  21129894.055                    21129897.012
      1566.563        1220.889          52.900          42.000
 108195419.676 8  84308169.26047  20588906.555                    20588910.328
     -1579.629       -1230.742          53.800          44.300
 126713856.252 6  98738107.70343  24112849.227                    24112852.449
       -42.301         -32.693          39.900          19.300
 114537746.854 8  89250214.43046  21795817.109                    21795817.387
        32.258          25.341          49.100          36.100
 114468340.144 7  89196156.49546  21782606.094                    21782611.703
     -2621.836       -2042.867          46.400          37.200
 18  2 20  8 26 30.0000000  0  8G05G23G30G07G09G16G02G06
 120014882.967 7  93518166.27045  22838084.727                    22838086.664
      3061.359        2385.671          47.500          30.500
 122282018.520 7  95284698.42345  23269494.063                    23269496.902
     -2774.133       -2161.546          45.900          30.300
 116232526.252 7  90570802.43745  22118310.156                    22118315.660
      3029.836        2361.124          47.000          33.600
 110991553.784 8  86486985.74546  21120997.836                    21121000.566
      1550.098        1208.126          53.200          41.600
 108242972.362 8  84345223.28647  20597955.516                    20597959.512
     -1590.645       -1239.234          52.200          43.700
 126715433.265 6  98739336.50543  24113149.414                    24113153.309
       -62.977         -48.648          38.800          19.000
 114537060.747 8  89249679.78946  21795686.875                    21795686.906
        13.398          10.820          48.800          36.700
 114547210.287 7  89257613.72546  21797614.305                    21797620.770
     -2636.062       -2053.863          46.600          37.300
 18  2 20  8 27  0.0000000  0  8G05G23G30G07G09G16G02G06
 119923129.219 7  93446669.85044  22820624.734                    22820626.820
      3055.543        2380.914          47.300          29.800
 122365305.171 7  95349597.07244  23285343.805                    23285345.941
     -2778.285       -2164.931          43.900          28.800
 116141794.203 7  90500102.16945  22101043.492                    22101049.680
      3019.063        2352.506          47.000          32.700
 110945294.452 8  86450939.51847  21112195.102                    21112197.832
      1533.945        1195.363          53.400          42.000
 108290851.075 8  84382531.36747  20607066.539                    20607070.512
     -1601.203       -1247.682          53.800          43.900
 126717626.893 6  98741045.86743  24113566.578                    24113570.234
       -83.227         -64.744          39.800          19.000
 114536933.236 8  89249580.41746  21795662.070                    21795662.664
        -4.926          -3.709          48.200          36.900
 114626502.322 7  89319399.71046  21812703.570                    21812709.297
     -2649.867       -2064.793          47.100          37.200
 18  2 20  8 27 30.0000000  0  8G05G23G30G07G09G16G02G06
 119831559.401 8  93375316.74445  22803199.445                    22803201.230
      3049.359        2376.105          48.700          31.400
 122448721.123 7  95414596.45145  23301217.539                    23301219.133
     -2782.535       -2168.242          46.400          30.600
 116051395.484 7  90429661.62945  22083841.594                    22083847.250
      3007.797        2343.825          47.200          32.900
 110899527.112 8  86415276.66446  21103485.867                    21103488.609
      1517.504        1182.599          52.700          41.300
 108339054.688 8  84420092.61847  20616239.477                    20616243.121
     -1612.055       -1256.111          52.700          43.600
 126720437.156 6  98743235.68243  24114101.523                    24114104.477
      -103.879         -80.729          37.400          19.600
 114537364.351 7  89249916.33646  21795744.117                    21795744.801
       -23.508         -18.205          47.400          36.700
 114706213.785 7  89381512.50546  21827871.875                    21827877.973
     -2663.918       -2075.661          46.900          36.900
 18  2 20  8 28  0.0000000  0  8G05G23G30G07G09G16G02G06
 119740175.981 8  93304108.88845  22785809.758                    22785811.332
      3043.094        2371.301          48.000          30.500
 122532265.171 7  95479695.66444  23317115.906                    23317117.379
     -2786.840       -2171.511          45.800          29.700
 115961332.312 7  90359482.56145  22066703.328                    22066709.191
      2996.520        2335.139          47.000          32.500
 110854252.962 8  86379998.11347  21094870.469                    21094872.977
      1500.988        1169.819          53.800          42.200
 108387581.861 8  84457905.99647  20625473.688                    20625477.863
     -1622.902       -1264.421          52.800          43.400
 126723863.891 6  98745905.84943  24114754.266                    24114756.824
      -124.461         -96.678          40.300          20.400
 114538354.230 7  89250687.66345  21795932.875                    21795933.730
       -42.250         -32.659          47.900          35.800
 114786342.024 7  89443950.06346  21843119.961                    21843126.125
     -2677.820       -2086.378          46.800          37.500
 18  2 20  8 28 30.0000000  0  8G05G23G30G07G09G16G02G06
 119648980.694 8  93233047.63645  22768456.320                    22768457.434
      3036.555        2366.388          49.600          32.100
 122615936.335 7  95544893.92345  23333037.820                    23333039.352
     -2791.348       -2174.812          44.400          30.200
 115871606.739 7  90289566.54845  22049628.922                    22049634.699
      2985.000        2326.327          46.400          32.000
 110809473.151 8  86345104.76647  21086349.109                    21086351.398
      1484.242        1156.959          52.500          42.300
 108436431.213 8  84495970.42347  20634769.445                    20634773.637
     -1633.844       -1272.789          52.000          43.800
 126727907.581 6  98749056.80143  24115522.875                    24115526.273
      -145.145        -112.709          41.600          20.100
 114539902.736 7  89251894.27346  21796226.859                    21796227.887
       -61.191         -47.210          47.600          36.500
 114866884.241 7  89506710.21146  21858446.617                    21858452.770
     -2691.824       -2097.116          47.000          37.200
 18  2 20  8 29  0.0000000  0  8G05G23G30G07G09G16G02G06
 119557974.870 8  93162134.00645  22751138.164                    22751139.984
      3030.215        2361.348          48.700          31.900
 122699733.761 7  95610190.59245  23348983.539                    23348985.750
     -2795.453       -2178.164          46.000          30.600
 115782221.344 7  90219915.62045  22032619.250                    22032624.711
      2973.750        2317.382          46.300          32.300
 110765188.559 8  86310597.30547  21077922.063                    21077924.676
      1467.621        1143.967          52.500          42.000
 108485601.833 8  84534285.19247  20644126.023                    20644130.402
     -1644.492       -1281.222          51.700          43.700
 126732568.539 6  98752688.71143  24116410.164                    24116412.910
      -165.855        -128.889          39.900          21.300
 114542010.134 7  89253536.40346  21796628.133                    21796628.852
       -79.684         -61.798          46.500          36.000
 114947838.206 8  89569791.19046  21873851.750                    21873857.750
     -2705.465       -2107.893          48.000          37.500
 18  2 20  8 29 30.0000000  0  8G05G23G30G07G09G16G02G06
 119467160.912 8  93091369.88945  22733857.016                    22733858.902
      3023.895        2356.397          48.400          32.700
 122783656.100 7  95675584.55245  23364953.414                    23364955.391
     -2799.504       -2181.341          46.100          30.900
 115693178.250 7  90150531.41845  22015675.148                    22015680.918
      2962.375        2308.496          46.900          33.600
 110721400.221 8  86276476.52846  21069589.461                    21069591.441
      1451.281        1131.137          52.100          41.500
 108535092.285 8  84572849.17647  20653543.680                    20653548.645
     -1654.988       -1289.461          51.800          43.900
 126737846.902 6  98756801.71243  24117414.789                    24117418.285
      -186.105        -144.828          38.600          20.600
 114544675.966 8  89255613.66346  21797135.500                    21797136.152
       -98.211         -76.237          48.000          36.500
 115029201.052 7  89633190.78846  21889334.461                    21889340.875
     -2718.809       -2118.405          47.200          37.700
 18  2 20  8 30  0.0000000  0  8G05G23G30G07G09G16G02G06
 119376540.679 8  93020756.72945  22716612.414                    22716614.090
      3017.598        2351.310          48.200          31.800
 122867702.875 7  95741075.49845  23380946.914                    23380948.836
     -2803.426       -2184.571          44.200          31.600
 115604479.768 7  90081415.74145  21998796.164                    21998802.059
      2951.027        2299.521          45.300          33.300
 110678109.321 8  86242743.37646  21061351.180                    21061353.820
      1434.879        1118.200          51.700          41.400
 108584901.441 8  84611661.48847  20663022.211                    20663026.738
     -1665.395       -1297.713          51.800          44.300
 126743742.801 6  98761395.91243  24118536.648                    24118540.738
      -206.629        -160.868          40.300          20.600
 114547900.345 7  89258126.16146  21797749.367                    21797749.750
      -116.652         -90.746          47.200          36.700
 115110970.192 7  89696906.97646  21904894.727                    21904900.629
     -2732.141       -2128.950          47.500          37.900
 18  2 20  8 30 30.0000000  0  8G05G23G30G07G09G16G02G06
 119286115.582 8  92950295.62145  22699405.242                    22699407.133
      3011.055        2346.228          48.500          32.500
 122951872.677 7  95806662.29945  23396964.375                    23396965.793
     -2807.539       -2187.776          46.000          30.900
 115516127.983 7  90012570.22045  21981983.523                    21981989.117
      2939.379        2290.476          46.000          34.700
 110635316.657 8  86209398.45846  21053207.688                    21053210.695
      1418.234        1105.197          49.900          41.000
 108635027.940 8  84650721.09747  20672561.008                    20672565.336
     -1676.055       -1305.984          51.700          43.600
 126750255.979 6  98766471.10343  24119776.227                    24119779.977
      -227.234        -176.941          41.000          20.900
 114551683.168 7  89261073.80446  21798468.680                    21798470.109
      -135.316        -105.290          47.200          36.100
 115193143.069 8  89760937.77446  21920531.828                    21920537.758
     -2745.687       -2139.433          49.200          37.400
 18  2 20  8 31  0.0000000  0  8G05G23G30G07G09G16G02G06
 119195887.515 7  92879988.03645  22682235.125                    22682237.363
      3004.234        2341.075          47.000          31.400
 123036164.810 7  95872344.42145  23413004.258                    23413006.402
     -2811.770       -2190.944          45.900          30.200
 115428125.377 7  89943996.79045  21965237.430                    21965242.914
      2927.516        2281.360          45.900          35.300
 110593023.781 8  86176442.98146  21045159.539                    21045162.551
      1401.402        1092.217          51.000          40.100
 108685470.719 8  84690027.14847  20682160.000                    20682164.355
     -1686.727       -1314.182          51.900          43.700
 126757387.297 6  98772027.96843  24121134.266                    24121137.207
      -248.035        -193.023          39.500          19.900
 114556024.356 7  89264456.53646  21799295.422                    21799296.004
      -153.996        -119.791          46.100          36.100
 115275717.121 7  89825281.16446  21936245.344                    21936251.000
     -2759.172       -2149.824          47.300          37.700
 18  2 20  8 31 30.0000000  0  8G05G23G30G07G09G16G02G06
 119105858.960 8  92809835.92345  22665103.117                    22665105.656
      2997.563        2335.856          48.000          32.200
 123120577.909 7  95938120.80345  23429067.125                    23429069.520
     -2815.852       -2194.098          44.000          30.400
 115340473.981 7  89875697.02245  21948558.359                    21948563.563
      2915.750        2272.203          47.700          35.000
 110551231.309 8  86143877.44246  21037206.961                    21037210.020
      1384.711        1079.194          50.100          39.400
 108736228.448 8  84729578.61747  20691818.664                    20691823.199
     -1697.184       -1322.369          51.900          43.200
 126765136.219 7  98778066.07443  24122608.844                    24122611.281
      -268.668        -209.054          42.500          20.600
 114560923.740 7  89268274.22246  21800227.422                    21800228.340
      -172.590        -134.277          46.900          36.200
 115358689.523 7  89889934.96346  21952034.594                    21952039.609
     -2772.293       -2160.124          47.700          37.400
 18  2 20  8 32  0.0000000  0  8G05G23G30G07G09G16G02G06
 119016031.277 8  92739840.32045  22648009.547                    22648012.441
      2990.965        2330.636          48.800          33.000
 123205111.147 7  96003990.81544  23445153.703                    23445155.387
     -2819.637       -2197.157          45.900          29.900
 115253176.060 8  89807672.68445  21931945.953                    21931951.551
      2904.074        2263.019          48.000          35.500
 110509940.234 8  86111702.58846  21029349.227                    21029352.203
      1368.098        1066.195          50.000          40.100
 108787299.870 8  84769374.51547  20701537.000                    20701541.887
     -1707.527       -1330.457          50.900          43.400
 126773502.554 6  98784585.26643  24124200.563                    24124203.156
      -289.086        -225.029          40.400          20.400
 114566381.275 7  89272526.83545  21801265.742                    21801266.547
      -191.098        -148.766          46.300          35.500
 115442057.690 7  89954897.14146  21967898.844                    21967904.461
     -2785.414       -2170.362          47.200          37.000
 18  2 20  8 32 30.0000000  0  8G05G23G30G07G09G16G02G06
 118926406.652 8  92670002.96645  22630954.656                    22630957.211
      2984.000        2325.360          48.700          32.100
 123289764.063 7  96069954.07044  23461262.969                    23461264.074
     -2823.887       -2200.271          45.100          28.600
 115166234.255 7  89739925.83946  21915401.586                    21915407.180
      2891.969        2253.747          47.900          36.300
 110469152.256 8  86079919.75546  21021587.680                    21021590.395
      1351.105        1053.116          49.500          39.700
 108838684.198 8  84809414.23547  20711315.141                    20711320.207
     -1718.043       -1338.558          51.100          43.200
 126782486.853 7  98791586.01243  24125910.984                    24125912.441
      -309.812        -241.086          43.200          19.600
 114572397.080 8  89277214.44946  21802411.031                    21802411.559
      -209.937        -163.249          48.100          36.400
 115525819.180 7  90020165.81146  21983838.133                    21983843.695
     -2798.590       -2180.547          47.500          37.700
 18  2 20  8 33  0.0000000  0  8G05G23G30G07G09G16G02G06
 118836986.725 8  92600325.09745  22613938.383                    22613941.133
      2977.113        2320.011          48.200          32.800
 123374535.503 7  96136009.69644  23477394.914                    23477395.879
     -2827.734       -2203.317          46.500          29.700
 115079650.445 8  89672457.95546  21898925.250                    21898930.664
      2880.020        2244.426          48.500          36.900
 110428867.852 8  86048529.32346  21013921.961                    21013924.828
      1334.344        1040.028          50.000          39.900
 108890379.913 8  84849696.59247  20721152.469                    20721157.191
     -1728.371       -1346.634          51.600          42.900
 126792089.021 7  98799068.17543  24127739.195                    24127739.770
      -330.418        -257.138          43.700          20.600
 114578970.701 7  89282336.74646  21803661.820                    21803662.535
      -228.457        -177.744          47.000          36.700
 115609971.314 7  90085738.87446  21999852.023                    21999857.336
     -2811.613       -2190.633          47.900          37.400
 18  2 20  8 33 30.0000000  0  8G05G23G30G07G09G16G02G06
 118747773.630 8  92530808.39545  22596961.922                    22596964.473
      2970.285        2314.574          48.800          33.400
 123459424.453 7  96202156.89544  23493547.805                    23493549.309
     -2831.594       -2206.406          44.000          28.500
 114993426.922 7  89605270.80846  21882516.914                    21882522.586
      2868.000        2234.981          47.900          36.800
 110389087.689 8  86017531.79846  21006351.930                    21006354.398
      1317.594        1026.883          49.500          39.900
 108942385.853 8  84890220.68947  20731048.938                    20731053.621
     -1738.723       -1354.726          51.200          43.500
 126802309.034 7  98807031.80343  24129682.422                    24129683.762
      -351.074        -273.250          43.100          20.600
 114586101.986 8  89287893.58046  21805019.000                    21805019.438
      -247.090        -192.270          48.400          36.100
 115694511.352 8  90151614.21246  22015939.484                    22015944.711
     -2824.500       -2200.745          48.000          37.200
 18  2 20  8 34  0.0000000  0  8G05G23G30G07G09G16G02G06
 118658769.098 7  92461454.21145  22580024.625                    22580027.973
      2963.395        2309.203          45.800          32.600
 123544429.872 7  96268394.83444  23509724.289                    23509725.395
     -2835.422       -2209.368          43.900          26.800
 114907565.831 7  89538366.08046  21866178.320                    21866183.945
      2856.043        2225.611          46.800          36.700
 110349812.730 8  85986927.94046  20998878.023                    20998880.859
      1300.777        1013.808          50.600          40.100
 108994700.785 8  84930985.55347  20741004.273                    20741009.219
     -1748.867       -1362.676          51.700          42.900
 126813146.300 6  98815476.42643  24131744.609                    24131745.793
      -371.418        -289.179          41.800          20.100
 114593790.558 7  89293884.65546  21806482.133                    21806482.813
      -265.496        -206.672          47.600          37.300
 115779436.576 8  90217789.68746  22032100.125                    22032105.094
     -2837.250       -2210.653          48.000          38.400
 18  2 20  8 34 30.0000000  0  8G05G23G30G07G09G16G02G06
 118569974.639 7  92392263.73145  22563127.664                    22563130.809
      2956.410        2303.764          47.600          32.700
 123629550.953 7  96334722.93144  23525922.383                    23525923.379
     -2839.156       -2212.310          44.400          27.100
 114822069.327 8  89471745.44046  21849908.352                    21849914.051
      2843.852        2216.148          48.800          36.400
 110311043.739 8  85956718.34246  20991500.656                    20991503.117
      1283.996        1000.687          50.300          39.800
 109047323.381 8  84971990.15747  20751018.063                    20751022.609
     -1759.000       -1370.604          52.500          42.700
 126824600.983 6  98824402.13643  24133925.094                    24133924.859
      -392.023        -305.199          41.300          19.600
 114602036.084 8  89300309.72846  21808051.250                    21808051.668
      -283.965        -221.088          49.100          37.000
 115864744.177 8  90284263.10646  22048333.563                    22048339.074
     -2849.797       -2220.490          49.000          37.300
 18  2 20  8 35  0.0000000  0  8G05G23G30G07G09G16G02G06
 118481392.698 8  92323238.82545  22546271.297                    22546274.258
      2949.039        2298.145          48.500          32.700
 123714786.712 7  96401140.35944  23542142.180                    23542142.992
     -2843.086       -2215.323          43.400          25.700
 114736939.887 8  89405410.80446  21833709.055                    21833715.008
      2831.473        2206.541          48.900          36.100
 110272782.061 8  85926904.05346  20984219.852                    20984221.871
      1266.883         987.444          50.500          39.400
 109100252.861 8  85013233.89247  20761090.188                    20761094.023
     -1769.508       -1378.630          53.200          42.600
 126836673.501 6  98833809.28243  24136221.406                    24136222.258
      -412.871        -321.321          41.400          20.100
 114610838.886 8  89307169.04246  21809726.531                    21809727.109
      -302.789        -235.613          49.000          37.100
 115950431.875 8  90351032.72246  22064639.703                    22064645.406
     -2862.637       -2230.379          48.100          38.300
 18  2 20  8 35 30.0000000  0  8G05G23G30G07G09G16G02G06
 118393025.650 8  92254381.39145  22529454.977                    22529458.914
      2942.020        2292.498          48.200          32.600
 123800136.200 7  96467646.41044  23558383.250                    23558384.586
     -2846.812       -2218.335          42.700          25.800
 114652179.564 8  89339363.79545  21817579.914                    21817585.461
      2819.160        2196.862          49.800          35.500
 110235028.655 8  85897485.81946  20977035.297                    20977038.355
      1250.004         974.185          50.200          39.600
 109153487.762 8  85054715.61547  20771220.484                    20771224.637
     -1779.527       -1386.585          53.400          43.000
 126849363.553 6  98843697.59543  24138636.234                    24138636.387
      -433.230        -337.385          41.300          19.000
 114620198.357 8  89314462.12146  21811507.547                    21811507.777
      -321.207        -250.137          49.400          36.900
 116036496.689 8  90418096.19046  22081017.344                    22081022.441
     -2874.992       -2240.206          49.200          38.300
 18  2 20  8 36  0.0000000  0  8G05G23G30G07G09G16G02G06
 118304874.226 7  92185691.96845  22512680.672                    22512684.188
      2934.773        2286.895          46.300          33.000
 123885598.419 7  96534240.30344  23574646.258                    23574647.637
     -2850.625       -2221.217          42.200          26.200
 114567790.262 7  89273605.90145  21801521.039                    21801526.328
      2806.684        2187.236          47.200          35.500
 110197784.017 8  85868464.03646  20969947.719                    20969950.199
      1233.004         960.987          49.600          39.000
 109207026.718 8  85096434.26747  20781409.141                    20781412.984
     -1789.762       -1394.455          53.800          43.400
 126862670.174 7  98854066.40343  24141168.922                    24141169.465
      -453.676        -353.377          42.800          22.300
 114630113.975 8  89322188.56546  21813394.258                    21813394.457
      -339.766        -264.549          49.300          37.300
 116122935.742 8  90485451.28046  22097466.188                    22097471.773
     -2887.535       -2249.856          48.700          38.600
 18  2 20  8 36 30.0000000  0  8G05G23G30G07G09G16G02G06
 118216941.127 7  92117172.66845  22495947.695                    22495951.211
      2927.422        2281.205          47.900          33.600
 123971172.617 6  96600921.44444  23590930.844                    23590932.031
     -2854.266       -2224.101          41.900          26.600
 114483774.407 8  89208139.00546  21785533.305                    21785538.727
      2794.316        2177.539          49.300          36.000
 110161049.059 8  85839839.40446  20962957.375                    20962960.238
      1215.945         947.754          50.700          39.600
 109260868.674 9  85138389.03847  20791654.680                    20791658.699
     -1799.793       -1402.279          55.000          43.200
 126876593.587 7  98864915.81643  24143818.906                    24143821.055
      -474.363        -369.379          43.900          22.000
 114640585.550 8  89330348.21446  21815386.664                    21815387.473
      -358.324        -278.956          49.100          37.700
 116209746.528 7  90553096.01646  22113985.570                    22113991.078
     -2899.895       -2259.454          47.900          38.100
 18  2 20  8 37  0.0000000  0  8G05G23G30G07G09G16G02G06
 118129228.528 8  92048825.17445  22479256.336                    22479259.863
      2920.102        2275.457          48.100          33.200
 124056857.773 6  96667689.05644  23607235.430                    23607237.660
     -2857.996       -2226.984          41.700          26.500
 114400134.008 8  89142964.67945  21769617.828                    21769622.676
      2781.793        2167.735          49.700          35.000
 110124824.429 8  85811612.42946  20956064.086                    20956066.926
      1199.027         934.482          51.400          39.200
 109315012.342 9  85180578.90247  20801958.313                    20801961.801
     -1809.758       -1410.105          55.200          43.200
 126891133.707 7  98876245.76843  24146586.906                    24146589.938
      -494.914        -385.399          43.400          23.200
 114651612.891 8  89338940.93046  21817485.414                    21817485.906
      -376.770        -293.394          49.200          37.400
 116296926.163 8  90621028.17646  22130575.469                    22130581.285
     -2912.066       -2269.021          48.000          39.000
 18  2 20  8 37 30.0000000  0  8G05G23G30G07G09G16G02G06
 118041737.917 8  91980650.68145  22462607.859                    22462611.242
      2912.730        2269.700          48.200          33.900
 124142653.011 7  96734542.43444  23623562.352                    23623564.008
     -2861.707       -2229.822          42.200          26.400
 114316871.311 8  89078084.66045  21753772.484                    21753778.680
      2769.078        2157.912          49.300          34.900
 110089111.281 8  85783784.01346  20949267.859                    20949270.883
      1181.938         921.168          51.200          40.800
 109369456.640 9  85223003.01647  20812318.969                    20812321.969
     -1819.789       -1417.898          54.900          43.200
 126906290.119 6  98888055.95243  24149469.531                    24149474.191
      -515.555        -401.395          40.800          22.500
 114663195.345 8  89347966.20846  21819689.422                    21819690.152
      -395.297        -307.810          49.600          37.700
 116384472.043 7  90689245.71946  22147234.328                    22147240.551
     -2924.219       -2278.496          47.200          37.900
 18  2 20  8 38  0.0000000  0  8G05G23G30G07G09G16G02G06
 117954471.320 7  91912650.73445  22446001.531                    22446004.531
      2905.164        2263.876          47.200          33.400
 124228557.225 7  96801480.74744  23639909.414                    23639910.781
     -2865.199       -2232.633          42.200          27.200
 114233988.567 8  89013500.71645  21738000.656                    21738006.219
      2756.434        2148.026          48.300          35.500
 110053910.636 8  85756354.94646  20942569.922                    20942572.695
      1164.832         907.892          51.600          40.100
 109424200.448 9  85265660.53247  20822736.055                    20822739.883
     -1829.719       -1425.661          54.300          43.600
 126922062.449 6  98900346.07243  24152470.219                    24152475.301
      -535.961        -417.399          39.800          21.100
 114675332.470 8  89357423.69546  21821998.672                    21821999.668
      -413.812        -322.199          49.500          37.400
 116472381.482 7  90757746.54246  22163963.359                    22163968.887
     -2936.324       -2287.893          47.800          38.000
 18  2 20  8 38 30.0000000  0  8G05G23G30G07G09G16G02G06
 117867430.412 8  91844826.64745  22429438.219                    22429441.777
      2897.484        2257.889          48.600          33.600
 124314570.218 7  96868503.80044  23656278.242                    23656279.418
     -2869.078       -2235.525          44.300          27.000
 114151488.054 8  88949214.61446  21722301.336                    21722306.840
      2743.617        2138.010          49.800          36.000
 110019223.407 8  85729325.94346  20935969.266                    20935971.410
      1147.578         894.462          51.600          40.200
 109479242.709 8  85308550.59447  20833210.156                    20833214.227
     -1839.754       -1433.458          53.300          43.900
 126938450.996 6  98913116.32643  24155588.555                    24155591.750
      -556.695        -433.467          40.200          20.100
 114688024.423 8  89367313.51946  21824413.773                    21824414.836
      -432.371        -336.672          49.500          37.100
 116560651.914 7  90826528.67246  22180760.367                    22180766.273
     -2948.484       -2297.314          46.800          37.700
 18  2 20  8 39  0.0000000  0  8G05G23G30G07G09G16G02G06
 117780617.567 7  91777180.26645  22412918.148                    22412921.277
      2889.949        2251.986          47.900          33.700
 124400690.326 7  96935610.34144  23672665.633                    23672667.266
     -2872.410       -2238.230          45.800          27.300
 114069371.476 8  88885227.67745  21706675.047                    21706680.750
      2730.773        2128.036          48.900          35.900
 109985049.384 8  85702696.84446  20929466.273                    20929468.609
      1130.559         881.159          50.800          40.700
 109534581.862 9  85351671.99547  20843740.719                    20843745.066
     -1849.652       -1441.114          54.400          43.300
 126955454.461 6  98926365.80643  24158824.883                    24158824.906
      -576.996        -449.411          41.700          20.400
 114701270.083 8  89377634.80346  21826935.063                    21826935.492
      -450.824        -351.018          49.800          37.300
 116649280.176 7  90895589.62646  22197625.891                    22197631.723
     -2960.301       -2306.527          47.500          37.700
 18  2 20  8 39 30.0000000  0  8G05G23G30G07G09G16G02G06
 117694033.625 7  91709712.26145  22396441.492                    22396444.250
      2882.309        2246.054          47.500          33.400
 124486917.264 7  97002800.10644  23689074.180                    23689075.867
     -2875.730       -2240.937          42.900          28.200
 113987641.248 8  88821541.80346  21691122.352                    21691127.801
      2718.043        2118.032          49.300          36.400
 109951389.942 8  85676468.71446  20923060.867                    20923063.262
      1113.531         867.831          51.800          41.300
 109590216.988 8  85395024.03847  20854327.367                    20854331.738
     -1859.285       -1448.750          53.400          42.900
 126973073.057 7  98940094.61643  24162178.305                    24162178.613
      -597.340        -465.302          42.900          21.100
 114715069.349 8  89388387.46446  21829560.625                    21829561.512
      -469.020        -365.326          49.100          37.100
 116738263.753 7  90964927.45946  22214558.836                    22214564.598
     -2971.914       -2315.669          47.200          38.000
 18  2 20  8 40  0.0000000  0  8G05G23G30G07G09G16G02G06
 117607682.181 8  91642425.42345  22380009.656                    22380012.512
      2874.645        2239.996          48.300          33.900
 124573249.748 7  97070072.13144  23705502.328                    23705504.105
     -2879.277       -2243.686          45.300          28.500
 113906299.178 8  88758158.37746  21675643.586                    21675649.063
      2705.000        2107.905          49.600          36.300
 109918245.379 8  85650641.79846  20916753.914                    20916756.277
      1096.430         854.461          51.500          41.200
 109646146.603 8  85438605.53647  20864970.453                    20864975.359
     -1869.008       -1456.382          51.700          43.200
 126991306.395 6  98954302.46843  24165647.117                    24165651.063
      -617.852        -481.289          41.600          21.300
 114729421.535 8  89399570.97246  21832291.492                    21832292.906
      -487.500        -379.695          48.800          37.700
 116827599.630 7  91034539.79246  22231558.844                    22231564.871
     -2983.492       -2324.774          47.500          37.100
 18  2 20  8 40 30.0000000  0  8G05G23G30G07G09G16G02G06
 117521565.210 8  91575321.28545  22363621.695                    22363625.160
      2866.531        2233.833          49.200          33.300
 124659687.248 7  97137425.98144  23721951.375                    23721952.250
     -2883.234       -2246.446          43.700          28.700
 113825347.981 8  88695079.53546  21660238.953                    21660244.594
      2691.766        2097.697          50.200          36.400
 109885617.175 8  85625217.23046  20910544.984                    20910547.418
      1078.844         840.990          52.000          41.400
 109702370.202 8  85482416.11847  20875668.961                    20875674.313
     -1879.129       -1464.057          51.300          42.700
 127010154.321 6  98968989.08543  24169233.539                    24169239.988
      -638.656        -497.266          38.200          21.100
 114744326.964 8  89411185.58046  21835128.117                    21835129.051
      -506.156        -394.106          49.200          37.100
 116917285.667 7  91104424.99846  22248625.641                    22248631.359
     -2995.477       -2333.893          47.300          37.600
 18  2 20  8 41  0.0000000  0  8G05G23G30G07G09G16G02G06
 117435683.716 8  91508400.64045  22347279.047                    22347282.227
      2858.602        2227.721          48.800          34.100
 124746228.541 7  97204860.71444  23738419.836                    23738420.520
     -2886.840       -2249.149          42.000          27.200
 113744789.100 8  88632306.39546  21644909.414                    21644914.973
      2678.551        2087.508          51.100          37.100
 109853505.112 8  85600194.85146  20904434.164                    20904436.691
      1061.566         827.584          51.000          41.200
 109758885.885 8  85526454.29247  20886423.648                    20886429.008
     -1888.879       -1471.599          51.300          43.300
 127029615.773 7  98984153.79343  24172937.516                    24172943.285
      -659.027        -513.181          42.000          20.100
 114759784.129 8  89423230.10846  21838069.172                    21838070.352
      -524.602        -408.400          49.500          36.300
 117007318.379 7  91174580.32946  22265758.133                    22265764.051
     -3007.027       -2342.846          47.000          37.300
 18  2 20  8 41 30.0000000  0  8G05G23G30G07G09G16G02G06
 117350039.285 8  91441664.72745  22330981.484                    22330984.398
      2850.891        2221.536          48.900          34.100
 124832872.548 7  97272375.47144  23754908.195                    23754908.555
     -2889.848       -2251.759          42.500          27.800
 113664624.561 8  88569840.52946  21629654.273                    21629660.105
      2665.633        2077.245          50.400          37.300
 109821910.085 8  85575575.35546  20898422.039                    20898424.371
      1044.605         814.156          50.900          41.600
 109815692.403 8  85570719.09647  20897233.867                    20897238.988
     -1898.344       -1479.140          50.800          43.200
 127049689.995 7  98999796.06943  24176757.766                    24176759.160
      -679.238        -529.117          43.400          20.900
 114775792.618 8  89435704.24346  21841115.930                    21841116.566
      -542.738        -422.721          48.700          36.800
 117097694.926 7  91245003.58846  22282956.328                    22282962.340
     -3018.152       -2351.730          47.000          37.300
 18  2 20  8 42  0.0000000  0  8G05G23G30G07G09G16G02G06
 117264634.580 8  91375115.60745  22314729.555                    22314732.363
      2842.762        2215.250          49.700          34.500
 124919618.578 6  97339969.73844  23771414.547                    23771415.922
     -2893.156       -2254.414          41.100          26.000
 113584856.752 8  88507683.81846  21614475.102                    21614480.582
      2652.344        2066.887          50.900          36.600
 109790833.122 8  85551359.55146  20892508.445                    20892510.953
      1027.285         800.667          50.800          41.400
 109872788.990 8  85615209.92647  20908099.047                    20908104.063
     -1908.066       -1486.683          50.500          42.900
 127070376.856 6  99015915.70743  24180693.766                    24180692.969
      -699.758        -545.042          41.400          19.300
 114792352.191 8  89448607.79646  21844266.766                    21844267.867
      -561.160        -437.029          48.900          36.000
 117188412.894 7  91315692.89346  22300219.508                    22300225.094
     -3029.539       -2360.594          47.000          37.100
 18  2 20  8 42 30.0000000  0  8G05G23G30G07G09G16G02G06
 117179472.186 8  91308755.30045  22298524.250                    22298526.535
      2834.777        2208.963          50.000          35.100
 125006465.968 6  97407642.98944  23787939.930                    23787942.184
     -2896.562       -2257.023          40.100          26.000
 113505487.608 8  88445837.74246  21599371.523                    21599377.184
      2638.992        2056.500          50.300          37.600
 109760274.547 8  85527547.69146  20886693.094                    20886695.363
      1010.008         787.218          51.300          41.300
 109930174.255 8  85659925.70747  20919018.906                    20919024.219
     -1917.590       -1494.127          51.000          42.900
 127091676.142 6  99032512.50643  24184746.641                    24184747.805
      -720.086        -560.886          40.300          19.300
 114809461.819 8  89461939.95746  21847522.664                    21847523.770
      -579.461        -451.292          48.700          36.200
 117279469.313 7  91386645.91346  22317547.234                    22317552.246
     -3040.785       -2369.316          47.200          36.900
 18  2 20  8 43  0.0000000  0  8G05G23G30G07G09G16G02G06
 117094553.304 8  91242584.74345  22282364.648                    22282367.238
      2826.387        2202.647          50.400          35.500
 125093413.914 6  97475394.59844  23804486.094                    23804488.383
     -2900.062       -2259.609          39.700          24.100
 113426519.258 8  88384303.98246  21584344.344                    21584350.164
      2625.453        2046.112          50.400          36.900
 109730235.125 8  85504140.35846  20880976.406                    20880979.145
       992.500         773.766          50.800          41.300
 109987847.161 8  85704865.62847  20929993.898                    20929998.293
     -1927.340       -1501.560          50.700          43.100
 127113587.073 6  99049585.91643  24188916.250                    24188921.863
      -740.680        -576.740          41.600          20.600
 114827121.166 8  89475700.48345  21850883.430                    21850883.832
      -597.953        -465.539          48.800          35.600
 117370861.471 7  91457860.56046  22334938.438                    22334943.789
     -3052.141       -2377.973          47.800          37.300
 18  2 20  8 43 30.0000000  0  8G05G23G30G07G09G16G02G06
 117009879.894 8  91176605.47645  22266252.219                    22266254.758
      2818.395        2196.217          50.500          35.200
 125180461.300 6  97543223.66644  23821050.281                    23821052.176
     -2903.086       -2262.208          38.400          24.200
 113347953.349 8  88323083.81046  21569393.703                    21569399.410
      2612.242        2035.631          50.100          36.700
 109700715.042 8  85481137.71346  20875359.203                    20875361.957
       975.320         760.240          51.200          41.300
 110045806.121 8  85750028.45147  20941023.070                    20941027.648
     -1936.723       -1508.992          51.300          42.600
 127136108.708 7  99067135.26443  24193202.570                    24193208.016
      -760.898        -592.642          42.400          22.200
 114845329.330 7  89489888.65045  21854348.008                    21854348.984
      -615.949        -479.774          47.900          35.000
 117462586.165 8  91529334.31746  22352393.148                    22352398.266
     -3062.953       -2386.588          48.800          37.300
 18  2 20  8 44  0.0000000  0  8G05G23G30G07G09G16G02G06
 116925454.402 8  91110819.37445  22250186.070                    22250188.727
      2809.859        2189.710          50.200          35.900
 125267607.442 6  97611129.66643  23837633.266                    23837636.148
     -2906.719       -2264.759          39.500          22.300
 113269792.460 8  88262179.24946  21554520.438                    21554525.707
      2598.410        2025.036          49.700          36.100
 109671715.525 8  85458540.70346  20869840.398                    20869843.359
       957.844         746.678          50.500          41.200
 110104050.511 8  85795413.68847  20952107.008                    20952111.414
     -1946.383       -1516.451          51.100          42.300
 127159240.935 6  99085160.42443  24197604.844                    24197607.070
      -781.441        -608.531          41.100          20.900
 114864085.920 8  89504504.15545  21857917.344                    21857918.156
      -634.516        -494.080          48.500          35.500
 117554641.100 8  91601065.41846  22369911.047                    22369915.840
     -3074.109       -2395.173          48.400          37.200
 18  2 20  8 44 30.0000000  0  8G05G23G30G07G09G16G02G06
 116841277.569 8  91045227.04445  22234167.914                    22234170.441
      2801.633        2183.282          50.000          35.400
 125354851.231 6  97679111.79643  23854235.570                    23854238.086
     -2909.867       -2267.292          40.600          22.800
 113192038.456 8  88201591.73846  21539724.313                    21539730.117
      2584.824        2014.483          49.100          36.100
 109643237.178 8  85436349.79046  20864421.547                    20864424.023
       940.508         733.174          50.800          41.400
 110162579.032 8  85841020.32647  20963244.172                    20963249.039
     -1955.789       -1523.758          50.300          42.600
 127182983.417 6  99103661.01343  24202122.602                    24202123.691
      -801.633        -624.298          40.600          21.100
 114883390.216 7  89519546.46845  21861591.016                    21861591.301
      -652.684        -508.264          47.900          35.300
 117647023.330 8  91673051.55246  22387490.891                    22387495.516
     -3084.965       -2403.597          48.400          37.100
 18  2 20  8 45  0.0000000  0  8G05G23G30G07G09G16G02G06
 116757352.820 8  90979831.15145  22218197.898                    22218199.832
      2793.344        2176.684          50.000          35.500
 125442191.843 6  97747169.36643  23870856.359                    23870858.109
     -2912.863       -2269.825          40.600          22.800
 113114692.984 8  88141322.56346  21525005.953                    21525011.211
      2571.414        2003.820          50.100          36.400
 109615279.655 8  85414564.71946  20859101.547                    20859103.953
       923.320         719.629          50.300          41.300
 110221390.135 8  85886847.16347  20974436.063                    20974440.410
     -1964.980       -1531.088          50.300          42.200
 127207334.543 7  99122635.95444  24206757.156                    24206760.320
      -821.734        -640.135          42.500          24.300
 114903241.348 8  89535014.86145  21865368.500                    21865368.680
      -670.773        -522.463          48.600          35.300
 117739729.676 8  91745290.24746  22405132.227                    22405136.664
     -3095.484       -2411.993          48.200          36.700
 18  2 20  8 45 30.0000000  0  8G05G23G30G07G09G16G02G06
 116673682.148 8  90914633.23446  22202275.992                    22202278.145
      2784.863        2170.073          50.000          36.000
 125529628.457 6  97815301.74243  23887494.969                    23887497.152
     -2916.184       -2272.274          39.900          22.900
 113037758.022 8  88081373.25846  21510365.422                    21510371.207
      2557.703        1993.149          50.000          36.900
 109587843.671 8  85393186.04046  20853880.250                    20853883.219
       905.855         706.068          51.000          41.300
 110280482.653 8  85932893.27946  20985680.508                    20985685.031
     -1974.422       -1538.399          51.500          41.800
 127232293.554 6  99142084.55143  24211506.031                    24211510.762
      -841.953        -655.917          41.600          21.800
 114923638.239 7  89550908.53045  21869249.867                    21869250.176
      -688.910        -536.630          47.900          34.700
 117832757.245 8  91817779.25246  22422834.984                    22422839.840
     -3106.152       -2420.317          48.600          37.900
 18  2 20  8 46  0.0000000  0  8G05G23G30G07G09G16G02G06
 116590266.938 8  90849634.37345  22186402.289                    22186404.922
      2776.164        2163.403          49.600          35.200
 125617160.557 6  97883508.53343  23904152.648                    23904154.152
     -2919.402       -2274.735          40.600          22.800
 112961235.808 8  88021745.58645  21495803.813                    21495809.516
      2543.863        1982.417          49.900          35.700
 109560930.057 8  85372214.40246  20848758.977                    20848761.289
       888.445         692.513          51.300          41.500
 110339855.693 8  85979157.98147  20996978.906                    20996983.598
     -1983.805       -1545.658          50.300          42.000
 127257860.439 6  99162006.71843  24216370.906                    24216374.285
      -862.219        -671.676          41.200          20.900
 114944580.591 8  89567227.23745  21873235.094                    21873235.004
      -707.176        -550.779          48.200          35.100
 117926103.507 8  91890516.58046  22440597.805                    22440602.602
     -3116.793       -2428.536          48.700          37.200
 18  2 20  8 46 30.0000000  0  8G05G23G30G07G09G16G02G06
 116507108.913 8  90784835.92645  22170578.008                    22170580.320
      2767.605        2156.676          49.800          35.600
 125704786.748 7  97951788.63543  23920827.250                    23920828.035
     -2922.426       -2277.202          42.000          23.500
 112885127.987 8  87962440.83046  21481320.984                    21481326.492
      2530.031        1971.566          49.500          36.000
 109534539.010 8  85351649.96346  20843737.070                    20843739.465
       871.023         678.872          51.100          41.100
 110399507.719 8  86025640.07646  21008330.234                    21008335.031
     -1993.059       -1552.941          51.300          41.700
 127284033.850 7  99182401.62343  24221352.766                    24221352.484
      -882.617        -687.470          42.600          21.300
 114966067.250 7  89583970.08545  21877323.852                    21877324.035
      -725.273        -564.959          47.500          34.900
 118019765.242 8  91963499.74246  22458421.078                    22458425.844
     -3127.348       -2436.741          49.700          37.600
 18  2 20  8 47  0.0000000  0  8G05G23G30G07G09G16G02G06
 116424210.056 8  90720239.41745  22154803.133                    22154805.301
      2758.887        2149.886          49.800          35.500
 125792506.316 7  98020141.50243  23937519.328                    23937520.824
     -2925.660       -2279.666          42.800          22.600
 112809436.819 8  87903460.73045  21466917.164                    21466922.688
      2516.023        1960.701          49.500          35.700
 109508671.101 8  85331493.15346  20838814.289                    20838816.832
       853.422         665.260          50.900          40.800
 110459437.868 8  86072338.88846  21019734.320                    21019739.059
     -2002.449       -1560.170          51.200          41.400
 127310813.339 7  99203268.78843  24226447.977                    24226450.742
      -902.742        -703.211          42.000          20.900
 114988097.740 7  89601136.68945  21881516.398                    21881516.684
      -743.562        -579.097          47.600          35.000
 118113739.872 8  92036726.71246  22476304.016                    22476309.051
     -3137.750       -2444.871          48.800          37.700
 18  2 20  8 47 30.0000000  0  8G05G23G30G07G09G16G02G06
 116341572.263 8  90655846.33846  22139077.125                    22139079.543
      2750.195        2143.101          50.600          36.200
 125880318.413 7  98088566.47344  23954229.984                    23954231.184
     -2928.590       -2281.998          42.900          25.700
 112734163.884 8  87844806.52245  21452593.984                    21452598.680
      2502.090        1949.840          49.700          35.400
 109483326.573 8  85311744.18046  20833991.344                    20833993.879
       836.043         651.700          51.200          40.800
 110519644.725 8  86119253.30946  21031191.594                    21031196.047
     -2011.582       -1567.293          50.600          41.800
 127338197.819 6  99224607.26043  24231658.273                    24231662.355
      -922.812        -718.892          37.100          18.600
 115010671.018 8  89618726.24945  21885811.664                    21885811.777
      -761.523        -593.148          48.300          34.600
 118208024.226 8  92110195.01446  22494245.609                    22494250.492
     -3147.945       -2452.841          48.900          36.400
 18  2 20  8 48  0.0000000  0  8G05G23G30G07G09G16G02G06
 116259198.943 8  90591659.33945  22123401.984                    22123404.762
      2741.297        2136.274          49.000          35.700
 125968222.326 7  98157063.00344  23970957.938                    23970958.738
     -2931.723       -2284.359          43.800          25.400
 112659311.281 8  87786479.83745  21438349.094                    21438354.402
      2488.000        1938.960          50.100          35.600
 109458506.202 8  85292403.64146  20829268.219                    20829270.859
       818.617         638.134          50.100          41.200
 110580127.216 8  86166382.51846  21042700.492                    21042705.828
     -2020.715       -1574.400          50.600          40.800
 127366186.881 7  99246416.93243  24236986.063                    24236985.844
      -943.016        -734.562          43.500          20.100
 115033786.491 8  89636738.28945  21890210.523                    21890211.254
      -779.590        -607.172          48.900          35.000
 118302615.628 8  92183902.58646  22512246.063                    22512251.277
     -3158.148       -2460.721          48.600          37.900
 18  2 20  8 48 30.0000000  0  8G05G23G30G07G09G16G02G06
 116177091.022 8  90527679.15745  22107777.578                    22107780.109
      2732.488        2129.332          49.900          35.600
 126056217.290 7  98225630.46144  23987702.719                    23987704.211
     -2934.660       -2286.721          43.300          24.700
 112584880.777 8  87728482.06545  21424185.828                    21424190.324
      2474.000        1927.965          50.000          35.100
 109434210.008 8  85273471.54946  20824644.914                    20824647.344
       801.152         624.501          51.000          40.600
 110640884.022 8  86213725.48046  21054262.156                    21054267.074
     -2029.848       -1581.542          50.400          40.700
 127394779.461 6  99268696.92043  24242426.133                    24242427.789
      -963.176        -750.236          41.500          19.900
 115057443.202 8  89655172.07645  21894712.227                    21894712.961
      -797.523        -621.236          49.000          35.500
 118397510.978 8  92257846.97746  22530303.813                    22530309.188
     -3168.137       -2468.594          48.800          37.500
 18  2 20  8 49  0.0000000  0  8G05G23G30G07G09G16G02G06
 116095251.139 8  90463907.81145  22092203.797                    22092206.832
      2723.445        2122.318          50.000          35.900
 126144302.335 7  98294268.11244  24004464.867                    24004465.523
     -2937.785       -2289.052          43.400          25.200
 112510874.831 8  87670815.11245  21410103.023                    21410107.508
      2459.703        1916.875          49.900          35.600
 109410439.121 8  85254948.79246  20820121.336                    20820124.340
       783.516         610.824          50.700          40.900
 110701914.496 8  86261281.68046  21065875.891                    21065880.836
     -2039.027       -1588.655          50.800          41.300
 127423974.985 6  99291446.57143  24247981.313                    24247985.426
      -983.348        -765.868          38.100          21.300
 115081640.360 8  89674027.00945  21899317.133                    21899317.348
      -815.668        -635.277          49.200          35.100
 118492707.925 8  92332026.38946  22548419.523                    22548425.465
     -3178.348       -2476.405          48.500          37.900
 18  2 20  8 49 30.0000000  0  8G05G23G30G07G09G16G02G06
 116013680.443 8  90400346.23845  22076681.359                    22076684.234
      2714.438        2115.332          48.500          35.700
 126232476.682 7  98362975.36244  24021243.703                    24021245.391
     -2940.773       -2291.360          44.100          24.500
 112437294.918 8  87613480.11746  21396101.008                    21396105.758
      2445.441        1905.809          49.900          36.200
 109387193.157 8  85236835.06146  20815697.688                    20815700.297
       766.027         597.210          50.100          40.600
 110763217.126 8  86309049.94846  21077541.211                    21077546.473
     -2048.074       -1595.676          50.100          41.100
 127453772.121 7  99314665.18543  24253652.906                    24253654.262
     -1003.352        -781.484          42.000          21.800
 115106376.723 8  89693302.07445  21904023.680                    21904024.648
      -833.602        -649.235          48.900          35.800
 118588203.258 7  92406438.30746  22566591.211                    22566597.309
     -3188.297       -2484.112          47.700          37.800
 18  2 20  8 50  0.0000000  0  8G05G23G30G07G09G16G02G06
 115932381.217 8  90336996.19145  22061210.484                    22061213.613
      2705.551        2108.288          49.300          35.600
 126320739.644 7  98431751.64844  24038039.836                    24038041.672
     -2943.406       -2293.593          44.200          26.300
 112364142.816 8  87556478.50546  21382180.773                    21382185.617
      2431.430        1894.723          49.900          36.900
 109364472.628 8  85219130.76646  20811374.039                    20811376.680
       748.723         583.599          50.400          41.000
 110824790.627 8  86357029.28846  21089258.445                    21089263.660
     -2056.816       -1602.648          51.500          41.100
 127484169.977 6  99338351.84443  24259435.391                    24259437.945
     -1023.043        -797.048          38.100          19.000
 115131651.283 8  89712996.52046  21908833.359                    21908834.105
      -851.277        -663.186          48.400          36.200
 118683993.942 8  92481080.35646  22584819.539                    22584826.031
     -3197.750       -2491.689          48.400          38.100
 18  2 20  8 50 30.0000000  0  8G05G23G30G07G09G16G02G06
 115851355.476 8  90273859.26045  22045791.711                    22045794.883
      2696.188        2101.128          49.100          35.100
 126409090.574 7  98500596.49044  24054852.188                    24054853.805
     -2946.535       -2295.913          43.900          24.000
 112291420.759 8  87499812.00146  21368342.367                    21368346.680
      2416.871        1883.493          50.400          36.100
 109342278.183 8  85201836.39546  20807150.813                    20807153.414
       730.980         569.894          50.200          40.600
 110886634.214 8  86405219.08946  21101027.281                    21101032.074
     -2065.977       -1609.684          52.000          41.600
 127515167.738 7  99362505.93743  24265335.609                    24265339.977
     -1043.352        -812.654          42.200          22.000
 115157463.660 8  89733110.05345  21913745.672                    21913746.578
      -869.445        -677.174          48.700          35.600
 118780077.440 8  92555950.58646  22603103.984                    22603110.055
     -3207.680       -2499.322          48.000          38.400
 18  2 20  8 51  0.0000000  0  8G05G23G30G07G09G16G02G06
 115770606.047 8  90210937.62446  22030425.648                    22030428.199
      2687.086        2093.915          48.200          36.000
 126497528.318 7  98569508.96944  24071681.703                    24071683.285
     -2949.289       -2298.140          43.600          26.100
 112219130.211 8  87443481.71946  21354586.453                    21354590.684
      2402.520        1872.271          50.600          36.700
 109320609.614 8  85184951.80846  20803027.336                    20803029.996
       713.539         556.239          50.300          40.800
 110948746.345 8  86453618.14546  21112846.648                    21112851.313
     -2074.824       -1616.635          51.900          41.700
 127546764.216 6  99387126.63443  24271347.805                    24271350.969
     -1063.082        -828.139          41.400          19.900
 115183812.395 8  89753641.51945  21918760.039                    21918760.289
      -887.246        -691.083          48.400          35.900
 118876450.453 7  92631046.39646  22621442.953                    22621449.172
     -3217.223       -2506.787          47.600          38.300
 18  2 20  8 51 30.0000000  0  8G05G23G30G07G09G16G02G06
 115690134.720 8  90148232.69445  22015112.078                    22015115.660
      2677.773        2086.674          49.000          35.500
 126586052.198 7  98638488.55544  24088526.805                    24088528.871
     -2952.215       -2300.379          44.500          26.000
 112147273.271 8  87387489.31046  21340911.789                    21340916.457
      2388.113        1860.974          50.900          36.900
 109299467.677 8  85168477.57646  20799003.992                    20799006.688
       695.977         542.533          50.900          41.300
 111011126.098 8  86502225.73946  21124717.500                    21124722.012
     -2083.687       -1623.583          53.000          41.500
 127578958.763 6  99412213.24743  24277473.195                    24277474.906
     -1083.250        -843.715          38.800          19.300
 115210696.678 8  89774590.30045  21923875.336                    21923876.246
      -904.992        -704.991          48.300          35.800
 118973110.372 8  92706365.78946  22639836.516                    22639843.168
     -3226.672       -2514.216          48.400          37.700
 18  2 20  8 52  0.0000000  0  8G05G23G30G07G09G16G02G06
 115609943.075 8  90085745.70245  21999852.227                    21999855.148
      2668.324        2079.334          48.200          35.300
 126674661.600 7  98707534.79244  24105388.055                    24105390.766
     -2955.156       -2302.673          43.000          24.200
 112075851.756 8  87331836.20946  21327320.711                    21327325.469
      2373.363        1849.580          51.000          36.400
 109278852.477 8  85152413.78946  20795081.109                    20795083.688
       678.375         528.807          50.700          41.500
 111073772.305 8  86551040.96747  21136638.938                    21136643.375
     -2092.652       -1630.530          52.900          42.400
 127611750.297 7  99437765.16443  24283715.750                    24283717.879
     -1102.828        -859.238          43.100          20.900
 115238115.684 8  89795955.75046  21929093.031                    21929094.238
      -922.988        -718.943          48.600          36.500
 119070054.224 7  92781906.40846  22658284.438                    22658290.859
     -3236.184       -2521.609          47.500          38.100
 18  2 20  8 52 30.0000000  0  8G05G23G30G07G09G16G02G06
 115530033.560 8  90023478.54245  21984645.945                    21984648.441
      2659.109        2072.060          49.000          35.900
 126763355.709 7  98776647.00744  24122266.141                    24122268.648
     -2957.781       -2304.746          43.200          25.800
 112004867.393 8  87276523.74246  21313812.813                    21313817.828
      2359.031        1838.299          50.300          36.900
 109258764.454 8  85136760.79846  20791258.852                    20791261.500
       660.941         515.187          51.400          41.100
 111136683.813 8  86600062.91147  21148610.617                    21148615.531
     -2101.297       -1637.340          53.500          42.300
 127645137.094 6  99463780.82042  24290066.492                    24290070.945
     -1122.418        -874.615          37.900          17.800
 115266068.456 8  89817737.13546  21934412.281                    21934413.504
      -940.449        -732.687          48.200          36.600
 119167279.045 7  92857665.97246  22676785.594                    22676792.395
     -3245.410       -2528.780          47.100          37.200
 18  2 20  8 53  0.0000000  0  8G05G23G30G07G09G16G02G06
 115450407.702 8  89961432.41945  21969493.422                    21969496.578
      2649.535        2064.650          49.300          35.400
 126852133.462 7  98845824.40544  24139160.391                    24139162.293
     -2960.559       -2306.932          44.100          25.200
 111934322.125 8  87221553.42746  21300388.313                    21300393.699
      2344.188        1826.849          50.200          37.100
 109239203.695 8  85121518.65246  20787536.195                    20787539.086
       643.250         501.479          51.300          41.400
 111199859.558 8  86649290.75547  21160632.320                    21160636.711
     -2110.168       -1644.206          52.400          42.100
 127679118.986 7  99490260.20343  24296535.508                    24296532.328
     -1142.492        -890.077          42.600          18.600
 115294553.537 8  89839933.29246  21939832.898                    21939833.898
      -958.324        -746.520          48.700          36.200
 119264782.069 7  92933642.31246  22695339.977                    22695346.469
     -3254.660       -2535.972          47.700          37.900
 18  2 20  8 53 30.0000000  0  8G05G23G30G07G09G16G02G06
 115371067.797 8  89899609.12645  21954395.859                    21954398.797
      2639.945        2057.150          49.500          35.400
 126940994.215 7  98915066.51244  24156070.281                    24156072.180
     -2963.258       -2309.120          43.900          25.500
 111864217.686 8  87166926.61846  21287047.750                    21287052.762
      2329.520        1815.333          50.000          36.900
 109220170.393 8  85106687.51646  20783914.406                    20783917.242
       625.750         487.735          51.000          41.300
 111263298.278 8  86698723.50547  21172704.602                    21172708.832
     -2118.852       -1651.058          52.200          42.200
 127713694.728 6  99517202.35943  24303113.094                    24303114.602
     -1162.590        -905.585          37.900          19.000
 115323570.053 7  89862543.54246  21945354.148                    21945355.418
      -975.871        -760.346          47.900          36.300
 119362560.264 7  93009833.07746  22713946.758                    22713953.082
     -3263.672       -2543.142          47.400          37.700
 18  2 20  8 54  0.0000000  0  8G05G23G30G07G09G16G02G06
 115292016.085 8  89838010.38346  21939352.992                    21939355.625
      2630.160        2049.654          49.800          36.100
 127029937.219 7  98984372.67744  24172995.047                    24172997.605
     -2966.148       -2311.234          44.000          24.500
 111794555.716 8  87112644.57846  21273791.578                    21273797.051
      2314.691        1803.829          49.700          37.800
 109201664.653 8  85092267.45846  20780392.594                    20780395.629
       608.086         474.040          50.900          41.800
 111326998.769 8  86748360.24446  21184825.930                    21184830.758
     -2127.633       -1657.840          52.200          41.700
 127748863.059 6  99544606.16143  24309805.914                    24309807.277
     -1182.152        -920.905          40.300          18.600
 115353116.658 7  89885566.86146  21950976.813                    21950978.316
      -993.672        -774.093          47.700          37.000
 119460610.595 7  93086235.89146  22732604.734                    22732611.281
     -3272.816       -2550.149          47.500          36.800
 18  2 20  8 54 30.0000000  0  8G05G23G30G07G09G16G02G06
 115213254.104 8  89776637.41645  21924364.875                    21924367.602
      2620.559        2042.092          50.400          35.400
 127118961.517 7  99053742.20744  24189936.680                    24189938.754
     -2968.770       -2313.344          44.200          24.900
 111725337.916 8  87058708.65246  21260619.320                    21260625.313
      2299.809        1792.271          49.700          37.300
 109183686.523 8  85078258.55146  20776971.492                    20776974.457
       590.527         460.330          51.500          40.900
 111390959.785 8  86798199.98446  21196997.508                    21197002.055
     -2136.402       -1664.592          52.700          41.900
 127784621.989 6  99572470.26943  24316609.453                    24316611.301
     -1201.793        -936.240          38.700          19.000
 115383192.472 8  89909002.55246  21956700.234                    21956701.445
     -1011.367        -787.828          48.300          36.400
 119558930.112 8  93162848.46546  22751314.945                    22751320.641
     -3281.738       -2557.125          48.500          36.300
 18  2 20  8 55  0.0000000  0  8G05G23G30G07G09G16G02G06
 115134784.573 8  89715492.33545  21909433.023                    21909435.328
      2610.871        2034.461          49.100          35.800
 127208066.274 7  99123174.44444  24206892.469                    24206895.035
     -2971.352       -2315.430          43.700          24.000
 111656566.261 8  87005120.37946  21247532.633                    21247538.191
      2285.074        1780.653          49.100          37.400
 109166236.499 8  85064661.13146  20773650.719                    20773654.184
       573.023         446.597          50.000          41.100
 111455180.450 8  86848242.04746  21209218.258                    21209222.801
     -2144.836       -1671.343          52.600          41.700
 127820971.563 6  99600794.53543  24323527.844                    24323530.453
     -1221.391        -951.568          40.200          20.100
 115413796.284 8  89932849.68046  21962524.195                    21962525.277
     -1028.852        -801.540          48.100          36.400
 119657516.052 7  93239668.63745  22770074.453                    22770080.523
     -3290.434       -2564.000          47.600          35.800
 18  2 20  8 55 30.0000000  0  8G05G23G30G07G09G16G02G06
 115056608.698 8  89654576.08345  21894556.570                    21894558.941
      2601.000        2026.813          50.300          35.900
 127297250.985 7  99192668.94943  24223863.109                    24223865.727
     -2974.016       -2317.498          42.700          22.800
 111588242.267 8  86951880.92746  21234531.414                    21234536.867
      2270.113        1768.999          49.300          37.100
 109149314.545 8  85051475.20946  20770430.547                    20770433.844
       555.309         432.870          50.300          40.800
 111519659.360 8  86898485.33946  21221488.375                    21221492.805
     -2153.523       -1678.035          52.400          41.300
 127857909.506 6  99629577.36943  24330556.898                    24330559.289
     -1241.051        -966.804          39.600          20.100
 115444926.751 7  89957107.16546  21968447.914                    21968448.766
     -1046.383        -815.212          47.200          36.300
 119756365.294 7  93316693.98746  22788884.984                    22788891.188
     -3299.250       -2570.823          47.600          36.400
 18  2 20  8 56  0.0000000  0  8G05G23G30G07G09G16G02G06
 114978729.291 8  89593890.82946  21879736.625                    21879738.938
      2591.020        2019.061          49.500          36.600
 127386514.921 7  99262225.20143  24240850.781                    24240851.703
     -2976.781       -2319.568          44.500          23.000
 111520367.949 8  86898991.86246  21221615.453                    21221620.652
      2254.891        1757.269          50.000          38.400
 109132921.346 8  85038701.30246  20767311.336                    20767314.430
       537.574         419.113          49.500          41.200
 111584395.704 8  86948929.23847  21233806.703                    21233811.648
     -2162.223       -1684.744          52.700          42.000
 127895435.589 6  99658818.43543  24337697.078                    24337699.656
     -1260.727        -982.103          38.900          21.100
 115476582.663 7  89981774.09446  21974471.328                    21974473.070
     -1063.949        -828.870          47.500          36.200
 119855475.164 7  93393922.42245  22807745.422                    22807751.348
     -3308.023       -2577.573          47.300          35.200
 18  2 20  8 56 30.0000000  0  8G05G23G30G07G09G16G02G06
 114901148.059 8  89533437.92346  21864973.289                    21864975.750
      2581.191        2011.329          49.000          36.900
 127475856.958 7  99331842.28043  24257852.164                    24257853.352
     -2979.164       -2321.528          44.500          22.600
 111452944.640 8  86846454.22846  21208784.922                    21208790.238
      2240.098        1745.574          50.300          38.100
 109117055.985 8  85026338.69246  20764292.023                    20764295.039
       520.223         405.453          50.700          41.500
 111649387.934 8  86999572.51946  21246174.758                    21246179.219
     -2170.461       -1691.320          52.100          41.700
 127933547.953 6  99688516.40543  24344950.594                    24344953.922
     -1280.062        -997.287          40.500          21.300
 115508762.758 7  90006849.48146  21980595.383                    21980597.031
     -1081.258        -842.420          46.800          36.000
 119954842.404 7  93471351.38645  22826654.242                    22826660.332
     -3316.340       -2584.164          47.400          34.900
 18  2 20  8 57  0.0000000  0  8G05G23G30G07G09G16G02G06
 114823867.495 8  89473219.31146  21850267.445                    21850269.707
      2570.895        2003.452          49.200          37.600
 127565276.699 7  99401519.95943  24274867.141                    24274869.016
     -2981.953       -2323.588          42.600          22.500
 111385974.630 8  86794269.81446  21196040.883                    21196046.230
      2224.715        1733.733          51.000          38.100
 109101719.516 8  85014388.20646  20761373.914                    20761377.031
       502.332         391.667          51.000          40.900
 111714635.573 8  87050414.81346  21258590.711                    21258595.324
     -2179.297       -1697.992          52.300          41.300
 127972245.887 6  99718670.57943  24352314.164                    24352315.844
     -1299.824       -1012.499          39.400          20.100
 115541466.846 7  90032333.17546  21986819.109                    21986819.895
     -1098.934        -856.065          47.200          36.900
 120054464.537 8  93548978.98345  22845611.758                    22845617.715
     -3325.027       -2590.810          48.600          34.900
 18  2 20  8 57 30.0000000  0  8G05G23G30G07G09G16G02G06
 114746889.505 8  89413236.45846  21835618.727                    21835621.484
      2560.867        1995.603          49.600          36.400
 127654773.129 7  99471257.34243  24291897.250                    24291899.836
     -2984.367       -2325.527          43.000          22.200
 111319459.008 8  86742439.47546  21183383.750                    21183388.934
      2209.551        1721.951          50.800          37.900
 109086911.436 8  85002849.44846  20758555.625                    20758558.684
       484.820         377.983          51.200          41.400
 111780136.823 8  87101454.74146  21271055.430                    21271059.570
     -2187.633       -1704.513          52.700          41.600
 128011527.170 7  99749279.38243  24359790.602                    24359792.152
     -1319.129       -1027.625          42.000          22.300
 115574692.495 7  90058223.27046  21993141.516                    21993142.426
     -1116.109        -869.539          47.500          36.100
 120154338.087 8  93626802.49445  22864616.875                    22864623.332
     -3333.273       -2597.259          48.200          34.900
 18  2 20  8 58  0.0000000  0  8G05G23G30G07G09G16G02G06
 114670215.861 8  89353490.76146  21821028.273                    21821030.977
      2550.789        1987.798          50.300          37.100
 127744345.683 7  99541054.06843  24308943.531                    24308945.902
     -2986.816       -2327.380          44.700          22.200
 111253399.632 8  86690964.65146  21170813.523                    21170818.316
      2194.516        1710.204          50.800          37.600
 109072631.797 8  84991722.45746  20755838.438                    20755841.316
       467.309         364.381          51.800          41.200
 111845890.811 8  87152691.60746  21283568.438                    21283572.402
     -2195.840       -1710.940          52.400          41.000
 128051391.101 6  99780342.07143  24367375.453                    24367377.738
     -1338.527       -1042.611          40.500          19.600
 115608438.644 7  90084518.96346  21999563.398                    21999563.891
     -1133.375        -882.921          47.700          36.200
 120254460.298 8  93704819.75745  22883669.430                    22883675.570
     -3341.461       -2603.548          48.500          35.000
 18  2 20  8 58 30.0000000  0  8G05G23G30G07G09G16G02G06
 114593849.039 8  89293984.15946  21806496.227                    21806498.582
      2540.242        1979.677          48.800          37.100
 127833993.368 7  99610909.35343  24326002.898                    24326006.301
     -2989.531       -2329.429          44.300          22.600
 111187798.177 8  86639846.64246  21158329.453                    21158334.234
      2178.906        1698.172          51.600          38.400
 109058880.720 8  84981007.33346  20753221.602                    20753224.789
       449.340         350.524          50.900          41.100
 111911896.407 8  87204124.53346  21296128.531                    21296133.172
     -2204.531       -1717.578          53.200          41.100
 128091836.242 7  99811857.83643  24375072.719                    24375072.215
     -1357.937       -1057.802          42.400          20.600
 115642704.218 7  90111219.40745  22006083.789                    22006084.465
     -1151.012        -896.511          46.700          35.500
 120354828.287 8  93783028.53545  22902769.633                    22902775.328
     -3349.852       -2610.030          48.700          35.200
 18  2 20  8 59  0.0000000  0  8G05G23G30G07G09G16G02G06
 114517790.685 8  89234717.91246  21792022.844                    21792025.457
      2530.156        1971.667          50.100          36.700
 127923715.668 7  99680822.70343  24343075.938                    24343079.766
     -2992.102       -2331.399          42.700          21.800
 111122656.220 8  86589086.66446  21145933.148                    21145938.770
      2163.645        1686.220          50.900          37.500
 109045658.239 8  84970704.10646  20750705.586                    20750709.047
       431.895         336.815          50.800          41.100
 111978152.397 8  87255752.55946  21308736.727                    21308741.086
     -2212.656       -1724.075          53.000          41.200
 128132860.922 6  99843825.02043  24382877.906                    24382881.828
     -1377.273       -1072.845          38.400          19.900
 115677487.797 7  90138323.48545  22012703.039                    22012703.750
     -1168.012        -909.959          47.100          35.500
 120455438.936 8  93861426.40945  22921914.859                    22921920.852
     -3357.684       -2616.299          48.300          34.500
 18  2 20  8 59 30.0000000  0  8G05G23G30G07G09G16G02G06
 114442042.856 8  89175693.64046  21777608.672                    21777611.629
      2519.762        1963.542          50.800          37.500
 128013511.447 7  99750793.35243  24360165.453                    24360167.633
     -2994.418       -2333.311          45.200          22.900
 111057975.412 8  86538686.04546  21133625.383                    21133630.398
      2148.242        1674.177          51.100          37.900
 109032964.391 8  84960812.80346  20748289.875                    20748293.000
       414.273         323.041          51.900          41.200
 112044657.733 8  87307574.89146  21321392.430                    21321396.754
     -2221.008       -1730.562          53.100          41.100
 128174463.969 6  99876242.99143  24390794.953                    24390796.926
     -1396.398       -1087.859          41.100          19.600
 115712788.082 7  90165830.18045  22019420.047                    22019420.719
     -1185.312        -923.386          47.800          35.600
 120556289.414 7  93940011.15745  22941106.398                    22941112.074
     -3365.695       -2622.511          47.400          35.000
                            4  1
RINEX FILE SPLICE; other post-header comments skipped       COMMENT
 18  2 20  9  0  0.0000000  0  8G05G23G30G07G09G16G02G06
 114366608.014 8  89116913.25146  21763253.766                    21763256.547
      2509.148                          50.500          37.800
 128103380.494 7  99820821.12743  24377265.547                    24377269.723
     -2997.016                          42.800          22.200
 110993757.611 8  86488646.22246  21121404.617                    21121409.922
      2132.699                          50.900          38.000
 109020799.471 8  84951333.63746  20745975.109                    20745978.176
       396.547                          51.200          40.900
 112111411.528 8  87359590.82746  21334094.961                    21334099.441
     -2229.371                          52.200          40.800
 128216644.453 6  99909110.86343  24398821.156                    24398823.945
     -1415.809                          36.500          20.100
 115748603.909 7  90193738.58945  22026236.023                    22026236.582
     -1202.555                          46.600          35.600
 120657376.969 8  94018780.65245  22960342.547                    22960348.027
     -3373.602                          48.100          34.900
 18  2 20  9  0 30.0000000  0  8G05G23G30G07G09G16G02G06
 114291487.453 8  89058377.75346  21748959.148                    21748961.691
      2498.887        1947.191          51.600          38.300
 128193321.491 7  99890904.84643  24394381.094                    24394383.973
     -2999.004       -2337.026          42.300          22.300
 110930003.922 8  86438968.03546  21109272.688                    21109277.980
      2117.477        1650.078          50.700          37.800
 109009162.767 8  84942266.07846  20743760.688                    20743763.898
       379.242         295.599          52.600          40.900
 112178412.142 8  87411799.08546  21346844.891                    21346849.438
     -2237.289       -1743.382          53.400          41.300
 128259400.426 6  99942427.21843  24406957.766                    24406962.172
     -1434.441       -1117.744          38.600          19.000
 115784933.355 8  90222047.20745  22033149.313                    22033150.004
     -1219.391        -950.065          48.200          35.800
 120758698.141 8  94097732.18545  22979623.156                    22979629.238
     -3381.039       -2634.650          48.000          35.000
 18  2 20  9  1  0.0000000  0  8G05G23G30G07G09G16G02G06
 114216684.243 8  89000089.55546  21734724.508                    21734727.531
      2488.289        1938.905          50.900          38.000
 128283334.142 7  99961044.51643  24411510.820                    24411512.832
     -3001.437       -2338.906          43.900          22.300
 110866716.379 8  86389653.08546  21097229.438                    21097235.086
      2101.930        1637.933          50.400          38.400
 108998054.631 8  84933610.39346  20741646.586                    20741649.754
       361.695         281.860          50.700          40.900
 112245658.963 8  87464199.18746  21359641.563                    21359646.516
     -2245.527       -1749.775          53.200          41.000
 128302730.395 6  99976190.81743  24415202.906                    24415204.660
     -1453.801       -1132.691          37.900          19.000
 115821775.716 7  90250755.51645  22040160.180                    22040161.266
     -1236.406        -963.394          47.500          35.500
 120860250.435 7  94176863.80845  22998947.742                    22998953.918
     -3388.715       -2640.639          47.400          34.200
 18  2 20  9  1 30.0000000  0  8G05G23G30G07G09G16G02G06
 114142200.009 8  88942049.88946  21720550.867                    21720553.793
      2477.637        1930.634          51.800          37.500
 128373417.561 7 100031239.30343  24428652.102                    24428655.309
     -3003.805       -2340.684          43.000          22.600
 110803896.176 8  86340702.28946  21085275.336                    21085280.477
      2086.355        1625.823          50.500          37.800
 108987474.608 8  84925366.21746  20739633.555                    20739636.375
       344.039         268.177          52.600          41.000
 112313150.550 8  87516790.01746  21372484.617                    21372489.426
     -2253.609       -1756.092          53.000          40.800
 128346632.581 6 100010400.32043  24423557.750                    24423562.449
     -1472.809       -1147.524          39.200          20.600
 115859128.933 7  90279861.93645  22047268.406                    22047269.582
     -1253.387        -976.595          47.800          35.800
 120962030.520 7  94256172.93045  23018316.281                    23018322.012
     -3396.246       -2646.454          47.200          34.400
 18  2 20  9  2  0.0000000  0  8G05G23G30G07G09G16G02G06
 114068036.351 8  88884260.03346  21706437.867                    21706440.988
      2466.801        1922.302          50.800          37.100
 128463570.966 6 100101488.57143  24445808.133                    24445811.113
     -3006.254       -2342.505          41.500          22.800
 110741544.956 8  86292116.94046  21073410.063                    21073415.699
      2070.598        1613.630          50.000          38.100
 108977422.897 8  84917533.71946  20737720.680                    20737724.012
       326.332         254.471          51.800          40.700
 112380885.764 8  87569570.69646  21385374.344                    21385379.207
     -2261.832       -1762.379          53.200          40.700
 128391106.009 6 100045054.91743  24432021.539                    24432022.652
     -1491.875       -1162.296          41.800          20.600
 115896991.869 8  90309365.53145  22054473.555                    22054473.801
     -1270.465        -989.813          48.500          35.300
 121064035.496 7  94335657.29645  23037726.773                    23037732.922
     -3403.801       -2652.248          46.300          34.000
 18  2 20  9  2 30.0000000  0  9G05G23G30G07G09G16G13G02G06
 113994196.059 8  88826722.15146  21692385.750                    21692389.281
      2455.828        1913.874          51.900          37.900
 128553793.896 7 100171792.05243  24462978.758                    24462979.844
     -3008.598       -2344.264          43.800          22.600
 110679664.627 8  86243898.51546  21061634.211                    21061639.734
      2054.684        1601.389          49.300          37.800
 108967899.997 8  84910113.27346  20735908.469                    20735911.398
       308.547         240.748          52.800          41.100
 112448863.938 8  87622540.68346  21398310.078                    21398315.074
     -2270.051       -1768.674          52.800          41.300
 128436149.332 6 100080153.58743  24440591.906                    24440596.953
     -1511.047       -1177.069          40.200          21.700
 129687749.350 6 101055436.40142  24678769.109                    24678771.582
      3315.258        2583.458          41.900          17.800
 115935363.341 7  90339265.40145  22061775.180                    22061776.000
     -1287.621       -1003.012          47.500          35.000
 121166262.799 7  94415314.88845  23057180.047                    23057186.078
     -3411.332       -2657.996          46.700          33.600
 18  2 20  9  3  0.0000000  0  9G05G23G30G07G09G16G13G02G06
 113920681.052 8  88769437.73646  21678396.914                    21678399.727
      2445.137        1905.365          51.400          37.600
 128644085.589 6 100242149.14843  24480158.570                    24480161.527
     -3010.840       -2346.130          41.300          23.500
 110618256.714 8  86196048.21346  21049949.102                    21049953.922
      2039.125        1589.035          50.500          38.100
 108958905.093 8  84903104.25946  20734196.891                    20734200.090
       291.094         226.979          51.900          41.000
 112517083.948 8  87675699.10646  21411291.984                    21411296.801
     -2277.887       -1774.985          53.200          41.300
 128481760.889 7 100115695.01943  24449274.453                    24449273.563
     -1529.781       -1191.874          44.300          21.300
 129588331.523 6 100977967.94043  24659848.398                    24659853.227
      3312.684        2581.219          40.400          19.900
 115974241.954 7  90369560.41945  22069173.742                    22069174.355
     -1304.293       -1016.202          46.900          34.800
 121268709.404 7  94495143.37645  23076674.930                    23076681.164
     -3418.512       -2663.698          46.200          33.400
 18  2 20  9  3 30.0000000  0  9G05G23G30G07G09G16G13G02G06
 113847493.294 8  88712408.32046  21664469.742                    21664472.504
      2434.211        1896.878          51.700          37.200
 128734445.324 7 100312559.18143  24497354.438                    24497356.699
     -3012.934       -2347.813          43.300          23.400
 110557322.258 8  86148566.83046  21038353.641                    21038358.441
      2023.391        1576.779          50.600          38.300
 108950437.849 8  84896506.41046  20732585.297                    20732588.699
       273.578         213.307          52.700          40.500
 112585544.246 9  87729044.78746  21424319.914                    21424324.035
     -2285.863       -1781.177          54.100          41.600
 128527938.559 6 100151677.59243  24458059.094                    24458063.055
     -1548.531       -1206.504          41.300          21.800
 129488997.890 6 100900565.20343  24640945.039                    24640949.711
      3309.816        2579.016          36.900          18.600
 116013625.716 7  90400249.06945  22076667.648                    22076668.719
     -1321.008       -1029.270          46.700          35.100
 121371371.950 7  94575140.11845  23096211.844                    23096217.590
     -3425.617       -2669.243          46.400          33.700
 18  2 20  9  4  0.0000000  0  9G05G23G30G07G09G16G13G02G06
 113774634.892 8  88655635.53246  21650604.883                    21650608.195
      2423.066        1888.272          51.500          38.100
 128824872.020 7 100383021.48743  24514561.836                    24514564.078
     -3015.484       -2349.612          42.800          23.500
 110496862.934 8  86101455.68446  21026848.391                    21026853.363
      2007.348        1564.402          50.900          38.300
 108942498.465 8  84890319.87846  20731074.477                    20731077.891
       255.816         199.582          51.800          40.400
 112654243.910 8  87782576.97246  21437393.008                    21437397.418
     -2294.047       -1787.399          53.700          41.700
 128574680.702 7 100188099.98543  24466955.055                    24466956.664
     -1567.551       -1221.164          43.200          20.900
 129389749.287 6 100823228.64243  24622062.547                    24622064.074
      3306.875        2576.816          40.900          19.900
 116053513.281 7  90431330.28145  22084258.594                    22084258.750
     -1338.078       -1042.346          46.000          34.800
 121474247.561 7  94655302.89045  23115787.688                    23115794.488
     -3432.738       -2674.736          47.300          34.100
 18  2 20  9  4 30.0000000  0  9G05G23G30G07G09G16G13G02G06
 113702107.947 8  88599121.03646  21636803.250                    21636806.160
      2411.961        1879.642          50.500          37.100
 128915364.864 6 100453535.30243  24531781.789                    24531784.762
     -3017.555       -2351.279          40.900          22.500
 110436880.076 8  86054715.81646  21015434.484                    21015439.262
      1991.410        1552.017          51.600          38.600
 108935086.539 8  84884544.34446  20729663.992                    20729667.199
       238.230         185.915          52.300          40.900
 112723181.666 8  87836294.69246  21450511.305                    21450515.473
     -2301.988       -1793.570          52.700          40.900
 128621986.491 7 100224961.65843  24475957.633                    24475957.766
     -1586.359       -1235.781          43.100          21.800
 129290587.288 6 100745959.56643  24603190.367                    24603194.363
      3303.852        2574.542          40.300          19.900
 116093902.847 7  90462802.66045  22091944.164                    22091944.449
     -1354.781       -1055.359          45.400          34.700
 121577333.222 8  94735629.33745  23135404.148                    23135411.453
     -3439.801       -2680.167          48.400          34.300
 18  2 20  9  5  0.0000000  0  9G05G23G30G07G09G16G13G02G06
 113629913.917 8  88542865.95346  21623065.266                    21623068.617
      2400.992        1871.004          50.700          37.100
 129005923.347 7 100524100.22543  24549014.813                    24549017.543
     -3019.527       -2352.945          42.600          22.300
 110377375.079 8  86008348.30346  21004111.086                    21004115.738
      1975.613        1539.594          52.100          39.200
 108928201.669 8  84879179.51446  20728354.359                    20728357.324
       220.813         172.248          52.400          41.000
 112792356.365 8  87890197.04246  21463674.953                    21463678.977
     -2309.641       -1799.681          53.200          41.700
 128669853.447 6 100262260.51943  24485064.070                    24485069.188
     -1604.578       -1250.275          39.900          18.300
 129191512.126 6 100668758.15243  24584335.914                    24584340.152
      3301.180        2572.336          37.900          19.000
 116134792.879 7  90494665.02645  22099725.398                    22099725.598
     -1371.305       -1068.321          45.300          34.100
 121680625.799 8  94816117.01345  23155060.195                    23155067.406
     -3446.375       -2685.469          48.000          34.900
 18  2 20  9  5 30.0000000  0  9G05G23G30G07G09G16G13G02G06
 113558055.612 8  88486872.47146  21609390.859                    21609394.148
      2389.738        1862.263          51.400          37.300
 129096547.045 7 100594716.02943  24566260.336                    24566261.672
     -3021.824       -2354.613          44.100          22.200
 110318349.611 8  85962354.43846  20992878.609                    20992883.422
      1959.590        1527.150          51.700          39.900
 108921843.832 8  84874225.36646  20727144.000                    20727146.977
       203.121         158.567          51.900          41.000
 112861767.170 8  87944283.37046  21476883.281                    21476887.504
     -2317.582       -1805.779          52.800          41.300
 128718280.092 7 100299995.58943  24494281.531                    24494282.391
     -1623.477       -1264.796          43.200          22.800
 129092524.894 6 100591625.30243  24565500.164                    24565503.719
      3298.066        2570.005          39.400          20.600
 116176182.173 7  90526916.43345  22107601.258                    22107601.598
     -1387.910       -1081.250          44.900          34.100
 121784122.575 8  94896763.81745  23174755.336                    23174762.605
     -3453.211       -2690.712          48.400          35.700
 18  2 20  9  6  0.0000000  0  9G05G23G30G07G09G16G13G02G06
 113486534.611 8  88431141.80946  21595781.055                    21595784.082
      2378.207        1853.440          51.800          37.500
 129187234.667 7 100665381.69943  24583517.086                    24583519.145
     -3024.109       -2356.351          42.400          22.600
 110259804.975 8  85916735.25146  20981738.227                    20981743.063
      1943.293        1514.587          51.600          39.700
 108916012.804 8  84869681.70546  20726034.719                    20726037.641
       185.438         144.848          51.800          40.400
 112931412.882 8  87998552.74746  21490136.539                    21490140.395
     -2325.535       -1811.919          53.400          41.200
 128767265.021 6 100338165.52243  24503600.375                    24503606.371
     -1642.348       -1279.308          38.300          19.900
 128993626.073 6 100514561.25843  24546681.102                    24546683.938
      3294.992        2567.684          41.200          20.600
 116218068.677 7  90559555.25645  22115572.125                    22115571.891
     -1404.574       -1094.182          45.900          33.800
 121887820.482 8  94977567.32245  23194488.852                    23194496.109
     -3460.004       -2695.933          49.100          35.100
 18  2 20  9  6 30.0000000  0  9G05G23G30G07G09G16G13G02G06
 113415353.575 8  88375676.07046  21582235.383                    21582238.703
      2367.129        1844.596          51.100          37.300
 129277986.107 6 100736097.00643  24600786.672                    24600788.563
     -3025.875       -2357.936          41.800          21.100
 110201742.930 8  85871492.11446  20970689.180                    20970694.078
      1927.504        1502.085          52.300          41.100
 108910709.048 8  84865548.91746  20725025.016                    20725028.133
       168.188         131.169          51.100          40.900
 113001292.710 8  88053004.54046  21503434.125                    21503438.094
     -2333.023       -1817.957          52.100          40.400
 128816806.381 6 100376769.30943  24513029.750                    24513030.773
     -1660.387       -1293.736          40.300          21.300
 128894817.141 6 100437567.33343  24527877.117                    24527882.176
      3292.340        2565.397          39.400          20.900
 116260451.439 7  90592580.77045  22123637.047                    22123637.250
     -1420.820       -1107.029          44.500          33.600
 121991716.870 8  95058525.51346  23214259.617                    23214266.324
     -3466.289       -2701.032          49.000          36.300
 18  2 20  9  7  0.0000000  0  9G05G23G30G07G09G16G13G02G06
 113344514.438 8  88320476.75146  21568755.750                    21568758.734
      2355.445        1835.667          51.500          38.100
 129368800.484 7 100806861.35343  24618068.492                    24618069.996
     -3028.375       -2359.570          42.000          20.900
 110144164.645 8  85826625.92846  20959732.453                    20959737.512
      1911.035        1489.460          52.000          40.900
 108905931.423 8  84861826.10246  20724115.930                    20724119.086
       150.395         117.516          51.400          40.600
 113071405.373 8  88107637.77146  21516775.969                    21516780.012
     -2341.086       -1824.017          52.200          39.900
 128866902.550 7 100415805.11043  24522564.117                    24522567.141
     -1679.160       -1308.145          42.000          21.100
 128796098.412 6 100360643.67843  24509091.273                    24509096.023
      3288.867        2562.989          39.400          20.600
 116303328.600 7  90625991.53545  22131796.031                    22131796.258
     -1437.641       -1119.873          45.200          32.600
 122095808.531 8  95139635.84745  23234067.820                    23234074.617
     -3473.117       -2706.100          48.600          35.400
 18  2 20  9  7 30.0000000  0  9G05G23G30G07G09G16G13G02G06
 113274018.702 8  88265545.01346  21555340.805                    21555343.777
      2343.992        1826.701          51.600          38.200
 129459676.529 7 100877673.83343  24635362.922                    24635363.164
     -3030.355       -2361.220          42.300          21.300
 110087071.201 8  85782137.53946  20948868.438                    20948873.281
      1894.953        1476.828          52.600          40.800
 108901679.335 8  84858512.80046  20723307.063                    20723310.227
       132.902         103.834          51.300          40.800
 113141749.425 8  88162451.30746  21530161.953                    21530166.016
     -2348.707       -1830.016          51.900          39.800
 128917551.769 5 100455272.05743  24532198.523                    24532200.598
     -1697.707       -1322.533          35.900          18.300
 128697470.378 6 100283790.65443  24490324.602                    24490327.523
      3285.969        2560.590          40.700          19.900
 116346698.064 7  90659785.90945  22140049.547                    22140049.078
     -1454.047       -1132.663          46.500          32.300
 122200092.161 8  95220895.77545  23253912.375                    23253919.320
     -3479.352       -2711.068          49.400          35.300
 18  2 20  9  8  0.0000000  0  9G05G23G30G07G09G16G13G02G06
 113203868.551 8  88210882.56446  21541991.875                    21541994.566
      2332.535        1817.743          52.300          38.100
 129550614.061 7 100948534.19743  24652666.711                    24652668.230
     -3032.289       -2362.786          42.000          21.100
 110030464.152 8  85738028.15046  20938096.094                    20938101.105
      1878.766        1464.196          52.900          41.100
 108897952.984 8  84855609.16146  20722597.969                    20722600.688
       115.422          90.198          51.600          40.600
 113212324.082 8  88217444.53046  21543591.758                    21543596.133
     -2356.324       -1835.971          52.200          38.900
 128968752.038 6 100495168.33543  24541945.672                    24541948.051
     -1715.844       -1336.731          41.000          21.800
 128598934.381 6 100207009.40243  24471572.234                    24471577.145
      3283.012        2558.191          38.400          20.100
 116390558.462 7  90693962.82845  22148395.664                    22148395.660
     -1470.191       -1145.368          45.500          31.800
 122304565.042 8  95302303.16645  23273792.344                    23273799.480
     -3485.648       -2715.938          48.100          35.300
 18  2 20  9  8 30.0000000  0  9G05G23G30G07G09G16G13G02G06
 113134066.203 8  88156491.11746  21528708.773                    21528712.203
      2320.910        1808.675          52.300          37.900
 129641612.425 6 101019441.91343  24669983.086                    24669984.902
     -3034.312       -2364.296          40.000          20.100
 109974345.005 8  85694298.95746  20927416.828                    20927421.969
      1862.520        1451.524          52.800          41.400
 108894752.113 8  84853114.98046  20721989.273                    20721992.035
        98.027          76.585          51.200          41.000
 113283128.372 8  88272616.69046  21557065.125                    21557069.711
     -2363.914       -1841.898          50.700          39.000
 129020501.511 6 100535492.59643  24551791.813                    24551791.930
     -1734.168       -1350.999          39.900          19.300
 128500490.737 6 100130300.07943  24452838.969                    24452843.664
      3279.965        2555.844          40.200          20.100
 116434908.293 7  90728521.11545  22156835.055                    22156835.121
     -1486.461       -1158.034          45.600          31.900
 122409224.282 7  95383855.78545  23293709.055                    23293715.336
     -3491.652       -2720.714          47.300          35.400
 18  2 20  9  9  0.0000000  0  8G05G30G07G09G16G13G02G06
 113064614.081 8  88102372.57746  21515492.695                    21515495.750
      2309.207        1799.550          53.000          38.600
 109918715.085 8  85650950.99046  20916831.133                    20916836.344
      1846.203        1438.783          52.900          41.400
 108892076.415 8  84851030.03046  20721479.602                    20721482.598
        80.430          62.906          50.900          40.200
 113354161.142 8  88327966.88646  21570582.453                    21570587.102
     -2371.559       -1847.861          51.300          39.600
 129072798.594 5 100576243.53043  24561741.398                    24561747.613
     -1752.586       -1365.222          34.100          19.300
 128402140.921 6 100053663.85043  24434123.398                    24434127.988
      3276.699        2553.364          40.700          20.400
 116479745.551 7  90763459.21545  22165367.086                    22165366.973
     -1502.711       -1170.707          45.100          31.900
 122514066.910 7  95465551.30145  23313659.727                    23313666.387
     -3497.832       -2725.467          47.300          34.800
 18  2 20  9  9 30.0000000  0  8G05G30G07G09G16G13G02G06
 112995514.010 8  88048528.36746  21502343.273                    21502346.434
      2297.508        1790.402          51.900          38.700
 109863575.484 8  85607985.08747  20906338.250                    20906343.539
      1829.902        1426.081          53.700          42.100
 108889925.099 8  84849353.69046  20721070.500                    20721073.176
        63.020          49.339          51.400          41.100
 113425421.112 8  88383494.12146  21584142.852                    21584147.352
     -2379.047       -1853.709          51.000          39.600
 129125641.679 6 100617419.99443  24571800.344                    24571799.469
     -1770.527       -1379.320          41.700          20.100
 128303884.714 6  99977100.59343  24415424.508                    24415430.219
      3273.730        2550.975          38.600          19.600
 116525068.436 7  90798775.73045  22173992.023                    22173992.168
     -1518.832       -1183.264          45.000          30.900
 122619089.691 8  95547387.19445  23333645.141                    23333651.570
     -3503.684       -2730.049          48.100          34.900
 18  2 20  9 10  0.0000000  0  7G05G30G07G09G13G02G06
 112926767.972 8  87994960.02946  21489261.352                    21489264.801
      2285.730        1781.180          53.000          38.400
 109808927.490 8  85565402.24747  20895938.766                    20895943.898
      1813.477        1413.263          53.300          42.100
 108888297.740 8  84848085.62646  20720760.703                    20720763.453
        45.605          35.710          51.000          40.500
 113496907.264 8  88439197.59246  21597745.906                    21597751.176
     -2386.586       -1859.597          51.500          39.700
 128205723.634 6  99900611.52543  24396747.234                    24396750.711
      3270.625        2548.481          40.500          21.300
 116570874.988 7  90834469.10845  22182708.469                    22182708.516
     -1534.844       -1195.830          45.100          31.100
 122724289.683 7  95629361.17045  23353663.852                    23353670.785
     -3509.492       -2734.634          47.900          34.200
 18  2 20  9 10 30.0000000  0  7G05G30G07G09G13G02G06
 112858377.690 8  87941668.89946  21476247.047                    21476250.551
      2273.754        1771.896          52.900          38.600
 109754772.300 9  85523203.41446  20885633.742                    20885638.336
      1796.984        1400.440          54.100          41.700
 108887194.009 8  84847225.58946  20720550.273                    20720553.418
        28.109          22.089          51.500          40.800
 113568618.400 8  88495076.37746  21611392.539                    21611397.207
     -2394.047       -1865.433          51.300          39.700
 128107657.986 7  99824196.75143  24378087.383                    24378089.414
      3267.172        2545.939          42.600          21.800
 116617163.480 7  90870538.04845  22191516.945                    22191517.332
     -1550.941       -1208.351          45.500          30.900
 122829663.846 7  95711470.86245  23373715.602                    23373722.410
     -3515.359       -2739.146          46.900          32.800
 18  2 20  9 11  0.0000000  0  7G05G30G07G09G13G02G06
 112790344.977 8  87888656.40246  21463300.953                    21463303.828
      2261.750        1762.536          52.100          38.400
 109701111.240 8  85481389.60946  20875422.625                    20875427.270
      1780.484        1387.546          53.400          41.300
 108886613.396 8  84846773.16946  20720440.063                    20720442.953
        10.660           8.473          50.400          40.800
 113640553.551 8  88551129.71846  21625081.570                    21625086.320
     -2401.531       -1871.293          51.300          40.100
 128009688.786 6  99747857.07343  24359441.633                    24359446.934
      3264.020        2543.390          39.800          20.100
 116663932.976 7  90906981.80145  22200416.813                    22200417.141
     -1566.996       -1220.862          46.600          32.100
 122935209.196 7  95793713.94745  23393800.227                    23393806.953
     -3520.945       -2743.601          47.000          33.000
 18  2 20  9 11 30.0000000  0  7G05G30G07G09G13G02G06
 112722672.569 8  87835924.65646  21450423.063                    21450425.844
      2249.734        1753.199          52.300          38.300
 109647945.913 8  85439962.08346  20865305.063                    20865310.000
      1763.934        1374.710          53.700          40.900
 108886555.973 8  84846728.43346  20720429.133                    20720431.871
        -6.832          -5.057          50.900          40.800
 113712711.968 8  88607357.02646  21638812.813                    21638817.883
     -2408.961       -1877.015          51.600          40.200
 127911817.137 6  99671593.52643  24340818.016                    24340821.984
      3260.707        2540.922          39.200          20.400
 116711181.418 7  90943798.73545  22209408.422                    22209408.375
     -1582.941       -1233.200          46.000          31.300
 123040923.163 7  95876088.41245  23413917.117                    23413923.684
     -3526.559       -2747.886          45.500          32.400
 18  2 20  9 12  0.0000000  0  7G05G30G07G09G13G02G06
 112655363.122 8  87783475.74646  21437614.727                    21437617.309
      2237.508        1743.747          51.900          38.500
 109595277.593 8  85398921.84346  20855282.664                    20855287.582
      1747.199        1361.763          53.300          41.400
 108887021.475 8  84847091.17646  20720517.742                    20720520.273
       -24.336         -18.622          52.100          40.300
 113785092.607 8  88663757.50646  21652586.406                    21652591.461
     -2416.477       -1882.773          51.900          40.900
 127814043.879 6  99595406.56143  24322212.781                    24322216.465
      3257.422        2538.375          41.100          20.100
 116758906.687 7  90980987.20445  22218490.445                    22218490.230
     -1598.875       -1245.562          46.100          32.200
 123146802.770 7  95958591.94845  23434064.945                    23434071.422
     -3532.238       -2752.171          46.000          32.100
 18  2 20  9 12 30.0000000  0  7G05G30G07G09G13G02G06
 112588418.195 8  87731310.86346  21424875.445                    21424878.340
      2225.609        1734.276          52.100          38.800
 109543107.515 8  85358269.84246  20845355.234                    20845359.711
      1730.891        1348.842          53.600          41.700
 108888009.433 8  84847861.02046  20720705.922                    20720708.504
       -41.430         -32.176          52.100          41.000
 113857694.458 8  88720330.34346  21666402.523                    21666406.840
     -2423.445       -1888.481          52.800          40.800
 127716369.881 6  99519296.95443  24303625.570                    24303630.230
      3254.367        2535.780          40.700          20.100
 116807107.225 7  91018546.02545  22227662.719                    22227663.035
     -1614.324       -1257.863          46.300          32.200
 123252845.045 7  96041222.25145  23454243.930                    23454250.824
     -3537.230       -2756.330          44.300          31.500
 18  2 20  9 13  0.0000000  0  7G05G30G07G09G13G02G06
 112521839.354 8  87679431.25446  21412205.750                    21412208.738
      2213.125        1724.710          52.000          38.800
 109491436.626 8  85318006.81946  20835522.141                    20835527.172
      1714.020        1335.834          52.900          41.400
 108889518.896 8  84849037.23246  20720992.898                    20720996.156
       -58.992         -45.750          50.800          40.800
 113930516.214 8  88777074.54946  21680259.641                    21680264.613
     -2431.086       -1894.217          52.500          40.900
 127618795.543 6  99443265.05243  24285057.805                    24285061.648
      3250.758        2533.170          40.000          19.000
 116855781.289 7  91056473.85445  22236925.258                    22236925.793
     -1630.285       -1270.177          46.600          32.600
 123359046.790 7  96123976.80345  23474453.313                    23474460.457
     -3542.727       -2760.470          46.300          31.200
 18  2 20  9 13 30.0000000  0  7G05G30G07G09G13G02G06
 112455629.343 8  87627839.03946  21399606.625                    21399609.645
      2200.711        1715.066          51.300          38.600
 109440266.289 8  85278133.83746  20825784.859                    20825789.570
      1697.188        1322.800          53.400          40.800
 108891549.494 8  84850619.51846  20721379.570                    20721382.563
       -76.520         -59.299          51.300          40.900
 114003557.022 8  88833989.44246  21694158.805                    21694163.898
     -2438.473       -1899.906          52.200          40.900
 127521322.019 6  99367311.65443  24266508.461                    24266512.402
      3247.383        2530.489          37.300          20.600
 116904926.720 7  91094768.97145  22246277.359                    22246278.141
     -1646.164       -1282.413          47.200          32.600
 123465405.239 7  96206853.46344  23494692.117                    23494699.262
     -3548.020       -2764.509          42.400          29.400
 18  2 20  9 14  0.0000000  0  7G05G30G07G09G13G02G06
 112389790.094 8  87576535.72546  21387077.508                    21387080.656
      2188.465        1705.445          51.000          38.200
 109389597.784 8  85238651.89846  20816142.789                    20816147.730
      1680.625        1309.759          53.000          41.900
 108894100.879 8  84852607.61546  20721864.867                    20721867.754
       -93.730         -72.817          52.600          40.600
 114076815.905 8  88891074.26446  21708099.523                    21708104.195
     -2445.598       -1905.556          52.000          41.100
 127423950.228 6  99291437.58243  24247980.477                    24247982.879
      3244.035        2527.844          39.400          19.000
 116954541.983 7  91133430.18445  22255718.445                    22255719.492
     -1661.668       -1294.619          46.500          33.000
 123571917.477 7  96289849.95345  23514961.953                    23514968.199
     -3553.031       -2768.465          45.200          31.000
 18  2 20  9 14 30.0000000  0  7G05G30G07G09G13G02G06
 112324322.520 8  87525522.04046  21374619.516                    21374622.270
      2175.809        1695.732          50.600          38.300
 109339431.950 8  85199561.65146  20806596.719                    20806601.730
      1663.605        1296.641          52.000          41.100
 108897172.092 8  84855000.76946  20722449.688                    20722452.250
      -111.270         -86.337          52.500          41.100
 114150291.491 8  88948327.94146  21722081.734                    21722086.004
     -2452.973       -1911.208          50.700          40.400
 127326680.383 6  99215642.93043  24229470.602                    24229473.195
      3240.484        2525.149          39.900          20.400
 117004624.746 7  91172455.67645  22265249.133                    22265249.813
     -1677.441       -1306.748          45.500          32.400
 123678580.186 7  96372963.68344  23535257.570                    23535265.699
     -3558.059       -2772.361          42.900          29.600
 18  2 20  9 15  0.0000000  0  7G05G30G07G09G13G02G06
 112259230.383 8  87474800.89746  21362232.961                    21362235.645
      2163.559        1685.991          50.900          38.200
 109289770.053 8  85160864.07746  20797146.266                    20797151.188
      1647.090        1283.592          51.800          41.400
 108900762.881 8  84857798.78446  20723132.742                    20723135.926
      -128.348         -99.788          51.900          40.600
 114223982.906 8  89005749.79646  21736104.563                    21736109.410
     -2459.937       -1916.754          50.800          40.400
 127229512.628 6  99139927.79943  24210979.109                    24210982.488
      3237.227        2522.541          39.200          20.400
 117055173.212 7  91211844.04645  22274868.625                    22274869.145
     -1692.672       -1318.781          47.700          32.800
 123785390.607 7  96456192.52245  23555584.398                    23555591.238
     -3562.660       -2776.100          45.400          30.500
 18  2 20  9 15 30.0000000  0  7G05G30G07G09G13G02G06
 112194514.854 8  87424373.21246  21349918.008                    21349920.727
      2150.914        1676.193          51.000          38.700
 109240613.303 8  85122560.12746  20787791.805                    20787796.688
      1630.105        1270.455          51.400          41.400
 108904872.488 8  84861001.06946  20723914.664                    20723917.723
      -145.676        -113.245          51.600          40.900
 114297889.185 8  89063339.07346  21750168.547                    21750173.281
     -2467.121       -1922.320          50.900          40.500
 127132449.782 6  99064294.45643  24192508.406                    24192512.613
      3233.734        2519.803          38.500          20.900
 117106185.713 7  91251593.99145  22284575.648                    22284576.738
     -1708.094       -1330.796          47.500          33.600
 123892345.874 7  96539534.24244  23575936.500                    23575943.941
     -3567.559       -2779.845          43.900          29.400
 18  2 20  9 16  0.0000000  0  7G05G30G07G09G13G02G06
 112130178.245 8  87374240.78946  21337675.242                    21337677.844
      2137.984        1666.317          51.100          38.400
 109191962.779 8  85084650.64046  20778534.148                    20778539.121
      1613.039        1257.295          52.100          41.800
 108909500.481 8  84864607.28946  20724795.555                    20724798.352
      -163.074        -126.697          52.800          41.100
 114372009.284 8  89121094.97746  21764273.273                    21764278.203
     -2474.426       -1927.875          50.700          40.500
 127035491.714 6  98988742.78543  24174058.781                    24174062.371
      3229.914        2517.091          39.400          19.600
 117157660.145 7  91291703.91145  22294371.070                    22294371.816
     -1723.703       -1342.767          47.600          33.600
 123999442.980 7  96622986.47745  23596316.945                    23596323.691
     -3572.406       -2783.481          44.800          30.400
 18  2 20  9 16 30.0000000  0  7G05G30G07G09G13G02G06
 112066222.749 8  87324405.33846  21325504.992                    21325507.949
      2125.367        1656.364          51.700          38.400
 109143819.814 8  85047136.65547  20769372.695                    20769378.125
      1596.195        1244.078          52.300          42.300
 108914646.603 8  84868617.24846  20725774.820                    20725777.926
      -180.312        -140.173          52.300          41.600
 114446342.382 8  89179016.84946  21778418.406                    21778423.043
     -2481.437       -1933.394          50.800          40.000
 126938639.120 6  98913273.26143  24155628.570                    24155632.258
      3226.648        2514.313          39.900          21.700
 117209594.727 7  91332172.41745  22304253.961                    22304254.371
     -1738.910       -1354.711          47.600          33.600
 124106679.133 7  96706547.05445  23616723.211                    23616730.469
     -3576.910       -2787.067          44.200          30.200
 18  2 20  9 17  0.0000000  0  7G05G30G07G09G13G02G06
 112002650.410 8  87274868.45046  21313407.445                    21313410.609
      2112.738        1646.399          52.300          39.400
 109096185.541 8  85010019.05147  20760308.148                    20760313.117
      1579.488        1230.865          52.300          42.600
 108920310.507 8  84873030.67446  20726852.633                    20726855.313
      -197.328        -153.596          52.500          41.300
 114520887.540 8  89237103.95646  21792603.469                    21792608.184
     -2488.297       -1938.895          49.700          39.600
 126841892.980 6  98837886.69743  24137218.227                    24137222.914
      3223.078        2511.579          40.000          21.300
 117261987.524 8  91372997.94645  22314224.219                    22314224.102
     -1753.867       -1366.578          48.000          32.800
 124214051.526 7  96790213.79545  23637155.523                    23637163.242
     -3581.215       -2790.584          45.700          30.400
 18  2 20  9 17 30.0000000  0  7G05G30G07G09G13G02G06
 111939462.430 8  87225631.06946  21301383.289                    21301386.559
      2099.754        1636.442          52.200          39.400
 109049060.440 8  84973298.19947  20751340.781                    20751346.113
      1562.246        1217.658          52.100          43.000
 108926490.519 8  84877846.26246  20728028.797                    20728031.625
      -214.699        -166.966          52.500          41.100
 114595643.139 8  89295355.04246  21806829.055                    21806833.820
     -2495.457       -1944.299          49.700          39.700
 126745253.714 6  98762583.38843  24118827.172                    24118833.098
      3219.371        2508.792          38.800          20.900
 117314836.092 8  91414178.62645  22324280.820                    22324281.055
     -1769.289       -1378.361          48.200          33.200
 124321556.557 7  96873983.88645  23657613.414                    23657621.066
     -3585.781       -2793.937          44.000          31.700
 18  2 20  9 18  0.0000000  0  7G05G30G07G09G13G02G06
 111876661.474 8  87176695.26546  21289432.555                    21289435.539
      2086.918        1626.348          52.400          39.000
 109002445.630 8  84936974.98547  20742470.203                    20742475.504
      1545.328        1204.376          52.600          42.700
 108933186.238 8  84883063.70246  20729302.805                    20729306.004
      -231.746        -180.366          52.300          41.300
 114670608.259 8  89353769.38846  21821094.664                    21821098.602
     -2502.219       -1949.718          49.300          38.600
 126648721.921 6  98687363.90843  24100458.844                    24100463.348
      3216.086        2505.975          41.000          21.500
 117368138.618 8  91455713.04245  22334423.852                    22334423.738
     -1784.359       -1390.146          48.200          33.200
 124429191.441 7  96957855.15645  23678096.484                    23678103.113
     -3589.984       -2797.283          45.000          30.700
 18  2 20  9 18 30.0000000  0  7G05G30G07G09G13G02G06
 111814249.085 8  87128062.23246  21277556.039                    21277558.824
      2073.910        1616.223          51.600          39.300
 108956342.211 8  84901050.25847  20733696.797                    20733702.660
      1528.340        1191.070          52.800          42.900
 108940397.110 8  84888682.55946  20730674.742                    20730677.809
      -248.875        -193.733          52.300          41.200
 114745781.987 8  89412346.28746  21835399.469                    21835403.875
     -2509.254       -1955.161          50.000          38.600
 126552298.900 6  98612229.08243  24082109.648                    24082114.660
      3212.289        2503.142          40.900          20.900
 117421892.996 7  91497599.55545  22344653.055                    22344653.059
     -1799.316       -1401.851          47.500          33.800
 124536953.228 7  97041825.35045  23698602.461                    23698608.801
     -3594.137       -2800.573          45.200          30.900
 18  2 20  9 19  0.0000000  0  7G05G30G07G09G13G02G06
 111752227.452 8  87079733.69046  21265753.711                    21265756.109
      2060.742        1606.034          52.100          38.700
 108910751.136 8  84865524.75947  20725021.242                    20725026.492
      1511.105        1177.767          52.800          42.800
 108948122.382 8  84894702.24546  20732145.281                    20732148.059
      -266.184        -207.103          52.100          40.900
 114821163.184 8  89471084.86946  21849744.125                    21849748.324
     -2516.270       -1960.544          49.600          37.500
 126455985.215 6  98537179.49143  24063782.078                    24063787.605
      3208.547        2500.275          41.600          22.000
 117476097.104 7  91539836.51045  22354967.891                    22354967.531
     -1814.301       -1413.507          47.500          32.800
 124644838.949 7  97125892.06945  23719133.352                    23719138.613
     -3598.363       -2803.748          45.200          30.400
 18  2 20  9 19 30.0000000  0  7G05G30G07G09G13G02G06
 111690598.919 8  87031711.46146  21254026.367                    21254029.023
      2047.742        1595.778          52.000          38.400
 108865673.480 8  84830399.32947  20716443.297                    20716448.758
      1494.184        1164.396          52.600          42.600
 108956361.415 8  84901122.26746  20733712.688                    20733715.824
      -283.105        -220.437          51.600          40.100
 114896750.971 8  89529984.40846  21864127.688                    21864132.367
     -2522.949       -1965.908          49.800          37.500
 126359781.216 6  98462215.40143  24045474.625                    24045480.551
      3205.020        2497.413          40.200          20.900
 117530749.048 7  91582422.42845  22365367.039                    22365367.652
     -1829.066       -1425.143          47.200          33.000
 124752845.751 7  97210053.17545  23739685.961                    23739691.828
     -3602.094       -2806.856          45.300          30.000
 18  2 20  9 20  0.0000000  0  7G05G30G07G09G13G02G06
 111629365.520 8  86983997.12546  21242373.891                    21242376.387
      2034.563        1585.545          51.600          38.700
 108821110.211 8  84795674.71647  20707962.977                    20707968.379
      1476.926        1151.063          52.500          43.000
 108965113.337 8  84907941.95146  20735378.094                    20735381.184
      -300.227        -233.711          52.400          40.400
 114972544.314 8  89589044.13646  21878550.789                    21878555.418
     -2529.785       -1971.170          50.000          37.400
 126263688.176 6  98387337.76443  24027189.578                    24027195.254
      3201.336        2494.583          41.700          22.300
 117585846.658 7  91625355.58945  22375851.531                    22375852.500
     -1843.918       -1436.632          47.000          33.500
 124860970.736 7  97294306.37744  23760261.367                    23760267.723
     -3606.074       -2809.856          44.000          29.700
 18  2 20  9 20 30.0000000  0  7G05G30G07G09G13G02G06
 111568528.950 8  86936592.00846  21230796.922                    21230799.387
      2021.316        1575.195          51.300          38.300
 108777062.222 8  84761351.62047  20699581.297                    20699586.363
      1459.727        1137.651          53.200          43.200
 108974377.608 8  84915160.85646  20737141.242                    20737144.043
      -317.305        -247.039          51.700          40.100
 115048542.240 8  89648263.27746  21893013.289                    21893017.176
     -2536.590       -1976.498          50.500          37.500
 126167707.052 6  98312547.33543  24008925.617                    24008930.516
      3197.508        2491.620          41.800          22.500
 117641388.056 7  91668634.57945  22386420.852                    22386421.887
     -1858.602       -1448.156          47.000          33.400
 124969210.798 7  97378649.26744  23780858.859                    23780866.445
     -3609.797       -2812.831          43.900          29.400
 18  2 20  9 21  0.0000000  0  7G05G30G07G09G13G02G06
 111508090.839 8  86889497.37446  21219295.742                    21219298.738
      2007.961        1564.796          52.000          38.300
 108733530.267 8  84727430.62747  20691297.320                    20691302.230
      1442.477        1124.205          53.400          42.800
 108984153.372 8  84922778.33346  20739001.453                    20739004.258
      -334.414        -260.344          52.800          40.000
 115124743.442 8  89707640.81146  21907513.445                    21907518.297
     -2543.418       -1981.800          49.500          37.500
 126071838.467 7  98237844.55343  23990681.414                    23990686.480
      3193.625        2488.646          42.600          22.200
 117697370.644 7  91712257.34945  22397074.125                    22397075.023
     -1873.555       -1459.633          45.600          33.500
 125077562.911 7  97463079.42044  23801477.156                    23801484.996
     -3613.555       -2815.723          43.600          29.000
 18  2 20  9 21 30.0000000  0  7G05G30G07G09G13G02G06
 111448053.848 8  86842715.30046  21207871.023                    21207873.711
      1994.477        1554.347          52.000          38.100
 108690515.693 8  84693912.79347  20683111.828                    20683117.051
      1425.141        1110.776          52.900          43.000
 108994440.105 8  84930793.97746  20740958.922                    20740961.551
      -351.422        -273.594          52.000          40.800
 115201147.397 8  89767176.34246  21922052.891                    21922057.676
     -2550.172       -1987.047          49.100          37.900
 125976083.174 7  98163230.07243  23972459.984                    23972465.523
      3189.855        2485.711          42.000          22.600
 117753792.869 7  91756222.68345  22407811.164                    22407812.301
     -1888.184       -1471.015          47.000          33.400
 125186024.490 7  97547594.90244  23822116.273                    23822123.906
     -3617.168       -2818.527          43.900          29.000
 18  2 20  9 22  0.0000000  0  7G05G30G07G09G13G02G06
 111388419.841 8  86796247.24546  21196523.156                    21196525.766
      1981.266        1543.824          51.300          37.600
 108648019.132 8  84660798.60147  20675025.117                    20675030.332
      1408.184        1097.272          53.200          43.500
 109005236.926 8  84939207.07846  20743013.766                    20743016.066
      -368.156        -286.860          51.900          41.100
 115277752.875 8  89826868.89446  21936630.867                    21936635.391
     -2556.664       -1992.304          50.000          38.700
 125880442.099 7  98088704.60243  23954261.383                    23954265.133
      3186.402        2482.707          42.800          22.900
 117810652.252 7  91800528.66645  22418630.742                    22418632.402
     -1902.375       -1482.370          46.600          33.300
 125294592.415 7  97632193.23944  23842776.297                    23842782.695
     -3620.422       -2821.266          43.900          27.900
 18  2 20  9 22 30.0000000  0  7G05G30G07G09G13G02G06
 111329190.800 8  86750094.74046  21185252.391                    21185254.949
      1967.547        1533.371          51.100          39.200
 108606041.658 8  84628088.89047  20667036.961                    20667042.281
      1390.570        1083.847          53.000          43.400
 109016543.057 8  84948017.05346  20745164.914                    20745167.617
      -385.395        -299.995          52.000          40.200
 115354558.984 8  89886717.78546  21951245.992                    21951251.070
     -2563.590       -1997.424          49.800          38.600
 125784915.926 7  98014268.61043  23936083.586                    23936086.535
      3182.250        2479.798          44.300          23.500
 117867946.945 7  91845173.86045  22429533.852                    22429535.355
     -1917.031       -1493.560          46.800          33.900
 125403263.866 7  97716872.27444  23863455.609                    23863462.434
     -3624.105       -2823.854          44.000          27.700
 18  2 20  9 23  0.0000000  0  7G05G30G07G09G13G02G06
 111270369.101 8  86704259.65046  21174058.938                    21174061.102
      1953.957        1522.673          51.800          37.900
 108564584.278 8  84595784.44547  20659148.000                    20659153.418
      1373.289        1070.228          51.600          43.600
 109028357.776 8  84957223.32246  20747413.141                    20747416.160
      -402.285        -313.293          51.500          40.500
 115431564.929 8  89946722.38946  21965900.375                    21965904.715
     -2570.207       -2002.683          49.600          38.800
 125689505.677 7  97939922.97943  23917926.891                    23917931.094
      3178.402        2476.685          43.600          22.800
 117925674.914 7  91890156.66645  22440519.750                    22440520.488
     -1931.508       -1504.900          46.100          34.100
 125512036.098 7  97801629.77644  23884154.945                    23884161.672
     -3627.301       -2826.536          43.600          27.800
 18  2 20  9 23 30.0000000  0  7G05G30G07G09G13G02G06
 111211955.927 8  86658742.89546  21162943.641                    21162945.770
      1940.289        1512.039          52.400          38.700
 108523647.350 8  84563885.54947  20651358.156                    20651363.016
      1355.887        1056.726          52.300          43.400
 109040680.164 8  84966825.18646  20749757.938                    20749761.371
      -419.184        -326.453          51.900          40.900
 115508769.260 8  90006881.59246  21980591.414                    21980596.098
     -2576.750       -2007.810          50.400          39.100
 125594211.752 7  97865667.99543  23899793.125                    23899796.711
      3174.527        2473.670          43.400          22.900
 117983833.533 7  91935475.04645  22451587.336                    22451587.414
     -1945.793       -1516.022          47.500          34.100
 125620905.641 7  97886463.18444  23904870.789                    23904879.551
     -3630.609       -2829.007          43.700          27.200
 18  2 20  9 24  0.0000000  0  7G05G30G07G09G13G02G06
 111153953.508 8  86613546.21446  21151906.203                    21151908.074
      1926.609        1501.331          51.900          38.400
 108483231.834 8  84532392.94647  20643667.313                    20643672.227
      1338.605        1043.156          52.400          43.400
 109053509.128 8  84976821.77946  20752199.367                    20752202.148
      -435.934        -339.620          52.000          40.900
 115586171.122 8  90067194.71446  21995320.750                    21995325.340
     -2583.215       -2012.946          49.500          39.500
 125499035.230 7  97791504.51043  23881681.320                    23881685.352
      3170.633        2470.573          44.000          23.600
 118042420.596 7  91981127.28145  22462735.563                    22462736.242
     -1959.879       -1527.149          45.800          33.100
 125729869.846 7  97971370.26344  23925606.867                    23925614.684
     -3633.457       -2831.437          43.200          25.500
 18  2 20  9 24 30.0000000  0  7G05G30G07G09G13G02G06
 111096364.199 8  86568671.42846  21140947.164                    21140949.551
      1912.684        1490.613          51.900          37.900
 108443338.564 8  84501307.28747  20636075.711                    20636080.664
      1320.961        1029.623          52.600          43.600
 109066843.813 8  84987212.45046  20754736.984                    20754740.363
      -452.914        -352.699          52.300          41.000
 115663769.494 8  90127660.94646  22010087.414                    22010091.820
     -2589.883       -2018.007          50.400          39.000
 125403976.647 7  97717432.89944  23863592.758                    23863596.566
      3166.551        2467.540          43.500          24.100
 118101434.074 7  92027111.78745  22473965.672                    22473966.063
     -1974.301       -1538.158          46.200          34.200
 125838925.626 6  98056348.77544  23946358.734                    23946366.953
     -3636.711       -2833.751          41.800          26.300
 18  2 20  9 25  0.0000000  0  7G05G30G07G09G13G02G06
 111039190.160 8  86524120.23146  21130067.016                    21130069.941
      1898.949        1479.808          51.900          38.100
 108403968.777 8  84470629.54447  20628583.984                    20628589.172
      1303.699        1016.023          52.300          43.600
 109080683.927 8  84997996.94546  20757370.602                    20757373.402
      -469.691        -365.822          52.000          41.600
 115741563.887 8  90188279.92546  22024890.820                    22024895.906
     -2596.223       -2023.086          50.000          39.200
 125309037.435 7  97643454.30344  23845525.992                    23845529.313
      3162.742        2464.435          44.600          25.700
 118160872.051 7  92073427.06945  22485276.078                    22485277.172
     -1988.219       -1549.161          47.600          33.800
 125948070.686 7  98141396.81144  23967129.336                    23967135.973
     -3639.539       -2836.044          42.000          26.000
 18  2 20  9 25 30.0000000  0  7G05G30G07G09G13G02G06
 110982433.063 8  86479893.92046  21119266.469                    21119269.195
      1884.840        1468.919          51.600          38.600
 108365123.161 8  84440360.24347  20621191.695                    20621197.301
      1286.012        1002.340          52.600          43.100
 109095028.436 8  85009174.48346  20760100.008                    20760103.617
      -486.547        -378.962          52.000          41.500
 115819553.258 8  90249050.83746  22039732.195                    22039736.617
     -2602.957       -2028.178          49.700          38.200
 125214218.216 7  97569569.20343  23827482.711                    23827485.203
      3158.563        2461.276          43.700          23.200
 118220732.330 7  92120071.42045  22496668.047                    22496668.188
     -2002.398       -1560.151          47.000          33.600
 126057301.874 7  98226511.99044  23987915.672                    23987921.992
     -3642.594       -2838.278          42.500          26.000
 18  2 20  9 26  0.0000000  0  7G05G30G07G09G13G02G06
 110926094.338 8  86435993.61646  21108545.688                    21108548.109
      1871.086        1458.128          51.700          38.200
 108326801.849 8  84410499.49547  20613899.250                    20613904.867
      1268.750         988.822          51.900          43.500
 109109876.031 8  85020744.04847  20762925.633                    20762928.992
      -503.137        -391.935          51.800          42.100
 115897735.983 8  90309972.41346  22054609.555                    22054614.301
     -2609.191       -2033.084          49.700          38.900
 125119519.225 7  97495777.80543  23809460.789                    23809464.348
      3154.688        2458.234          43.600          22.800
 118281011.979 7  92167042.54145  22508138.227                    22508138.953
     -2016.180       -1570.895          47.000          33.900
 126166615.804 7  98311691.60544  24008717.586                    24008724.016
     -3645.051       -2840.297          42.600          27.000
 18  2 20  9 26 30.0000000  0  7G05G30G07G09G13G02G06
 110870176.325 8  86392421.13246  21097904.875                    21097907.520
      1856.867        1447.121          52.100          38.900
 108289005.877 8  84381048.09947  20606707.375                    20606712.715
      1251.145         975.126          53.100          43.600
 109125225.928 8  85032705.00747  20765846.766                    20765849.871
      -519.988        -404.975          52.300          42.100
 115976111.406 8  90371044.14546  22069523.750                    22069528.984
     -2615.691       -2038.129          49.500          39.800
 125024941.493 7  97422080.89643  23791463.484                    23791466.645
      3150.645        2455.051          42.700          22.200
 118341708.947 7  92214338.85445  22519688.742                    22519689.277
     -2030.117       -1581.737          46.800          34.000
 126276009.752 7  98396933.61244  24029534.758                    24029541.523
     -3647.746       -2842.377          42.500          26.300
 18  2 20  9 27  0.0000000  0  7G05G30G07G09G13G02G06
 110814680.716 8  86349177.79946  21087344.203                    21087346.855
      1842.938        1436.101          52.300          39.300
 108251735.702 8  84352006.41647  20599614.742                    20599620.512
      1233.727         961.439          52.300          43.300
 109141076.854 8  85045056.36947  20768863.008                    20768865.930
      -536.590        -418.007          52.100          42.000
 116054678.304 8  90432265.05846  22084474.188                    22084479.953
     -2621.930       -2043.098          50.200          38.800
 124930485.551 6  97348478.90043  23773489.320                    23773491.680
      3146.602        2451.851          41.900          22.000
 118402820.834 7  92261958.48045  22531317.945                    22531318.570
     -2043.758       -1592.520          47.800          33.700
 126385480.651 7  98482235.51843  24050366.070                    24050373.660
     -3650.109       -2844.371          42.600          23.500
 18  2 20  9 27 30.0000000  0  7G05G30G07G09G13G02G06
 110759609.953 8  86306265.51246  21076864.844                    21076867.641
      1828.684        1425.083          52.300          38.900
 108214992.304 8  84323375.21247  20592622.352                    20592628.395
      1216.117         947.776          51.500          43.100
 109157428.474 8  85057797.87546  20771974.766                    20771977.434
      -553.250        -430.955          51.900          41.600
 116133435.949 8  90493634.61746  22099461.625                    22099467.082
     -2628.387       -2048.013          48.500          38.000
 124836152.586 6  97274972.66843  23755538.156                    23755541.156
      3142.504        2448.704          41.700          22.600
 118464345.546 7  92309899.78345  22543025.219                    22543026.039
     -2057.512       -1603.175          46.000          33.400
 126495025.823 7  98567595.37544  24071212.023                    24071218.469
     -3652.629       -2846.205          42.800          25.000
 18  2 20  9 28  0.0000000  0  7G05G30G07G09G13G02G06
 110704964.711 8  86263684.80646  21066466.352                    21066468.797
      1814.422        1413.984          52.500          39.200
 108178775.396 8  84295154.25147  20585730.750                    20585736.590
      1198.434         934.075          52.700          43.200
 109174278.502 8  85070927.77146  20775181.336                    20775184.047
      -569.992        -443.946          52.700          41.700
 116212382.449 8  90555151.33546  22114484.539                    22114490.438
     -2634.641       -2052.924          48.800          37.800
 124741942.474 7  97201562.18743  23737610.313                    23737613.109
      3138.309        2445.449          43.000          22.600
 118526279.841 7  92358160.24445  22554811.125                    22554811.906
     -2071.309       -1613.821          46.700          33.300
 126604641.416 6  98653010.07644  24092070.633                    24092077.586
     -3654.949       -2848.072          40.400          24.900
 18  2 20  9 28 30.0000000  0  7G05G30G07G09G13G02G06
 110650748.120 8  86221438.11246  21056149.039                    21056151.711
      1799.895        1402.820          51.800          40.200
 108143086.896 8  84267345.04647  20578939.523                    20578945.520
      1180.723         920.320          51.900          43.500
 109191627.440 8  85084446.41747  20778482.719                    20778485.738
      -586.734        -456.883          52.300          42.000
 116291518.025 8  90616815.37246  22129543.547                    22129549.199
     -2641.082       -2057.842          48.600          38.700
 124647856.762 6  97128248.70243  23719706.367                    23719709.766
      3133.930        2442.192          41.100          22.500
 118588622.643 7  92406739.01945  22566674.375                    22566675.105
     -2084.949       -1624.411          46.100          33.000
 126714325.725 7  98738478.32444  24112944.531                    24112949.141
     -3657.246       -2849.801          42.700          25.200
 18  2 20  9 29  0.0000000  0  7G05G30G07G09G13G02G06
 110596961.695 8  86179526.60746  21045913.633                    21045916.684
      1785.816        1391.652          52.100          40.100
 108107927.013 8  84239947.74547  20572248.688                    20572254.633
      1163.258         906.588          53.200          43.600
 109209473.493 8  85098352.43146  20781878.961                    20781881.355
      -602.992        -469.766          51.600          41.800
 116370841.335 8  90678625.70546  22144637.883                    22144643.977
     -2647.219       -2062.692          48.200          37.900
 124553896.541 7  97055032.95944  23701826.328                    23701830.082
      3129.961        2438.953          42.800          24.200
 118651371.286 7  92455634.04245  22578615.203                    22578616.316
     -2098.293       -1634.915          45.300          33.100
 126824075.487 6  98823997.56944  24133827.781                    24133834.473
     -3659.320       -2851.429          40.400          24.400
 18  2 20  9 29 30.0000000  0  7G05G30G07G09G13G02G06
 110543607.659 8  86137952.03846  21035761.250                    21035763.727
      1771.164        1380.420          52.600          40.500
 108073296.630 8  84212963.03347  20565658.727                    20565664.277
      1145.465         892.897          52.800          43.000
 109227816.338 8  85112645.55846  20785369.008                    20785371.828
      -619.754        -482.613          52.400          41.100
 116450351.662 8  90740581.76446  22159768.773                    22159774.332
     -2653.590       -2067.474          49.800          37.300
 124460062.257 7  96981915.38543  23683971.133                    23683973.836
      3125.637        2435.716          44.300          22.600
 118714523.504 7  92504843.52645  22590632.445                    22590633.348
     -2111.898       -1645.305          45.600          33.000
 126933888.145 7  98909565.80344  24154724.656                    24154732.043
     -3661.516       -2852.991          42.800          26.000
 18  2 20  9 30  0.0000000  0  7G05G30G07G09G13G02G06
 110490687.980 8  86096715.91446  21025690.852                    21025693.844
      1756.699        1369.048          52.500          40.600
 108039196.316 8  84186391.37447  20559169.711                    20559175.473
      1127.836         879.038          52.700          43.200
 109246654.643 8  85127324.74846  20788953.859                    20788956.629
      -636.219        -495.542          52.800          41.600
 116530048.064 8  90802682.80946  22174934.539                    22174940.566
     -2659.711       -2072.376          50.300          37.600
 124366355.313 7  96908897.01743  23666138.180                    23666142.219
      3121.352        2432.332          44.600          22.900
 118778077.023 7  92554365.70745  22602726.117                    22602728.031
     -2125.117       -1655.787          45.100          33.000
 127043760.638 6  98995180.68144  24175631.891                    24175641.313
     -3663.387       -2854.590          40.500          24.700
 18  2 20  9 30 30.0000000  0  7G05G30G07G09G13G02G06
 110438204.294 8  86055819.53046  21015703.313                    21015706.320
      1742.133        1357.690          53.000          40.700
 108005626.497 8  84160233.08247  20552781.383                    20552787.352
      1110.125         865.258          52.200          43.400
 109265987.583 8  85142389.37746  20792632.875                    20792635.383
      -652.770        -508.384          51.200          40.600
 116609929.378 8  90864927.96446  22190135.547                    22190141.059
     -2665.910       -2077.187          49.200          37.600
 124272776.094 7  96835978.20444  23648330.078                    23648334.508
      3117.090        2428.993          43.700          24.200
 118842029.381 7  92604198.67945  22614896.641                    22614897.555
     -2138.434       -1666.108          45.000          33.600
 127153690.036 7  99080839.87244  24196551.430                    24196559.973
     -3665.383       -2856.032          42.900          24.500
 18  2 20  9 31  0.0000000  0  7G05G30G07G09G13G02G06
 110386159.242 8  86015264.93746  21005799.477                    21005802.113
      1727.336        1346.293          52.300          40.200
 107972588.109 8  84134488.89647  20546494.500                    20546500.586
      1092.160         851.434          52.000          42.900
 109285814.231 8  85157838.71346  20796405.930                    20796408.543
      -669.277        -521.180          52.300          40.700
 116689995.042 8  90927316.76346  22205371.609                    22205376.625
     -2672.141       -2081.949          50.400          36.600
 124179325.468 7  96763159.58043  23630548.289                    23630552.176
      3112.578        2425.640          43.300          23.000
 118906378.446 7  92654340.76545  22627141.922                    22627142.723
     -2151.668       -1676.383          45.400          33.600
 127263673.747 6  99166541.41544  24217478.414                    24217488.129
     -3667.203       -2857.445          39.600          24.600
 18  2 20  9 31 30.0000000  0  7G05G30G07G09G13G02G06
 110334553.627 8  85975052.76846  20995979.141                    20995982.262
      1712.797        1334.824          53.000          40.900
 107940081.285 8  84109158.91647  20540308.313                    20540314.203
      1074.664         837.624          52.700          43.400
 109306133.104 8  85173671.60146  20800272.125                    20800275.055
      -685.477        -533.968          52.400          40.900
 116770243.687 8  90989848.14546  22220642.273                    22220647.457
     -2678.074       -2086.707          51.800          36.400
 124086003.687 7  96690441.35943  23612789.117                    23612793.832
      3108.609        2422.285          43.000          22.600
 118971121.373 7  92704789.76345  22639462.320                    22639463.094
     -2164.723       -1686.614          44.600          33.300
 127373708.541 7  99252282.74644  24238420.102                    24238426.406
     -3668.617       -2858.689          43.900          26.400
 18  2 20  9 32  0.0000000  0  7G05G30G07G09G13G02G06
 110283389.381 8  85935184.52246  20986242.852                    20986245.551
      1698.160        1323.348          52.300          40.200
 107908106.525 8  84084243.52647  20534223.781                    20534229.391
      1056.992         823.794          52.500          43.400
 109326942.890 8  85189887.01946  20804232.148                    20804235.039
      -701.836        -546.711          50.500          40.400
 116850674.281 8  91052521.31846  22235947.797                    22235952.609
     -2683.879       -2091.412          50.900          36.400
 123992812.179 7  96617824.61743  23595055.148                    23595060.027
      3104.160        2418.885          43.400          23.500
 119036255.867 7  92755543.87045  22651856.398                    22651858.070
     -2177.551       -1696.731          44.900          33.300
 127483791.540 6  99338061.66544  24259366.477                    24259374.691
     -3670.164       -2859.912          37.100          25.100
 18  2 20  9 32 30.0000000  0  7G05G30G07G09G13G02G06
 110232668.885 8  85895662.05746  20976591.055                    20976593.848
      1683.348        1311.817          52.700          39.700
 107876664.371 8  84059743.14747  20528240.539                    20528246.352
      1039.254         809.983          51.800          43.100
 109348242.881 8  85206484.41246  20808285.469                    20808288.176
      -718.086        -559.382          50.000          40.600
 116931285.988 8  91115335.60746  22251288.047                    22251292.316
     -2689.980       -2096.073          50.900          36.800
 123899751.389 6  96545309.74244  23577346.250                    23577351.316
      3100.035        2415.528          41.100          25.300
 119101779.354 7  92806601.10045  22664325.836                    22664326.543
     -2190.621       -1706.798          45.100          33.400
 127593919.826 6  99423875.85244  24280324.750                    24280333.398
     -3671.625       -2861.047          41.900          27.400
 18  2 20  9 33  0.0000000  0  7G05G30G07G09G13G02G06
 110182394.271 8  85856487.01946  20967023.914                    20967026.711
      1668.332        1300.194          51.700          39.400
 107845755.502 8  84035658.32547  20522359.211                    20522364.383
      1021.336         796.109          51.300          43.200
 109370031.944 8  85223462.90346  20812432.063                    20812434.699
      -734.500        -572.116          50.200          41.000
 117012078.028 8  91178290.43045  22266662.289                    22266666.234
     -2696.082       -2100.775          50.300          35.900
 123806822.122 6  96472897.33744  23559662.563                    23559667.617
      3095.422        2412.052          41.700          25.200
 119167689.870 7  92857959.89045  22676867.930                    22676869.094
     -2203.473       -1716.845          44.600          32.300
 127704090.743 5  99509723.25944  24301287.977                    24301299.305
     -3673.195       -2862.185          34.700          25.900
 18  2 20  9 33 30.0000000  0  7G05G30G07G09G13G02G06
 110132566.887 8  85817660.48146  20957542.578                    20957545.109
      1653.305        1288.569          51.800          39.500
 107815380.216 8  84011989.26547  20516579.125                    20516584.004
      1003.488         782.249          52.800          43.100
 109392308.797 8  85240821.49046  20816670.969                    20816673.500
      -750.723        -584.740          50.800          40.300
 117093049.272 8  91241384.88146  22282070.898                    22282074.922
     -2702.117       -2105.402          50.900          36.000
 123714025.299 6  96400588.14944  23542003.906                    23542008.496
      3090.898        2408.625          41.800          24.800
 119233984.748 7  92909618.18845  22689483.172                    22689485.090
     -2216.324       -1726.750          43.500          31.700
 127814301.235 7  99595601.46744  24322264.375                    24322271.516
     -3674.352       -2863.083          44.500          27.100
 18  2 20  9 34  0.0000000  0  7G05G30G07G09G13G02G06
 110083188.477 8  85779183.79246  20948145.656                    20948148.637
      1638.656        1276.926          52.300          39.000
 107785538.988 8  83988736.35647  20510900.414                    20510905.711
       986.000         768.415          52.400          43.400
 109415072.458 8  85258559.40746  20821003.336                    20821005.809
      -766.680        -597.345          51.300          41.100
 117174198.826 8  91304618.28546  22297513.250                    22297517.352
     -2707.687       -2109.984          50.600          36.700
 123621361.734 7  96328382.77244  23524369.938                    23524374.969
      3086.711        2405.201          42.200          24.400
 119300661.406 7  92961573.98145  22702171.422                    22702172.844
     -2228.719       -1736.623          43.900          30.500
 127924548.563 6  99681508.42244  24343240.914                    24343249.461
     -3675.242       -2863.966          38.900          24.300
 18  2 20  9 34 30.0000000  0  7G05G30G07G09G13G02G06
 110034260.672 8  85741058.23346  20938835.398                    20938837.801
      1623.316        1265.132          51.700          39.000
 107756232.215 8  83965899.90647  20505324.039                    20505328.688
       967.930         754.460          52.700          43.900
 109438321.793 8  85276675.76146  20825426.953                    20825430.086
      -783.090        -610.001          50.000          40.900
 117255525.704 8  91367989.84646  22312988.797                    22312993.273
     -2713.937       -2114.654          49.400          36.900
 123528832.063 7  96256281.74544  23506761.938                    23506767.332
      3081.969        2401.639          42.700          24.900
 119367717.216 7  93013825.21045  22714931.555                    22714933.137
     -2241.523       -1746.499          43.900          30.500
 128034829.764 7  99767441.79844  24364229.773                    24364233.480
     -3676.621       -2864.894          43.700          26.400
 18  2 20  9 35  0.0000000  0  7G05G30G07G09G13G02G06
 109985785.622 8  85703285.46946  20929610.867                    20929613.676
      1608.219        1253.361          52.100          38.200
 107727460.451 9  83943480.34747  20499848.664                    20499853.395
       950.074         740.566          54.000          43.300
 109462055.510 8  85295169.56946  20829943.430                    20829946.105
      -799.266        -622.562          50.500          40.800
 117337029.107 8  91431498.96546  22328498.586                    22328503.113
     -2719.809       -2119.208          49.900          37.500
 123436437.026 6  96184285.60843  23489180.703                    23489185.156
      3077.516        2398.143          41.200          23.400
 119435149.912 7  93066370.12044  22727763.406                    22727764.969
     -2254.172       -1756.233          43.400          29.300
 128145142.157 6  99853399.42944  24385217.969                    24385225.867
     -3677.762       -2865.684          38.600          26.100
 18  2 20  9 35 30.0000000  0  7G05G30G07G09G13G02G06
 109937764.944 8  85665866.76146  20920472.930                    20920475.738
      1593.125        1241.538          52.700          39.700
 107699224.069 8  83921477.96647  20494475.367                    20494480.113
       932.320         726.657          53.500          43.700
 109486272.611 8  85314040.02546  20834551.867                    20834554.852
      -815.250        -635.108          51.900          41.400
 117418708.084 8  91495144.88746  22344041.547                    22344046.691
     -2725.578       -2123.762          49.100          37.600
 123344177.857 7  96112395.34943  23471623.984                    23471628.336
      3073.066        2394.593          42.100          22.900
 119502956.804 7  93119206.61645  22740666.805                    22740667.797
     -2266.363       -1765.918          43.800          30.000
 128255482.825 7  99939379.10844  24406218.242                    24406224.719
     -3678.398       -2866.345          44.300          28.000
 18  2 20  9 36  0.0000000  0  7G05G30G07G09G13G02G06
 109890201.348 8  85628804.21346  20911421.969                    20911424.734
      1577.926        1229.632          52.700          38.600
 107671523.544 8  83899893.13747  20489204.148                    20489208.781
       914.500         712.725          53.700          43.100
 109510972.141 8  85333286.39846  20839252.328                    20839254.617
      -831.238        -647.625          52.100          40.600
 117500561.798 8  91558926.95746  22359617.703                    22359622.980
     -2731.242       -2128.284          49.300          37.800
 123252055.520 7  96040611.70043  23454093.688                    23454097.805
      3068.543        2391.029          42.400          23.000
 119571135.827 7  93172333.06244  22753640.297                    22753642.078
     -2278.727       -1775.556          43.300          28.600
 128365849.110 6 100025378.67444  24427218.180                    24427227.219
     -3679.152       -2866.965          40.000          24.300
 18  2 20  9 36 30.0000000  0  7G05G30G07G09G13G02G06
 109843096.045 8  85592098.79146  20902458.227                    20902460.844
      1562.629        1217.739          53.600          39.400
 107644359.042 8  83878725.99147  20484034.625                    20484039.875
       896.625         698.844          53.300          43.400
 109536152.380 8  85352907.36146  20844043.422                    20844046.469
      -847.305        -660.061          52.300          41.700
 117582589.188 8  91622844.36546  22375227.422                    22375232.387
     -2737.023       -2132.749          49.500          38.200
 123160070.061 7  95968934.70944  23436589.367                    23436593.543
      3064.066        2387.519          42.500          24.400
 119639684.115 7  93225747.26944  22766684.953                    22766686.105
     -2291.004       -1785.072          43.700          29.200
 128476237.949 7 100111395.89043  24448225.430                    24448233.020
     -3679.805       -2867.484          43.000          23.800
 18  2 20  9 37  0.0000000  0  7G05G30G07G09G13G02G06
 109796451.395 8  85555752.32346  20893581.836                    20893584.504
      1547.012        1205.674          53.400          39.000
 107617731.602 8  83857977.33247  20478967.680                    20478972.652
       878.480         684.817          53.100          42.800
 109561812.974 8  85372902.61946  20848926.758                    20848929.547
      -863.473        -672.583          52.800          41.000
 117664789.917 8  91686896.82946  22390869.531                    22390874.469
     -2743.000       -2137.307          50.100          37.600
 123068222.979 7  95897365.55344  23419112.047                    23419115.699
      3059.137        2383.819          42.100          25.900
 119708600.033 7  93279447.95944  22779799.063                    22779800.727
     -2303.430       -1794.690          43.900          29.700
 128586647.207 6 100197428.98243  24469235.078                    24469242.355
     -3680.723       -2868.025          39.500          23.200
 18  2 20  9 37 30.0000000  0  7G05G30G07G09G13G02G06
 109750268.264 8  85519765.47146  20884793.891                    20884796.234
      1531.781        1193.841          53.500          39.800
 107591640.720 8  83837646.78347  20474002.570                    20474008.090
       860.891         671.032          53.900          43.000
 109587951.719 8  85393270.46446  20853900.617                    20853903.160
      -879.234        -684.838          52.600          40.900
 117747162.340 8  91751083.08346  22406543.867                    22406549.699
     -2748.457       -2141.592          48.600          36.300
 122976515.037 7  95825904.81544  23401660.836                    23401663.680
      3054.762        2380.380          43.000          25.100
 119777880.060 7  93333432.34144  22792982.852                    22792983.820
     -2315.258       -1803.943          43.500          29.600
 128697073.219 7 100283475.21243  24490248.727                    24490254.879
     -3680.992       -2868.280          42.800          22.800
 18  2 20  9 38  0.0000000  0  7G05G30G07G09G13G02G06
 109704548.937 8  85484140.02346  20876093.414                    20876095.887
      1516.133        1181.664          53.400          39.600
 107566087.018 8  83817734.80547  20469139.586                    20469145.129
       842.770         656.963          53.100          43.000
 109614567.786 8  85414010.25346  20858965.750                    20858967.871
      -895.141        -697.321          52.600          40.800
 117829705.813 8  91815402.62446  22422251.500                    22422257.168
     -2754.305       -2146.125          49.300          36.200
 122884946.852 7  95754552.98044  23384235.828                    23384238.645
      3049.934        2376.630          43.400          24.300
 119847521.950 7  93387698.70844  22806235.656                    22806236.727
     -2327.480       -1813.393          44.300          29.500
 128807513.503 6 100369532.49543  24511264.359                    24511270.586
     -3681.449       -2868.714          38.900          23.000
 18  2 20  9 38 30.0000000  0  7G05G30G07G09G13G02G06
 109659294.920 8  85448877.15346  20867481.953                    20867484.473
      1500.684        1169.556          53.700          40.100
 107541070.619 8  83798241.51547  20464379.438                    20464384.680
       824.918         643.000          52.800          42.700
 109641659.973 8  85435121.04046  20864120.805                    20864123.301
      -910.953        -709.668          52.000          40.300
 117912419.303 8  91879854.63646  22437991.367                    22437996.934
     -2759.937       -2150.551          48.500          36.300
 122793518.934 7  95683310.41844  23366836.703                    23366840.832
      3045.297        2372.944          42.600          24.500
 119917523.279 7  93442245.18445  22819555.641                    22819557.895
     -2339.262       -1822.752          43.400          30.300
 128917965.165 7 100455598.66444  24532282.977                    24532289.797
     -3681.852       -2869.005          42.500          25.800
 18  2 20  9 39  0.0000000  0  7G05G30G07G09G13G02G06
 109614507.914 8  85413978.19046  20858959.320                    20858961.684
      1485.004        1157.406          53.000          39.700
 107516591.781 8  83779167.08747  20459720.977                    20459726.598
       806.996         629.047          53.500          43.200
 109669226.680 8  85456601.58346  20869366.492                    20869369.539
      -926.766        -721.975          51.300          40.200
 117995301.822 8  91944438.36646  22453763.195                    22453768.695
     -2765.578       -2154.922          48.800          36.800
 122702232.157 7  95612177.89044  23349466.461                    23349469.574
      3040.480        2369.272          43.800          24.400
 119987881.190 7  93497069.48144  22832945.352                    22832946.645
     -2351.184       -1831.953          43.600          29.300
 129028425.211 6 100541671.34844  24553302.789                    24553310.789
     -3682.105       -2869.187          39.500          24.700
 18  2 20  9 39 30.0000000  0  6G05G30G07G09G13G02
 109570190.620 8  85379445.23646  20850525.875                    20850528.453
      1469.516        1145.186          52.300          40.500
 107492651.477 9  83760512.30647  20455165.508                    20455170.754
       789.211         615.062          54.100          43.100
 109697267.524 8  85478451.59046  20874702.617                    20874705.066
      -942.414        -734.282          51.700          40.400
 118078353.208 8  92009153.69346  22469567.820                    22469573.246
     -2771.027       -2159.294          50.300          37.300
 122611087.934 7  95541156.42044  23332122.734                    23332125.766
      3035.945        2365.574          45.200          25.300
 120058593.598 7  93552170.02944  22846400.633                    22846402.508
     -2362.809       -1841.121          44.300          29.600
 18  2 20  9 40  0.0000000  0  7G05G30G07G09G28G13G02
 109526343.900 8  85345278.95346  20842181.820                    20842184.910
      1453.805        1133.027          52.500          40.400
 107469249.344 8  83742276.88647  20450712.523                    20450717.270
       771.297         601.166          53.800          42.900
 109725780.640 8  85500669.59546  20880128.172                    20880131.047
      -958.164        -746.443          51.100          39.100
 118161571.940 8  92073999.40946  22485403.703                    22485408.848
     -2776.562       -2163.519          50.900          37.000
 127591394.727 6                  24279838.305
      3235.176                          41.600
 122520086.789 7  95470246.44444  23314806.133                    23314808.879
      3031.168        2361.940          45.700          25.800
 120129657.673 7  93607544.59844  22859923.891                    22859925.719
     -2374.406       -1850.110          43.900          29.100
 18  2 20  9 40 30.0000000  0  7G05G30G07G09G28G13G02
 109482969.089 8  85311480.38946  20833927.992                    20833930.875
      1437.840        1120.657          52.600          40.200
 107446384.954 9  83724460.48347  20446361.742                    20446366.898
       753.074         587.091          54.100          43.100
 109754764.048 8  85523254.06646  20885643.930                    20885646.473
      -973.988        -758.730          51.100          38.900
 118244956.497 8  92138974.35346  22501271.938                    22501276.754
     -2782.309       -2167.938          51.300          36.500
 127494374.832 6                  24261375.117
      3232.906                          39.300
 122429228.680 7  95399447.88344  23297514.750                    23297518.727
      3026.105        2358.099          45.100          24.300
 120201069.955 7  93663190.49144  22873513.141                    22873514.777
     -2386.234       -1859.231          43.200          28.900
 18  2 20  9 41  0.0000000  0  7G05G30G07G09G28G13G02
 109440067.781 8  85278050.79046  20825764.367                    20825767.734
      1422.086        1108.377          51.800          40.100
 107424058.725 9  83707063.41747  20442113.102                    20442117.848
       735.230         573.179          54.000          43.900
 109784216.673 8  85546204.15546  20891248.164                    20891250.840
      -989.523        -770.868          50.900          38.100
 118328506.268 8  92204078.03346  22517170.852                    22517175.652
     -2787.707       -2172.153          51.600          36.800
 127397420.229 6                  24242926.453
      3230.789                          39.300
 122338514.806 7  95328761.72644  23280252.492                    23280256.734
      3021.313        2354.430          44.000          25.300
 120272828.208 7  93719105.96444  22887168.539                    22887169.961
     -2397.719       -1868.142          43.700          29.400
 18  2 20  9 41 30.0000000  0  7G05G30G07G09G28G13G02
 109397642.667 8  85244992.24546  20817691.031                    20817694.203
      1406.203        1095.921          52.700          40.800
 107402271.556 9  83690086.40047  20437967.391                    20437971.633
       717.191         559.091          54.800          43.600
 109814137.968 8  85569519.44446  20896942.125                    20896944.695
     -1005.219        -783.094          50.800          38.200
 118412220.949 8  92269310.21346  22533101.336                    22533105.996
     -2793.285       -2176.516          51.900          36.100
 127300534.574 6                  24224488.633
      3228.215                          38.800
 122247946.634 7  95258189.13844  23263017.953                    23263021.582
      3016.445        2350.554          43.300          26.500
 120344930.711 7  93775289.71744  22900889.242                    22900890.313
     -2409.254       -1877.144          43.000          27.600
 18  2 20  9 42  0.0000000  0  7G05G30G07G09G28G13G02
 109355694.531 8  85212305.37446  20809708.406                    20809711.289
      1390.305        1083.532          51.000          40.000
 107381022.980 9  83673529.06247  20433924.117                    20433928.453
       699.320         545.131          54.100          43.400
 109844526.001 8  85593198.42646  20902724.938                    20902727.578
     -1020.672        -795.168          49.900          37.900
 118496099.106 8  92334669.79146  22549062.750                    22549067.605
     -2798.602       -2180.732          51.000          36.300
 127203720.486 6                  24206065.320
      3225.789                          37.000
 122157524.276 7  95187730.18044  23245811.859                    23245815.363
      3011.719        2346.783          43.500          24.600
 120417374.001 7  93831738.98944  22914675.313                    22914676.082
     -2420.418       -1885.925          43.500          28.300
 18  2 20  9 42 30.0000000  0  7G05G30G07G09G28G13G02
 109314226.206 8  85179992.39146  20801817.555                    20801819.879
      1374.223        1071.065          51.600          40.600
 107360313.627 8  83657391.90047  20429983.391                    20429987.539
       681.309         531.136          53.000          43.900
 109875380.182 8  85617240.63346  20908596.086                    20908598.613
     -1036.238        -807.249          49.300          38.100
 118580140.307 8  92400156.40345  22565055.461                    22565059.961
     -2804.074       -2184.907          51.200          35.000
 127106981.026 6                  24187657.344
      3223.359                          38.000
 122067248.942 7  95117385.76544  23228633.391                    23228636.711
      3006.777        2342.977          43.300          25.800
 120490155.751 7  93888452.01644  22928524.852                    22928526.164
     -2431.668       -1894.636          42.800          28.100
 18  2 20  9 43  0.0000000  0  7G05G30G07G09G28G13G02
 109273238.722 8  85148054.08246  20794017.594                    20794020.301
      1358.441        1058.604          50.700          40.600
 107340143.588 8  83641674.98347  20426145.086                    20426149.512
       663.523         517.170          53.100          43.600
 109906698.991 8  85641644.89346  20914555.859                    20914558.781
     -1051.582        -819.264          49.900          38.900
 118664343.681 8  92465769.38845  22581078.633                    22581083.188
     -2809.297       -2189.095          50.500          34.400
 127010318.790 6                  24169262.633
      3220.934                          36.900
 121977121.741 7  95047156.77444  23211481.625                    23211485.992
      3001.914        2339.147          42.600          25.300
 120563273.561 7  93945426.91844  22942438.281                    22942439.680
     -2442.770       -1903.327          42.700          29.300
 18  2 20  9 43 30.0000000  0  7G05G30G07G09G28G13G02
 109232733.785 8  85116491.77846  20786309.484                    20786312.941
      1342.297        1046.064          49.300          40.800
 107320512.696 8  83626378.17547  20422409.445                    20422413.664
       645.543         503.192          52.000          43.800
 109938480.235 8  85666409.49546  20920603.680                    20920606.676
     -1066.895        -831.229          48.900          39.000
 118748708.035 8  92531507.83345  22597132.180                    22597137.273
     -2814.648       -2193.234          48.900          34.100
 126913737.000 5                  24150882.945
      3218.090                          35.800
 121887142.764 6  94977043.32044  23194359.664                    23194363.527
      2996.988        2335.284          41.300          24.900
 120636724.576 6  94002661.42644  22956414.945                    22956417.355
     -2453.707       -1911.916          41.400          29.700
 18  2 20  9 44  0.0000000  0  7G05G30G07G09G28G13G02
 109192713.249 8  85085306.94546  20778694.234                    20778696.871
      1325.941        1033.403          52.700          40.700
 107301421.258 9  83611501.72547  20418776.188                    20418780.551
       627.387         489.101          54.300          44.000
 109970723.329 8  85691533.97846  20926739.516                    20926742.555
     -1082.480        -843.288          51.400          39.500
 118833232.732 8  92597371.19945  22613216.828                    22613221.762
     -2820.156       -2197.469          49.900          34.000
 126817238.598 5                  24132520.305
      3215.195                          35.400
 121797313.422 7  94907046.42944  23177265.219                    23177269.332
      2991.855        2331.327          43.000          25.600
 120710506.044 7  94060153.45644  22970456.508                    22970457.598
     -2464.898       -1920.549          42.500          29.800
 18  2 20  9 44 30.0000000  0  7G05G30G07G09G28G13G02
 109153178.645 8  85054500.75646  20771171.164                    20771173.625
      1309.910        1020.802          52.000          41.100
 107282869.174 8  83597045.55347  20415245.664                    20415249.883
       609.563         475.121          53.900          44.100
 110003426.493 8  85717016.95146  20932963.047                    20932966.105
     -1097.613        -855.151          51.600          40.300
 118917916.676 8  92663358.65945  22629331.766                    22629337.023
     -2825.176       -2201.531          48.800          33.900
 126720825.874 6                  24114174.234
      3212.414                          36.900
 121707634.406 6  94837166.69544  23160200.555                    23160204.613
      2987.098        2327.470          41.900          25.900
 120784615.486 7  94117901.04444  22984558.773                    22984559.219
     -2475.594       -1928.979          43.500          29.700
 18  2 20  9 45  0.0000000  0  7G05G30G07G09G28G13G02
 109114131.218 8  85024074.18146  20763740.594                    20763742.680
      1293.457        1008.066          52.800          40.700
 107264856.478 9  83583009.69047  20411817.961                    20411822.770
       591.453         461.074          54.300          43.700
 110036588.281 8  85742857.29546  20939273.383                    20939276.660
     -1112.988        -867.112          52.300          40.700
 119002759.050 8  92729469.56145  22645476.555                    22645481.434
     -2830.656       -2205.691          48.300          32.800
 126624501.867 5                  24095843.102
      3209.375                          35.800
 121618106.419 7  94767404.62244  23143163.633                    23143167.496
      2981.879        2323.504          43.400          25.800
 120859050.151 7  94175902.06145  22998723.070                    22998724.188
     -2486.574       -1937.441          43.500          30.400
 18  2 20  9 45 30.0000000  0  7G05G30G07G09G28G13G02
 109075572.921 9  84994028.76246  20756403.477                    20756405.684
      1277.078         995.349          54.100          41.100
 107247383.243 9  83569394.17347  20408492.773                    20408497.879
       573.480         447.074          54.100          43.900
 110070207.862 8  85769054.35146  20945671.156                    20945674.211
     -1128.293        -878.987          52.500          40.200
 119087759.010 7  92795703.28545  22661651.305                    22661656.465
     -2835.918       -2209.766          47.600          33.400
 126528269.997 6                  24077532.055
      3206.051                          37.900
 121528730.406 7  94697761.00144  23126155.766                    23126159.738
      2976.648        2319.525          42.500          26.000
 120933807.322 7  94234154.35445  23012949.633                    23012950.234
     -2497.223       -1945.754          43.900          30.900
 18  2 20  9 46  0.0000000  0  7G05G30G07G09G28G13G02
 109037505.870 8  84964366.11846  20749159.492                    20749162.152
      1260.605         982.553          52.800          40.900
 107230449.770 8  83556199.25747  20405270.141                    20405275.070
       555.422         433.028          53.400          43.600
 110104283.357 8  85795606.65946  20952155.641                    20952158.016
     -1143.488        -890.813          52.800          40.400
 119172915.915 7  92862059.25945  22677856.164                    22677861.762
     -2841.312       -2213.861          46.000          33.200
 126432133.431 6                  24059237.945
      3202.949                          38.500
 121439506.890 7  94628236.19544  23109177.195                    23109180.723
      2971.434        2315.537          42.400          25.700
 121008884.462 7  94292655.99845  23027236.727                    23027236.770
     -2507.949       -1954.083          43.200          30.600
 18  2 20  9 46 30.0000000  0  7G05G30G07G09G28G13G02
 108999931.228 8  84935087.19146  20742009.469                    20742011.652
      1244.250         969.747          52.700          40.700
 107214055.831 8  83543424.76147  20402150.734                    20402155.605
       537.465         419.029          53.300          43.300
 110138813.449 8  85822513.21046  20958726.328                    20958728.992
     -1158.586        -902.601          53.200          40.700
 119258228.703 7  92928536.71545  22694091.125                    22694096.289
     -2846.336       -2217.874          46.300          33.700
 126336094.218 6  98443734.20353  24040961.844                    24040965.680
      3199.566                          37.900          20.600
 121350436.841 7  94558830.96144  23092227.656                    23092231.332
      2966.379        2311.532          42.800          26.500
 121084278.802 7  94351404.80345  23041583.570                    23041584.285
     -2518.336       -1962.249          44.500          30.400
 18  2 20  9 47  0.0000000  0  7G05G30G07G09G28G13G02
 108962850.870 8  84906193.40046  20734953.320                    20734956.074
      1227.746         956.969          52.200          41.100
 107198201.386 8  83531070.64747  20399133.680                    20399138.813
       519.504         405.082          52.700          43.700
 110173796.550 8  85849772.75346  20965383.508                    20965386.059
     -1173.641        -914.275          53.200          40.800
 119343696.461 7  92995134.92345  22710355.047                    22710360.227
     -2851.492       -2221.822          46.500          34.700
 126240155.718 6  98368976.93943  24022706.266                    24022708.625
      3196.086        2490.663          40.900          22.300
 121261521.459 7  94489546.26144  23075307.930                    23075310.984
      2961.254        2307.589          42.700          26.200
 121159987.579 7  94410398.61444  23055990.742                    23055990.543
     -2528.812       -1970.332          44.100          29.200
 18  2 20  9 47 30.0000000  0  7G05G30G07G09G28G13G02
 108926265.845 8  84877685.59446  20727991.391                    20727994.230
      1211.398         944.031          53.400          41.400
 107182886.405 8  83519136.89747  20396218.969                    20396224.563
       501.605         391.002          53.200          43.500
 110209231.478 8  85877384.37346  20972126.453                    20972129.148
     -1188.566        -926.050          53.400          40.900
 119429318.404 7  93061853.26545  22726648.000                    22726653.754
     -2856.508       -2225.883          46.600          35.000
 126144320.545 6  98294300.23443  24004467.273                    24004471.695
      3192.859        2487.878          39.000          20.900
 121172761.441 7  94420382.64444  23058416.914                    23058420.602
      2956.215        2303.488          43.400          26.000
 121236008.083 7  94469635.33145  23070456.945                    23070456.941
     -2539.031       -1978.446          45.200          30.400
 18  2 20  9 48  0.0000000  0  7G05G30G07G09G28G13G02
 108890177.832 8  84849565.06646  20721124.102                    20721126.465
      1194.453         931.048          52.400          40.300
 107168110.671 8  83507623.33947  20393407.484                    20393412.852
       483.469         376.971          53.500          43.900
 110245116.596 8  85905346.79346  20978955.117                    20978957.777
     -1203.770        -937.766          52.900          40.600
 119515093.488 7  93128690.95145  22742970.672                    22742976.629
     -2861.742       -2229.876          47.700          35.600
 126048591.798 6  98219706.50643  23986251.594                    23986254.789
      3189.031        2485.062          40.500          20.400
 121084157.312 7  94351340.47244  23041556.367                    23041559.652
      2950.793        2299.386          43.500          24.300
 121312337.675 7  94529112.90944  23084981.695                    23084982.113
     -2549.480       -1986.489          45.500          29.400
 18  2 20  9 48 30.0000000  0  7G05G30G07G09G28G13G02
 108854588.554 8  84821833.15546  20714351.352                    20714354.621
      1178.035         918.170          51.800          40.100
 107153874.302 8  83496530.07247  20390698.594                    20390704.145
       465.660         363.057          53.600          43.800
 110281450.660 8  85933659.04246  20985869.266                    20985872.047
     -1218.562        -949.334          53.200          40.300
 119601021.012 7  93195647.41046  22759322.164                    22759328.098
     -2866.703       -2233.736          47.300          36.200
 125952972.587 6  98145198.07643  23968055.086                    23968059.879
      3185.641        2482.267          39.800          21.500
 120995709.896 7  94282420.41044  23024725.781                    23024728.512
      2945.738        2295.391          43.600          25.100
 121388973.429 7  94588829.04044  23099564.758                    23099565.707
     -2559.559       -1994.317          44.700          28.900
 18  2 20  9 49  0.0000000  0  7G05G30G07G09G28G13G02
 108819499.804 8  84794491.27246  20707673.961                    20707676.660
      1161.320         905.096          51.700          39.700
 107140177.514 8  83485857.25347  20388091.945                    20388097.141
       447.609         349.000          53.800          44.500
 110318232.564 8  85962320.26446  20992868.719                    20992871.207
     -1233.512        -960.982          53.400          40.500
 119687100.477 8  93262722.27746  22775702.852                    22775708.051
     -2871.738       -2237.729          48.000          36.700
 125857465.843 6  98070777.31943  23949880.984                    23949886.164
      3181.586        2479.227          37.900          21.100
 120907420.583 7  94213623.55044  23007924.133                    23007927.250
      2940.383        2291.244          43.300          26.300
 121465913.211 7  94648782.07644  23114206.086                    23114206.406
     -2569.676       -2002.204          44.400          29.300
 18  2 20  9 49 30.0000000  0  7G05G30G07G09G28G13G02
 108784913.001 8  84767540.51046  20701092.445                    20701095.258
      1144.477         892.086          51.000          39.900
 107127019.743 9  83475604.44947  20385588.320                    20385593.613
       429.637         335.056          54.100          44.300
 110355460.017 8  85991328.68146  20999952.844                    20999954.777
     -1248.355        -972.476          52.500          40.300
 119773330.562 8  93329914.50446  22792111.867                    22792117.148
     -2876.840       -2241.587          48.500          36.400
 125762074.241 6  97996446.30943  23931728.945                    23931732.492
      3177.602        2476.284          38.300          20.400
 120819289.624 7  94144950.09344  22991153.219                    22991157.023
      2935.016        2287.184          43.000          25.600
 121543153.800 7  94708969.51644  23128904.719                    23128905.344
     -2579.602       -2009.954          46.100          27.500
 18  2 20  9 50  0.0000000  0  7G05G30G07G09G28G13G02
 108750829.660 8  84740982.05446  20694606.648                    20694609.086
      1127.563         878.955          51.700          39.900
 107114401.173 8  83465771.80247  20383187.492                    20383192.207
       411.512         320.993          53.600          44.600
 110393132.016 8  86020683.48346  21007121.375                    21007123.859
     -1263.207        -984.065          52.800          40.400
 119859710.709 8  93397223.65946  22808549.500                    22808555.039
     -2881.984       -2245.521          49.700          36.900
 125666800.836 6  97922207.32343  23913598.805                    23913602.262
      3173.727        2473.107          36.700          19.600
 120731318.206 7  94076400.97844  22974413.258                    22974416.676
      2929.535        2282.983          43.200          25.600
 121620692.411 7  94769389.17845  23143659.594                    23143660.727
     -2589.684       -2017.712          47.000          30.200
 18  2 20  9 50 30.0000000  0  7G05G30G07G09G28G13G02
 108717250.861 8  84714816.76746  20688217.039                    20688219.234
      1111.023         865.808          51.000          40.300
 107102321.081 9  83456358.74847  20380888.836                    20380893.660
       393.813         306.984          54.400          44.600
 110431246.577 8  86050383.14346  21014374.398                    21014377.285
     -1277.723        -995.548          52.500          40.000
 119946239.525 8  93464648.66946  22825015.492                    22825020.633
     -2886.625       -2249.379          49.300          36.900
 125571648.209 5  97848062.53643  23895489.875                    23895496.055
      3169.895        2469.969          34.400          18.600
 120643506.704 7  94007976.43444  22957703.445                    22957706.645
      2924.559        2278.776          44.400          25.800
 121698526.160 7  94830038.80144  23158471.406                    23158472.738
     -2599.195       -2025.347          46.300          29.000
 18  2 20  9 51  0.0000000  0  7G05G30G07G09G28G13G02
 108684178.408 8  84689046.01346  20681923.180                    20681926.051
      1093.953         852.623          48.700          39.200
 107090779.768 8  83447365.51547  20378692.508                    20378697.406
       375.762         292.972          52.000          44.300
 110469802.418 8  86080426.65846  21021711.539                    21021713.875
     -1292.496       -1007.013          49.300          39.500
 120032916.630 8  93532189.23446  22841509.680                    22841515.145
     -2891.734       -2253.240          49.100          36.300
 125476619.772 5  97774014.49543  23877407.820                    23877412.652
      3165.609        2466.636          35.400          19.300
 120555856.225 7  93939677.35844  22941023.977                    22941027.344
      2918.949        2274.570          44.100          26.000
 121776652.631 7  94890916.52345  23173338.398                    23173339.152
     -2609.066       -2032.948          45.800          30.000
 18  2 20  9 51 30.0000000  0  7G05G30G07G09G28G13G02
 108651613.814 8  84663671.01046  20675726.523                    20675728.809
      1077.152         839.448          51.500          40.100
 107079776.854 9  83438791.82447  20376598.711                    20376603.766
       357.941         279.015          54.900          44.700
 110508798.293 8  86110813.05446  21029132.070                    21029134.941
     -1307.043       -1018.391          51.900          40.000
 120119741.037 8  93599844.56645  22858032.313                    22858037.602
     -2896.453       -2257.019          50.000          35.200
 125381718.225 5  97700065.30242  23859347.406                    23859353.773
      3161.531        2463.403          33.400          17.400
 120468367.385 7  93871504.25744  22924375.047                    22924378.836
      2913.832        2270.404          43.900          26.200
 121855068.926 7  94952020.08944  23188260.555                    23188261.535
     -2618.523       -2040.397          46.100          29.400
 18  2 20  9 52  0.0000000  0  7G05G30G07G09G28G13G02
 108619558.514 8  84638692.84746  20669626.453                    20669628.840
      1060.102         826.207          49.100          40.100
 107069312.133 8  83430637.49747  20374607.414                    20374611.785
       339.848         265.065          52.200          44.600
 110548232.473 8  86141540.98546  21036635.781                    21036638.914
     -1321.719       -1029.734          49.900          39.600
 120206711.869 8  93667614.01445  22874582.313                    22874587.414
     -2901.465       -2260.813          49.500          35.500
 125286946.411 5  97626217.20642  23841313.445                    23841318.004
      3157.145        2459.963          33.700          16.900
 120381041.410 7  93803458.03844  22907757.609                    22907761.367
      2908.113        2266.143          43.700          25.900
 121933772.183 7  95013347.26945  23203237.422                    23203238.504
     -2628.215       -2047.820          44.500          30.400
 18  2 20  9 52 30.0000000  0  7G05G30G07G09G28G13G02
 108588013.671 8  84614112.44946  20663623.813                    20663626.746
      1042.969         812.949          50.000          40.100
 107059385.371 8  83422902.36047  20372718.406                    20372723.238
       321.898         251.100          52.700          44.900
 110588103.469 8  86172609.29546  21044223.133                    21044226.152
     -1336.258       -1041.054          50.700          39.800
 120293828.172 8  93735496.80245  22891159.781                    22891164.715
     -2906.305       -2264.559          48.100          34.700
 125192307.283 5  97552472.53442  23823304.016                    23823309.023
      3152.289        2456.417          34.900          17.800
 120293878.624 7  93735538.99744  22891171.352                    22891174.566
      2902.738        2261.920          44.500          26.400
 122012759.549 7  95074895.80745  23218267.695                    23218269.090
     -2637.617       -2055.149          45.300          30.200
 18  2 20  9 53  0.0000000  0  7G05G30G07G09G28G13G02
 108556980.596 8  84589930.83046  20657718.352                    20657721.207
      1025.789         799.656          49.700          40.600
 107049996.124 9  83415586.07447  20370931.383                    20370936.309
       303.996         237.181          54.400          44.700
 110628409.243 8  86204016.39146  21051893.242                    21051895.660
     -1350.715       -1052.305          53.100          39.700
 120381089.028 7  93803492.22945  22907765.125                    22907770.117
     -2911.102       -2268.252          47.400          33.900
 125097803.456 5  97478833.22542  23805320.484                    23805325.094
      3147.918        2453.004          35.700          17.400
 120206880.234 7  93667748.06244  22874616.367                    22874619.246
      2897.266        2257.692          44.500          26.400
 122092028.173 7  95136663.51044  23233352.422                    23233353.582
     -2646.863       -2062.368          44.100          29.900
 18  2 20  9 53 30.0000000  0  7G05G30G07G09G28G13G02
 108526461.433 8  84566149.66346  20651910.648                    20651913.227
      1008.547         786.246          50.500          40.800
 107041144.535 8  83408688.73347  20369247.008                    20369251.891
       285.996         223.176          52.700          44.600
 110669148.949 8  86235761.61546  21059645.734                    21059648.574
     -1365.391       -1063.613          52.000          40.200
 120468494.022 8  93871599.98345  22924397.766                    22924403.055
     -2916.004       -2272.039          48.100          34.200
 125003438.354 6  97405302.08042  23787363.898                    23787368.141
      3143.066        2449.292          37.800          17.400
 120120047.198 7  93600085.97044  22858091.719                    22858095.609
      2891.508        2253.316          44.400          26.400
 122171575.714 7  95198648.56144  23248489.844                    23248490.859
     -2656.387       -2069.629          44.500          29.800
 18  2 20  9 54  0.0000000  0  7G05G30G07G09G28G13G02
 108496457.138 8  84542769.68846  20646201.117                    20646203.656
       991.453         772.854          51.100          40.600
 107032830.070 8  83402209.94347  20367664.828                    20367669.645
       268.137         209.211          53.100          43.900
 110710320.693 8  86267843.48546  21067480.617                    21067483.586
     -1379.723       -1074.823          51.600          40.100
 120556041.984 8  93939819.13745  22941057.820                    22941062.688
     -2920.746       -2275.758          48.400          33.300
 124909214.495 6  97331880.94943  23769433.602                    23769438.227
      3138.273        2445.581          37.800          18.600
 120033379.943 7  93532553.02744  22841599.906                    22841603.246
      2886.113        2249.004          45.100          26.800
 122251399.086 7  95260848.54544  23263679.992                    23263680.535
     -2665.469       -2076.775          44.100          28.700
 18  2 20  9 54 30.0000000  0  7G05G30G07G09G28G13G02
 108466969.222 8  84519792.09446  20640590.125                    20640592.684
       974.246         759.405          51.900          40.900
 107025052.507 8  83396149.50247  20366184.508                    20366189.746
       250.234         195.260          53.600          44.000
 110751922.983 8  86300260.84746  21075397.148                    21075400.359
     -1393.984       -1085.993          53.500          39.700
 120643732.214 7  94008149.14545  22957744.094                    22957749.809
     -2925.500       -2279.472          47.800          33.100
 124815135.084 6  97258572.41043  23751531.789                    23751535.215
      3133.418        2441.750          38.800          19.600
 119946879.531 7  93465150.13544  22825139.070                    22825142.934
      2880.488        2244.646          43.000          27.400
 122331495.474 7  95323261.28244  23278921.656                    23278922.000
     -2674.465       -2083.839          44.500          28.200
 18  2 20  9 55  0.0000000  0  7G05G30G07G09G28G13G02
 108437999.088 8  84497217.96146  20635076.969                    20635079.699
       956.887         745.978          51.300          41.500
 107017811.533 8  83390507.19047  20364806.625                    20364812.047
       232.363         181.372          53.700          43.800
 110793954.052 8  86333012.31746  21083394.922                    21083398.137
     -1408.187       -1097.065          53.800          39.800
 120731563.808 8  94076589.32245  22974458.555                    22974463.371
     -2930.051       -2283.079          48.100          32.800
 124721202.931 6  97185378.59443  23733656.633                    23733660.527
      3128.449        2437.905          39.900          20.100
 119860546.849 7  93397877.94144  22808711.578                    22808713.891
      2874.898        2240.306          43.900          27.400
 122411862.156 7  95385884.62244  23294214.313                    23294215.164
     -2683.437       -2090.799          44.100          28.500
 18  2 20  9 55 30.0000000  0  8G05G30G07G09G28G13G20G02
 108409548.337 8  84475048.54346  20629663.000                    20629665.652
       939.480         732.376          51.500          41.400
 107011107.099 8  83385282.96147  20363530.969                    20363535.973
       214.367         167.353          53.200          43.900
 110836412.779 8  86366097.03646  21091474.914                    21091478.055
     -1422.605       -1108.238          53.900          39.600
 120819536.307 8  94145139.28345  22991198.906                    22991204.223
     -2934.926       -2286.821          48.000          33.200
 124627421.345 6  97112302.09243  23715811.258                    23715814.828
      3123.391        2433.914          40.500          21.100
 119774382.861 7  93330737.17744  22792314.672                    22792317.148
      2869.184        2235.861          44.100          27.500
 128389051.444 6 100043468.67243  24431632.648                    24431635.984
      3555.707        2770.844          40.400          19.000
 122492496.484 7  95448716.52144  23309559.078                    23309559.488
     -2692.410       -2097.808          44.300          27.900
 18  2 20  9 56  0.0000000  0  8G05G30G07G09G28G13G20G02
 108381618.237 8  84453284.83046  20624348.336                    20624351.129
       922.371         718.951          52.500          41.400
 107004938.874 8  83380476.55747  20362357.227                    20362362.270
       196.758         153.525          53.000          44.100
 110879297.340 8  86399513.56546  21099635.305                    21099638.484
     -1436.523       -1119.190          53.800          40.000
 120907648.846 7  94213798.35145  23007965.844                    23007971.172
     -2939.375       -2290.358          46.800          33.700
 124533793.057 6  97039345.05143  23697994.180                    23697997.621
      3118.484        2430.003          40.500          21.500
 119688388.817 7  93263728.84444  22775950.664                    22775953.227
      2863.691        2231.510          45.200          28.200
 128282443.737 6  99960397.65943  24411342.977                    24411350.027
      3551.375        2767.329          36.800          19.600
 122573395.718 7  95511754.86144  23324954.078                    23324953.781
     -2700.949       -2104.538          44.100          27.800
 18  2 20  9 56 30.0000000  0  8G05G30G07G09G28G13G20G02
 108354210.418 8  84431928.09346  20619132.438                    20619135.133
       904.879         705.307          52.100          41.200
 106999306.511 8  83376087.70247  20361285.461                    20361290.629
       178.926         139.576          52.600          43.900
 110922606.438 8  86433260.88146  21107877.070                    21107879.840
     -1450.645       -1130.226          53.000          39.900
 120995900.632 7  94282565.93945  23024759.758                    23024765.184
     -2943.945       -2294.000          47.300          33.900
 124440321.199 6  96966509.90743  23680207.133                    23680209.750
      3113.145        2425.852          40.900          22.000
 119602565.167 7  93196853.29644  22759619.516                    22759621.504
      2857.883        2227.021          44.900          28.400
 128175973.846 6                  24391082.422
      3547.070                          36.700
 122654556.933 7  95574997.32344  23340397.922                    23340397.902
     -2709.598       -2111.352          43.900          27.700
 18  2 20  9 57  0.0000000  0  8G05G30G07G09G28G13G20G02
 108327325.536 8  84410978.84046  20614016.469                    20614019.148
       887.359         691.693          52.500          41.300
 106994209.237 8  83372115.80847  20360315.453                    20360320.793
       160.922         125.642          52.800          44.100
 110966338.170 8  86467337.55846  21116198.719                    21116201.867
     -1464.793       -1141.209          52.300          40.000
 121084290.434 7  94351441.07745  23041579.539                    23041584.941
     -2948.699       -2297.605          47.300          33.100
 124347008.254 7  96893798.59643  23662450.234                    23662452.355
      3107.844        2421.678          42.500          22.500
 119516912.427 7  93130110.91844  22743319.984                    22743322.074
      2852.199        2222.560          45.500          28.700
 128069643.941 6  99794579.67242  24370848.945                    24370853.965
      3541.801        2760.029          38.500          17.800
 122735977.127 7  95638441.60044  23355891.586                    23355891.766
     -2718.387       -2118.067          43.800          27.300
 18  2 20  9 57 30.0000000  0  8G05G30G07G09G28G13G20G02
 108300965.169 8  84390438.29446  20609000.617                    20609002.902
       870.008         678.064          51.600          40.900
 106989646.655 8  83368560.55547  20359447.133                    20359452.086
       143.285         111.783          52.300          43.800
 111010491.056 8  86501742.38846  21124600.859                    21124604.098
     -1478.648       -1152.112          53.100          39.600
 121172817.480 7  94420423.14345  23058426.086                    23058431.531
     -2953.121       -2301.133          47.800          33.400
 124253857.095 7  96821213.33644  23644724.344                    23644726.695
      3102.320        2417.419          42.100          24.000
 119431431.466 7  93063502.39844  22727053.039                    22727055.785
      2846.492        2218.090          45.500          28.300
 127963455.992 5                  24350641.109
      3537.316                          35.900
 122817653.495 7  95702085.47544  23371434.109                    23371433.688
     -2726.660       -2124.670          43.900          26.500
 18  2 20  9 58  0.0000000  0  8G05G30G07G09G28G13G20G02
 108275130.652 8  84370307.50646  20604084.297                    20604086.820
       852.324         664.423          51.600          41.100
 106985618.507 8  83365421.73547  20358680.344                    20358685.422
       125.320          97.919          52.700          44.200
 111055062.971 8  86536473.75146  21133082.492                    21133085.668
     -1492.773       -1162.958          52.500          40.800
 121261481.091 7  94489511.62045  23075298.531                    23075303.180
     -2957.734       -2304.646          47.800          33.900
 124160870.922 7  96748756.64144  23627029.148                    23627032.332
      3096.664        2413.147          42.400          26.000
 119346123.377 7  92997028.58544  22710820.023                    22710822.086
      2840.613        2213.612          47.000          29.400
 127857412.907 6  99629204.83643  24330463.711                    24330465.855
      3532.098        2752.536          38.800          18.300
 122899582.973 7  95765926.57844  23387024.750                    23387025.234
     -2735.207       -2131.192          44.300          26.900
 18  2 20  9 58 30.0000000  0  8G05G30G07G09G28G13G20G02
 108249823.245 8  84350587.44346  20599268.234                    20599271.000
       834.852         650.692          52.000          40.900
 106982124.173 8  83362698.88047  20358015.313                    20358020.758
       107.664          84.039          53.100          43.900
 111100052.518 8  86571530.54646  21141643.883                    21141647.047
     -1506.605       -1173.820          52.500          40.100
 121350280.235 8  94558705.73245  23092196.664                    23092201.078
     -2962.191       -2308.192          48.800          33.700
 124068052.434 7  96676430.65743  23609366.141                    23609370.168
      3091.285        2408.717          43.000          23.900
 119260988.457 7  92930689.70044  22694619.109                    22694621.719
      2835.020        2209.091          47.300          29.400
 127751516.284 5  99546687.97743  24310310.664                    24310314.746
      3527.422        2748.701          34.800          18.600
 122981763.109 7  95829962.99244  23402663.328                    23402663.262
     -2743.422       -2137.695          45.300          26.600
 18  2 20  9 59  0.0000000  0  8G05G30G07G09G28G13G20G02
 108225043.885 8  84331278.85746  20594552.672                    20594555.488
       817.145         636.953          51.300          40.400
 106979163.050 8  83360391.51047  20357452.008                    20357457.113
        89.797          70.195          52.800          44.300
 111145458.122 8  86606911.55646  21150284.672                    21150287.453
     -1520.422       -1184.595          52.600          40.300
 121439214.027 8  94628004.75845  23109120.328                    23109124.324
     -2966.691       -2311.664          48.400          34.700
 123975404.405 7  96604237.46043  23591735.516                    23591739.559
      3085.379        2404.231          42.600          23.600
 119176028.175 7  92864486.91545  22678452.250                    22678454.059
      2829.090        2204.521          47.200          30.000
 127645768.723 6  99464287.37243  24290189.406                    24290191.965
      3522.496        2744.765          37.400          18.600
 123064190.473 7  95894192.06044  23418348.602                    23418349.121
     -2751.773       -2144.075          45.900          25.500
 18  2 20  9 59 30.0000000  0  8G05G30G07G09G28G13G20G02
 108200794.096 8  84312382.91546  20589938.398                    20589940.984
       799.484         623.244          51.300          40.400
 106976734.903 8  83358499.45047  20356989.992                    20356995.441
        72.055          56.410          51.600          44.100
 111191277.939 8  86642615.28846  21159003.984                    21159006.453
     -1534.254       -1195.287          52.200          39.400
 121528281.860 8  94697408.22945  23126069.922                    23126073.723
     -2971.156       -2315.099          48.900          34.600
 123882929.905 7  96532179.48444  23574137.781                    23574142.188
      3079.668        2399.761          42.600          25.100
 119091243.457 7  92798420.91144  22662318.102                    22662320.316
      2823.199        2200.025          46.800          29.600
 127540172.972 6  99382004.89343  24270094.977                    24270098.801
      3517.277        2740.854          38.000          20.900
 123146862.441 7  95958611.73844  23434080.695                    23434081.438
     -2759.863       -2150.344          43.600          25.200
                            4  1
RINEX FILE SPLICE; other post-header comments skipped       COMMENT
 18  2 20 10  0  0.0000000  0  8G05G30G07G09G28G13G20G02
 108177075.219 8  84293900.66946  20585424.547                    20585427.379
       781.918                          51.300          40.700
 106974839.186 8  83357022.27047  20356629.227                    20356634.047
        54.453                          53.200          43.800
 111237510.410 8  86678640.59646  21167801.328                    21167804.336
     -1547.789                          51.700          39.500
 121617482.794 8  94766915.42245  23143043.836                    23143048.395
     -2975.473                          49.500          34.400
 123790631.974 6  96460259.08343  23556574.148                    23556578.039
      3073.723                          41.100          22.800
 119006634.676 7  92732491.99344  22646217.641                    22646219.648
      2817.523                          46.400          29.400
 127434730.810 6  99299842.26243  24250029.047                    24250034.031
      3512.285                          36.200          19.300
 123229776.529 7  96023220.03244  23449858.180                    23449860.355
     -2767.629                          43.500          25.400
 18  2 20 10  0 30.0000000  0  8G05G30G07G09G28G13G20G02
 108153888.262 8  84275832.90446  20581012.344                    20581015.355
       763.781         595.544          51.700          41.100
 106973475.375 8  83355959.56447  20356370.055                    20356374.758
        36.398          28.711          52.600          43.700
 111284153.715 8  86714986.02346  21176677.398                    21176680.020
     -1561.789       -1216.698          52.100          39.200
 121706816.081 8  94836525.74845  23160043.031                    23160047.953
     -2980.246       -2322.042          49.500          34.200
 123698513.319 6  96388478.38944  23539044.609                    23539047.742
      3067.434        2390.364          41.700          25.800
 118922202.967 7  92666701.07444  22630150.383                    22630153.098
      2811.262        2190.765          46.700          29.300
 127329444.860 6  99217801.28443  24229994.383                    24229998.617
      3506.688        2732.637          37.800          19.600
 123312929.392 7  96088014.40444  23465681.695                    23465684.297
     -2775.961       -2162.817          44.100          26.900
 18  2 20 10  1  0.0000000  0  8G05G30G07G09G28G13G20G02
 108131234.289 8  84258180.45646  20576701.648                    20576704.367
       746.305         581.710          51.000          40.800
 106972642.856 8  83355310.84947  20356211.242                    20356216.672
        18.832          14.951          52.600          43.000
 111331206.435 8  86751650.49146  21185631.523                    21185633.996
     -1575.254       -1227.283          51.700          39.400
 121796280.830 8  94906238.49645  23177067.859                    23177072.879
     -2984.398       -2325.410          48.900          34.400
 123606576.722 6  96316839.56043  23521550.000                    23521552.465
      3061.504        2385.660          41.100          22.500
 118837949.153 7  92601048.76244  22614117.867                    22614120.023
      2805.504        2186.163          45.300          29.600
 127224317.349 6  99135883.71443  24209990.531                    24209992.613
      3501.473        2728.574          39.800          19.000
 123396318.354 7  96152992.78544  23481549.992                    23481553.203
     -2783.535       -2168.900          43.500          25.800
 18  2 20 10  1 30.0000000  0  8G05G30G07G09G28G13G20G02
 108109114.444 8  84240944.20446  20572492.180                    20572494.953
       728.496         567.842          50.900          40.900
 106972341.150 8  83355075.75247  20356153.867                    20356159.129
         1.273           1.194          53.300          43.900
 111378666.683 8  86788632.50946  21194662.414                    21194665.770
     -1588.691       -1237.822          52.000          39.700
 121885876.252 8  94976053.06545  23194116.930                    23194122.594
     -2988.629       -2328.761          48.400          33.200
 123514825.160 6  96245344.87744  23504090.266                    23504093.719
      3055.359        2380.838          40.900          25.300
 118753873.562 7  92535535.33145  22598118.133                    22598120.891
      2799.613        2181.545          44.300          30.400
 127119350.685 6  99054091.47843  24190015.039                    24190017.887
      3496.289        2724.426          39.200          19.600
 123479940.474 7  96218152.81344  23497463.180                    23497466.527
     -2791.230       -2174.889          43.400          24.500
 18  2 20 10  2  0.0000000  0  8G05G30G07G09G28G13G20G02
 108087530.496 8  84224125.55146  20568385.203                    20568387.574
       710.359         553.861          51.600          40.800
 106972569.947 8  83355254.04347  20356197.195                    20356202.781
       -16.621         -12.645          53.200          44.000
 111426533.252 8  86825931.13746  21203771.625                    21203774.523
     -1602.480       -1248.412          51.700          39.200
 121975601.805 7  95045969.03745  23211190.977                    23211196.699
     -2993.156       -2332.171          47.400          33.500
 123423261.867 6  96173996.91943  23486666.336                    23486669.398
      3048.707        2375.834          40.500          23.000
 118669977.976 7  92470162.15844  22582153.688                    22582156.164
      2793.316        2176.796          45.800          29.900
 127014547.574 6  98972426.77243  24170071.773                    24170074.402
      3490.664        2720.041          38.400          20.100
 123563793.108 7  96283492.47444  23513420.055                    23513422.914
     -2798.961       -2180.868          44.200          26.000
 18  2 20 10  2 30.0000000  0  8G05G30G07G09G28G13G20G02
 108066483.368 8  84207725.18946  20564379.930                    20564382.680
       692.617         539.985          52.000          41.000
 106973328.446 8  83355845.08147  20356341.844                    20356346.992
       -34.211         -26.290          52.900          44.100
 111474804.015 8  86863544.72046  21212957.031                    21212959.980
     -1615.723       -1258.788          52.400          39.500
 122065456.465 7  95115985.61945  23228289.844                    23228295.719
     -2997.254       -2335.446          46.700          32.600
 123331889.060 6  96102797.38543  23469278.313                    23469281.848
      3042.469        2370.984          40.800          22.500
 118586262.883 7  92404929.63445  22566222.797                    22566225.676
      2787.566        2172.215          44.700          30.000
 126909910.176 6  98890891.12043  24150161.203                    24150162.875
      3485.176        2715.816          40.000          20.100
 123647873.155 7  96349009.30044  23529419.242                    23529422.551
     -2806.371       -2186.651          43.300          26.200
 18  2 20 10  3  0.0000000  0  8G05G30G07G09G28G13G20G02
 108045974.338 8  84191744.12646  20560477.453                    20560480.035
       674.605         525.940          52.000          41.600
 106974616.208 8  83356848.53547  20356586.750                    20356592.461
       -51.734         -40.089          51.900          43.700
 111523477.596 8  86901472.18246  21222219.555                    21222221.777
     -1629.223       -1269.301          52.100          39.800
 122155439.608 7  95186102.29545  23245412.922                    23245418.809
     -3001.664       -2338.823          45.200          31.600
 123240710.569 6  96031749.26543  23451927.672                    23451931.246
      3035.980        2365.806          40.900          22.200
 118502729.293 7  92339838.53744  22550326.789                    22550329.652
      2781.270        2167.412          44.500          29.500
 126805440.934 6  98809486.51643  24130280.961                    24130282.902
      3479.449        2711.357          40.800          18.600
 123732178.199 7  96414701.49043  23545462.625                    23545464.379
     -2814.000       -2192.552          43.900          23.400
 18  2 20 10  3 30.0000000  0  8G05G30G07G09G28G13G20G02
 108026004.532 8  84176183.23746  20556677.125                    20556679.836
       656.750         511.859          52.400          40.700
 106976432.643 8  83358263.93847  20356932.586                    20356937.902
       -69.285         -53.872          51.600          43.600
 111572552.219 8  86939712.14946  21231557.875                    21231560.898
     -1642.430       -1279.744          51.400          40.100
 122245550.388 7  95256318.42445  23262560.516                    23262566.242
     -3005.723       -2342.198          44.900          32.700
 123149729.172 6  95960854.68143  23434614.406                    23434617.137
      3029.512        2360.599          41.000          22.300
 118419378.058 7  92274889.52244  22534465.352                    22534468.590
      2775.438        2162.624          43.700          29.900
 126701142.139 6  98728214.74943  24110433.180                    24110434.609
      3473.820        2706.857          40.200          19.300
 123816705.029 7  96480566.49243  23561547.922                    23561549.809
     -2821.145       -2198.331          43.800          22.800
 18  2 20 10  4  0.0000000  0  8G05G30G07G09G28G13G20G02
 108006574.847 8  84161043.22746  20552980.063                    20552982.242
       638.605         497.868          52.500          41.600
 106978777.098 8  83360090.79247  20357378.789                    20357383.719
       -86.992         -67.526          52.500          43.900
 111622025.909 8  86978263.07646  21240972.258                    21240974.715
     -1655.793       -1290.040          52.500          40.300
 122335787.998 7  95326633.37645  23279732.898                    23279737.875
     -3010.164       -2345.434          45.000          31.800
 123058947.323 6  95890115.61143  23417338.836                    23417341.949
      3022.598        2355.415          40.600          21.500
 118336209.928 7  92210083.20244  22518638.828                    22518642.418
      2769.070        2157.899          45.900          29.100
 126597016.400 7  98647077.80643  24090619.563                    24090619.754
      3467.914        2702.370          42.200          20.600
 123901450.839 7  96546602.11144  23577674.922                    23577676.289
     -2828.426       -2203.918          43.800          24.000
 18  2 20 10  4 30.0000000  0  8G05G30G07G09G28G13G20G02
 107987686.219 8  84146324.81346  20549385.227                    20549388.035
       620.723         483.795          53.000          41.600
 106981648.708 8  83362328.41047  20357924.984                    20357930.188
      -104.246         -81.214          52.100          43.600
 111671897.552 8  87017124.08646  21250462.742                    21250465.273
     -1668.812       -1300.381          53.300          40.100
 122426151.430 7  95397046.40345  23296927.680                    23296933.762
     -3013.953       -2348.685          45.700          31.100
 122968368.093 6  95819534.39343  23400102.664                    23400105.426
      3016.145        2350.128          41.800          22.600
 118253225.543 7  92145420.07144  22502847.688                    22502850.801
      2763.301        2153.113          45.400          29.400
 126493065.678 6  98566077.26343  24070836.500                    24070839.738
      3462.266        2697.780          39.700          19.600
 123986412.564 7  96612806.00244  23593842.930                    23593843.043
     -2835.352       -2209.505          44.500          25.800
 18  2 20 10  5  0.0000000  0  8G05G30G07G09G28G13G20G02
 107969339.789 8  84132028.89046  20545894.023                    20545896.559
       602.711         469.776          52.500          41.500
 106985046.975 8  83364976.41347  20358571.852                    20358576.891
      -121.859         -94.823          52.500          43.700
 111722165.445 8  87056293.86946  21260028.227                    21260031.168
     -1681.977       -1310.534          53.200          40.000
 122516640.037 7  95467556.94145  23314147.875                    23314152.875
     -3018.133       -2351.850          46.000          30.800
 122877994.247 6  95749113.23043  23382904.727                    23382908.199
      3009.293        2344.797          41.500          22.300
 118170425.960 7  92080900.93244  22487091.594                    22487094.863
      2757.047        2148.365          45.600          29.300
 126389292.785 6  98485215.32843  24051090.430                    24051091.492
      3456.309        2693.198          41.600          21.100
 124071587.292 7  96679175.89143  23610050.758                    23610050.645
     -2842.402       -2214.934          43.900          22.500
 18  2 20 10  5 30.0000000  0  8G05G30G07G09G28G13G20G02
 107951536.364 8  84118156.09946  20542506.273                    20542508.934
       584.332         455.582          52.100          41.100
 106988971.079 8  83368034.16447  20359318.313                    20359323.438
      -139.582        -108.538          52.600          43.900
 111772826.718 8  87095770.18146  21269668.945                    21269671.316
     -1695.301       -1320.830          53.000          40.300
 122607252.904 7  95538164.32645  23331390.930                    23331395.852
     -3022.535       -2355.150          46.200          30.800
 122787828.702 7  95678854.35343  23365747.547                    23365750.625
      3002.020        2339.321          43.000          21.800
 118087811.997 7  92016526.41844  22471370.523                    22471373.746
      2750.699        2143.457          45.500          29.800
 126285699.959 6  98404493.61143  24031377.203                    24031379.098
      3450.090        2688.452          41.900          21.300
 124156972.122 7  96745709.48043  23626299.234                    23626298.590
     -2849.559       -2220.413          43.000          23.300
 18  2 20 10  6  0.0000000  0  8G05G30G07G09G28G13G20G02
 107934277.642 8  84104707.73946  20539222.352                    20539224.656
       566.156         441.414          52.500          41.200
 106993420.566 8  83371501.29847  20360165.070                    20360170.156
      -157.066        -122.177          51.200          43.700
 111823880.441 8  87135552.28846  21279384.094                    21279386.387
     -1708.352       -1330.996          53.000          40.000
 122697989.436 7  95608868.08644  23348657.258                    23348662.508
     -3026.695       -2358.370          47.400          28.900
 122697874.588 7  95608760.27043  23348629.070                    23348632.469
      2994.785        2333.751          42.200          22.300
 118005384.413 7  91952297.14645  22455685.250                    22455688.652
      2744.465        2138.600          45.800          30.200
 126182289.347 6  98323913.93443  24011698.414                    24011700.563
      3443.910        2683.657          40.100          20.100
 124242564.569 7  96812404.84943  23642587.938                    23642586.699
     -2856.437       -2225.764          43.900          23.600
 18  2 20 10  6 30.0000000  0  8G05G30G07G09G28G13G20G02
 107917564.465 8  84091684.47646  20536041.336                    20536044.578
       547.941         427.251          52.200          40.800
 106998394.603 8  83375377.17447  20361112.102                    20361116.750
      -174.602        -135.774          53.100          44.300
 111875324.817 8  87175638.79246  21289173.469                    21289176.195
     -1721.441       -1341.099          53.300          40.000
 122788848.791 7  95679667.52944  23365947.094                    23365952.133
     -3030.789       -2361.517          46.800          28.400
 122608134.672 7  95538833.04243  23331551.500                    23331555.207
      2987.719        2328.212          43.400          22.300
 117923144.725 7  91888214.28345  22440035.773                    22440039.004
      2738.176        2133.731          46.200          31.100
 126079063.888 6  98243478.53343  23992056.180                    23992058.539
      3437.684        2678.825          41.600          22.000
 124328361.212 7  96879259.32943  23658913.227                    23658912.754
     -2863.344       -2231.023          42.300          22.600
 18  2 20 10  7  0.0000000  0  8G05G30G07G09G28G13G20G02
 107901397.749 8  84079087.03546  20532964.844                    20532967.801
       530.082         413.035          51.200          40.600
 107003892.541 8  83379661.28647  20362157.953                    20362162.895
      -191.738        -149.386          53.500          44.300
 111927158.046 8  87216028.31546  21299037.078                    21299039.824
     -1734.000       -1351.186          53.000          39.900
 122879830.163 7  95750562.06944  23383260.523                    23383265.887
     -3034.492       -2364.687          47.800          29.600
 122518611.826 7  95469075.00143  23314515.797                    23314520.227
      2980.746        2322.527          42.500          22.600
 117841093.373 7  91824278.16945  22424421.766                    22424425.027
      2732.203        2128.826          45.700          30.500
 125976025.828 6  98163189.15543  23972447.078                    23972450.656
      3431.715        2673.935          41.400          22.200
 124414359.446 7  96946270.88943  23675278.422                    23675277.785
     -2869.727       -2236.276          42.000          22.300
 18  2 20 10  7 30.0000000  0  8G05G30G07G09G28G13G20G02
 107885778.337 8  84066916.05946  20529992.742                    20529995.355
       511.520         398.851          51.700          41.000
 107009913.515 8  83384352.95647  20363303.750                    20363308.887
      -209.402        -162.923          53.700          44.100
 111979378.450 8  87256719.51746  21308974.414                    21308976.961
     -1747.125       -1361.193          52.200          39.600
 122970932.697 7  95821551.03944  23400596.844                    23400601.961
     -3038.785       -2367.799          47.000          28.300
 122429308.667 7  95399488.18943  23297523.320                    23297525.340
      2973.023        2316.801          43.800          22.200
 117759231.078 7  91760489.39445  22408843.844                    22408847.242
      2725.582        2123.931          45.800          31.000
 125873177.455 6  98083047.58343  23952874.992                    23952879.258
      3425.180        2669.033          39.500          22.000
 124500556.371 6  97013437.28043  23691681.141                    23691680.570
     -2876.605       -2241.320          41.400          22.800
 18  2 20 10  8  0.0000000  0  8G05G30G07G09G28G13G20G02
 107870707.541 8  84055172.57746  20527124.727                    20527127.781
       493.180         384.589          52.100          41.200
 107016456.961 8  83389451.75047  20364548.914                    20364554.070
      -226.887        -176.479          53.400          44.100
 112031984.533 8  87297711.25346  21318984.383                    21318987.773
     -1760.000       -1371.187          51.800          38.900
 123062155.805 7  95892633.96544  23417955.727                    23417961.063
     -3042.719       -2370.910          46.100          26.800
 122340228.460 7  95330075.05643  23280571.039                    23280574.633
      2965.602        2310.980          44.100          23.500
 117677558.991 7  91696848.81445  22393302.523                    22393305.742
      2719.117        2118.985          46.000          31.100
 125770521.385 6  98003055.86843  23933341.688                    23933344.582
      3418.605        2663.994          41.000          21.800
 124586948.926 6  97080756.09243  23708120.570                    23708120.633
     -2882.977       -2246.377          41.700          22.900
 18  2 20 10  8 30.0000000  0  8G05G30G07G09G28G13G20G02
 107856186.143 8  84043857.20046  20524361.695                    20524364.438
       474.945         370.309          51.400          41.100
 107023522.044 8  83394957.01047  20365893.375                    20365898.398
      -244.059        -190.012          53.700          44.300
 112084974.350 8  87339001.99846  21329068.148                    21329071.328
     -1772.551       -1381.115          51.400          38.300
 123153498.619 7  95963810.15244  23435338.125                    23435343.281
     -3046.652       -2373.990          46.200          27.200
 122251373.971 7  95260837.86144  23263663.008                    23263666.102
      2958.234        2305.087          43.900          25.200
 117596077.991 7  91633357.14345  22377797.961                    22377800.531
      2712.977        2114.037          47.300          31.600
 125668060.029 6  97923215.84843  23913843.414                    23913847.375
      3412.223        2658.943          40.300          22.200
 124673534.185 7  97148225.04843  23724598.156                    23724597.453
     -2889.266       -2251.320          42.000          22.500
 18  2 20 10  9  0.0000000  0  8G05G30G07G09G28G13G20G02
 107842215.066 8  84032970.64646  20521702.844                    20521706.012
       456.457         355.945          51.500          41.000
 107031107.854 8  83400868.03747  20367336.844                    20367342.016
      -261.609        -203.580          53.400          44.200
 112138346.387 8  87380590.58446  21339224.383                    21339227.605
     -1785.586       -1391.090          51.300          38.600
 123244960.247 7  96035078.92444  23452742.008                    23452747.949
     -3050.797       -2377.143          46.300          29.100
 122162748.183 7  95191778.86144  23246798.742                    23246801.449
      2950.199        2299.064          44.800          26.500
 117514788.894 7  91570014.99645  22362328.492                    22362331.813
      2706.340        2108.968          47.600          31.900
 125565795.683 6  97843529.40543  23894383.164                    23894386.707
      3405.406        2653.660          39.500          21.700
 124760309.436 6  97215842.10943  23741110.461                    23741110.824
     -2895.609       -2256.289          40.900          22.600
