     2.11           OBSERVATION DATA    G (GPS)             RINEX VERSION / TYPE
teqc  2016Nov7                          20180328 12:23:34UTCPGM / RUN BY / DATE
Linux 2.4.21-27.ELsmp|Opteron|gcc|Linux x86_64|=+           COMMENT
teqc  2016Nov7                          20180328 12:23:33UTCCOMMENT
     2.11           OBSERVATION DATA    M (MIXED)           COMMENT
teqc  2016Nov7                          20180328 12:23:31UTCCOMMENT
teqc  2016Nov7      IGN-RGP             20180220 09:16:04UTCCOMMENT
teqc  2015Jun23     IGN-RGP             20180220 09:07:41UTCCOMMENT
Linux2.4.20-8|i386|gcc|Win32-MinGW32|=                      COMMENT
   0.000      (antenna height)                              COMMENT
 +49.07477154 (latitude)                                    COMMENT
  +2.34336339 (longitude)                                   COMMENT
0197.266      (elevation)                                   COMMENT
BIT 2 OF LLI FLAGS DATA COLLECTED UNDER A/S CONDITION       COMMENT
19692M001 (COGO code)                                       COMMENT
SXJ5                                                        MARKER NAME
19692M001                                                   MARKER NUMBER
Automatic           GIE COOP&TECH                           OBSERVER / AGENCY
5106K73699          TRIMBLE NETR5       4.41                REC # / TYPE / VERS
1441027413          TRM57971.00     NONE                    ANT # / TYPE
  4182784.0690   171168.8390  4796159.0770                  APPROX POSITION XYZ
        1.0000        0.0000        0.0000                  ANTENNA: DELTA H/E/N
     1     1                                                WAVELENGTH FACT L1/2
     9    L1    L2    C1    P1    P2    D1    D2    S1    S2# / TYPES OF OBSERV
    30.0000                                                 INTERVAL
    18                                                      LEAP SECONDS
 SNR is mapped to RINEX snr flag value [0-9]                COMMENT
  L1 & L2: min(max(int(snr_dBHz/6), 0), 9)                  COMMENT
teqc_2016 edited: GLONASS # 25 - 30 excluded                COMMENT
Forced Modulo Decimation to 30 seconds                      COMMENT
teqc_2016 edited: all GLONASS satellites excluded           COMMENT
teqc_2016 edited: all SBAS satellites excluded              COMMENT
teqc_2016 edited: all Galileo satellites excluded           COMMENT
  2018     2    20     8     0    0.0000000     GPS         TIME OF FIRST OBS
                                                            END OF HEADER
 18  2 20  8  0  0.0000000  0  8G07G05G23G09G16G30G06G02
 114420611.889 8  89158963.80446  21773522.148                    21773526.586
      2396.305                          50.500          39.200
 125170002.551 7  97535096.40044  23819063.922                    23819067.086
      3339.066                          43.000          24.700
 118409200.930 8  92266958.62545  22532529.625                    22532531.164
     -2464.590                          48.400          33.800
 106462856.063 8  82958142.03747  20259214.188                    20259219.895
      -932.082                          52.700          46.100
 127792690.734 6  99578775.95043  24318150.031                    24318153.691
      1048.789                          40.800          20.400
 121742591.197 8  94864427.31345  23166854.953                    23166861.969
      3545.105                          48.000          35.300
 111206293.658 8  86654315.57747  21161863.828                    21161869.871
     -1751.187                          50.400          43.000
 115449731.970 7  89960848.19846  21969360.289                    21969361.918
      1014.586                          46.600          36.400
 18  2 20  8  0 30.0000000  0  8G07G05G23G09G16G30G06G02
 114348927.028 8  89103105.46646  21759881.148                    21759885.637
      2382.758        1856.877          49.900          39.100
 125069879.687 7  97457078.57644  23800011.172                    23800014.281
      3335.883        2599.441          42.300          25.300
 118483230.829 7  92324644.22745  22546616.641                    22546618.770
     -2470.719       -1925.138          47.300          34.200
 106491012.353 8  82980082.00747  20264571.602                    20264577.840
      -944.977        -736.132          52.200          45.500
 127761508.483 6  99554478.07443  24312217.773                    24312219.895
      1030.066         802.927          40.400          22.200
 121636338.853 7  94781633.29945  23146635.438                    23146643.055
      3538.434        2757.335          46.900          34.800
 111259095.750 8  86695460.07547  21171911.422                    21171918.184
     -1768.910       -1378.132          51.700          43.200
 115419556.327 7  89937334.70346  21963618.031                    21963619.816
       997.094         777.248          45.400          36.700
 18  2 20  8  1  0.0000000  0  8G07G05G23G09G16G30G06G02
 114277649.383 8  89047564.45746  21746317.172                    21746321.906
      2369.223        1846.271          50.400          38.800
 124969852.503 7  97379135.31044  23780976.633                    23780980.289
      3332.715        2596.942          44.300          26.700
 118557446.096 7  92382474.26245  22560739.852                    22560741.277
     -2476.773       -1929.942          47.000          33.400
 106519555.052 8  83002323.06347  20270003.273                    20270009.293
      -957.758        -746.176          51.700          45.500
 127730887.190 6  99530617.31543  24306389.484                    24306393.527
      1011.711         788.351          38.300          21.100
 121530287.023 7  94698995.52145  23126454.844                    23126461.820
      3531.797        2752.101          47.200          34.600
 111312429.657 8  86737018.97347  21182059.102                    21182067.227
     -1786.543       -1391.930          49.900          42.600
 115389904.646 7  89914229.49346  21957976.055                    21957977.098
       979.734         763.608          46.300          36.300
 18  2 20  8  1 30.0000000  0  8G07G05G23G09G16G30G06G02
 114206782.541 8  88992343.57146  21732832.117                    21732836.395
      2355.418        1835.558          50.800          39.200
 124869923.593 7  97301268.60944  23761960.438                    23761964.488
      3329.344        2594.346          43.600          27.700
 118631846.780 7  92440448.78845  22574898.250                    22574899.406
     -2483.047       -1934.780          47.300          33.000
 106548484.413 8  83024865.42647  20275508.148                    20275514.344
      -970.637        -756.233          51.700          45.700
 127700830.010 6  99507196.24643  24300670.680                    24300673.422
       992.480         773.643          38.900          20.600
 121424439.636 7  94616517.07245  23106312.211                    23106319.578
      3524.887        2746.724          47.200          35.100
 111366295.067 8  86778991.96047  21192310.820                    21192317.262
     -1804.297       -1405.729          49.600          42.700
 115360779.482 7  89891534.54146  21952433.023                    21952434.527
       962.164         749.919          45.500          37.000
 18  2 20  8  2  0.0000000  0  8G07G05G23G09G16G30G06G02
 114136327.356 8  88937443.43046  21719424.656                    21719429.473
      2341.727        1824.822          51.400          39.800
 124770093.868 7  97223479.21344  23742963.594                    23742967.859
      3326.043        2591.700          44.600          27.300
 118706430.947 7  92498566.30145  22589090.352                    22589092.488
     -2489.168       -1939.541          46.700          33.000
 106577798.499 8  83047707.55647  20281086.453                    20281092.809
      -983.477        -766.231          51.000          45.600
 127671338.015 6  99484215.44343  24295058.672                    24295059.613
       973.656         758.885          41.300          19.600
 121318798.387 7  94534199.25445  23086209.188                    23086217.023
      3517.988        2741.318          47.000          34.800
 111420689.280 8  86821377.03847  21202662.055                    21202668.441
     -1821.895       -1419.468          51.900          43.600
 115332180.719 7  89869249.77546  21946990.906                    21946992.371
       944.633         736.210          46.600          37.500
 18  2 20  8  2 30.0000000  0  8G07G05G23G09G16G30G06G02
 114066287.716 8  88882867.10346  21706096.484                    21706100.898
      2327.777        1814.023          51.600          39.900
 124670367.569 7  97145770.40944  23723986.711                    23723990.668
      3322.543        2589.011          44.900          27.700
 118781199.195 7  92556827.24745  22603318.078                    22603320.375
     -2495.270       -1944.287          47.300          33.200
 106607498.026 8  83070850.04047  20286738.242                    20286743.980
      -996.324        -776.207          50.500          45.400
 127642414.626 6  99461677.67143  24289554.891                    24289554.715
       954.828         744.153          37.800          19.000
 121213367.763 7  94452045.55445  23066146.602                    23066154.316
      3510.902        2735.846          47.300          34.800
 111475612.426 8  86864174.30447  21213112.461                    21213119.969
     -1839.437       -1433.161          51.700          42.700
 115304111.780 7  89847377.86846  21941649.664                    21941651.066
       926.852         722.448          46.500          37.500
 18  2 20  8  3  0.0000000  0  8G07G05G23G09G16G30G06G02
 113996662.015 8  88828613.33146  21692847.461                    21692852.262
      2313.969        1803.248          51.600          40.600
 124570742.174 7  97068140.22544  23705028.250                    23705032.742
      3319.238        2586.377          45.400          27.200
 118856146.795 7  92615227.94645  22617580.438                    22617582.461
     -2501.086       -1948.916          47.500          33.100
 106637578.234 8  83094289.16447  20292462.008                    20292468.242
     -1009.039        -786.080          52.300          45.500
 127614057.689 6  99439581.42343  24284157.102                    24284160.719
       935.777         729.421          37.000          20.400
 121108146.713 7  94370055.16145  23046123.633                    23046131.207
      3503.770        2730.364          47.800          35.000
 111531059.211 8  86907379.56347  21223664.203                    21223670.906
     -1857.012       -1446.729          50.700          42.500
 115276570.270 7  89825916.94246  21936408.922                    21936409.953
       909.234         708.739          47.100          37.100
 18  2 20  8  3 30.0000000  0  8G07G05G23G09G16G30G06G02
 113927453.581 8  88774684.70946  21679677.688                    21679682.133
      2299.855        1792.270          51.300          40.800
 124471220.855 7  96990591.14644  23686089.977                    23686094.688
      3315.527        2583.562          44.600          27.300
 118931274.188 7  92673768.74645  22631876.703                    22631878.504
     -2507.301       -1953.692          46.500          33.600
 106668039.673 8  83118025.34147  20298258.891                    20298265.043
     -1021.738        -796.086          51.200          45.300
 127586270.314 6  99417928.95143  24278869.844                    24278874.410
       916.625         714.485          39.000          20.600
 121003139.374 7  94288231.28645  23026141.203                    23026149.023
      3496.547        2724.637          47.500          35.200
 111587029.333 8  86950992.63747  21234315.273                    21234321.355
     -1874.434       -1460.422          50.200          42.700
 115249558.435 7  89804868.74146  21931268.578                    21931269.805
       891.406         694.850          46.500          36.900
 18  2 20  8  4  0.0000000  0  8G07G05G23G09G16G30G06G02
 113858668.664 8  88721086.07746  21666588.297                    21666592.875
      2285.816        1781.354          51.400          40.900
 124371808.874 7  96913127.28144  23667172.867                    23667177.230
      3311.871        2580.786          45.100          27.600
 119006584.363 7  92732451.99145  22646207.359                    22646210.066
     -2513.477       -1958.339          46.300          33.300
 106698885.553 8  83142061.08347  20304129.070                    20304134.852
     -1034.555        -805.943          52.600          45.800
 127559058.411 6  99396724.83743  24273692.773                    24273694.945
       897.355         699.608          39.400          20.900
 120898352.602 7  94206579.27145  23006200.852                    23006208.434
      3489.254        2718.994          47.300          34.100
 111643525.368 8  86995015.53747  21245065.523                    21245072.520
     -1891.914       -1473.945          50.800          42.300
 115223081.789 7  89784237.57946  21926230.070                    21926231.301
       873.582         681.023          46.600          37.400
 18  2 20  8  4 30.0000000  0  8G07G05G23G09G16G30G06G02
 113790304.414 8  88667815.25346  21653579.141                    21653583.605
      2271.754        1770.403          50.800          40.100
 124272503.214 7  96835746.25944  23648275.594                    23648279.563
      3308.355        2578.015          44.900          27.900
 119082071.494 7  92791273.10145  22660572.375                    22660574.703
     -2519.187       -1962.908          46.900          33.200
 106730109.922 8  83166391.74847  20310070.898                    20310076.340
     -1047.125        -815.763          52.400          45.700
 127532418.913 5  99375966.79343  24268622.867                    24268625.289
       878.414         684.699          35.000          19.000
 120793784.188 7  94125097.41445  22986302.383                    22986309.586
      3481.992        2713.305          47.000          34.200
 111700540.679 8  87039443.04846  21255915.281                    21255922.184
     -1909.180       -1487.424          50.500          41.900
 115197136.610 7  89764020.55946  21921293.313                    21921294.313
       855.918         667.223          46.300          36.800
 18  2 20  8  5  0.0000000  0  8G07G05G23G09G16G30G06G02
 113722365.853 8  88614876.12346  21640650.609                    21640655.176
      2257.520        1759.323          51.600          40.700
 124173309.145 7  96758452.17944  23629399.820                    23629403.430
      3304.676        2575.123          45.300          28.300
 119157737.387 7  92850233.51945  22674970.891                    22674973.340
     -2525.137       -1967.530          46.500          32.700
 106761714.860 8  83191018.97047  20316084.469                    20316090.641
     -1059.789        -825.621          52.700          45.500
 127506356.562 6  99355658.50043  24263661.781                    24263665.566
       859.191         669.743          36.100          20.100
 120689439.905 7  94043790.19945  22966446.016                    22966453.008
      3474.410        2707.465          47.200          34.700
 111758076.598 8  87084276.21346  21266864.359                    21266870.648
     -1926.457       -1500.895          50.200          41.600
 115171727.270 7  89744221.06646  21916457.625                    21916458.727
       838.137         653.300          46.800          36.500
 18  2 20  8  5 30.0000000  0  8G07G05G23G09G16G30G06G02
 113654851.976 8  88562267.90446  21627803.547                    21627808.098
      2243.262        1748.243          51.300          40.600
 124074225.232 7  96681243.93944  23610544.594                    23610548.414
      3300.922        2572.214          44.500          27.600
 119233578.338 7  92909330.33745  22689402.867                    22689405.305
     -2531.051       -1972.115          47.400          33.600
 106793696.402 8  83215939.63247  20322171.203                    20322176.781
     -1072.359        -835.418          51.100          45.400
 127480869.983 6  99335798.80043  24258812.398                    24258816.680
       839.980         654.730          39.500          21.300
 120585319.468 7  93962657.42345  22946632.852                    22946639.977
      3466.805        2701.559          47.800          34.800
 111816128.395 8  87129511.37446  21277910.328                    21277917.734
     -1943.715       -1514.314          49.600          41.300
 115146851.872 7  89724837.63046  21911724.086                    21911725.398
       820.238         639.384          46.200          36.600
 18  2 20  8  6  0.0000000  0  8G07G05G23G09G16G30G06G02
 113587763.168 8  88509990.91446  21615036.750                    21615040.965
      2229.145        1737.182          51.900          41.000
 123975251.148 7  96604121.27844  23591710.313                    23591714.582
      3297.223        2569.308          45.700          27.900
 119309591.794 7  92968561.58645  22703867.625                    22703870.664
     -2536.664       -1976.568          47.600          33.500
 106826052.029 8  83241151.81247  20328327.797                    20328333.625
     -1084.711        -845.126          52.300          45.700
 127455959.122 6  99316387.68843  24254072.648                    24254076.523
       820.734         639.800          36.400          20.600
 120481424.047 8  93881699.95445  22926861.852                    22926868.922
      3459.398        2695.709          49.100          35.700
 111874692.844 8  87175145.98946  21289054.922                    21289062.625
     -1960.621       -1527.598          49.600          40.900
 115122510.223 7  89705870.10946  21907092.383                    21907092.883
       802.438         625.511          46.900          36.500
 18  2 20  8  6 30.0000000  0  8G07G05G23G09G16G30G06G02
 113521100.707 8  88458046.14746  21602351.234                    21602355.820
      2215.109        1726.140          51.700          41.100
 123876388.725 7  96527085.61344  23572897.781                    23572901.090
      3293.703        2566.480          45.200          29.100
 119385775.990 7  93027925.87045  22718365.414                    22718367.578
     -2542.180       -1980.907          47.300          33.500
 106858779.991 8  83266654.11747  20334555.469                    20334561.527
     -1096.957        -854.715          51.600          45.400
 127431624.920 6  99297426.00843  24249442.008                    24249446.188
       801.656         624.856          36.100          19.000
 120377755.557 8  93800919.31946  22907134.813                    22907141.805
      3451.949        2689.845          48.900          36.000
 111933767.456 8  87221178.10946  21300297.516                    21300304.246
     -1977.477       -1540.764          48.200          41.200
 115098702.223 7  89687318.42246  21902561.672                    21902562.262
       784.820         611.718          45.700          36.100
 18  2 20  8  7  0.0000000  0  8G07G05G23G09G16G30G06G02
 113454866.640 8  88406435.18946  21589747.289                    21589751.832
      2200.563        1714.947          52.100          40.900
 123777639.582 7  96450138.21644  23554106.180                    23554110.004
      3289.754        2563.452          44.900          28.500
 119462129.992 7  93087422.47345  22732895.063                    22732897.313
     -2547.984       -1985.362          47.800          33.800
 106891879.656 8  83292446.06347  20340854.305                    20340860.500
     -1109.566        -864.422          51.800          45.400
 127407869.259 6  99278915.13043  24244921.375                    24244925.504
       782.281         609.737          37.600          19.300
 120274317.003 8  93720317.88346  22887450.969                    22887458.379
      3444.129        2683.785          48.400          36.400
 111993350.693 8  87267606.59046  21311635.336                    21311642.465
     -1994.582       -1554.018          49.800          41.100
 115075429.596 7  89669183.90345  21898133.289                    21898133.762
       766.898         597.740          47.100          35.700
 18  2 20  8  7 30.0000000  0  8G07G05G23G09G16G30G06G02
 113389066.584 8  88355162.42246  21577226.086                    21577230.211
      2186.008        1703.577          50.900          40.400
 123679009.146 7  96373283.32544  23535337.430                    23535341.051
      3285.699        2560.282          44.800          27.800
 119538656.138 8  93147053.20945  22747457.078                    22747460.230
     -2553.836       -1989.907          48.000          33.000
 106925353.339 8  83318529.45447  20347224.070                    20347230.105
     -1122.090        -874.183          51.700          45.400
 127384697.197 6  99260858.96343  24240512.445                    24240515.813
       762.707         594.476          39.900          21.500
 120171114.505 8  93639900.36346  22867811.984                    22867819.344
      3436.086        2677.563          49.600          36.300
 112053444.158 8  87314432.62746  21323070.422                    21323077.762
     -2011.637       -1567.294          49.100          41.300
 115052696.668 7  89651469.92146  21893807.250                    21893807.582
       748.773         583.659          45.400          36.300
 18  2 20  8  8  0.0000000  0  8G07G05G23G09G16G30G06G02
 113323703.000 8  88304229.77246  21564787.781                    21564792.074
      2171.754        1692.379          51.900          40.600
 123580499.276 7  96296522.37244  23516591.688                    23516595.254
      3281.832        2557.275          45.300          27.900
 119615353.972 7  93206817.73745  22762052.430                    22762054.848
     -2559.211       -1994.199          47.900          33.100
 106959200.399 8  83344903.77547  20353665.227                    20353670.910
     -1134.230        -883.712          52.200          45.100
 127362110.369 6  99243258.79143  24236214.148                    24236217.234
       743.223         579.389          39.600          21.800
 120068151.036 8  93559669.10146  22848219.039                    22848226.094
      3428.309        2671.467          49.000          36.200
 112114046.427 8  87361655.13946  21334603.047                    21334610.184
     -2028.320       -1580.348          49.600          41.400
 115030504.892 7  89634177.63446  21889584.102                    21889585.078
       730.879         569.695          46.400          36.200
 18  2 20  8  8 30.0000000  0  8G07G05G23G09G16G30G06G02
 113258776.956 8  88253638.06846  21552432.813                    21552436.648
      2156.793        1680.823          51.500          40.500
 123482110.472 7  96219855.73944  23497868.914                    23497872.355
      3277.477        2553.982          45.000          27.600
 119692222.470 7  93266715.25345  22776679.531                    22776682.117
     -2565.207       -1998.759          47.800          33.100
 106993419.432 8  83371567.95447  20360176.555                    20360182.629
     -1146.887        -893.502          52.800          45.900
 127340109.799 6  99226115.52143  24232027.414                    24232031.512
       723.258         564.001          36.800          20.600
 119965428.853 8  93479625.86346  22828671.000                    22828678.602
      3419.914        2665.010          48.500          36.900
 112175155.230 8  87409272.35147  21346231.688                    21346239.109
     -2045.496       -1593.646          49.800          42.100
 115008855.211 7  89617307.73245  21885464.375                    21885465.105
       712.496         555.474          46.000          35.400
 18  2 20  8  9  0.0000000  0  8G07G05G23G09G16G30G06G02
 113194286.006 8  88203385.39746  21540160.266                    21540164.609
      2142.477        1669.701          51.700          40.500
 123383840.954 7  96143282.08644  23479169.164                    23479172.684
      3273.637        2551.024          45.000          27.400
 119769255.529 7  93326740.97145  22791338.859                    22791341.391
     -2570.449       -2002.818          46.800          32.700
 107028004.814 8  83398517.60847  20366757.750                    20366764.055
     -1158.910        -902.815          51.900          45.500
 127318692.355 6  99209426.62443  24227951.273                    24227955.402
       704.285         549.026          38.200          20.100
 119862946.089 8  93399769.18446  22809169.398                    22809176.859
      3412.152        2658.947          50.000          37.000
 112236764.104 8  87457279.22946  21357955.148                    21357962.719
     -2061.801       -1606.388          48.700          41.800
 114987743.791 7  89600857.26545  21881446.984                    21881447.785
       694.863         541.677          46.500          35.800
 18  2 20  8  9 30.0000000  0  8G07G05G23G09G16G30G06G02
 113130238.357 8  88153478.14346  21527972.641                    21527976.625
      2127.500        1657.957          50.900          40.200
 123285699.450 7  96066808.17544  23460492.953                    23460497.309
      3269.254        2547.496          45.400          28.100
 119846458.678 7  93386899.24245  22806030.367                    22806032.719
     -2576.375       -2007.451          47.000          32.200
 107062962.146 8  83425757.08347  20373410.211                    20373416.594
     -1171.449        -912.687          50.900          45.300
 127297866.193 6  99193198.45443  24223988.375                    24223992.238
       684.281         533.474          40.400          21.500
 119760711.962 8  93320106.23246  22789714.750                    22789721.836
      3403.602        2652.252          48.000          36.400
 112298877.841 7  87505679.52746  21369774.867                    21369782.340
     -2078.816       -1619.702          47.200          41.400
 114967177.991 7  89584831.95645  21877532.930                    21877534.141
       676.375         527.286          46.800          35.400
 18  2 20  8 10  0.0000000  0  8G07G05G23G09G16G30G06G02
 113066630.363 8  88103913.48146  21515868.086                    21515872.402
      2113.063        1646.742          51.200          39.900
 123187681.069 7  95990430.22745  23441840.813                    23441845.074
      3265.348        2544.482          46.900          30.100
 119923825.294 7  93447184.90045  22820752.891                    22820755.359
     -2581.516       -2011.459          46.700          33.200
 107098284.599 8  83453281.07147  20380132.109                    20380138.043
     -1183.422        -921.933          52.600          45.200
 127277627.051 7  99177427.71543  24220137.648                    24220140.930
       665.016         518.414          42.100          20.900
 119658723.361 8  93240634.60546  22770306.977                    22770313.563
      3395.672        2646.067          48.400          36.600
 112361488.726 8  87554467.21946  21381689.648                    21381696.832
     -2095.215       -1632.375          49.200          41.600
 114947153.172 7  89569228.18845  21873722.617                    21873723.809
       658.594         513.460          47.500          34.900
 18  2 20  8 10 30.0000000  0  8G07G05G23G09G16G30G06G02
 113003464.528 8  88054693.36446  21503848.102                    21503852.254
      2098.219        1635.128          51.500          40.400
 123089788.697 7  95914150.45144  23423212.414                    23423217.023
      3261.105        2541.077          44.900          29.200
 120001355.331 7  93507597.89645  22835506.250                    22835508.758
     -2586.953       -2015.798          47.100          32.600
 107133972.058 8  83481089.47347  20386923.055                    20386929.066
     -1195.559        -931.516          53.700          46.200
 127257977.158 6  99162116.08943  24216398.320                    24216401.223
       645.223         502.998          40.700          19.600
 119556983.839 7  93161357.07046  22750946.602                    22750953.078
      3387.277        2639.435          47.400          36.300
 112424595.736 8  87603641.49746  21393698.766                    21393705.691
     -2111.750       -1645.340          50.000          41.700
 114927671.178 7  89554047.40045  21870015.664                    21870016.301
       640.336         499.209          47.600          35.400
 18  2 20  8 11  0.0000000  0  8G07G05G23G09G16G30G06G02
 112940744.358 8  88005820.51946  21491912.469                    21491917.277
      2083.066        1623.350          50.800          40.400
 122992025.002 7  95837970.95045  23404608.266                    23404612.723
      3256.500        2537.538          44.900          30.700
 120079049.328 7  93568138.65145  22850290.430                    22850293.781
     -2592.680       -2020.211          47.700          32.600
 107170025.062 8  83509182.72347  20393783.695                    20393789.785
     -1207.965        -941.156          51.600          45.700
 127238919.333 6  99147265.88043  24212770.953                    24212774.922
       625.055         487.410          38.900          19.900
 119455497.580 7  93082276.89345  22731634.227                    22731641.750
      3378.586        2632.687          47.800          35.800
 112488198.529 8  87653202.10247  21405801.656                    21405808.609
     -2128.477       -1658.377          48.300          42.100
 114908734.524 7  89539291.55445  21866411.797                    21866412.871
       622.004         484.872          47.500          35.400
 18  2 20  8 11 30.0000000  0  8G07G05G23G09G16G30G06G02
 112878472.099 8  87957296.70546  21480062.766                    21480067.258
      2068.277        1611.771          51.300          40.500
 122894393.427 7  95761894.42344  23386029.742                    23386034.133
      3252.176        2534.187          43.600          29.600
 120156906.709 7  93628806.71345  22865106.141                    22865109.348
     -2597.906       -2024.363          47.600          32.700
 107206442.959 8  83537560.29547  20400713.758                    20400719.641
     -1220.012        -950.537          51.500          45.300
 127220455.204 6  99132878.29543  24209256.914                    24209261.945
       605.723         472.051          40.300          20.400
 119354267.736 7  93003396.51746  22712370.797                    22712378.152
      3370.027        2626.061          47.500          37.000
 112552295.499 8  87703147.76246  21417999.719                    21418006.324
     -2144.730       -1671.096          49.400          41.300
 114890344.368 8  89524961.54945  21862912.484                    21862913.430
       603.859         470.746          48.300          35.700
 18  2 20  8 12  0.0000000  0  8G07G05G23G09G16G30G06G02
 112816647.474 8  87909121.67446  21468297.789                    21468302.188
      2053.355        1600.208          50.500          40.500
 122796893.411 7  95685920.39744  23367475.906                    23367480.105
      3247.813        2530.800          45.600          29.800
 120234924.356 7  93689599.64845  22879952.695                    22879955.613
     -2603.223       -2028.434          47.900          33.100
 107243222.596 8  83566219.73647  20407713.133                    20407718.871
     -1231.949        -959.842          52.500          45.100
 127202583.889 7  99118952.65543  24205856.828                    24205859.836
       585.785         456.756          42.000          20.400
 119253294.736 8  92924716.27146  22693157.008                    22693163.527
      3361.465        2619.433          49.200          37.200
 112616882.647 8  87753475.38947  21430290.047                    21430296.461
     -2161.047       -1683.724          50.800          42.000
 114872499.685 8  89511056.59445  21859516.867                    21859517.551
       585.840         456.649          48.000          35.900
 18  2 20  8 12 30.0000000  0  8G07G05G23G09G16G30G06G02
 112755270.595 8  87861295.53346  21456617.813                    21456622.809
      2038.453        1588.614          51.000          40.300
 122699524.917 7  95610048.85945  23348947.664                    23348952.246
      3243.441        2527.418          45.900          31.000
 120313099.779 7  93750515.52845  22894829.258                    22894831.691
     -2608.516       -2032.476          47.300          31.900
 107280361.298 8  83595158.98447  20414779.977                    20414785.555
     -1243.910        -969.110          52.700          45.500
 127185305.336 7  99105488.79243  24202569.508                    24202572.055
       566.078         441.404          43.200          22.000
 119152579.617 8  92846236.98446  22673991.242                    22673998.031
      3352.875        2612.749          48.600          36.900
 112681956.298 8  87804182.10246  21442673.133                    21442679.438
     -2177.258       -1696.286          49.800          41.700
 114855199.723 8  89497576.09346  21856224.633                    21856225.527
       567.590         442.536          49.000          36.600
 18  2 20  8 13  0.0000000  0  8G07G05G23G09G16G30G06G02
 112694343.625 8  87813819.99446  21445024.063                    21445028.660
      2023.324        1576.827          50.700          40.300
 122602289.971 7  95534281.36845  23330444.531                    23330448.957
      3238.809        2523.853          46.200          31.200
 120391432.437 7  93811553.93745  22909735.719                    22909738.230
     -2613.699       -2036.600          47.200          32.300
 107317858.597 8  83624377.65247  20421915.477                    20421921.145
     -1255.906        -978.484          52.900          44.700
 127168621.075 7  99092488.04943  24199395.438                    24199397.301
       546.168         425.886          42.500          20.900
 119052125.566 8  92767961.12046  22654875.516                    22654882.742
      3344.023        2605.862          49.000          37.000
 112747515.075 8  87855266.84046  21455148.242                    21455155.059
     -2193.453       -1708.936          51.400          41.400
 114838445.798 8  89484521.07046  21853036.688                    21853036.996
       549.313         428.284          48.200          36.700
 18  2 20  8 13 30.0000000  0  8G07G05G23G09G16G30G06G02
 112633868.862 8  87766696.83046  21433516.438                    21433520.551
      2008.254        1565.078          51.100          40.600
 122505191.207 7  95458620.01245  23311967.508                    23311971.727
      3234.379        2520.317          47.100          31.100
 120469921.680 7  93872714.34745  22924671.813                    22924674.422
     -2618.824       -2040.628          46.900          32.500
 107355713.820 8  83653875.22447  20429118.945                    20429124.629
     -1267.801        -987.729          53.000          45.200
 127152532.851 6  99079951.75643  24196333.398                    24196335.000
       526.324         410.381          40.500          19.900
 118951935.572 8  92689891.00546  22635810.203                    22635816.992
      3335.277        2599.013          48.800          37.800
 112813557.337 8  87906728.32746  21467715.555                    21467722.375
     -2209.410       -1721.432          50.000          41.000
 114822239.229 8  89471892.57046  21849952.727                    21849953.176
       531.125         414.090          48.800          36.900
 18  2 20  8 14  0.0000000  0  8G07G05G23G09G16G30G06G02
 112573848.279 8  87719927.55446  21422094.539                    21422099.121
      1993.059        1553.210          51.500          40.900
 122408229.900 7  95383065.72545  23293516.164                    23293520.512
      3229.695        2516.672          47.000          30.900
 120548566.861 7  93933996.28845  22939637.180                    22939640.184
     -2624.187       -2044.740          47.300          33.000
 107393926.099 8  83683651.01547  20436390.852                    20436396.359
     -1279.809        -997.072          53.000          45.300
 127137041.931 6  99067880.93843  24193384.945                    24193387.402
       506.328         394.790          37.900          19.900
 118852012.466 7  92612028.85346  22616795.141                    22616802.270
      3326.180        2591.979          47.900          37.500
 112880081.210 8  87958565.06746  21480374.992                    21480381.906
     -2225.574       -1733.985          50.700          41.100
 114806580.814 8  89459691.19746  21846973.164                    21846973.434
       512.734         399.766          49.100          37.400
 18  2 20  8 14 30.0000000  0  8G07G05G23G09G16G30G06G02
 112514284.708 8  87673514.40146  21410760.008                    21410764.566
      1977.777        1541.334          51.300          41.300
 122311409.192 7  95307621.02645  23275092.273                    23275095.922
      3224.887        2512.996          46.300          31.400
 120627367.990 7  93995399.74045  22954632.828                    22954635.078
     -2629.312       -2048.737          47.300          32.800
 107432495.363 8  83713704.98047  20443730.258                    20443735.805
     -1291.605       -1006.289          51.900          45.300
 127122150.593 6  99056277.32343  24190549.563                    24190553.699
       486.145         379.244          37.400          18.600
 118752359.844 8  92534377.48546  22597831.750                    22597839.207
      3317.152        2584.938          48.600          37.800
 112947085.606 8  88010776.23646  21493124.977                    21493132.367
     -2241.543       -1746.405          48.800          41.100
 114791472.681 8  89447918.61446  21844098.102                    21844098.965
       494.438         385.490          48.900          37.700
 18  2 20  8 15  0.0000000  0  8G07G05G23G09G16G30G06G02
 112455177.769 8  87627457.06546  21399512.313                    21399516.672
      1962.477        1529.488          51.300          40.900
 122214729.867 7  95232286.49045  23256693.797                    23256698.402
      3220.133        2509.350          44.900          31.600
 120706322.146 7  94056922.43245  22969657.797                    22969659.633
     -2634.434       -2052.668          47.300          32.600
 107471418.725 8  83744034.86347  20451137.125                    20451142.621
     -1303.383       -1015.453          53.100          45.600
 127107857.963 6  99045140.28643  24187830.719                    24187834.641
       466.238         363.714          39.400          20.100
 118652978.473 7  92456937.45746  22578919.875                    22578927.117
      3308.102        2577.902          47.000          37.500
 113014566.717 8  88063358.87746  21505966.352                    21505973.898
     -2257.484       -1758.742          48.800          41.200
 114776913.047 8  89436573.44846  21841327.688                    21841328.125
       476.059         371.259          48.400          37.400
 18  2 20  8 15 30.0000000  0  8G07G05G23G09G16G30G06G02
 112396526.038 8  87581754.43346  21388351.406                    21388355.863
      1947.648        1517.797          52.000          41.600
 122118189.332 7  95157060.11045  23238323.172                    23238327.188
      3215.898        2505.874          43.600          31.000
 120785425.015 7  94118560.99945  22984710.461                    22984712.367
     -2639.027       -2056.376          46.300          33.000
 107510691.875 8  83774637.31247  20458610.484                    20458616.359
     -1314.664       -1024.357          52.700          45.000
 127094162.040 6  99034468.08343  24185224.711                    24185228.469
       446.699         348.326          40.800          21.100
 118553867.694 7  92379708.28046  22560059.500                    22560067.234
      3299.344        2570.985          45.100          37.100
 113082519.096 7  88116308.72746  21518897.891                    21518904.461
     -2272.672       -1770.792          47.800          41.100
 114762899.731 8  89425653.97346  21838660.852                    21838661.449
       458.238         357.215          48.000          37.400
 18  2 20  8 16  0.0000000  0  8G07G05G23G09G16G30G06G02
 112338330.850 8  87536407.54746  21377277.453                    21377281.656
      1932.035        1505.744          51.200          40.500
 122021790.232 7  95081943.91845  23219978.758                    23219983.121
      3210.777        2502.011          47.200          30.500
 120864675.857 7  94180314.88645  22999791.008                    22999793.922
     -2644.230       -2060.367          46.200          32.100
 107550313.667 8  83805511.41447  20466150.445                    20466156.117
     -1326.617       -1033.559          52.500          45.200
 127081063.770 6  99024261.61543  24182732.148                    24182735.691
       426.488         332.662          40.400          20.400
 118455030.034 7  92302691.93346  22541251.836                    22541259.113
      3289.902        2563.693          47.300          37.200
 113150940.667 8  88169624.19746  21531917.797                    21531925.031
     -2288.676       -1783.108          48.800          40.600
 114749433.696 8  89415160.95346  21836098.586                    21836099.148
       439.590         342.826          48.800          37.500
 18  2 20  8 16 30.0000000  0  8G07G05G23G09G16G30G06G02
 112280601.851 8  87491423.91846  21366291.766                    21366296.082
      1916.426        1493.516          51.000          40.900
 121925542.119 7  95006945.37845  23201663.703                    23201667.809
      3205.660        2497.968          46.400          31.100
 120944081.332 7  94242189.25445  23014901.125                    23014904.086
     -2649.539       -2064.499          46.300          32.800
 107590290.890 8  83836662.49147  20473757.609                    20473763.781
     -1338.516       -1042.887          53.200          45.400
 127068571.964 6  99014527.70243  24180356.445                    24180358.574
       406.250         316.783          41.200          21.100
 118356475.955 7  92225896.56046  22522497.219                    22522504.418
      3280.309        2556.198          46.300          37.300
 113219837.145 8  88223309.73746  21545028.133                    21545035.316
     -2304.480       -1795.520          49.100          41.000
 114736522.973 7  89405100.63946  21833641.828                    21833642.414
       421.020         328.298          47.900          37.700
 18  2 20  8 17  0.0000000  0  8G07G05G23G09G16G30G06G02
 112223337.093 8  87446802.03546  21355394.352                    21355398.691
      1901.137        1481.564          51.600          41.400
 121829442.470 7  94932062.53444  23183376.602                    23183380.305
      3200.961        2494.225          46.500          29.900
 121023637.325 7  94304180.90645  23030040.383                    23030042.770
     -2654.336       -2068.254          47.100          32.400
 107630619.012 8  83868086.99847  20481431.883                    20481437.832
     -1350.031       -1051.864          53.400          45.400
 127056684.462 6  99005264.66143  24178093.383                    24178096.109
       386.301         301.194          40.100          20.400
 118258204.584 7  92149321.48546  22503796.922                    22503804.336
      3270.992        2548.935          46.800          37.100
 113289202.981 8  88277361.01446  21558228.500                    21558235.141
     -2319.941       -1807.567          50.800          40.900
 114724165.102 8  89395471.12746  21831290.016                    21831291.098
       402.750         314.036          48.100          37.600
 18  2 20  8 17 30.0000000  0  8G07G05G23G09G16G30G06G02
 112166536.400 8  87402541.76946  21344585.742                    21344590.199
      1885.547        1469.554          50.800          40.800
 121733491.910 7  94857295.85345  23165117.664                    23165122.012
      3195.734        2490.380          45.600          31.300
 121103340.851 7  94366287.52745  23045206.859                    23045210.004
     -2659.234       -2072.006          46.200          32.700
 107671294.940 8  83899782.51247  20489172.383                    20489178.027
     -1361.703       -1060.820          52.800          45.600
 127045399.858 6  98996471.47443  24175945.656                    24175948.977
       365.953         285.569          38.000          19.300
 118160216.393 7  92072967.06146  22485150.211                    22485157.551
      3261.457        2541.628          45.600          37.600
 113359033.933 8  88331774.72246  21571516.852                    21571523.438
     -2335.480       -1819.563          49.300          41.500
 114712358.824 7  89386271.43046  21829043.008                    21829044.219
       384.332         299.790          47.800          37.500
 18  2 20  8 18  0.0000000  0  8G07G05G23G09G16G30G06G02
 112110199.091 8  87358642.60046  21333865.242                    21333869.816
      1870.070        1457.433          52.000          41.100
 121637690.150 7  94782645.12945  23146887.320                    23146891.703
      3190.742        2486.427          46.900          30.800
 121183188.087 7  94428506.10845  23060402.320                    23060404.098
     -2664.082       -2075.791          45.500          31.700
 107712315.154 8  83931746.30647  20496978.117                    20496984.285
     -1373.082       -1069.806          53.000          45.000
 127034716.813 6  98988147.02343  24173912.930                    24173917.047
       345.980         269.888          38.300          21.100
 118062511.692 7  91996833.53446  22466557.180                    22466565.219
      3251.906        2534.155          47.800          37.200
 113429325.427 8  88386547.28646  21584892.961                    21584899.996
     -2350.797       -1831.560          50.400          41.300
 114701101.953 7  89377499.83546  21826901.266                    21826902.527
       365.930         285.429          46.800          37.600
 18  2 20  8 18 30.0000000  0  8G07G05G23G09G16G30G06G02
 112054333.797 8  87315111.22246  21323234.453                    21323238.582
      1854.273        1445.110          52.000          41.100
 121542046.079 7  94708117.28745  23128686.695                    23128690.715
      3185.527        2482.274          47.200          30.900
 121263185.596 7  94490841.80645  23075624.813                    23075627.438
     -2669.066       -2079.729          45.200          30.800
 107753685.969 8  83963983.29647  20504851.016                    20504856.996
     -1384.859       -1078.969          51.600          45.100
 127024643.557 6  98980297.75243  24171995.055                    24171999.594
       325.504         253.978          38.500          20.600
 117965100.269 8  91920928.54046  22448021.242                    22448028.461
      3242.160        2526.463          48.400          38.600
 113500082.678 8  88441682.79046  21598357.523                    21598364.344
     -2366.270       -1843.674          50.200          40.500
 114690402.839 7  89369162.86346  21824865.203                    21824866.285
       347.324         270.893          47.100          37.500
 18  2 20  8 19  0.0000000  0  8G07G05G23G09G16G30G06G02
 111998939.879 8  87271947.15846  21312693.273                    21312697.719
      1838.590        1432.824          52.100          40.900
 121446559.340 7  94633712.03145  23110516.180                    23110520.340
      3180.258        2478.139          47.300          30.200
 121343330.310 7  94553292.20545  23090875.719                    23090878.320
     -2673.988       -2083.574          46.300          31.700
 107795403.958 8  83996490.80447  20512789.609                    20512795.652
     -1396.363       -1087.963          53.000          45.500
 127015178.700 6  98972922.55343  24170194.883                    24170199.070
       305.379         238.148          38.900          21.100
 117867982.399 8  91845252.28446  22429540.125                    22429547.168
      3232.324        2518.797          48.400          37.500
 113571301.128 8  88497177.65946  21611910.117                    21611916.645
     -2381.559       -1855.641          51.300          41.100
 114680259.279 7  89361258.78746  21822935.125                    21822935.715
       328.980         256.459          47.200          38.300
 18  2 20  8 19 30.0000000  0  8G07G05G23G09G16G30G06G02
 111944015.366 8  87229148.84646  21302241.352                    21302245.488
      1823.133        1420.828          52.100          41.500
 121351227.638 7  94559427.60145  23092375.266                    23092379.367
      3175.246        2474.295          46.600          30.500
 121423617.524 7  94615853.64045  23106153.742                    23106156.191
     -2678.395       -2087.037          45.700          31.200
 107837464.397 8  84029265.16747  20520793.141                    20520800.090
     -1407.609       -1096.664          53.500          45.100
 127006319.683 6  98966019.38943  24168508.570                    24168513.699
       285.379         222.607          40.100          21.300
 117771157.003 7  91769803.94346  22411115.516                    22411122.043
      3222.785        2511.384          47.400          38.400
 113642974.995 8  88553027.40546  21625549.492                    21625556.227
     -2396.586       -1867.232          50.200          41.100
 114670668.367 7  89353785.35346  21821109.664                    21821110.602
       310.629         242.305          46.800          37.500
 18  2 20  8 20  0.0000000  0  8G07G05G23G09G16G30G06G02
 111889561.452 8  87186717.23546  21291879.469                    21291883.691
      1807.285        1408.438          53.200          41.800
 121256052.146 7  94485264.88445  23074264.609                    23074268.250
      3169.750        2470.085          45.900          31.100
 121504046.166 7  94678525.28645  23121458.898                    23121461.402
     -2683.355       -2090.855          44.900          31.200
 107879865.835 8  84062305.24947  20528861.844                    20528868.398
     -1419.145       -1105.643          51.500          45.200
 126998066.714 5  98959588.49043  24166938.766                    24166943.453
       264.699         206.764          34.800          20.400
 117674626.261 8  91694585.20646  22392746.234                    22392752.785
      3212.699        2503.548          48.100          38.600
 113715101.646 8  88609229.96446  21639274.492                    21639281.047
     -2411.879       -1879.129          48.700          40.200
 114661630.538 7  89346742.88246  21819389.977                    21819391.102
       291.930         227.771          46.900          37.600
 18  2 20  8 20 30.0000000  0  8G07G05G23G09G16G30G06G02
 111835581.419 8  87144654.89746  21281607.563                    21281611.344
      1791.508        1396.122          52.500          41.600
 121161037.147 7  94411227.22145  23056182.789                    23056187.168
      3164.547        2465.902          46.300          31.400
 121584617.106 7  94741307.78945  23136790.977                    23136793.188
     -2688.000       -2094.528          44.500          30.400
 107922609.180 8  84095611.73247  20536995.867                    20537001.941
     -1430.449       -1114.493          53.600          45.600
 126990422.642 6  98953632.07343  24165484.523                    24165488.465
       244.535         190.897          38.100          19.900
 117578394.694 8  91619599.58946  22374433.891                    22374440.656
      3202.711        2495.747          48.200          39.300
 113787680.831 8  88665785.14046  21653086.063                    21653092.457
     -2426.914       -1890.851          49.700          39.700
 114653148.034 7  89340133.13646  21817776.203                    21817776.828
       273.535         213.357          46.800          37.600
 18  2 20  8 21  0.0000000  0  8G07G05G23G09G16G30G06G02
 111782077.620 8  87102963.63846  21271426.055                    21271430.281
      1775.629        1383.806          52.100          41.600
 121066186.285 7  94337317.46345  23038133.563                    23038137.230
      3159.129        2461.678          45.900          31.500
 121665330.020 7  94804200.93345  23152150.195                    23152152.258
     -2692.695       -2098.126          44.700          30.900
 107965694.043 8  84129184.35147  20545194.406                    20545200.992
     -1441.645       -1123.277          52.900          44.900
 126983389.155 6  98948151.44943  24164145.086                    24164149.273
       224.516         175.099          38.100          19.900
 117482465.545 8  91544849.62346  22356179.156                    22356185.852
      3192.738        2487.937          49.100          39.900
 113860711.015 8  88722691.76446  21666982.992                    21666989.641
     -2441.742       -1902.436          49.500          39.600
 114645222.028 7  89333957.02146  21816267.508                    21816268.586
       255.055         198.983          47.000          37.900
 18  2 20  8 21 30.0000000  0  8G07G05G23G09G16G30G06G02
 111729048.444 8  87061642.21046  21261335.023                    21261339.281
      1759.664        1371.348          52.300          41.400
 120971497.870 7  94263534.29145  23020115.164                    23020119.090
      3153.539        2457.345          44.400          31.800
 121746180.874 7  94867201.58944  23167534.891                    23167537.762
     -2697.250       -2101.789          44.300          29.600
 108009116.329 8  84163019.89347  20553457.758                    20553463.852
     -1452.910       -1132.092          52.800          45.400
 126976963.938 6  98943144.79043  24162922.977                    24162926.211
       204.039         159.199          40.000          19.600
 117386838.352 8  91470334.95246  22337981.602                    22337988.762
      3182.543        2479.979          48.700          39.600
 113934186.930 8  88779945.70646  21680964.641                    21680971.570
     -2456.656       -1914.091          49.800          40.400
 114637850.053 7  89328212.62646  21814864.805                    21814865.426
       236.543         184.479          47.500          38.100
 18  2 20  8 22  0.0000000  0  8G07G05G23G09G16G30G06G02
 111676497.993 8  87020693.83246  21251335.000                    21251338.371
      1743.691        1358.898          52.300          41.000
 120876976.205 7  94189881.04345  23002128.047                    23002132.332
      3147.926        2452.959          44.000          31.200
 121827171.481 7  94930311.09644  23182947.750                    23182950.152
     -2702.016       -2105.436          44.100          29.300
 108052877.474 8  84197119.46847  20561785.484                    20561791.199
     -1464.312       -1140.928          52.500          45.100
 126971150.315 6  98938614.66543  24161816.180                    24161820.738
       183.621         143.297          39.200          20.400
 117291518.157 8  91396059.49546  22319842.563                    22319849.840
      3172.090        2471.936          48.500          40.500
 114008108.819 8  88837547.15746  21695032.016                    21695039.141
     -2471.520       -1925.669          49.100          40.700
 114631035.033 8  89322902.21546  21813568.016                    21813568.570
       217.926         169.981          48.500          37.700
 18  2 20  8 22 30.0000000  0  8G07G05G23G09G16G30G06G02
 111624428.901 8  86980120.53246  21241426.289                    21241430.156
      1727.730        1346.473          52.400          41.100
 120782623.670 7  94116359.59945  22984173.547                    22984177.762
      3142.383        2448.659          44.700          31.200
 121908302.201 7  94993529.80944  23198386.578                    23198388.609
     -2706.633       -2108.953          43.400          29.100
 108096977.702 8  84231483.27747  20570177.250                    20570183.465
     -1475.469       -1149.608          53.200          45.300
 126965949.960 6  98934562.47943  24160827.047                    24160830.563
       163.180         127.449          37.800          19.000
 117196508.752 8  91322026.21546  22301762.953                    22301770.438
      3162.012        2463.961          49.000          40.200
 114082475.680 8  88895495.34146  21709183.703                    21709190.367
     -2486.195       -1937.089          49.700          40.900
 114624778.538 8  89318027.00846  21812377.656                    21812377.766
       199.383         155.579          48.000          37.900
 18  2 20  8 23  0.0000000  0  8G07G05G23G09G16G30G06G02
 111572840.142 8  86939921.52146  21231609.047                    21231613.359
      1711.680        1333.954          51.900          40.900
 120688440.124 7  94042969.82845  22966250.969                    22966255.531
      3136.660        2444.199          46.000          31.500
 121989569.697 7  95056855.08444  23213851.344                    23213853.148
     -2711.016       -2112.509          43.800          28.800
 108141413.361 8  84266108.45347  20578633.016                    20578639.160
     -1486.711       -1158.340          53.800          45.500
 126961361.525 6  98930987.09443  24159953.781                    24159957.434
       143.027         111.535          39.400          20.100
 117101810.169 8  91248235.14546  22283742.641                    22283750.004
      3151.527        2455.802          49.600          39.900
 114157282.670 8  88953786.47946  21723418.836                    21723425.934
     -2500.734       -1948.514          48.400          41.500
 114619078.705 8  89313585.56546  21811293.094                    21811293.055
       180.789         141.087          48.500          37.600
 18  2 20  8 23 30.0000000  0  8G07G05G23G09G16G30G06G02
 111521732.294 8  86900097.24246  21221883.680                    21221887.473
      1695.469        1321.438          52.300          40.400
 120594427.580 7  93969713.31145  22948360.906                    22948365.125
      3130.824        2439.749          46.100          30.900
 122070972.136 7  95120285.52344  23229341.172                    23229343.332
     -2715.785       -2116.024          43.900          28.400
 108186182.518 8  84300993.49047  20587152.719                    20587158.168
     -1497.980       -1166.998          53.500          45.500
 126957384.369 6  98927888.00043  24159197.094                    24159200.512
       122.289          95.668          39.500          20.900
 117007424.031 8  91174687.53446  22265781.070                    22265788.957
      3140.914        2447.655          49.200          39.600
 114232526.700 8  89012418.15446  21737738.023                    21737744.738
     -2515.496       -1959.841          50.300          41.800
 114613934.933 7  89309577.42746  21810313.852                    21810314.367
       162.059         126.636          47.700          38.000
 18  2 20  8 24  0.0000000  0  8G07G05G23G09G16G30G06G02
 111471108.332 8  86860650.00946  21212250.000                    21212253.887
      1679.512        1308.884          52.100          40.800
 120500588.465 7  93896591.93145  22930504.180                    22930507.688
      3125.188        2435.264          47.000          32.400
 122152509.808 7  95183821.33744  23244857.664                    23244859.879
     -2719.996       -2119.477          44.500          29.900
 108231285.518 9  84336138.67247  20595735.133                    20595741.340
     -1508.875       -1175.611          54.200          44.700
 126954020.476 6  98925266.77943  24158556.813                    24158560.625
       102.074          79.752          40.100          20.400
 116913354.254 8  91101386.44446  22247880.461                    22247887.965
      3130.520        2439.469          49.700          39.400
 114308206.799 8  89071389.64046  21752138.703                    21752146.063
     -2529.711       -1971.093          50.400          41.700
 114609349.235 8  89306004.13346  21809441.227                    21809441.793
       143.684         112.187          49.400          38.100
 18  2 20  8 24 30.0000000  0  8G07G05G23G09G16G30G06G02
 111420966.105 8  86821578.15346  21202708.453                    21202712.152
      1663.535        1296.395          52.700          40.900
 120406920.999 7  93823604.27645  22912679.492                    22912683.094
      3119.566        2430.813          46.400          31.000
 122234178.547 7  95247459.26644  23260399.930                    23260401.195
     -2724.359       -2122.849          46.200          29.100
 108276717.617 8  84371540.28647  20604380.875                    20604386.914
     -1519.711       -1184.119          53.200          45.100
 126951267.059 6  98923121.27143  24158033.172                    24158037.660
        81.719          63.887          39.800          21.300
 116819599.730 8  91028331.01046  22230039.398                    22230047.344
      3119.973        2431.230          49.600          39.700
 114384317.035 8  89130696.30346  21766621.930                    21766629.551
     -2544.047       -1982.224          49.100          41.600
 114605317.741 8  89302862.70046  21808674.023                    21808675.375
       125.211          97.791          49.200          37.700
 18  2 20  8 25  0.0000000  0  8G07G05G23G09G16G30G06G02
 111371304.461 8  86782880.77546  21193258.070                    21193261.883
      1647.230        1283.738          52.100          41.100
 120313424.599 7  93750749.96045  22894887.773                    22894891.641
      3113.453        2426.172          46.600          31.200
 122315975.499 7  95311197.12444  23275964.617                    23275966.316
     -2728.832       -2126.309          46.000          28.200
 108322475.852 8  84407196.04847  20613087.992                    20613094.492
     -1530.895       -1192.725          53.400          44.700
 126949123.147 6  98921450.72743  24157624.758                    24157629.105
        61.285          47.898          38.400          20.400
 116726161.017 8  90955521.64746  22212258.344                    22212266.348
      3109.219        2422.880          49.300          39.900
 114460853.115 8  89190334.77746  21781186.352                    21781193.660
     -2558.375       -1993.400          49.100          40.600
 114601839.261 8  89300152.17646  21808011.586                    21808013.082
       106.605          83.285          49.000          37.900
 18  2 20  8 25 30.0000000  0  8G07G05G23G09G16G30G06G02
 111322129.789 8  86744562.86646  21183900.492                    21183904.336
      1631.152        1271.206          52.600          41.400
 120220107.477 7  93678035.32045  22877130.063                    22877134.355
      3107.699        2421.645          46.500          31.800
 122397904.007 7  95375037.47444  23291555.664                    23291557.145
     -2733.055       -2129.579          46.000          29.100
 108368563.557 8  84443108.52647  20621858.688                    20621864.633
     -1541.613       -1201.129          53.500          45.000
 126947593.481 6  98920258.73243  24157333.898                    24157337.809
        40.777          32.108          39.900          18.600
 116633045.051 8  90882963.79446  22194539.156                    22194546.949
      3098.480        2414.587          49.100          39.900
 114537817.164 8  89250306.74846  21795831.898                    21795839.816
     -2572.414       -2004.354          48.800          40.000
 114598918.294 8  89297876.08846  21807456.703                    21807457.715
        88.230          68.943          48.500          38.700
 18  2 20  8 26  0.0000000  0  8G07G05G23G09G16G30G06G02
 111273436.029 8  86706619.68446  21174634.813                    21174638.406
      1614.902        1258.651          52.700          41.800
 120126962.652 7  93605454.93845  22859404.758                    22859409.164
      3101.770        2417.081          46.200          30.400
 122479956.007 7  95438974.05044  23307169.508                    23307171.125
     -2737.320       -2132.847          46.900          29.600
 108414972.375 8  84479271.23947  20630689.531                    20630695.602
     -1552.492       -1209.525          52.300          44.700
 126946670.891 6  98919539.86043  24157157.711                    24157161.309
        20.539          16.261          37.300          20.100
 116540247.016 8  90810653.68346  22176880.320                    22176888.008
      3087.766        2406.251          50.800          40.300
 114615199.514 7  89310604.66846  21810557.094                    21810564.402
     -2586.527       -2015.231          46.000          38.800
 114596548.260 8  89296029.30346  21807005.344                    21807006.461
        69.637          54.572          49.100          38.300
 18  2 20  8 26 30.0000000  0  8G07G05G23G09G16G30G06G02
 111225235.223 8  86669060.63147  21165462.188                    21165465.977
      1598.613        1245.865          52.300          42.200
 120034003.850 7  93533019.51445  22841715.664                    22841720.063
      3095.637        2412.274          45.800          32.100
 122562141.271 7  95503014.46644  23322809.383                    23322810.492
     -2741.641       -2136.264          46.700          29.400
 108461711.723 8  84515691.50547  20639583.578                    20639589.852
     -1563.289       -1218.057          52.100          44.300
 126946366.600 5  98919302.78543  24157099.828                    24157103.938
        -0.086           0.190          34.800          19.300
 116447779.959 8  90738601.46046  22159284.672                    22159291.758
      3076.758        2397.652          50.500          41.000
 114693008.350 7  89371234.89346  21825363.672                    21825371.070
     -2600.562       -2026.239          46.600          38.700
 114594739.876 8  89294620.16046  21806661.164                    21806662.391
        51.055          40.013          48.000          38.400
 18  2 20  8 27  0.0000000  0  8G07G05G23G09G16G30G06G02
 111177526.707 8  86631885.17147  21156383.547                    21156387.438
      1582.020        1232.946          52.500          42.000
 119941230.743 7  93460728.80345  22824061.563                    22824065.484
      3089.344        2407.305          45.900          32.400
 122644456.877 7  95567156.43745  23338473.031                    23338474.918
     -2746.039       -2139.731          45.900          30.000
 108508778.783 8  84552367.12347  20648540.141                    20648546.094
     -1574.395       -1226.670          52.100          44.800
 126946679.735 6  98919546.75543  24157159.445                    24157162.941
       -20.730         -15.910          36.700          19.900
 116355644.511 8  90666807.63146  22141751.930                    22141758.781
      3065.625        2388.903          49.600          40.500
 114771239.482 7  89432194.19946  21840250.711                    21840258.184
     -2614.793       -2037.323          46.000          38.600
 114593491.392 8  89293647.31846  21806423.922                    21806424.957
        32.285          25.336          48.300          38.600
 18  2 20  8 27 30.0000000  0  8G07G05G23G09G16G30G06G02
 111130310.815 8  86595093.57347  21147398.594                    21147402.551
      1565.699        1220.199          53.000          42.100
 119848643.822 7  93388583.14445  22806442.961                    22806446.988
      3083.258        2402.493          43.700          31.900
 122726901.395 7  95631398.86244  23354161.789                    23354164.301
     -2750.199       -2143.028          46.700          29.700
 108556171.599 8  84589296.58247  20657559.008                    20657564.984
     -1585.121       -1235.059          52.800          44.200
 126947609.409 6  98920271.15643  24157336.992                    24157340.000
       -41.055         -31.864          37.200          20.100
 116263842.327 8  90595273.47846  22124282.266                    22124289.309
      3054.492        2380.275          49.600          40.600
 114849889.647 7  89493480.02546  21855217.008                    21855224.773
     -2628.613       -2048.101          47.600          39.000
 114592802.113 7  89293110.20546  21806292.375                    21806293.992
        13.750          10.895          47.900          38.500
 18  2 20  8 28  0.0000000  0  8G07G05G23G09G16G30G06G02
 111083586.425 8  86558684.95847  21138507.398                    21138511.074
      1549.250        1207.479          51.500          42.200
 119756243.200 7  93316582.66045  22788859.578                    22788863.750
      3076.910        2397.715          45.800          31.400
 122809471.184 7  95695738.90644  23369874.563                    23369876.055
     -2754.465       -2146.191          44.600          29.300
 108603886.479 8  84626477.00747  20666638.531                    20666644.512
     -1595.777       -1243.322          52.100          44.400
 126949153.374 6  98921474.23543  24157630.633                    24157633.520
       -61.836         -47.793          39.900          20.400
 116172373.275 8  90523998.91046  22106876.766                    22106883.113
      3043.434        2371.678          49.900          40.100
 114928953.885 7  89555088.48946  21870263.305                    21870270.238
     -2642.320       -2058.727          47.000          39.200
 114592669.809 7  89293007.11546  21806267.406                    21806268.617
        -4.906          -3.519          47.600          39.400
 18  2 20  8 28 30.0000000  0  8G07G05G23G09G16G30G06G02
 111037356.037 8  86522661.29246  21129710.031                    21129714.102
      1532.766        1194.591          52.000          41.400
 119664031.940 7  93244729.74345  22771312.867                    22771316.613
      3070.512        2392.711          47.300          32.300
 122892166.577 7  95760176.82744  23385610.383                    23385612.531
     -2758.539       -2149.487          46.400          29.300
 108651923.411 8  84663908.36647  20675779.875                    20675786.172
     -1606.609       -1251.741          52.000          44.100
 126951313.289 6  98923157.25543  24158042.305                    24158044.625
       -82.227         -63.834          40.300          20.100
 116081240.789 8  90452986.60346  22089534.258                    22089540.969
      3032.133        2362.835          48.900          39.500
 115008430.753 8  89617018.49446  21885387.281                    21885394.027
     -2656.059       -2069.484          48.300          38.900
 114593095.633 7  89293338.92546  21806348.609                    21806349.844
       -23.520         -18.072          47.200          38.800
 18  2 20  8 29  0.0000000  0  8G07G05G23G09G16G30G06G02
 110991617.405 8  86487020.81146  21121005.820                    21121009.938
      1516.352        1181.813          51.200          41.800
 119572008.222 7  93173022.95045  22753801.031                    22753805.063
      3064.262        2387.855          47.000          32.100
 122974983.680 7  95824709.58744  23401369.938                    23401372.406
     -2762.633       -2152.609          45.400          28.900
 108700278.222 8  84701587.45047  20684981.172                    20684988.051
     -1617.133       -1259.951          51.700          45.100
 126954086.411 6  98925318.12743  24158569.617                    24158573.176
      -102.680         -79.749          39.900          21.500
 115990444.347 8  90382236.15246  22072256.211                    22072262.875
      3020.879        2354.111          49.200          39.700
 115088314.853 8  89679265.82346  21900588.586                    21900595.254
     -2669.586       -2079.995          48.500          39.500
 114594076.836 7  89294103.49546  21806535.086                    21806536.512
       -41.945         -32.459          47.700          39.200
 18  2 20  8 29 30.0000000  0  8G07G05G23G09G16G30G06G02
 110946376.084 8  86451767.84146  21112396.680                    21112401.016
      1499.805        1168.871          50.800          41.400
 119480178.951 7  93101467.68845  22736326.297                    22736330.484
      3057.645        2382.744          47.300          32.800
 123057925.471 7  95889339.49544  23417152.734                    23417156.309
     -2766.820       -2155.854          44.700          29.100
 108748954.063 8  84739516.64947  20694244.391                    20694250.441
     -1627.895       -1268.296          50.700          44.600
 126957477.325 6  98927960.37043  24159214.164                    24159218.172
      -123.328         -95.785          39.200          20.400
 115899990.503 8  90311752.65846  22055043.766                    22055049.742
      3009.363        2345.142          49.900          39.800
 115168607.843 8  89741831.76546  21915867.984                    21915874.906
     -2683.207       -2090.602          48.800          39.700
 114595617.337 8  89295303.87946  21806828.328                    21806829.469
       -60.687         -47.011          49.100          38.600
 18  2 20  8 30  0.0000000  0  8G07G05G23G09G16G30G06G02
 110901629.451 8  86416900.34246  21103881.484                    21103886.242
      1483.398        1156.027          51.700          41.600
 119388542.149 7  93030062.38545  22718888.516                    22718892.406
      3051.293        2377.729          47.000          32.800
 123140987.738 7  95954063.29945  23432959.313                    23432962.477
     -2770.695       -2158.969          45.100          30.200
 108797945.883 8  84777692.09147  20703566.625                    20703573.086
     -1638.234       -1276.470          51.100          44.700
 126961482.434 6  98931081.21243  24159976.055                    24159980.379
      -143.609        -111.758          40.200          20.100
 115809877.804 8  90241534.97446  22037895.547                    22037902.297
      2998.090        2336.286          48.300          39.400
 115249303.257 7  89804711.29746  21931223.734                    21931230.855
     -2696.543       -2101.023          46.600          39.200
 114597713.470 7  89296937.21546  21807227.055                    21807228.609
       -79.078         -61.418          46.800          38.900
 18  2 20  8 30 30.0000000  0  8G07G05G23G09G16G30G06G02
 110857377.455 8  86382418.27046  21095460.742                    21095465.418
      1466.734        1143.138          51.000          41.400
 119297098.388 8  92958807.50145  22701487.414                    22701491.379
      3044.801        2372.679          48.100          33.100
 123224168.227 7  96018879.19045  23448788.539                    23448791.500
     -2774.695       -2162.053          43.500          30.100
 108847251.454 8  84816112.02247  20712949.477                    20712956.234
     -1648.762       -1284.636          51.100          44.600
 126966100.652 6  98934679.79143  24160855.891                    24160859.164
      -164.270        -127.725          39.500          19.000
 115720107.460 7  90171584.09746  22020812.602                    22020819.656
      2986.539        2327.335          47.800          39.900
 115330397.778 7  89867901.81146  21946655.664                    21946662.984
     -2709.852       -2111.392          47.500          39.400
 114600364.301 7  89299002.78246  21807731.781                    21807732.766
       -97.660         -75.865          47.900          38.200
 18  2 20  8 31  0.0000000  0  8G07G05G23G09G16G30G06G02
 110813623.727 8  86348324.46346  21087134.656                    21087139.590
      1450.469        1130.381          50.300          41.200
 119205851.545 8  92887706.06345  22684124.148                    22684127.473
      3038.551        2367.717          48.000          33.100
 123307468.133 6  96083788.15244  23464639.813                    23464642.977
     -2778.246       -2164.929          41.500          29.500
 108896871.796 8  84854777.19647  20722392.188                    20722398.238
     -1658.848       -1292.592          50.500          44.700
 126971334.800 6  98938758.34243  24161851.617                    24161854.586
      -184.320        -143.509          39.600          20.100
 115630684.014 8  90101903.49546  22003795.852                    22003803.188
      2975.395        2318.503          48.600          39.000
 115411890.811 7  89931402.86746  21962162.336                    21962170.512
     -2722.695       -2121.513          45.600          38.700
 114603571.714 8  89301502.05046  21808341.820                    21808343.156
      -115.809         -90.127          48.000          38.600
 18  2 20  8 31 30.0000000  0  8G07G05G23G09G16G30G06G02
 110770366.302 8  86314617.39347  21078903.328                    21078907.566
      1433.500        1117.231          50.700          42.200
 119114801.582 7  92816758.03945  22666797.891                    22666801.133
      3031.563        2362.362          45.800          33.100
 123390883.665 7  96148787.23644  23480512.563                    23480516.094
     -2782.543       -2168.167          43.200          29.200
 108946802.932 8  84893684.57447  20731893.656                    20731899.836
     -1669.687       -1300.899          52.100          43.800
 126977182.028 6  98943314.60243  24162964.391                    24162967.777
      -205.453        -159.719          40.400          19.000
 115541607.018 7  90032492.86346  21986845.164                    21986851.992
      2963.242        2309.214          47.100          40.000
 115493777.026 7  89995210.29346  21977744.898                    21977752.602
     -2736.191       -2131.934          47.300          38.400
 114607333.105 8  89304432.98546  21809057.430                    21809059.031
      -134.738        -104.751          48.400          38.200
 18  2 20  8 32  0.0000000  0  8G07G05G23G09G16G30G06G02
 110727610.876 8  86281301.47947  21070767.227                    21070771.633
      1416.813        1104.224          50.500          42.400
 119023954.506 8  92745968.10845  22649510.078                    22649513.633
      3024.840        2357.100          48.000          33.800
 123474418.577 7  96213879.34044  23496408.688                    23496412.910
     -2786.492       -2171.236          42.900          28.400
 108997048.288 8  84932836.80047  20741454.672                    20741461.180
     -1680.004       -1308.990          50.700          44.900
 126983646.659 6  98948351.92443  24164194.813                    24164198.707
      -225.875        -175.660          39.900          20.900
 115452883.320 8  89963357.52246  21969961.875                    21969968.527
      2951.527        2300.064          49.000          40.300
 115576058.454 7  90059325.67046  21993402.680                    21993410.410
     -2749.160       -2142.113          45.900          38.400
 114611652.979 7  89307799.09646  21809879.406                    21809881.391
      -153.238        -119.199          47.800          37.800
 18  2 20  8 32 30.0000000  0  8G07G05G23G09G16G30G06G02
 110685358.708 8  86248377.72046  21062727.016                    21062730.875
      1400.211        1091.213          49.400          41.700
 118933312.081 7  92675337.65145  22632260.922                    22632264.523
      3018.121        2351.844          46.500          33.400
 123558072.010 7  96279063.75644  23512327.961                    23512331.625
     -2790.293       -2174.228          43.100          29.000
 109047606.681 8  84972232.93647  20751076.211                    20751082.156
     -1690.348       -1317.053          51.300          44.600
 126990728.850 6  98953870.51443  24165542.516                    24165546.422
      -246.211        -191.634          39.300          20.600
 115364515.204 8  89894499.25446  21953145.797                    21953152.758
      2939.820        2290.863          49.000          40.800
 115658732.343 7  90123746.85846  22009134.906                    22009143.305
     -2762.117       -2152.199          45.600          38.200
 114616531.107 8  89311600.21746  21810807.758                    21810809.758
      -171.707        -133.638          48.100          38.500
 18  2 20  8 33  0.0000000  0  8G07G05G23G09G16G30G06G02
 110643608.693 8  86215845.24246  21054781.938                    21054786.313
      1383.273        1078.071          49.600          41.300
 118842874.281 8  92604866.64845  22615051.281                    22615055.441
      3011.129        2346.396          48.400          33.100
 123641841.156 7  96344338.36444  23528268.625                    23528272.438
     -2794.227       -2177.304          43.000          28.500
 109098474.853 8  85011870.46247  20760755.859                    20760761.590
     -1700.816       -1325.181          49.900          44.600
 126998426.908 6  98959868.97543  24167007.500                    24167011.480
      -266.859        -207.679          39.500          20.400
 115276502.917 8  89825918.26046  21936397.891                    21936404.738
      2927.742        2281.505          51.100          41.600
 115741794.266 7  90188470.42146  22024940.984                    22024949.051
     -2775.191       -2162.333          45.900          38.000
 114621965.362 7  89315834.68446  21811841.820                    21811843.934
      -190.391        -148.165          47.800          37.800
 18  2 20  8 33 30.0000000  0  8G07G05G23G09G16G30G06G02
 110602364.910 8  86183707.23646  21046933.844                    21046937.824
      1366.367        1064.898          48.800          41.200
 118752646.660 7  92534559.41845  22597881.555                    22597885.414
      3004.145        2340.924          45.400          32.900
 123725728.388 6  96409704.98444  23544231.930                    23544235.684
     -2798.160       -2180.348          41.600          27.700
 109149655.069 8  85051751.13847  20770494.992                    20770501.031
     -1711.129       -1333.257          50.800          44.000
 127006744.372 6  98966350.09443  24168590.164                    24168593.586
      -287.625        -223.793          40.700          19.300
 115188852.164 8  89757618.97146  21919718.219                    21919724.941
      2915.684        2272.080          48.000          41.700
 115825244.971 7  90253496.92046  22040820.813                    22040829.570
     -2788.109       -2172.407          46.000          37.600
 114627959.021 7  89320505.05646  21812982.281                    21812984.156
      -209.137        -162.706          47.900          38.300
 18  2 20  8 34  0.0000000  0  8G07G05G23G09G16G30G06G02
 110561627.400 8  86151963.73046  21039181.898                    21039186.133
      1349.414        1051.727          49.300          41.500
 118662630.032 7  92464416.59445  22580751.828                    22580755.332
      2997.012        2335.400          46.400          33.200
 123809731.714 6  96475162.06544  23560217.766                    23560221.070
     -2802.156       -2183.395          38.800          27.700
 109201145.178 8  85091873.28747  20780293.352                    20780299.199
     -1721.484       -1341.312          50.700          44.200
 127015679.570 6  98973312.59943  24170290.367                    24170293.719
      -308.102        -239.847          40.200          21.100
 115101564.181 8  89689602.36846  21903108.336                    21903114.676
      2903.527        2262.623          49.800          40.800
 115909080.789 7  90318823.49746  22056774.375                    22056783.254
     -2801.059       -2182.389          44.500          37.700
 114634510.774 7  89325610.29546  21814229.266                    21814231.035
      -227.734        -177.206          47.100          37.600
 18  2 20  8 34 30.0000000  0  8G07G05G23G09G16G30G06G02
 110521398.610 8  86120616.62746  21031526.219                    21031530.074
      1332.594        1038.613          50.400          40.700
 118572827.542 8  92394440.63145  22563663.133                    22563666.328
      2990.004        2329.935          49.500          32.500
 123893852.013 6  96540710.31944  23576224.242                    23576228.543
     -2805.891       -2186.286          40.800          27.100
 109252945.498 8  85132237.17047  20790150.688                    20790156.168
     -1731.676       -1349.231          51.400          44.200
 127025234.417 6  98980757.93543  24172108.805                    24172112.027
      -328.758        -255.858          41.600          20.600
 115014642.819 8  89621871.44047  21886567.617                    21886574.375
      2891.371        2253.178          51.000          42.000
 115993300.624 7  90384449.30546  22072801.344                    22072809.875
     -2813.461       -2192.209          47.000          38.400
 114641622.000 7  89331151.50546  21815582.273                    21815584.203
      -246.207        -191.617          47.600          38.000
 18  2 20  8 35  0.0000000  0  8G07G05G23G09G16G30G06G02
 110481673.569 8  86089662.06446  21023966.758                    21023970.691
      1315.707        1025.493          49.400          41.400
 118483235.286 8  92324628.47245  22546614.508                    22546617.785
      2982.902        2324.419          48.600          32.200
 123978081.974 6  96606343.95944  23592253.602                    23592257.055
     -2809.551       -2189.135          41.600          27.100
 109305048.864 8  85172837.17647  20800065.633                    20800071.484
     -1741.754       -1357.106          51.100          43.600
 127035403.013 6  98988681.52643  24174043.102                    24174047.406
      -349.117        -271.791          40.600          21.800
 114928084.240 8  89554423.20346  21870095.875                    21870102.891
      2879.148        2243.709          51.400          41.300
 116077895.799 7  90450367.59646  22088899.813                    22088907.715
     -2826.102       -2201.947          46.300          38.300
 114649286.616 7  89337123.91946  21817041.219                    21817042.695
      -264.668        -206.004          47.500          37.600
 18  2 20  8 35 30.0000000  0  8G07G05G23G09G16G30G06G02
 110442456.367 8  86059103.21146  21016503.992                    21016508.137
      1298.637        1012.171          49.300          41.100
 118393858.806 8  92254984.44645  22529606.445                    22529609.598
      2975.547        2318.684          49.900          32.600
 124062423.648 6  96672064.69744  23608302.930                    23608306.676
     -2813.281       -2192.149          39.500          26.900
 109357456.950 8  85213674.63247  20810038.602                    20810044.273
     -1752.113       -1365.123          52.100          43.400
 127046188.173 6  98997085.56543  24176095.227                    24176100.055
      -369.844        -287.959          39.900          20.900
 114841893.564 8  89487261.63646  21853694.000                    21853701.398
      2866.676        2234.006          50.600          40.900
 116162866.480 7  90516578.47446  22105069.203                    22105076.980
     -2838.621       -2211.783          45.700          38.200
 114657507.174 7  89343529.54046  21818604.594                    21818607.285
      -283.402        -220.557          47.400          37.100
 18  2 20  8 36  0.0000000  0  8G07G05G23G09G16G30G06G02
 110403749.113 8  86028941.73346  21009138.188                    21009142.063
      1281.793         998.998          49.300          41.600
 118304700.375 8  92185510.33545  22512640.313                    22512643.648
      2968.340        2313.085          49.100          32.500
 124146877.771 6  96737873.02744  23624374.805                    23624377.996
     -2817.145       -2194.991          41.200          26.700
 109410169.966 8  85254749.70247  20820069.797                    20820075.371
     -1762.273       -1372.984          51.700          43.700
 127057590.633 6  99005970.60943  24178265.664                    24178269.813
      -390.453        -303.903          41.400          21.300
 114756074.396 8  89420389.55946  21837363.211                    21837370.734
      2854.453        2224.419          51.300          41.500
 116248211.420 7  90583081.00146  22121309.477                    22121317.410
     -2851.035       -2221.396          46.200          38.200
 114666284.765 7  89350369.20746  21820275.094                    21820277.547
      -301.836        -234.930          46.900          37.700
 18  2 20  8 36 30.0000000  0  8G07G05G23G09G16G30G06G02
 110365551.322 8  85999177.23046  21001869.461                    21001873.082
      1264.703         985.706          50.600          41.700
 118215761.298 8  92116207.14945  22495715.469                    22495719.703
      2960.875        2307.285          48.800          33.000
 124231442.031 6  96803767.20744  23640467.305                    23640469.875
     -2820.602       -2197.864          41.700          27.900
 109463185.415 8  85296060.42647  20830158.273                    20830164.168
     -1772.238       -1380.837          52.000          44.000
 127069609.114 6  99015335.67243  24180552.297                    24180557.340
      -410.898        -319.959          38.600          21.100
 114670627.723 8  89353807.73846  21821103.570                    21821110.266
      2842.055        2214.679          51.100          40.900
 116333926.688 7  90649872.09246  22137620.461                    22137628.703
     -2863.437       -2231.042          46.000          38.100
 114675617.760 7  89357641.65546  21822051.273                    21822053.539
      -320.363        -249.428          47.300          37.900
 18  2 20  8 37  0.0000000  0  8G07G05G23G09G16G30G06G02
 110327862.698 8  85969809.49546  20994697.594                    20994701.453
      1247.770         972.578          51.100          41.800
 118127042.730 7  92047075.81645  22478832.867                    22478836.930
      2953.625        2301.657          47.800          33.200
 124316114.540 6  96869745.74244  23656579.273                    23656581.531
     -2824.078       -2200.572          39.400          26.400
 109516501.056 8  85337605.08347  20840303.828                    20840309.520
     -1782.187       -1388.533          52.700          44.100
 127082242.741 6  99025180.02443  24182955.914                    24182962.336
      -431.402        -335.812          39.000          20.100
 114585554.613 8  89287517.01046  21804914.555                    21804921.488
      2829.523        2205.038          51.700          41.300
 116420008.447 7  90716948.75946  22154000.828                    22154009.352
     -2875.453       -2240.421          45.700          37.900
 114685505.049 7  89365346.01046  21823932.828                    21823935.281
      -338.730        -263.703          47.500          38.000
 18  2 20  8 37 30.0000000  0  8G07G05G23G09G16G30G06G02
 110290683.544 8  85940838.73246  20987622.500                    20987626.246
      1230.680         959.220          51.000          41.500
 118038545.388 8  91978116.85945  22461992.516                    22461996.363
      2946.113        2295.776          48.000          34.200
 124400893.541 6  96935807.23144  23672712.703                    23672714.770
     -2827.918       -2203.452          38.900          27.200
 109570114.883 8  85379382.07147  20850506.367                    20850511.766
     -1792.125       -1396.363          52.000          43.900
 127095490.116 6  99035502.57843  24185477.164                    24185482.742
      -451.941        -351.847          39.800          19.300
 114500856.445 8  89221518.46246  21788796.883                    21788804.117
      2816.926        2195.167          51.400          41.300
 116506453.241 7  90784308.31746  22170450.602                    22170458.965
     -2887.594       -2249.937          44.100          37.300
 114695945.079 7  89373481.09346  21825919.359                    21825922.191
      -357.262        -278.163          47.200          37.800
 18  2 20  8 38  0.0000000  0  8G07G05G23G09G16G30G06G02
 110254016.462 8  85912267.00246  20980645.016                    20980648.871
      1213.625         945.987          51.800          41.400
 117950272.801 7  91909333.02745  22445194.742                    22445199.035
      2938.656        2290.002          47.800          35.100
 124485779.449 6  97001952.04144  23688865.258                    23688868.586
     -2831.371       -2206.138          41.100          26.600
 109624027.403 8  85421391.81547  20860765.469                    20860771.000
     -1802.070       -1404.030          52.500          43.600
 127109352.563 6  99046304.49143  24188114.969                    24188119.496
      -472.348        -367.735          37.900          19.300
 114416537.091 8  89155815.08846  21772752.023                    21772758.637
      2804.234        2185.354          52.000          41.600
 116593259.988 7  90851949.89946  22186969.430                    22186977.930
     -2899.574       -2259.217          45.300          37.300
 114706939.004 7  89382047.76346  21828011.641                    21828013.957
      -375.699        -292.477          47.500          38.100
 18  2 20  8 38 30.0000000  0  8G07G05G23G09G16G30G06G02
 110217861.891 8  85884094.62346  20973765.008                    20973769.020
      1196.625         932.658          51.600          41.500
 117862226.146 8  91840725.24745  22428439.961                    22428444.531
      2930.996        2284.059          48.400          34.500
 124570771.585 7  97068179.61844  23705039.656                    23705042.602
     -2834.906       -2208.909          43.300          27.200
 109678236.994 8  85463633.05747  20871081.086                    20871086.891
     -1811.969       -1411.771          53.600          44.300
 127123829.818 6  99057585.50643  24190869.633                    24190874.363
      -492.895        -383.774          39.200          19.900
 114332598.318 8  89090408.25446  21756778.984                    21756785.469
      2791.578        2175.437          52.200          41.700
 116680425.592 7  90919871.13646  22203556.016                    22203565.379
     -2911.520       -2268.520          45.200          37.300
 114718486.497 7  89391045.80246  21830209.180                    21830211.605
      -394.203        -306.885          47.300          37.900
 18  2 20  8 39  0.0000000  0  8G07G05G23G09G16G30G06G02
 110182221.744 8  85856323.09347  20966982.727                    20966986.621
      1179.496         919.247          51.500          42.100
 117774409.888 7  91772297.00545  22411728.945                    22411733.813
      2923.344        2278.021          46.800          35.400
 124655870.412 7  97134490.34844  23721233.477                    23721235.309
     -2838.340       -2211.685          43.400          26.300
 109732744.145 8  85506106.14547  20881453.281                    20881459.176
     -1821.816       -1419.490          53.000          43.200
 127138922.754 6  99069346.26443  24193742.422                    24193745.844
      -513.465        -399.766          39.200          20.100
 114249043.928 8  89025300.93946  21740879.219                    21740885.391
      2778.730        2165.395          52.300          41.900
 116767949.032 7  90988071.19246  22220212.133                    22220220.230
     -2923.359       -2277.818          44.400          37.100
 114730588.514 7  89400475.93346  21832511.984                    21832514.613
      -412.703        -321.310          47.900          38.100
 18  2 20  8 39 30.0000000  0  8G07G05G23G09G16G30G06G02
 110147095.765 8  85828952.21147  20960298.789                    20960302.348
      1162.371         905.857          51.900          42.000
 117686823.242 7  91704047.68245  22395061.844                    22395066.262
      2915.676        2272.000          47.800          35.100
 124741073.972 7  97200882.67644  23737446.414                    23737449.164
     -2841.762       -2214.445          44.500          26.900
 109787546.405 8  85548809.19447  20891881.844                    20891887.609
     -1831.680       -1427.181          53.300          43.700
 127154630.044 6  99081585.68843  24196731.875                    24196736.086
      -533.672        -415.719          38.400          21.800
 114165874.759 8  88960493.80446  21725052.625                    21725058.840
      2765.883        2155.349          51.400          41.400
 116855826.181 7  91056546.85446  22236934.898                    22236942.836
     -2935.070       -2286.997          46.100          37.100
 114743243.352 7  89410336.84246  21834920.203                    21834922.613
      -430.980        -335.684          47.200          37.500
 18  2 20  8 40  0.0000000  0  8G07G05G23G09G16G30G06G02
 110112485.818 8  85801983.42946  20953712.703                    20953716.500
      1145.176         892.573          51.000          41.300
 117599471.348 8  91635981.27145  22378439.188                    22378444.148
      2907.891        2266.021          48.400          34.400
 124826382.357 7  97267356.68144  23753679.688                    23753683.398
     -2845.055       -2217.022          44.400          24.500
 109842643.664 8  85591742.11647  20902366.344                    20902372.789
     -1841.328       -1434.697          52.300          43.300
 127170952.776 6  99094304.73143  24199837.805                    24199842.656
      -554.328        -431.606          41.100          22.300
 114083094.125 8  88895989.41946  21709299.656                    21709306.699
      2753.063        2145.367          51.100          41.600
 116944055.470 7  91125296.95846  22253723.828                    22253732.695
     -2946.742       -2295.983          44.100          37.300
 114756451.801 7  89420629.12046  21837433.820                    21837436.195
      -449.348        -349.935          46.300          36.900
 18  2 20  8 40 30.0000000  0  8G07G05G23G09G16G30G06G02
 110078390.358 8  85775415.55546  20947224.555                    20947228.070
      1128.008         879.097          50.200          41.400
 117512353.119 8  91568096.95645  22361861.695                    22361865.969
      2900.113        2259.824          49.200          35.700
 124911792.306 7  97333909.81444  23769933.375                    23769936.879
     -2848.559       -2219.746          44.500          25.700
 109898032.485 8  85634902.23647  20912906.406                    20912912.945
     -1851.039       -1442.364          52.100          43.700
 127187887.774 6  99107500.79143  24203060.648                    24203066.371
      -574.641        -447.598          40.200          22.800
 114000701.813 8  88831787.62746  21693620.445                    21693628.066
      2739.961        2135.131          50.700          41.300
 117032631.877 7  91194317.50746  22270579.313                    22270588.164
     -2958.293       -2305.062          44.600          37.600
 114770211.245 7  89431350.75745  21840052.258                    21840053.941
      -467.770        -364.344          47.200          35.700
 18  2 20  8 41  0.0000000  0  8G07G05G23G09G16G30G06G02
 110044811.894 8  85749250.52046  20940834.664                    20940838.664
      1110.637         865.655          50.600          41.600
 117425472.330 8  91500397.64645  22345328.992                    22345332.719
      2892.000        2253.608          49.600          35.400
 124997305.053 7  97400543.11344  23786206.031                    23786208.930
     -2852.223       -2222.425          42.000          26.700
 109953713.661 8  85678290.14347  20923502.445                    20923508.305
     -1860.937       -1449.948          52.300          43.500
 127205436.809 6  99121175.33243  24206400.555                    24206405.879
      -595.512        -463.591          39.000          22.500
 113918701.892 8  88767891.62246  21678016.141                    21678023.535
      2726.699        2124.895          50.200          41.800
 117121554.555 7  91263607.88346  22287501.398                    22287509.492
     -2969.965       -2314.037          45.700          37.400
 114784522.858 7  89442502.66346  21842775.453                    21842777.418
      -486.312        -378.700          46.500          36.200
 18  2 20  8 41 30.0000000  0  8G07G05G23G09G16G30G06G02
 110011751.274 8  85723489.00947  20934543.305                    20934547.305
      1093.176         852.102          49.200          42.100
 117338830.456 8  91432884.49445  22328841.523                    22328845.480
      2883.840        2247.292          49.600          35.900
 125082919.571 6  97467255.67044  23802498.109                    23802500.145
     -2855.699       -2225.141          41.300          25.800
 110009685.840 8  85721904.81447  20934153.672                    20934159.672
     -1870.777       -1457.601          50.800          43.000
 127223598.989 6  99135327.66043  24209856.953                    24209861.719
      -615.730        -479.547          38.600          22.200
 113837096.382 8  88704302.94646  21662487.656                    21662494.219
      2713.414        2114.530          51.300          41.600
 117210820.590 7  91333165.80846  22304488.445                    22304496.234
     -2981.437       -2322.998          44.800          37.300
 114799386.135 7  89454084.41545  21845604.117                    21845605.410
      -504.828        -393.102          47.300          35.300
 18  2 20  8 42  0.0000000  0  8G07G05G23G09G16G30G06G02
 109979211.586 8  85698133.42846  20928351.102                    20928355.398
      1076.090         838.780          49.500          41.300
 117252432.152 8  91365561.14946  22312400.703                    22312404.613
      2875.949        2241.166          49.600          36.000
 125168637.180 6  97534048.57444  23818808.938                    23818811.410
     -2858.867       -2227.600          41.000          26.100
 110065950.246 8  85765747.20547  20944860.500                    20944866.348
     -1880.297       -1464.953          51.100          43.400
 127242376.309 6  99149959.33343  24213430.320                    24213433.820
      -636.051        -495.306          41.400          22.200
 113755889.771 8  88641025.08846  21647034.820                    21647041.316
      2700.277        2104.359          52.100          41.800
 117300429.645 7  91402991.03546  22321539.516                    22321547.988
     -2992.566       -2331.661          46.400          36.200
 114814802.932 7  89466097.50746  21848537.516                    21848539.277
      -523.023        -407.238          46.500          36.400
 18  2 20  8 42 30.0000000  0  8G07G05G23G09G16G30G06G02
 109947187.128 8  85673179.31446  20922256.844                    20922261.520
      1059.023         825.310          49.500          41.400
 117166273.986 8  91298424.93046  22296005.078                    22296009.324
      2868.102        2234.850          50.700          36.100
 125254451.075 6  97600916.47744  23835139.781                    23835142.582
     -2861.910       -2230.141          41.300          26.400
 110122499.450 8  85809811.51347  20955621.281                    20955627.637
     -1889.512       -1472.375          50.600          43.800
 127261762.457 6  99165065.46043  24217118.258                    24217121.359
      -656.250        -511.174          41.400          21.300
 113675077.877 8  88578054.78246  21631656.617                    21631663.895
      2687.344        2094.040          52.600          41.800
 117390372.715 7  91473076.51446  22338656.031                    22338663.855
     -3003.422       -2340.363          45.400          36.900
 114830766.123 7  89478536.33845  21851575.602                    21851576.527
      -540.961        -421.477          47.600          35.700
 18  2 20  8 43  0.0000000  0  8G07G05G23G09G16G30G06G02
 109915679.464 8  85648627.90446  20916261.188                    20916265.793
      1041.699         811.870          50.000          41.400
 117080357.954 8  91231477.37846  22279655.664                    22279659.719
      2859.879        2228.522          50.300          36.000
 125340361.280 6  97667859.48644  23851486.859                    23851490.563
     -2865.137       -2232.617          41.900          25.800
 110179333.272 8  85854097.59247  20966436.484                    20966442.406
     -1899.227       -1479.779          51.000          43.200
 127281757.486 6  99180646.04543  24220923.352                    24220926.777
      -676.547        -527.002          39.900          21.800
 113594663.762 8  88515394.42246  21616354.078                    21616361.480
      2673.848        2083.675          52.300          41.900
 117480647.904 7  91543420.80346  22355833.961                    22355842.180
     -3014.660       -2348.956          45.500          36.900
 114847276.246 7  89491401.38545  21854716.859                    21854718.371
      -559.437        -435.706          47.900          35.400
 18  2 20  8 43 30.0000000  0  8G07G05G23G09G16G30G06G02
 109884691.807 8  85624481.68847  20910364.305                    20910368.926
      1024.305         798.354          49.500          42.100
 116994689.038 8  91164722.37845  22263353.531                    22263357.672
      2851.527        2222.061          48.800          35.400
 125426369.830 6  97734879.06744  23867854.758                    23867856.848
     -2868.570       -2235.210          41.600          25.200
 110236453.013 8  85898606.46847  20977306.117                    20977312.004
     -1908.699       -1487.194          51.200          43.100
 127302363.718 6  99196702.84243  24224844.445                    24224849.215
      -697.000        -542.858          39.200          20.100
 113514651.971 8  88453047.58046  21601127.938                    21601135.145
      2660.375        2073.178          51.200          41.700
 117571254.961 7  91614023.67946  22373076.016                    22373084.438
     -3025.699       -2357.562          45.700          36.000
 114864335.373 7  89504694.20146  21857963.352                    21857964.926
      -577.641        -449.981          47.600          36.500
 18  2 20  8 44  0.0000000  0  8G07G05G23G09G16G30G06G02
 109854225.064 8  85600741.37947  20904566.867                    20904571.203
      1006.918         784.875          49.400          42.100
 116909269.242 8  91098161.50045  22247098.797                    22247102.469
      2843.199        2215.613          49.500          35.800
 125512475.438 6  97801974.28644  23884240.063                    23884242.930
     -2871.680       -2237.613          41.400          26.200
 110293857.698 8  85943337.39847  20988229.438                    20988235.859
     -1918.184       -1494.531          50.400          43.500
 127323580.487 6  99213235.31543  24228882.422                    24228888.133
      -717.262        -558.667          38.400          21.100
 113435044.747 8  88391016.01846  21585979.664                    21585986.305
      2646.840        2062.688          51.100          41.300
 117662191.338 7  91684883.16145  22390380.695                    22390388.887
     -3036.625       -2366.025          45.000          35.800
 114881942.706 8  89518414.19546  21861314.117                    21861315.672
      -596.027        -464.159          48.200          36.100
 18  2 20  8 44 30.0000000  0  8G07G05G23G09G16G30G06G02
 109824278.507 8  85577406.40347  20898868.508                    20898872.934
       989.539         771.354          49.600          42.400
 116824098.065 8  91031794.36345  22230891.078                    22230894.680
      2834.789        2209.124          50.200          35.200
 125598675.805 6  97869143.37244  23900642.742                    23900646.355
     -2874.961       -2240.142          40.900          26.000
 110351544.724 8  85988288.32447  20999207.172                    20999213.313
     -1927.730       -1501.864          49.400          43.000
 127345406.071 6  99230242.25343  24233035.125                    24233041.000
      -737.656        -574.477          40.500          22.200
 113355842.746 8  88329300.22047  21570908.547                    21570914.699
      2633.254        2052.131          51.300          42.000
 117753452.720 7  91755995.91446  22407746.969                    22407755.500
     -3047.500       -2374.444          45.900          36.100
 114900096.301 8  89532559.83546  21864768.664                    21864769.906
      -614.270        -478.347          48.000          37.000
 18  2 20  8 45  0.0000000  0  8G07G05G23G09G16G30G06G02
 109794851.293 8  85554476.11447  20893268.484                    20893273.016
       972.262         757.778          49.300          43.000
 116739178.356 8  90965623.15745  22214731.727                    22214734.941
      2826.414        2202.501          49.500          35.400
 125684969.528 6  97936385.20744  23917064.000                    23917066.793
     -2877.984       -2242.590          39.800          25.800
 110409511.958 8  86033457.58047  21010237.813                    21010244.039
     -1936.930       -1509.173          48.700          42.600
 127367838.474 6  99247722.10043  24237303.375                    24237308.762
      -757.785        -590.293          40.900          21.100
 113277047.019 8  88267900.96747  21555914.164                    21555920.539
      2619.766        2041.508          52.100          42.200
 117845035.371 7  91827358.99645  22425174.836                    22425183.059
     -3058.012       -2382.802          44.800          35.900
 114918794.658 8  89547129.97946  21868327.031                    21868328.313
      -632.402        -492.531          48.500          36.900
 18  2 20  8 45 30.0000000  0  8G07G05G23G09G16G30G06G02
 109765947.103 8  85531953.37347  20887768.750                    20887772.605
       954.910         744.322          49.800          43.200
 116654515.073 8  90899651.76845  22198620.781                    22198624.398
      2818.051        2195.965          49.500          35.800
 125771358.816 7  98003701.51544  23933503.203                    23933506.207
     -2881.098       -2244.937          43.000          26.400
 110467761.278 8  86078846.64447  21021322.469                    21021328.320
     -1946.145       -1516.349          50.200          43.200
 127390880.036 6  99265676.57243  24241688.156                    24241691.902
      -777.969        -606.014          39.600          19.600
 113198662.594 8  88206822.21747  21540997.758                    21541004.535
      2606.098        2030.912          52.100          42.100
 117936939.472 7  91898972.55845  22442663.383                    22442671.555
     -3068.594       -2390.994          45.000          35.900
 114938039.809 7  89562126.18346  21871989.469                    21871990.574
      -650.410        -506.594          47.900          37.400
 18  2 20  8 46  0.0000000  0  8G07G05G23G09G16G30G06G02
 109737565.324 8  85509837.70847  20882367.641                    20882371.563
       937.230         730.569          49.500          42.500
 116570108.137 8  90833880.13845  22182558.508                    22182562.477
      2809.238        2189.080          49.000          35.500
 125857841.601 6  98071090.64944  23949960.445                    23949963.559
     -2884.266       -2247.525          41.100          25.300
 110526290.196 8  86124453.59147  21032460.602                    21032466.258
     -1955.660       -1523.799          50.300          43.100
 127414529.060 6  99284104.37743  24246189.172                    24246192.355
      -798.477        -621.938          38.100          19.300
 113120690.185 8  88146064.53447  21526159.891                    21526166.898
      2592.168        2020.004          51.500          42.000
 118029160.965 7  91970833.43445  22460213.109                    22460220.797
     -3079.352       -2399.374          45.500          35.800
 114957829.870 7  89577547.01146  21875755.094                    21875756.633
      -668.844        -520.927          47.800          37.200
 18  2 20  8 46 30.0000000  0  8G07G05G23G09G16G30G06G02
 109709706.570 8  85488129.59147  20877066.063                    20877070.832
       920.047         717.120          49.900          42.600
 116485959.691 8  90768309.91246  22166545.547                    22166549.203
      2800.773        2182.505          49.000          36.000
 125944416.927 6  98138551.89644  23966435.039                    23966438.324
     -2887.227       -2249.769          41.800          25.800
 110585097.594 8  86170277.53747  21043651.039                    21043656.883
     -1964.715       -1530.854          50.200          43.700
 127438784.803 6  99303004.95443  24250805.906                    24250809.340
      -818.555        -637.557          40.600          22.200
 113043131.881 8  88085629.53647  21511401.242                    21511408.086
      2578.516        2009.373          51.800          43.100
 118121697.018 7  92042939.43646  22477822.055                    22477830.227
     -3089.625       -2407.365          46.100          36.400
 114978164.122 7  89593391.85846  21879624.820                    21879625.965
      -686.773        -534.896          47.800          36.900
 18  2 20  8 47  0.0000000  0  8G07G05G23G09G16G30G06G02
 109682369.118 8  85466827.68047  20871864.172                    20871868.492
       902.422         703.448          50.500          42.100
 116402069.396 8  90702940.85446  22150581.789                    22150585.434
      2791.918        2175.641          50.000          36.200
 126031081.722 6  98206082.87244  23982926.664                    23982930.617
     -2890.375       -2252.212          41.700          26.800
 110644180.350 8  86216316.04447  21054894.273                    21054899.918
     -1974.098       -1538.142          51.900          43.500
 127463644.512 6  99322376.16544  24255536.391                    24255539.906
      -838.895        -653.353          41.800          24.500
 112965987.681 8  88025517.20247  21496721.328                    21496727.953
      2564.488        1998.442          52.100          42.600
 118214542.854 7  92115286.80246  22495489.836                    22495497.695
     -3100.008       -2415.520          46.300          36.000
 114999039.821 7  89609658.63246  21883597.164                    21883598.648
      -705.000        -549.090          47.500          36.800
 18  2 20  8 47 30.0000000  0  8G07G05G23G09G16G30G06G02
 109655558.728 8  85445936.47547  20866762.227                    20866766.277
       884.906         689.783          49.600          42.500
 116318444.586 7  90637778.67745  22134668.023                    22134671.941
      2783.047        2168.728          47.600          35.400
 126117840.710 6  98273687.23344  23999436.781                    23999440.320
     -2893.477       -2254.653          39.500          26.000
 110703542.458 8  86262572.22747  21066190.383                    21066196.035
     -1983.371       -1545.353          51.300          43.400
 127489112.434 6  99342221.33843  24260381.148                    24260385.176
      -859.023        -669.098          41.100          21.300
 112889264.610 8  87965733.01647  21482121.500                    21482128.168
      2550.488        1987.532          52.400          42.600
 118307700.686 7  92187877.29246  22513217.531                    22513225.844
     -3110.355       -2423.546          45.800          36.500
 115020461.404 7  89626350.74546  21887673.828                    21887674.988
      -723.031        -563.224          47.300          36.300
 18  2 20  8 48  0.0000000  0  8G07G05G23G09G16G30G06G02
 109629272.562 8  85425453.76346  20861760.055                    20861764.387
       867.367         676.112          50.200          41.900
 116235085.091 8  90572823.22946  22118805.352                    22118809.781
      2774.109        2161.781          49.000          36.200
 126204689.423 6  98341361.52444  24015963.508                    24015966.875
     -2896.535       -2257.006          41.300          25.400
 110763179.231 8  86309042.42047  21077538.883                    21077545.020
     -1992.539       -1552.498          50.700          43.400
 127515184.856 6  99362537.51343  24265344.281                    24265346.270
      -879.254        -684.811          41.700          22.000
 112812961.245 8  87906275.84047  21467601.188                    21467607.762
      2536.332        1976.582          52.300          42.500
 118401164.299 7  92260706.05346  22531003.070                    22531011.082
     -3120.504       -2431.482          46.700          37.500
 115042424.658 7  89643464.96146  21891852.828                    21891854.465
      -741.168        -577.312          47.500          36.800
 18  2 20  8 48 30.0000000  0  8G07G05G23G09G16G30G06G02
 109603512.175 8  85405380.74346  20856858.000                    20856862.188
       849.957         662.492          50.400          41.800
 116151993.298 7  90508076.40845  22102993.633                    22102998.023
      2765.281        2154.843          47.300          35.600
 126291628.700 6  98409106.38044  24032508.172                    24032510.750
     -2899.395       -2259.293          41.300          25.300
 110823090.871 8  86355726.81747  21088939.648                    21088945.504
     -2001.578       -1559.599          51.500          43.000
 127541862.168 6  99383325.03143  24270420.047                    24270423.656
      -899.277        -700.506          40.400          22.300
 112737080.844 8  87847148.27847  21453161.602                    21453168.406
      2522.309        1965.601          52.300          42.900
 118494932.122 7  92333771.86646  22548846.672                    22548854.191
     -3130.637       -2439.328          46.600          36.900
 115064930.181 7  89661001.71046  21896135.219                    21896137.027
      -759.145        -591.357          47.100          36.100
 18  2 20  8 49  0.0000000  0  8G07G05G23G09G16G30G06G02
 109578279.006 8  85385718.54146  20852056.227                    20852060.207
       832.422         648.836          50.300          41.800
 116069172.215 7  90443540.49846  22087233.242                    22087237.273
      2756.238        2147.819          47.800          36.100
 126378657.832 7  98476921.22744  24049068.961                    24049071.613
     -2902.398       -2261.581          43.300          25.700
 110883276.976 8  86402625.08347  21100392.578                    21100398.469
     -2010.648       -1566.662          51.800          43.400
 127569143.858 6  99404583.48844  24275611.992                    24275616.621
      -919.375        -716.186          38.800          24.600
 112661626.162 8  87788352.45747  21438803.234                    21438809.859
      2508.152        1954.535          51.700          43.000
 118589002.088 7  92407073.11346  22566747.719                    22566755.375
     -3140.645       -2447.117          46.300          36.400
 115087977.442 7  89678960.61546  21900521.047                    21900522.719
      -777.203        -605.388          46.300          36.100
 18  2 20  8 49 30.0000000  0  8G07G05G23G09G16G30G06G02
 109553568.213 8  85366463.38846  20847353.844                    20847358.316
       814.770         635.156          49.500          41.700
 115986618.402 8  90379212.87145  22071523.734                    22071528.117
      2747.148        2140.756          48.300          35.900
 126465771.510 7  98544801.95544  24065645.906                    24065649.477
     -2905.387       -2263.891          42.100          25.100
 110943731.553 8  86449732.52347  21111896.828                    21111903.121
     -2019.828       -1573.739          52.300          43.300
 127597024.438 6  99426308.58743  24280916.578                    24280921.973
      -939.457        -731.796          38.400          21.300
 112586594.233 8  87729886.03947  21424525.047                    21424531.426
      2493.820        1943.428          52.100          42.900
 118683366.494 7  92480603.79046  22584704.711                    22584712.488
     -3150.582       -2454.841          45.800          36.600
 115111560.735 7  89697337.18546  21905009.641                    21905010.758
      -795.250        -619.385          47.000          36.000
 18  2 20  8 50  0.0000000  0  8G07G05G23G09G16G30G06G02
 109529386.382 8  85347620.40747  20842752.383                    20842756.406
       797.313         621.552          50.400          42.400
 115904340.279 8  90315100.05846  22055866.102                    22055871.063
      2738.078        2133.693          48.100          36.000
 126552975.245 6  98612752.86044  24082242.086                    24082244.371
     -2908.242       -2266.074          41.400          26.600
 111004459.396 8  86497052.90247  21123452.867                    21123458.809
     -2028.695       -1580.669          51.600          43.000
 127625509.043 6  99448504.34243  24286338.102                    24286340.754
      -959.445        -747.328          37.300          20.600
 112511992.921 8  87671755.16747  21410328.813                    21410335.492
      2479.574        1932.362          51.900          42.800
 118778028.393 7  92554366.28146  22602718.625                    22602726.125
     -3160.211       -2462.360          46.500          36.200
 115135685.118 7  89716135.40346  21909599.867                    21909601.742
      -813.102        -633.303          47.300          36.400
 18  2 20  8 50 30.0000000  0  8G07G05G23G09G16G30G06G02
 109505728.908 8  85329186.03247  20838250.453                    20838254.344
       779.754         607.880          48.700          42.300
 115822334.607 7  90251199.53246  22040261.359                    22040265.371
      2728.867        2126.548          46.900          36.300
 126640262.882 7  98680769.18544  24098851.656                    24098853.184
     -2910.977       -2268.264          43.100          24.100
 111065454.401 8  86544581.48647  21135059.523                    21135065.398
     -2037.621       -1587.642          51.900          43.100
 127654591.496 6  99471166.06043  24291871.531                    24291874.160
      -979.555        -762.896          39.000          21.500
 112437819.195 8  87613957.50047  21396213.625                    21396220.500
      2465.203        1921.187          52.500          42.700
 118872980.032 7  92628354.53746  22620786.984                    22620794.719
     -3169.945       -2469.916          46.600          36.700
 115160344.960 7  89735350.84045  21914292.375                    21914294.492
      -831.086        -647.242          47.800          35.900
 18  2 20  8 51  0.0000000  0  8G07G05G23G09G16G30G06G02
 109482598.488 8  85311162.32646  20833848.742                    20833852.742
       762.184         594.104          51.200          41.800
 115740607.022 7  90187515.69946  22024709.203                    22024713.250
      2719.535        2119.224          47.900          36.500
 126727636.383 6  98748852.36844  24115478.188                    24115479.773
     -2913.996       -2270.593          41.400          25.200
 111126717.925 8  86592319.27547  21146718.000                    21146723.680
     -2046.598       -1594.668          51.000          42.400
 127684273.742 6  99494295.08443  24297519.188                    24297524.063
      -999.266        -778.558          39.000          21.800
 112364077.396 8  87556496.38347  21382181.125                    21382187.766
      2450.859        1909.892          51.900          42.900
 118968220.927 7  92702568.20745  22638910.344                    22638918.703
     -3179.492       -2477.461          46.900          35.800
 115185541.641 7  89754984.58546  21919087.047                    21919089.160
      -848.836        -661.251          47.000          36.200
 18  2 20  8 51 30.0000000  0  8G07G05G23G09G16G30G06G02
 109459997.737 8  85293551.35947  20829548.313                    20829552.094
       744.480         580.350          49.700          42.200
 115659161.174 8  90124051.42146  22009210.750                    22009214.730
      2710.059        2111.898          50.200          37.400
 126815096.741 7  98817003.23443  24132122.031                    24132123.785
     -2916.848       -2272.809          42.800          23.600
 111188250.897 8  86640267.02947  21158427.234                    21158433.328
     -2055.656       -1601.657          51.400          42.700
 127714556.714 6  99517892.10543  24303282.977                    24303286.559
     -1019.414        -794.132          39.700          20.400
 112290771.574 8  87499374.99747  21368231.047                    21368237.840
      2436.246        1898.544          51.800          42.400
 119063750.418 7  92777006.73746  22657089.461                    22657097.340
     -3189.117       -2484.916          45.700          36.900
 115211276.288 7  89775037.54246  21923984.641                    21923986.129
      -866.801        -675.207          47.000          37.000
 18  2 20  8 52  0.0000000  0  8G07G05G23G09G16G30G06G02
 109437924.437 8  85276351.39047  20825347.766                    20825351.398
       726.891         566.655          50.500          42.100
 115577996.301 8  90060806.07546  21993765.406                    21993769.875
      2700.742        2104.577          50.300          36.500
 126902641.063 7  98885219.53743  24148780.641                    24148783.309
     -2919.602       -2274.980          42.600          23.600
 111250049.724 8  86688421.95347  21170187.422                    21170193.129
     -2064.516       -1608.534          50.900          42.600
 127745437.303 6  99541954.92843  24309158.461                    24309163.191
     -1039.309        -809.621          39.200          22.000
 112217901.107 8  87442592.83047  21354364.484                    21354371.023
      2421.617        1887.212          51.300          42.200
 119159563.093 7  92851665.93246  22675322.211                    22675330.027
     -3198.555       -2492.223          45.000          36.300
 115237545.661 8  89795507.16246  21928983.781                    21928985.133
      -884.648        -689.085          48.000          36.100
 18  2 20  8 52 30.0000000  0  8G07G05G23G09G16G30G06G02
 109416377.304 8  85259561.42647  20821247.477                    20821251.199
       709.426         553.073          50.500          42.100
 115497113.150 8  89997780.24246  21978374.359                    21978378.211
      2691.371        2097.334          50.000          37.500
 126990266.779 7  98953499.29544  24165455.336                    24165457.387
     -2922.242       -2276.985          43.400          24.500
 111312111.539 8  86736781.79947  21181997.563                    21182003.238
     -2073.105       -1615.255          50.600          43.000
 127776911.955 6  99566480.59143  24315148.094                    24315151.863
     -1059.102        -824.943          39.200          20.600
 112145466.090 8  87386149.99446  21340580.734                    21340587.160
      2407.191        1875.977          51.700          41.700
 119255654.344 7  92926542.20846  22693607.727                    22693615.984
     -3207.652       -2499.338          46.000          36.500
 115264347.144 7  89816391.42746  21934083.641                    21934085.117
      -902.262        -702.788          47.600          36.200
 18  2 20  8 53  0.0000000  0  8G07G05G23G09G16G30G06G02
 109395354.318 8  85243179.88847  20817247.039                    20817250.707
       692.035         539.394          50.900          42.000
 115416511.066 8  89934973.43346  21963036.438                    21963040.184
      2682.012        2089.930          50.000          37.300
 127077970.681 7  99021839.97044  24182144.023                    24182147.238
     -2924.812       -2279.079          43.900          25.800
 111374433.171 8  86785344.11346  21193856.453                    21193862.926
     -2081.699       -1622.072          51.400          41.900
 127808978.295 6  99591467.31343  24321250.797                    24321254.262
     -1079.066        -840.397          40.200          21.800
 112073466.351 8  87330046.32346  21326879.344                    21326885.977
      2392.699        1864.576          51.700          41.800
 119352019.285 7  93001631.74646  22711945.008                    22711953.125
     -3216.723       -2506.480          45.000          36.000
 115291677.125 7  89837687.51346  21939283.984                    21939285.504
      -919.789        -716.587          47.800          36.100
 18  2 20  8 53 30.0000000  0  8G07G05G23G09G16G30G06G02
 109374860.676 8  85227210.82147  20813346.938                    20813350.688
       674.273         525.618          51.000          42.400
 115336197.319 8  89872391.31146  21947753.156                    21947756.629
      2672.289        2082.402          50.300          37.800
 127165757.125 7  99090244.93843  24198848.680                    24198852.590
     -2927.523       -2281.213          42.000          23.000
 111437018.292 8  86834111.72047  21205766.234                    21205772.539
     -2090.547       -1628.927          50.900          43.000
 127841640.131 6  99616918.05743  24327465.695                    24327470.934
     -1098.707        -855.854          38.600          22.800
 112001908.527 8  87274287.00246  21313262.266                    21313268.805
      2377.898        1853.059          50.800          41.700
 119448659.859 7  93076936.03546  22730335.461                    22730343.223
     -3225.914       -2513.613          45.800          36.400
 115319539.733 7  89859398.63346  21944586.281                    21944587.422
      -937.562        -730.399          46.200          36.500
 18  2 20  8 54  0.0000000  0  8G07G05G23G09G16G30G06G02
 109354897.275 8  85211654.93547  20809548.055                    20809551.688
       656.715         511.953          51.400          43.000
 115256174.996 8  89810036.24546  21932525.109                    21932528.727
      2662.758        2074.907          50.100          37.200
 127253626.223 7  99158714.30044  24215570.453                    24215573.738
     -2930.234       -2283.253          43.700          24.200
 111499866.493 8  86883084.32947  21217725.992                    21217732.234
     -2099.176       -1635.639          51.300          42.500
 127874897.133 6  99642832.54443  24333794.836                    24333798.406
     -1118.262        -871.178          38.300          20.100
 111930795.215 8  87218874.03947  21299729.805                    21299736.469
      2363.094        1841.584          50.500          42.700
 119545573.800 7  93152453.36846  22748777.531                    22748785.340
     -3234.852       -2520.575          46.800          36.200
 115347934.407 7  89881524.34846  21949989.578                    21949991.082
      -955.141        -744.110          47.400          36.600
 18  2 20  8 54 30.0000000  0  8G07G05G23G09G16G30G06G02
 109335459.895 8  85196508.93547  20805849.188                    20805853.211
       639.098         498.236          51.000          42.400
 115176441.275 8  89747906.06846  21917352.367                    21917355.898
      2652.934        2067.346          49.900          37.300
 127341572.493 7  99227243.85644  24232306.453                    24232309.199
     -2932.875       -2285.300          43.900          24.200
 111562972.209 8  86932257.60547  21229734.273                    21229741.074
     -2107.887       -1642.359          51.900          43.100
 127908743.045 6  99669206.00143  24340234.539                    24340238.730
     -1138.031        -886.515          38.100          21.700
 111860123.722 8  87163805.36547  21286281.414                    21286288.555
      2348.336        1830.051          50.600          42.300
 119642753.904 7  93228178.07245  22767270.430                    22767277.930
     -3243.770       -2527.481          46.400          35.600
 115376855.899 7  89904060.56945  21955493.492                    21955494.750
      -972.887        -757.818          46.400          35.300
 18  2 20  8 55  0.0000000  0  8G07G05G23G09G16G30G06G02
 109316548.390 8  85181772.70147  20802250.758                    20802254.313
       621.539         484.550          51.000          42.100
 115096998.234 8  89686002.42646  21902234.828                    21902238.523
      2643.180        2059.738          51.000          38.100
 127429594.761 6  99295832.56843  24249056.227                    24249059.445
     -2935.441       -2287.289          41.700          22.500
 111626333.918 8  86981630.36347  21241791.461                    21241798.230
     -2116.383       -1649.021          51.300          42.700
 127943177.078 6  99696037.67443  24346788.195                    24346792.438
     -1157.699        -901.818          37.500          22.300
 111789895.472 8  87109082.07247  21272917.344                    21272924.160
      2333.363        1818.473          50.900          42.600
 119740196.790 7  93304107.56545  22785812.836                    22785821.039
     -3252.465       -2534.304          46.200          35.900
 115406302.474 7  89927005.95646  21961097.203                    21961098.461
      -990.457        -771.480          46.400          36.200
 18  2 20  8 55 30.0000000  0  8G07G05G23G09G16G30G06G02
 109298165.393 8  85167448.29947  20798752.695                    20798755.941
       603.922         470.900          51.400          42.100
 115017849.769 8  89624328.27946  21887173.250                    21887176.840
      2633.344        2052.159          50.000          37.500
 127517694.914 7  99364481.99343  24265821.375                    24265824.180
     -2937.953       -2289.213          42.700          23.800
 111689952.851 8  87031203.51947  21253898.398                    21253904.773
     -2124.887       -1655.591          52.500          43.100
 127978199.854 6  99723328.10743  24353451.602                    24353456.977
     -1177.238        -916.988          36.700          20.400
 111720114.578 8  87054707.36947  21259638.609                    21259645.660
      2318.566        1806.934          50.800          42.600
 119837901.946 7  93380241.42846  22804405.508                    22804413.832
     -3261.148       -2540.986          45.800          36.400
 115436275.342 7  89950361.43746  21966800.750                    21966801.969
     -1007.773        -785.034          46.300          36.000
 18  2 20  8 56  0.0000000  0  8G07G05G23G09G16G30G06G02
 109280309.257 8  85153534.43247  20795354.672                    20795358.297
       586.477         457.236          51.500          42.900
 114938996.254 8  89562883.98046  21872168.617                    21872171.730
      2623.641        2044.485          50.000          36.900
 127605869.926 7  99433189.71743  24282600.211                    24282603.313
     -2940.309       -2291.117          42.300          22.200
 111753825.804 8  87080974.64447  21266052.867                    21266059.340
     -2133.281       -1662.162          51.700          42.900
 128013808.703 6  99751075.22243  24360229.289                    24360231.758
     -1196.734        -932.191          36.300          20.900
 111650780.749 8  87000681.02647  21246444.813                    21246451.867
      2303.734        1795.302          51.100          42.600
 119935864.415 7  93456575.77746  22823047.383                    22823055.848
     -3269.691       -2547.628          46.200          36.200
 115466771.080 7  89974124.33646  21972603.570                    21972604.723
     -1025.215        -798.589          46.400          36.700
 18  2 20  8 56 30.0000000  0  8G07G05G23G09G16G30G06G02
 109262979.861 8  85140031.00947  20792056.945                    20792060.809
       568.797         443.394          51.100          42.300
 114860440.195 8  89501671.48346  21857219.453                    21857222.676
      2613.578        2036.566          50.200          36.800
 127694119.541 7  99501955.60743  24299393.992                    24299397.074
     -2943.008       -2293.239          43.000          23.400
 111817952.068 8  87130943.13447  21278255.984                    21278261.953
     -2141.789       -1668.869          51.000          43.000
 128050002.618 5  99779278.28143  24367116.117                    24367118.941
     -1216.129        -947.537          35.700          20.900
 111581896.131 8  86947004.70547  21233336.773                    21233343.574
      2288.695        1783.462          51.500          42.600
 120034081.673 7  93533108.66446  22841737.313                    22841746.082
     -3278.113       -2554.353          46.000          36.000
 115497789.111 7  89998294.22946  21978506.125                    21978507.621
     -1042.715        -812.321          45.900          36.200
 18  2 20  8 57  0.0000000  0  8G07G05G23G09G16G30G06G02
 109246182.386 8  85126942.07747  20788860.719                    20788864.125
       551.160         429.670          50.000          42.200
 114782188.249 8  89440695.93846  21842328.203                    21842331.961
      2603.434        2028.736          48.400          37.200
 127782447.425 6  99570782.43843  24316202.672                    24316205.695
     -2945.332       -2295.169          41.900          21.800
 111882335.162 8  87181111.78347  21290507.094                    21290513.719
     -2150.285       -1675.477          51.400          42.600
 128086784.910 6  99807939.79143  24374115.141                    24374119.793
     -1235.727        -962.698          36.500          21.100
 111513467.138 8  86893683.44147  21220315.086                    21220321.875
      2273.574        1771.699          51.100          43.300
 120132555.404 7  93609841.39846  22860476.539                    22860485.020
     -3286.562       -2560.900          46.000          36.200
 115529333.397 7  90022874.18446  21984509.086                    21984510.258
     -1060.129        -825.885          46.700          36.400
 18  2 20  8 57 30.0000000  0  8G07G05G23G09G16G30G06G02
 109229912.225 8  85114264.03847  20785764.625                    20785768.473
       533.512         415.968          50.400          42.300
 114704238.171 8  89379955.61646  21827495.266                    21827498.699
      2593.152        2020.833          50.200          37.500
 127870848.408 7  99639666.26444  24333025.445                    24333027.422
     -2948.031       -2297.067          43.300          25.200
 111946969.265 8  87231475.99647  21302806.656                    21302813.250
     -2158.777       -1681.974          51.200          42.600
 128124149.533 6  99837055.03843  24381226.180                    24381229.465
     -1255.352        -977.838          37.300          18.600
 111445490.792 8  86840714.86747  21207379.711                    21207386.531
      2258.168        1759.889          51.300          43.000
 120231278.045 7  93686768.08245  22879262.633                    22879271.594
     -3295.039       -2567.352          45.800          35.000
 115561397.448 7  90047859.14345  21990610.250                    21990611.691
     -1077.555        -839.372          46.500          35.900
 18  2 20  8 58  0.0000000  0  8G07G05G23G09G16G30G06G02
 109214169.617 8  85101997.09347  20782768.336                    20782772.023
       515.738         402.161          51.200          42.100
 114626591.876 8  89319452.02146  21812719.477                    21812723.262
      2582.828        2012.836          49.200          37.800
 127959322.087 7  99708606.73644  24349860.242                    24349863.730
     -2950.609       -2299.049          43.600          24.900
 112011853.634 8  87282035.22147  21315153.719                    21315160.004
     -2167.086       -1688.553          51.900          42.300
 128162095.602 6  99866623.47843  24388445.680                    24388450.563
     -1274.832        -993.018          36.700          19.600
 111377969.066 8  86788100.54647  21194530.453                    21194537.703
      2242.914        1747.974          51.300          43.000
 120330246.978 7  93763886.70645  22898095.266                    22898104.961
     -3303.207       -2573.810          44.100          35.000
 115593980.296 7  90073248.36246  21996810.828                    21996811.707
     -1094.937        -852.919          46.300          36.000
 18  2 20  8 58 30.0000000  0  8G07G05G23G09G16G30G06G02
 109198956.732 8  85090142.90947  20779873.375                    20779877.645
       498.426         388.542          49.800          42.100
 114549253.909 7  89259188.67246  21798002.070                    21798006.230
      2572.801        2004.945          47.500          37.600
 128047869.562 7  99777604.68943  24366709.578                    24366714.172
     -2952.730       -2300.807          42.700          22.500
 112076989.160 8  87332790.14847  21327549.594                    21327554.945
     -2175.277       -1694.914          50.300          42.600
 128200624.262 6  99896645.69843  24395778.641                    24395783.855
     -1293.883       -1007.976          36.400          21.100
 111310905.729 8  86735843.42047  21181768.805                    21181775.613
      2227.906        1736.195          51.700          42.900
 120429461.357 7  93841196.55845  22916974.852                    22916984.531
     -3311.074       -2579.985          45.100          34.500
 115627082.961 7  90099042.62946  22003110.195                    22003111.402
     -1111.902        -866.254          45.100          36.000
 18  2 20  8 59  0.0000000  0  8G07G05G23G09G16G30G06G02
 109184272.175 8  85078700.40746  20777079.172                    20777083.348
       480.742         374.833          51.000          41.600
 114472224.380 8  89199165.66146  21783344.469                    21783347.813
      2562.578        1996.929          49.400          37.600
 128136488.698 7  99846658.47144  24383574.891                    24383577.910
     -2955.109       -2302.664          42.200          24.800
 112142373.075 8  87383738.65946  21339990.563                    21339996.922
     -2183.613       -1701.354          50.700          41.600
 128239731.778 6  99927119.07643  24403220.219                    24403225.105
     -1313.141       -1022.998          37.100          20.100
 111244300.896 8  86683943.56447  21169094.172                    21169101.488
      2212.563        1724.268          51.800          43.200
 120528916.659 7  93918694.16945  22935900.773                    22935910.320
     -3319.098       -2586.217          43.500          34.200
 115660702.523 7  90125239.69445  22009507.164                    22009509.172
     -1129.168        -879.684          45.100          35.900
 18  2 20  8 59 30.0000000  0  8G07G05G23G09G16G30G06G02
 109170113.628 8  85067667.78446  20774384.617                    20774388.703
       463.223         361.199          49.600          41.300
 114395503.074 8  89139382.83846  21768744.398                    21768748.355
      2552.262        1988.934          48.600          38.100
 128225176.171 7  99915765.55944  24400451.586                    24400454.363
     -2957.355       -2304.381          43.800          25.800
 112208002.127 8  87434878.15446  21352479.477                    21352485.578
     -2191.617       -1707.663          51.100          41.800
 128279415.191 6  99958041.25543  24410771.813                    24410775.211
     -1332.273       -1037.914          38.300          20.400
 111178153.944 8  86632400.49647  21156506.805                    21156514.043
      2197.340        1712.391          52.300          42.900
 120628607.717 7  93996375.47545  22954871.289                    22954881.016
     -3326.891       -2592.276          43.900          34.100
 115694835.341 7  90151836.65546  22016002.922                    22016004.742
     -1146.281        -892.937          46.300          36.400
                            4  1
RINEX FILE SPLICE; other post-header comments skipped       COMMENT
 18  2 20  9  0  0.0000000  0  8G07G05G23G09G16G30G06G02
 109156484.997 8  85057048.07347  20771791.359                    20771795.207
       445.281                          51.000          42.400
 114319095.990 8  89079844.85446  21754204.711                    21754208.320
      2541.465                          48.700          37.200
 128313935.328 7  99984928.39643  24417342.047                    24417345.387
     -2959.926                          42.900          22.500
 112273878.874 8  87486210.67447  21365015.344                    21365021.680
     -2200.168                          52.100          42.100
 128319676.748 6  99989413.85543  24418433.875                    24418437.441
     -1351.852                          39.000          19.900
 111112470.278 8  86581218.43847  21144007.852                    21144014.625
      2181.559                          52.300          43.400
 120728535.334 7  94074241.11645  22973887.508                    22973896.813
     -3334.977                          44.100          33.800
 115729483.864 7  90178835.47946  22022596.508                    22022598.164
     -1163.672                          46.500          36.300
 18  2 20  9  0 30.0000000  0  8G07G05G23G09G16G30G06G02
 109143387.876 8  85046842.53247  20769299.063                    20769302.953
       427.809         333.504          50.500          42.500
 114243006.710 8  89020554.48846  21739725.695                    21739729.344
      2531.047        1972.320          48.300          37.700
 128402767.001 7 100054147.79744  24434245.750                    24434249.590
     -2962.316       -2308.212          42.100          26.000
 112340004.017 8  87537736.73646  21377599.000                    21377604.750
     -2208.242       -1720.664          51.400          41.500
 128360517.198 6 100021237.61743  24426204.242                    24426208.316
     -1370.992       -1068.064          37.700          19.300
 111047253.331 8  86530400.05847  21131597.305                    21131604.109
      2166.152        1688.066          52.000          43.200
 120828698.333 7  94152290.18945  22992947.078                    22992957.223
     -3342.617       -2604.546          43.600          33.200
 115764648.479 7  90206236.43546  22029288.172                    22029289.590
     -1180.746        -919.846          46.700          36.200
 18  2 20  9  1  0.0000000  0  8G07G05G23G09G16G30G06G02
 109130818.934 8  85037048.55447  20766907.500                    20766911.270
       409.965         319.773          50.400          42.000
 114167234.579 8  88961511.28246  21725306.633                    21725310.250
      2520.273        1964.029          48.400          38.200
 128491667.390 6 100123420.78544  24451162.023                    24451166.074
     -2964.680       -2310.052          40.500          25.300
 112406373.187 8  87589452.95346  21390228.016                    21390234.602
     -2216.512       -1727.013          51.500          41.600
 128401931.029 6 100053508.06443  24434086.102                    24434089.688
     -1390.094       -1082.909          39.500          21.700
 110982501.443 8  86479944.04647  21119275.398                    21119282.000
      2150.473        1675.950          52.500          43.200
 120929090.600 7  94230517.88145  23012051.047                    23012061.168
     -3350.336       -2610.515          42.300          33.000
 115800324.766 7  90234036.13046  22036077.148                    22036078.586
     -1197.988        -933.144          46.500          36.300
 18  2 20  9  1 30.0000000  0  9G07G05G23G09G16G13G30G06G02
 109118782.299 8  85027669.37247  20764617.211                    20764620.746
       392.320         305.997          51.500          42.200
 114091785.834 8  88902720.05646  21710949.094                    21710953.324
      2509.594        1955.677          49.300          38.300
 128580640.103 6 100192750.04644  24468094.719                    24468097.281
     -2966.906       -2311.838          40.700          25.200
 112472989.523 8  87641361.76747  21402905.258                    21402911.266
     -2224.633       -1733.346          51.900          42.000
 128443921.336 6 100086227.77843  24442076.773                    24442080.047
     -1409.176       -1097.853          38.600          20.100
 129822228.355 6 101160232.13442  24704355.125                    24704361.555
      3371.566        2627.290          37.500          17.800
 110918220.433 8  86429854.95247  21107043.375                    21107049.648
      2134.805        1663.761          52.400          43.700
 121029713.360 7  94308925.18545  23031199.586                    23031208.934
     -3357.855       -2616.382          43.200          34.200
 115836515.266 7  90262236.52546  22042963.953                    22042965.875
     -1214.945        -946.414          46.500          36.600
 18  2 20  9  2  0.0000000  0  9G07G05G23G09G16G13G30G06G02
 109107272.986 8  85018701.06746  20762427.180                    20762430.652
       374.730         292.311          50.700          41.800
 114016656.847 8  88844177.99346  21696652.594                    21696656.641
      2498.828        1947.338          49.900          38.400
 128669679.019 6 100262130.90843  24485038.188                    24485040.543
     -2969.199       -2313.572          40.600          22.200
 112539846.713 8  87693458.26046  21415627.867                    21415633.637
     -2232.770       -1739.605          52.100          41.600
 128486481.747 6 100119391.70443  24450176.211                    24450179.234
     -1428.262       -1112.618          38.900          21.700
 129721122.045 6 101081447.96442  24685115.328                    24685120.773
      3368.676        2625.074          37.100          17.800
 110854406.731 8  86380129.98447  21094899.977                    21094906.270
      2119.164        1651.593          52.400          43.200
 121130558.536 7  94387505.79645  23050389.844                    23050398.965
     -3365.344       -2622.168          44.300          33.700
 115873213.585 7  90290832.63946  22049946.680                    22049948.844
     -1231.809        -959.589          46.300          36.100
 18  2 20  9  2 30.0000000  0  9G07G05G23G09G16G13G30G06G02
 109096292.620 8  85010144.94347  20760337.227                    20760341.270
       357.223         278.564          50.800          42.100
 113941851.477 8  88785888.10346  21682417.281                    21682421.680
      2488.168        1938.917          50.000          38.700
 128758784.977 6 100331564.01043  24501994.750                    24501996.988
     -2971.258       -2315.262          40.000          23.000
 112606945.123 8  87745742.73046  21428395.781                    21428402.102
     -2240.594       -1745.848          51.200          41.800
 128529612.153 6 100152999.80543  24458383.453                    24458387.008
     -1447.113       -1127.411          39.100          20.100
 129620100.068 6 101002729.60643  24665892.477                    24665896.391
      3365.957        2622.896          36.600          18.300
 110791063.370 8  86330771.52547  21082846.016                    21082852.547
      2103.629        1639.367          52.300          43.600
 121231624.599 7  94466258.54545  23069621.742                    23069630.598
     -3372.469       -2627.844          43.200          32.700
 115910419.686 7  90319824.42446  22057026.734                    22057029.547
     -1248.551        -972.752          46.600          36.600
 18  2 20  9  3  0.0000000  0  9G07G05G23G09G16G13G30G06G02
 109085837.267 8  85001997.92447  20758347.719                    20758351.453
       339.688         264.944          51.900          42.400
 113867368.617 8  88727849.51046  21668243.992                    21668248.262
      2477.250        1930.502          50.400          38.500
 128847953.995 6 100401046.28343  24518962.336                    24518965.430
     -2973.445       -2316.918          39.800          23.000
 112674280.566 8  87798211.88046  21441209.922                    21441215.613
     -2248.582       -1751.980          50.800          41.800
 128573307.762 6 100187048.35143  24466696.750                    24466701.402
     -1466.016       -1142.065          38.700          19.900
 129519160.274 6 100924075.29043  24646683.359                    24646688.910
      3363.355        2620.756          37.100          18.300
 110728188.808 8  86281778.35447  21070881.789                    21070888.238
      2087.906        1627.178          51.500          43.400
 121332905.555 7  94545178.68645  23088895.266                    23088904.281
     -3379.727       -2633.384          43.200          33.400
 115948129.171 7  90349208.43546  22064203.047                    22064205.434
     -1265.512        -985.829          45.900          37.200
 18  2 20  9  3 30.0000000  0  9G07G05G23G09G16G13G30G06G02
 109075910.986 8  84994263.16846  20756458.484                    20756462.598
       321.953         251.175          49.900          41.800
 113793214.454 8  88670067.04846  21654133.078                    21654136.883
      2466.160        1921.933          50.700          38.400
 128937189.631 6 100470580.39643  24535943.461                    24535947.016
     -2975.805       -2318.629          41.600          22.800
 112741855.768 8  87850867.86646  21454068.727                    21454074.461
     -2256.645       -1758.194          50.900          41.300
 128617570.866 6 100221539.00843  24475120.344                    24475125.816
     -1484.965       -1156.822          38.800          20.900
 129418306.885 6 100845488.24843  24627491.188                    24627496.680
      3360.297        2618.479          37.100          19.300
 110665788.415 8  86233154.69447  21059006.867                    21059013.484
      2071.969        1614.818          52.200          43.900
 121434402.253 7  94624266.98645  23108209.758                    23108218.715
     -3386.855       -2638.957          44.500          33.800
 115986344.214 7  90378986.39246  22071475.328                    22071477.508
     -1282.375        -998.940          46.400          36.900
 18  2 20  9  4  0.0000000  0  9G07G05G23G09G16G13G30G06G02
 109066514.972 8  84986941.59947  20754670.578                    20754674.992
       304.477         237.399          50.800          42.200
 113719392.145 8  88612543.16846  21640084.938                    21640088.805
      2455.238        1913.267          51.500          38.400
 129026491.887 6 100540166.48643  24552937.500                    24552940.828
     -2977.766       -2320.361          41.500          23.200
 112809670.849 8  87903710.76546  21466973.461                    21466979.496
     -2264.418       -1764.423          50.900          41.600
 128662400.981 6 100256471.45543  24483652.133                    24483656.113
     -1503.684       -1171.503          37.800          20.400
 129317541.758 6 100766969.99743  24608316.078                    24608321.742
      3357.418        2616.146          37.400          18.300
 110603864.904 8  86184902.61847  21047223.414                    21047230.188
      2056.203        1602.406          52.500          43.600
 121536112.979 7  94703522.05645  23127563.938                    23127573.438
     -3393.828       -2644.488          44.100          33.000
 116025064.656 7  90409158.16146  22078843.094                    22078845.684
     -1299.035       -1012.046          45.300          37.100
 18  2 20  9  4 30.0000000  0  9G07G05G23G09G16G13G30G06G02
 109057643.239 8  84980028.56647  20752982.469                    20752986.160
       286.996         223.810          51.800          42.200
 113645898.188 8  88555275.13946  21626099.578                    21626103.063
      2444.332        1904.760          50.200          37.800
 129115854.425 7 100609799.56544  24569942.766                    24569945.445
     -2979.645       -2321.880          42.500          25.400
 112877718.895 8  87956735.21346  21479922.477                    21479928.918
     -2272.105       -1770.443          51.300          41.400
 128707791.387 6 100291840.65243  24492288.648                    24492292.766
     -1522.340       -1186.010          39.100          20.900
 129216860.713 6 100688517.31143  24589158.594                    24589162.906
      3354.527        2613.993          36.800          18.300
 110542414.016 8  86137018.81747  21035529.797                    21035536.582
      2040.496        1590.134          53.000          43.800
 121638028.993 7  94782937.07845  23146958.406                    23146966.805
     -3400.645       -2649.771          43.900          33.000
 116064283.030 7  90439717.92246  22086306.391                    22086308.371
     -1315.582       -1024.951          45.600          36.400
 18  2 20  9  5  0.0000000  0  9G07G05G23G09G16G13G30G06G02
 109049301.943 8  84973528.85546  20751395.273                    20751399.129
       269.184         209.959          51.300          41.800
 113572740.558 8  88498269.20046  21612178.195                    21612182.004
      2432.930        1895.922          51.000          38.000
 129205283.043 7 100679484.10443  24586959.570                    24586964.160
     -2981.895       -2323.683          42.100          22.900
 112946005.298 8  88009945.36446  21492917.172                    21492923.539
     -2280.184       -1776.706          51.200          41.500
 128753746.519 6 100327649.75143  24501034.141                    24501039.086
     -1541.289       -1200.744          38.500          20.600
 129116270.770 6 100610135.51843  24570015.250                    24570021.164
      3351.422        2611.524          36.500          20.400
 110481443.682 8  86089509.47647  21023927.477                    21023934.613
      2024.234        1577.551          52.900          44.300
 121740153.801 7  94862514.80645  23166392.305                    23166401.074
     -3407.812       -2655.236          43.800          32.700
 116104004.273 7  90470669.54345  22093865.195                    22093867.434
     -1332.426       -1038.069          45.900          35.500
 18  2 20  9  5 30.0000000  0  9G07G05G23G09G16G13G30G06G02
 109041486.733 8  84967439.09947  20749907.953                    20749912.070
       251.852         196.369          51.900          42.100
 113499917.765 8  88441524.16546  21598319.984                    21598324.309
      2421.852        1887.257          50.700          38.400
 129294773.190 6 100749216.56443  24603989.266                    24603993.031
     -2984.000       -2325.201          41.500          22.800
 113014524.896 8  88063337.23646  21505956.117                    21505961.969
     -2287.797       -1782.667          51.600          41.100
 128800260.249 6 100363894.22243  24509884.836                    24509889.895
     -1559.625       -1215.127          38.900          19.900
 129015768.546 5 100531822.14142  24550890.703                    24550895.730
      3348.617        2609.342          35.200          17.400
 110420951.318 8  86042372.58147  21012415.930                    21012423.430
      2008.477        1565.213          52.300          44.500
 121842480.322 7  94942249.71045  23185865.148                    23185873.082
     -3414.051       -2660.341          43.300          32.400
 116144222.971 7  90502008.79245  22101518.773                    22101520.109
     -1348.871       -1050.883          47.000          35.800
 18  2 20  9  6  0.0000000  0  9G07G05G23G09G16G13G30G06G02
 109034200.896 8  84961761.82747  20748521.445                    20748525.344
       234.160         182.705          51.900          42.200
 113427434.816 8  88385043.92646  21584527.172                    21584531.313
      2410.547        1878.502          51.200          38.400
 129384327.040 6 100818998.69243  24621031.016                    24621034.246
     -2986.031       -2326.753          41.800          22.200
 113083279.936 8  88116912.56546  21519039.664                    21519045.676
     -2295.590       -1788.689          49.800          40.700
 128847335.021 6 100400575.79043  24518844.672                    24518848.379
     -1578.492       -1229.660          38.300          18.300
 128915358.045 5 100453580.19242  24531784.094                    24531788.324
      3345.730        2607.024          35.200          16.900
 110360941.701 8  85995611.85947  21000996.914                    21001003.668
      1992.332        1552.719          53.000          44.000
 121945009.050 7  95022142.17545  23205374.828                    23205383.473
     -3420.961       -2665.504          43.900          32.500
 116184940.505 7  90533736.71345  22109267.102                    22109268.391
     -1365.367       -1063.724          45.400          35.200
 18  2 20  9  6 30.0000000  0  9G07G05G23G09G16G13G30G06G02
 109027440.338 8  84956493.86946  20747235.172                    20747238.965
       216.566         168.898          52.600          41.700
 113355289.824 8  88328827.05546  21570798.633                    21570802.555
      2399.125        1869.510          50.600          38.500
 129473939.843 6 100888826.74643  24638084.000                    24638087.227
     -2988.180       -2328.444          40.500          22.200
 113152265.039 8  88170667.17646  21532167.023                    21532173.344
     -2303.387       -1794.813          50.500          40.800
 128894964.231 6 100437689.44943  24527907.516                    24527910.895
     -1596.996       -1244.221          39.200          18.300
 128815036.303 5 100375407.48242  24512692.023                    24512698.090
      3342.402        2604.501          35.000          17.400
 110301412.028 8  85949225.11347  20989668.391                    20989675.434
      1976.227        1540.066          52.500          43.600
 122047732.671 7  95102186.49645  23224922.883                    23224931.512
     -3427.457       -2670.688          43.900          32.600
 116226151.394 7  90565849.09345  22117108.938                    22117110.305
     -1382.004       -1076.710          45.700          34.200
 18  2 20  9  7  0.0000000  0  9G07G05G23G09G16G13G30G06G02
 109021205.724 8  84951635.73047  20746048.883                    20746052.336
       199.141         155.339          52.300          42.200
 113283486.511 8  88272876.42646  21557135.039                    21557139.145
      2387.828        1860.717          50.700          38.600
 129563612.437 6 100958701.44743  24655147.547                    24655150.566
     -2990.102       -2329.909          41.100          22.000
 113221480.693 8  88224601.43746  21545338.461                    21545344.957
     -2310.969       -1800.679          50.300          41.200
 128943147.925 6 100475235.19843  24537076.188                    24537079.820
     -1615.387       -1258.462          39.000          20.600
 128714805.265 5 100297305.40043  24493618.719                    24493624.516
      3339.691        2602.277          35.700          18.300
 110242365.273 8  85903214.67447  20978432.398                    20978438.871
      1960.191        1527.609          52.100          43.900
 122150649.817 7  95182381.62645  23244507.328                    23244516.727
     -3433.656       -2675.573          45.000          32.400
 116267855.501 7  90598345.81245  22125044.211                    22125046.723
     -1398.293       -1089.399          45.200          34.000
 18  2 20  9  7 30.0000000  0  9G07G05G23G09G16G13G30G06G02
 109015495.452 8  84947186.17447  20744962.039                    20744965.906
       181.652         141.734          52.200          42.600
 113212025.357 8  88217192.41346  21543536.078                    21543540.578
      2376.313        1851.808          51.400          38.100
 129653342.758 6 101028621.10443  24672222.906                    24672225.664
     -2991.855       -2331.390          40.500          20.900
 113290924.507 8  88278713.46546  21558553.422                    21558560.176
     -2318.527       -1806.592          50.300          40.600
 128991883.649 6 100513211.00543  24546349.930                    24546354.617
     -1633.551       -1272.799          39.800          20.100
 128614664.615 6 100219273.71543  24474562.734                    24474568.203
      3336.410        2599.864          37.400          19.000
 110183801.547 8  85857580.60747  20967287.781                    20967294.578
      1944.195        1515.056          51.600          43.800
 122253756.246 7  95262724.25445  23264128.531                    23264136.875
     -3439.871       -2680.449          44.100          32.300
 116310049.824 7  90631224.47045  22133073.891                    22133075.672
     -1414.594       -1102.096          44.400          33.300
 18  2 20  9  8  0.0000000  0  8G07G05G09G16G13G30G06G02
 109010311.736 8  84943146.91347  20743975.891                    20743979.457
       163.750         127.936          51.700          42.600
 113140910.543 8  88161778.26946  21530003.375                    21530007.473
      2364.473        1842.688          50.700          38.300
 113360597.581 8  88333004.15046  21571811.805                    21571817.730
     -2326.465       -1812.656          51.200          41.100
 129041171.359 6 100551617.06043  24555729.586                    24555732.930
     -1652.293       -1287.200          39.800          19.300
 128514617.491 6 100141314.93942  24455524.820                    24455529.691
      3333.055        2597.357          37.600          16.900
 110125724.403 8  85812325.70247  20956236.250                    20956242.742
      1927.531        1502.285          51.500          43.700
 122357051.154 7  95343213.75045  23283784.750                    23283793.078
     -3446.527       -2685.435          44.700          32.400
 116352734.924 7  90664485.59545  22141195.961                    22141198.355
     -1431.219       -1114.939          43.900          32.600
 18  2 20  9  8 30.0000000  0  8G07G05G09G16G13G30G06G02
 109005653.681 8  84939517.25647  20743089.594                    20743092.719
       146.445         114.398          52.100          42.500
 113070143.593 8  88106635.19446  21516537.141                    21516540.527
      2352.988        1833.709          49.900          37.400
 113430498.308 8  88387472.23746  21585112.969                    21585119.617
     -2333.895       -1818.433          50.500          40.400
 129091008.354 6 100590451.02043  24565213.391                    24565217.340
     -1670.387       -1301.345          38.800          20.600
 128414663.831 6 100063428.93843  24436503.773                    24436508.969
      3330.152        2595.052          37.500          18.600
 110068134.723 8  85767450.63647  20945277.438                    20945283.898
      1911.473        1489.716          51.900          43.800
 122460531.060 7  95423847.41545  23303476.070                    23303484.691
     -3452.371       -2690.061          45.000          32.300
 116395908.653 7  90698127.44145  22149411.977                    22149413.789
     -1447.332       -1127.486          45.000          33.700
 18  2 20  9  9  0.0000000  0  8G07G05G09G16G13G30G06G02
 109001521.002 8  84936296.98647  20742303.109                    20742306.609
       128.969         100.800          50.100          42.500
 112999726.981 8  88051765.11546  21503136.930                    21503140.793
      2341.355        1824.642          49.900          38.100
 113500625.622 8  88442116.87946  21598457.969                    21598464.164
     -2341.387       -1824.280          50.000          40.800
 129141393.444 6 100629712.04843  24574802.430                    24574805.285
     -1688.613       -1315.513          39.400          20.100
 128314804.884 6  99985616.82043  24417502.266                    24417506.891
      3327.016        2592.656          38.700          18.300
 110011033.838 8  85722956.44347  20934411.250                    20934417.484
      1895.156        1477.042          51.900          44.300
 122564193.039 7  95504622.93845  23323202.000                    23323211.242
     -3458.414       -2694.714          44.900          32.700
 116439569.093 7  90732148.54645  22157720.805                    22157722.453
     -1463.500       -1140.100          45.400          33.300
 18  2 20  9  9 30.0000000  0  7G07G05G09G13G30G06G02
 108997913.620 8  84933486.04347  20741616.430                    20741619.816
       111.504          87.077          50.500          42.400
 112929663.186 8  87997169.94746  21489804.352                    21489808.051
      2329.582        1815.352          49.600          38.100
 113570978.838 8  88496937.54846  21611845.867                    21611852.203
     -2348.922       -1830.227          50.700          40.900
 128215041.269 6  99907878.98643  24398518.555                    24398521.871
      3323.652        2590.029          39.900          19.300
 109954423.552 8  85678844.54047  20923638.656                    20923645.160
      1878.797        1464.183          51.900          44.300
 122668034.506 7  95585538.32845  23342962.438                    23342970.992
     -3464.332       -2699.445          44.500          32.200
 116483715.083 7  90766547.99145  22166121.617                    22166122.918
     -1479.645       -1152.778          45.200          33.600
 18  2 20  9 10  0.0000000  0  7G07G05G09G13G30G06G02
 108994833.985 8  84931086.33547  20741030.727                    20741033.715
        93.895          73.405          51.800          42.500
 112859957.084 8  87942853.49946  21476539.828                    21476543.633
      2317.484        1806.067          50.900          38.400
 113641559.809 8  88551935.68846  21625277.086                    21625283.211
     -2356.547       -1836.097          51.600          40.500
 128115377.514 6  99830218.96043  24379552.078                    24379556.891
      3320.410        2587.415          39.400          18.600
 109898308.059 8  85635118.19747  20912960.430                    20912966.957
      1862.293        1451.353          52.500          44.100
 122772055.467 7  95666593.56845  23362757.539                    23362766.148
     -3470.219       -2704.030          42.500          31.800
 116528347.547 7  90801326.50145  22174614.656                    22174616.109
     -1495.852       -1165.356          45.700          34.000
 18  2 20  9 10 30.0000000  0  7G07G05G09G13G30G06G02
 108992279.146 8  84929095.56047  20740544.133                    20740547.824
        76.395          59.748          51.500          42.200
 112790607.703 8  87888815.02346  21463343.094                    21463347.027
      2305.711        1796.771          51.000          39.500
 113712364.744 8  88607108.34446  21638750.773                    21638756.668
     -2363.941       -1841.907          51.200          41.100
 128015810.937 6  99752634.61443  24360605.727                    24360609.617
      3317.352        2584.907          39.900          18.600
 109842685.974 8  85591776.32847  20902375.727                    20902382.328
      1845.809        1438.508          52.500          44.500
 122876250.188 7  95747784.20445  23382585.750                    23382593.270
     -3476.098       -2708.530          43.800          32.900
 116573462.132 7  90836480.69145  22183199.820                    22183201.523
     -1511.848       -1177.887          45.900          34.400
 18  2 20  9 11  0.0000000  0  7G07G05G09G13G30G06G02
 108990247.436 8  84927512.40646  20740157.250                    20740161.219
        58.988          46.188          52.100          41.700
 112721615.713 8  87835055.02346  21450214.641                    21450218.523
      2293.797        1787.470          50.900          39.200
 113783391.396 8  88662453.75746  21652266.859                    21652273.152
     -2371.234       -1847.623          51.800          41.100
 127916341.745 6  99675126.14643  24341676.742                    24341681.371
      3314.027        2582.340          38.100          19.600
 109787557.387 8  85548818.99847  20891885.211                    20891891.918
      1829.414        1425.700          52.900          44.500
 122980614.523 7  95829107.01345  23402445.461                    23402453.371
     -3481.668       -2712.867          43.100          31.400
 116619056.697 7  90872008.90045  22191876.133                    22191877.879
     -1527.887       -1190.292          46.500          34.200
 18  2 20  9 11 30.0000000  0  7G07G05G09G13G30G06G02
 108988738.428 8  84926336.56147  20739870.195                    20739873.926
        41.402          32.591          51.300          42.000
 112652983.309 8  87781575.23846  21437154.070                    21437158.391
      2281.559        1778.084          50.400          39.700
 113854638.566 8  88717971.00946  21665824.758                    21665830.734
     -2378.703       -1853.373          52.200          40.800
 127816970.484 6  99597693.99743  24322767.523                    24322771.578
      3310.555        2579.806          38.600          19.600
 109732923.466 8  85506247.12447  20881488.711                    20881495.590
      1812.742        1412.812          52.900          44.400
 123085145.412 7  95910559.60545  23422336.492                    23422344.723
     -3487.324       -2717.192          44.000          31.500
 116665128.779 7  90907909.20245  22200643.695                    22200645.387
     -1543.883       -1202.705          45.700          34.100
 18  2 20  9 12  0.0000000  0  7G07G05G09G13G30G06G02
 108987752.495 8  84925568.30747  20739682.695                    20739686.523
        24.039          19.015          51.700          42.300
 112584713.800 8  87728378.21146  21424162.992                    21424166.703
      2269.438        1768.630          50.700          40.100
 113926105.800 8  88773659.74446  21679424.602                    21679430.523
     -2385.988       -1859.072          52.100          40.900
 127717698.510 6  99520339.23243  24303875.859                    24303880.711
      3307.367        2577.229          37.300          18.300
 109678786.067 8  85464062.15247  20871186.836                    20871193.773
      1796.195        1399.884          52.600          43.900
 123189840.527 7  95992140.17445  23442259.984                    23442267.445
     -3492.723       -2721.432          43.700          30.900
 116711676.817 7  90944180.35345  22209501.359                    22209503.121
     -1559.680       -1215.041          46.200          34.900
 18  2 20  9 12 30.0000000  0  7G07G05G09G13G30G06G02
 108987289.139 8  84925207.24947  20739594.703                    20739598.719
         6.715           5.478          50.900          42.200
 112516808.687 8  87675465.13346  21411241.367                    21411245.004
      2257.332        1759.166          50.100          40.400
 113997792.064 8  88829519.14346  21693065.789                    21693072.309
     -2393.262       -1864.729          51.600          40.400
 127618526.656 6  99443062.50643  24285004.781                    24285009.293
      3304.129        2574.629          37.300          19.600
 109625146.474 8  85422265.07347  20860979.563                    20860986.309
      1779.633        1386.979          52.100          43.900
 123294696.875 7  96073846.37245  23462212.578                    23462221.063
     -3497.828       -2725.540          42.200          32.600
 116758699.272 7  90980821.18045  22218450.039                    22218452.055
     -1575.258       -1227.309          45.400          34.600
 18  2 20  9 13  0.0000000  0  7G07G05G09G13G30G06G02
 108987351.651 8  84925255.95847  20739606.523                    20739610.285
       -11.000          -8.209          49.800          42.000
 112449273.701 8  87622840.47446  21398389.594                    21398393.465
      2244.844        1749.489          50.100          40.200
 114069700.222 8  88885551.43746  21706749.570                    21706755.969
     -2400.836       -1870.532          51.000          40.400
 127519459.760 5  99365867.49643  24266152.875                    24266157.828
      3300.234        2571.850          34.500          19.600
 109572009.808 8  85380859.90147  20850867.734                    20850874.594
      1762.723        1373.845          52.200          43.700
 123399715.479 7  96155678.98245  23482197.586                    23482205.543
     -3503.473       -2729.758          43.800          32.500
 116806198.558 7  91017833.57645  22227488.656                    22227490.008
     -1591.395       -1239.721          46.100          34.000
 18  2 20  9 13 30.0000000  0  7G07G05G09G13G30G06G02
 108987935.281 8  84925710.73147  20739717.609                    20739721.492
       -28.125         -21.664          49.100          42.100
 112382107.209 8  87570502.96246  21385608.102                    21385612.168
      2232.730        1739.959          50.100          40.200
 114141825.012 8  88941752.54246  21720474.594                    21720480.820
     -2407.699       -1876.023          50.200          40.100
 127420494.416 6  99288751.69143  24247319.266                    24247324.898
      3297.191        2569.261          36.400          18.600
 109519373.077 8  85339844.28547  20840851.305                    20840858.012
      1746.230        1360.939          51.700          44.300
 123504889.165 7  96237632.46945  23502211.273                    23502219.309
     -3508.461       -2733.665          43.700          31.500
 116854168.137 7  91055212.46545  22236616.555                    22236617.961
     -1606.785       -1251.822          45.700          33.500
 18  2 20  9 14  0.0000000  0  7G07G05G09G13G30G06G02
 108989037.769 8  84926569.81847  20739927.461                    20739931.250
       -45.410         -35.120          51.400          42.300
 112315309.267 8  87518452.61046  21372897.055                    21372901.367
      2220.434        1730.399          50.900          40.000
 114214163.604 8  88998120.25546  21734239.875                    21734245.914
     -2414.840       -1881.568          50.800          39.500
 127321629.705 6  99211714.33343  24228506.359                    24228511.402
      3293.676        2566.664          36.100          20.600
 109467235.700 8  85299217.77447  20830929.789                    20830936.617
      1729.609        1347.961          52.200          43.300
 123610213.141 7  96319703.01245  23522254.055                    23522262.406
     -3513.230       -2737.527          44.200          32.100
 116902604.599 7  91092955.12845  22245833.766                    22245834.859
     -1622.234       -1263.913          45.900          33.500
 18  2 20  9 14 30.0000000  0  7G07G05G09G13G30G06G02
 108990661.208 8  84927834.84347  20740236.234                    20740240.281
       -62.797         -48.681          50.800          42.400
 112248883.801 8  87466692.50346  21360256.766                    21360260.875
      2207.949        1720.655          50.200          40.100
 114286717.584 8  89054655.80046  21748046.563                    21748053.152
     -2422.047       -1887.185          50.000          39.600
 127222868.836 6  99134757.83443  24209712.844                    24209717.809
      3290.309        2563.925          37.600          19.600
 109415601.513 8  85258983.35247  20821104.242                    20821110.777
      1712.809        1334.848          50.900          43.800
 123715687.137 7  96401890.49545  23542324.672                    23542333.266
     -3518.180       -2741.414          44.100          31.400
 116951508.646 7  91131062.12045  22255139.953                    22255141.941
     -1637.836       -1276.045          46.100          33.000
 18  2 20  9 15  0.0000000  0  7G07G05G09G13G30G06G02
 108992807.098 8  84929506.96747  20740644.203                    20740648.121
       -80.199         -62.256          51.700          42.200
 112182836.267 8  87415226.90246  21347688.125                    21347692.332
      2195.387        1710.798          50.200          40.400
 114359487.849 8  89111359.87046  21761894.445                    21761900.652
     -2429.172       -1892.805          49.900          39.400
 127124213.827 6  99057883.81843  24190939.391                    24190944.602
      3286.824        2561.152          37.700          21.300
 109364473.608 8  85219143.44547  20811374.930                    20811381.445
      1695.879        1321.667          52.000          43.500
 123821310.192 7  96484194.10345  23562424.711                    23562432.578
     -3523.207       -2745.262          42.000          30.000
 117000880.282 7  91169533.49345  22264535.297                    22264537.754
     -1653.418       -1288.204          47.200          34.400
 18  2 20  9 15 30.0000000  0  7G07G05G09G13G30G06G02
 108995474.117 8  84931585.16947  20741151.922                    20741156.055
       -97.535         -75.777          50.900          42.600
 112117167.305 8  87364056.29346  21335191.570                    21335195.809
      2182.734        1700.963          50.200          39.400
 114432472.858 8  89168231.27746  21775783.055                    21775789.406
     -2436.375       -1898.369          49.500          39.200
 127025666.920 6  98981094.07643  24172186.836                    24172191.707
      3283.184        2558.350          39.300          20.900
 109313852.627 8  85179698.53147  20801742.078                    20801748.301
      1678.906        1308.473          51.800          43.300
 123927078.792 6  96566611.14444  23582551.586                    23582559.387
     -3528.070       -2748.998          41.100          29.400
 117050717.213 7  91208367.43445  22274018.719                    22274022.324
     -1669.000       -1300.264          46.900          33.900
 18  2 20  9 16  0.0000000  0  7G07G05G09G13G30G06G02
 108998664.012 8  84934070.79246  20741758.680                    20741762.738
      -115.090         -89.457          51.500          41.900
 112051881.287 8  87313184.08046  21322768.141                    21322772.309
      2169.727        1690.866          49.600          40.200
 114505673.606 8  89225270.80846  21789712.641                    21789718.680
     -2443.645       -1904.061          49.400          39.800
 126927230.044 6  98904390.05543  24153454.883                    24153460.000
      3279.262        2555.380          38.400          21.500
 109263741.750 8  85140651.10647  20792206.398                    20792212.219
      1661.734        1295.113          51.600          44.100
 124032992.103 7  96649140.95944  23602706.508                    23602714.164
     -3532.984       -2752.850          43.000          29.800
 117101019.396 7  91247563.91945  22283590.406                    22283595.078
     -1684.551       -1312.429          46.800          34.700
 18  2 20  9 16 30.0000000  0  7G07G05G09G13G30G06G02
 109002372.929 8  84936960.84847  20742464.984                    20742468.895
      -132.348        -102.868          52.000          42.800
 111986976.920 8  87262609.25046  21310417.438                    21310421.012
      2157.020        1680.986          50.700          39.600
 114579085.820 8  89282475.10346  21803683.133                    21803689.023
     -2450.605       -1909.478          48.500          40.000
 126828900.349 6  98827769.52643  24134743.164                    24134747.945
      3275.824        2552.634          39.400          20.900
 109214138.802 8  85101999.46447  20782767.438                    20782773.336
      1644.875        1281.971          52.200          44.100
 124139043.830 7  96731778.60244  23622887.320                    23622895.543
     -3537.348       -2756.341          43.400          27.800
 117151781.662 7  91287118.92345  22293250.563                    22293254.129
     -1699.770       -1324.279          46.000          35.000
 18  2 20  9 17  0.0000000  0  7G07G05G09G13G30G06G02
 109006600.376 8  84940254.96347  20743269.438                    20743273.301
      -149.590        -116.310          51.400          42.400
 111922456.011 8  87212333.21846  21298139.438                    21298143.043
      2144.180        1671.012          50.300          39.700
 114652708.271 8  89339843.22546  21817692.656                    21817698.883
     -2457.621       -1914.915          50.200          40.700
 126730678.766 6  98751233.27743  24116052.023                    24116056.852
      3272.379        2549.825          38.800          21.700
 109165044.722 8  85063744.35047  20773424.969                    20773430.941
      1627.953        1268.769          51.900          44.600
 124245230.953 7  96814521.77444  23643093.188                    23643101.633
     -3541.840       -2759.791          42.500          28.300
 117203001.853 7  91327030.71645  22302998.500                    22302999.711
     -1715.000       -1336.130          46.600          34.500
 18  2 20  9 17 30.0000000  0  7G07G05G09G13G30G06G02
 109011343.217 8  84943950.68747  20744171.891                    20744175.801
      -166.645        -129.721          52.000          42.600
 111858318.315 8  87162355.78346  21285934.477                    21285937.777
      2131.477        1660.998          50.700          39.200
 114726537.939 8  89397372.81046  21831742.180                    21831748.469
     -2464.512       -1920.312          48.700          40.300
 126632564.123 6  98674780.33643  24097382.188                    24097386.328
      3268.750        2547.004          39.900          21.300
 109116458.570 8  85025885.01147  20764179.539                    20764185.906
      1611.023        1255.521          51.400          44.300
 124351548.436 7  96897366.52744  23663325.375                    23663333.328
     -3546.176       -2763.188          42.000          27.700
 117254675.994 7  91367296.23545  22312831.367                    22312831.355
     -1730.035       -1347.926          47.100          34.100
 18  2 20  9 18  0.0000000  0  7G07G05G09G13G30G06G02
 109016605.169 8  84948050.91047  20745172.797                    20745177.148
      -183.926        -143.117          51.800          42.800
 111794570.519 8  87112682.16946  21273803.383                    21273807.230
      2118.492        1650.939          51.100          39.600
 114800577.952 8  89455066.30246  21845831.844                    21845837.570
     -2471.395       -1925.674          48.400          40.200
 126534561.258 6  98598414.53343  24078732.656                    24078736.910
      3264.898        2544.179          38.900          20.100
 109068385.586 8  84988425.55247  20755031.688                    20755037.559
      1593.918        1242.267          51.700          44.500
 124457997.513 6  96980313.81844  23683581.711                    23683590.398
     -3550.398       -2766.466          40.500          27.400
 117306806.386 7  91407917.28945  22322752.031                    22322751.148
     -1745.141       -1359.677          47.700          32.800
 18  2 20  9 18 30.0000000  0  7G07G05G09G13G30G06G02
 109022384.811 8  84952554.53747  20746272.914                    20746276.902
      -201.137        -156.617          51.800          42.500
 111731213.369 8  87063312.94146  21261747.352                    21261750.316
      2105.500        1640.731          50.200          39.700
 114874826.483 8  89512922.28146  21859960.414                    21859967.156
     -2478.332       -1931.129          49.300          40.600
 126436670.507 6  98522136.04143  24060104.156                    24060109.434
      3261.125        2541.208          39.000          21.100
 109020825.984 8  84951366.13847  20745981.523                    20745987.543
      1576.840        1228.870          51.000          44.600
 124564574.521 6  97063360.78444  23703863.328                    23703870.832
     -3554.574       -2769.815          41.800          27.300
 117359390.123 7  91448891.58845  22332757.750                    22332758.371
     -1760.191       -1371.477          47.200          33.400
 18  2 20  9 19  0.0000000  0  7G07G05G09G13G30G06G02
 109028678.355 8  84957458.58147  20747470.883                    20747474.348
      -218.355        -169.916          51.700          42.200
 111668245.923 8  87014247.40646  21249764.625                    21249768.438
      2092.348        1630.613          51.300          39.200
 114949279.347 8  89570937.48046  21874128.266                    21874135.133
     -2485.141       -1936.388          49.900          41.000
 126338889.416 6  98445943.05243  24041497.781                    24041502.121
      3257.395        2538.361          40.500          22.600
 108973777.694 8  84914705.14447  20737027.969                    20737034.309
      1559.758        1215.616          52.000          44.500
 124671273.292 6  97146502.65444  23724167.336                    23724175.242
     -3558.676       -2772.911          41.900          28.400
 117412421.954 7  91490215.04545  22342849.406                    22342851.293
     -1775.152       -1383.041          46.200          33.200
 18  2 20  9 19 30.0000000  0  7G07G05G09G13G30G06G02
 109035484.612 8  84962762.15547  20748766.047                    20748769.672
      -235.395        -183.208          52.500          42.500
 111605669.991 8  86965486.94346  21237857.055                    21237861.156
      2079.348        1620.421          51.200          39.700
 115023935.186 8  89629110.83946  21888334.805                    21888341.355
     -2491.887       -1941.646          49.100          40.400
 126241217.861 6  98369835.36443  24022911.727                    24022915.473
      3253.883        2535.557          41.100          22.300
 108927241.260 8  84878443.00947  20728172.586                    20728178.875
      1542.711        1202.295          51.500          44.700
 124778090.569 6  97229736.90044  23744493.914                    23744501.590
     -3562.539       -2775.943          41.700          28.600
 117465899.515 7  91531885.86145  22353025.688                    22353028.750
     -1789.996       -1394.596          45.900          33.200
 18  2 20  9 20  0.0000000  0  7G07G05G09G13G30G06G02
 109042803.127 8  84968464.89447  20750158.438                    20750162.109
      -252.559        -196.522          52.200          43.000
 111543488.038 8  86917033.46746  21226023.914                    21226028.242
      2066.133        1610.162          51.500          39.600
 115098793.258 8  89687441.77246  21902579.969                    21902586.352
     -2498.609       -1946.872          49.300          39.900
 126143657.501 6  98293814.35943  24004346.305                    24004350.844
      3250.039        2532.629          40.800          21.800
 108881218.036 8  84842580.77147  20719414.602                    20719420.965
      1525.453        1188.973          51.600          44.500
 124885023.747 6  97313061.38944  23764843.516                    23764851.098
     -3566.422       -2778.895          40.400          28.000
 117519821.040 7  91573902.62245  22363286.313                    22363289.934
     -1804.809       -1406.107          44.900          33.400
 18  2 20  9 20 30.0000000  0  7G07G05G09G13G30G06G02
 109050636.572 8  84974568.86847  20751649.414                    20751652.664
      -269.711        -209.889          52.300          43.000
 111481704.938 8  86868890.79246  21214266.977                    21214271.344
      2052.770        1599.769          51.200          40.100
 115173855.854 8  89745932.08646  21916863.695                    21916870.660
     -2505.531       -1952.184          49.900          40.200
 126046212.484 6  98217883.21043  23985803.156                    23985807.641
      3246.098        2529.600          41.100          21.700
 108835712.226 8  84807121.72047  20710755.000                    20710761.820
      1508.195        1175.495          52.600          44.500
 124992073.046 6  97396476.40844  23785214.430                    23785221.559
     -3570.254       -2781.894          41.400          29.500
 117574187.858 7  91616266.37445  22373632.195                    22373634.969
     -1819.668       -1417.661          44.000          33.000
 18  2 20  9 21  0.0000000  0  7G07G05G09G13G30G06G02
 109058983.632 8  84981073.06547  20753237.555                    20753241.270
      -286.836        -223.218          52.100          42.000
 111420321.807 8  86821059.78246  21202586.516                    21202590.395
      2039.355        1589.352          51.400          40.200
 115249121.119 8  89804580.32346  21931185.945                    21931192.816
     -2512.125       -1957.466          48.600          39.300
 125948882.997 6  98142042.06343  23967281.906                    23967285.781
      3242.301        2526.595          41.800          22.500
 108790724.038 8  84772066.00747  20702193.844                    20702201.012
      1490.859        1162.039          51.500          44.500
 125099234.874 6  97479979.12044  23805606.430                    23805613.977
     -3573.980       -2784.802          41.000          29.100
 117628996.835 7  91658974.66845  22384062.070                    22384064.582
     -1834.414       -1429.122          45.000          33.300
 18  2 20  9 21 30.0000000  0  7G07G05G09G13G30G06G02
 109067845.854 8  84987978.69247  20754924.195                    20754927.844
      -304.047        -236.673          52.100          42.700
 111359343.354 8  86773544.11046  21190982.664                    21190986.660
      2025.742        1578.722          50.700          39.900
 115324590.628 7  89863387.71146  21945547.539                    21945554.578
     -2519.137       -1962.824          47.800          39.000
 125851671.839 6  98066293.14343  23948782.789                    23948787.309
      3238.316        2523.432          41.700          22.300
 108746256.907 8  84737416.31447  20693732.172                    20693738.910
      1473.512        1148.411          52.800          45.000
 125206508.766 6  97563569.12744  23826019.117                    23826027.938
     -3577.684       -2787.741          40.600          29.100
 117684248.533 7  91702027.93045  22394576.047                    22394578.145
     -1849.215       -1440.678          46.300          32.700
 18  2 20  9 22  0.0000000  0  7G07G05G09G13G30G06G02
 109077222.761 8  84995285.37047  20756708.016                    20756712.223
      -321.082        -249.921          51.600          42.500
 111298771.898 8  86726345.56646  21179456.109                    21179460.672
      2012.352        1568.261          51.200          39.800
 115400263.516 7  89922353.57346  21959947.664                    21959954.297
     -2525.648       -1967.956          47.800          38.800
 125754580.424 6  97990637.50643  23930306.828                    23930311.367
      3234.391        2520.435          41.700          21.800
 108702311.921 8  84703173.48247  20685369.422                    20685376.055
      1456.227        1134.971          53.100          44.800
 125313892.021 7  97647244.32844  23846453.875                    23846462.586
     -3581.105       -2790.405          42.600          28.600
 117739940.877 7  91745424.55545  22405173.867                    22405175.660
     -1863.652       -1451.963          45.000          32.900
 18  2 20  9 22 30.0000000  0  7G07G05G09G13G30G06G02
 109087106.315 8  85002986.83847  20758589.164                    20758592.984
      -337.809        -263.107          51.900          42.300
 111238602.104 8  86679460.02946  21168006.164                    21168009.891
      1998.973        1557.731          50.400          39.900
 115476131.645 8  89981471.59046  21974384.242                    21974391.531
     -2532.187       -1973.079          48.100          38.900
 125657602.102 7  97915069.98943  23911853.086                    23911857.336
      3230.785        2517.448          42.600          22.500
 108658882.872 8  84669332.67847  20677105.563                    20677111.961
      1439.117        1121.500          52.900          45.200
 125421374.563 7  97730996.91345  23866906.977                    23866915.777
     -3584.230       -2793.016          43.200          30.000
 117796064.779 7  91789157.44645  22415853.109                    22415855.676
     -1877.914       -1463.208          44.500          32.300
 18  2 20  9 23  0.0000000  0  7G07G05G09G13G30G06G02
 109097501.859 8  85011087.26347  20760567.430                    20760571.477
      -355.020        -276.400          51.300          42.400
 111178842.352 8  86632893.98046  21156634.156                    21156638.277
      1985.227        1547.086          51.600          39.800
 115552200.217 7  90040745.78046  21988859.609                    21988866.617
     -2538.937       -1978.268          47.500          38.400
 125560743.961 7  97839596.13143  23893420.758                    23893425.828
      3226.699        2514.349          42.600          22.800
 108615976.833 8  84635899.40447  20668940.820                    20668947.598
      1421.535        1107.903          52.500          44.900
 125528959.636 6  97814829.41144  23887379.656                    23887388.230
     -3587.687       -2795.624          41.800          28.100
 117852624.191 7  91833229.68245  22426616.633                    22426618.762
     -1892.496       -1474.503          44.400          31.400
 18  2 20  9 23 30.0000000  0  7G07G05G09G13G30G06G02
 109108407.983 8  85019585.54047  20762643.055                    20762647.160
      -372.258        -289.714          51.100          42.600
 111119493.395 8  86586648.04646  21145340.594                    21145344.500
      1971.281        1536.319          50.000          39.700
 115628467.363 8  90100174.69646  22003372.984                    22003379.980
     -2545.680       -1983.470          48.900          38.800
 125464006.058 7  97764215.93443  23875012.484                    23875016.695
      3222.289        2511.119          42.100          22.900
 108573593.714 8  84602873.60447  20660875.945                    20660882.059
      1403.910        1094.269          53.200          45.200
 125636643.439 7  97898738.83144  23907871.055                    23907879.797
     -3591.102       -2798.221          42.900          28.100
 117909616.107 7  91877638.92445  22437461.648                    22437464.207
     -1907.074       -1485.748          43.800          32.100
 18  2 20  9 24  0.0000000  0  7G07G05G09G13G30G06G02
 109119820.188 8  85028478.17847  20764814.086                    20764818.207
      -388.766        -302.783          51.400          42.500
 111060554.006 8  86540721.24346  21134124.953                    21134128.734
      1957.918        1525.726          51.100          40.600
 115704928.710 8  90159754.93546  22017923.297                    22017930.172
     -2551.871       -1988.436          48.300          39.200
 125367385.931 7  97688927.54744  23856626.320                    23856630.461
      3218.789        2508.124          42.200          25.300
 108531731.069 8  84570253.36947  20652909.414                    20652915.766
      1386.852        1080.790          51.600          45.100
 125744419.791 7  97982720.36945  23928380.844                    23928389.871
     -3594.152       -2800.541          42.100          30.300
 117967034.866 7  91922380.77745  22448388.352                    22448391.156
     -1920.973       -1496.733          42.500          31.700
 18  2 20  9 24 30.0000000  0  7G07G05G09G13G30G06G02
 109131738.266 8  85037764.98047  20767082.102                    20767086.781
      -405.777        -315.911          51.500          42.400
 111002027.133 8  86495115.88946  21122987.727                    21122991.695
      1944.004        1514.973          51.200          40.000
 115781583.888 8  90219486.20846  22032510.680                    22032517.273
     -2558.469       -1993.461          49.200          39.700
 125270884.721 7  97613731.82643  23838262.820                    23838267.410
      3214.570        2504.999          42.200          22.600
 108490390.294 8  84538039.79547  20645042.375                    20645049.055
      1369.270        1067.223          51.900          45.300
 125852286.249 6  98066772.08544  23948906.602                    23948915.223
     -3596.863       -2802.821          40.600          29.700
 118024879.000 7  91967454.09945  22459395.242                    22459398.191
     -1935.195       -1507.758          43.400          31.900
 18  2 20  9 25  0.0000000  0  7G07G05G09G13G30G06G02
 109144161.729 8  85047445.60547  20769446.313                    20769450.566
      -422.480        -329.017          51.400          42.100
 110943914.765 8  86449833.51646  21111929.180                    21111933.145
      1930.160        1504.200          50.800          40.600
 115858432.243 8  90279368.01446  22047134.109                    22047140.336
     -2564.828       -1998.468          49.500          39.300
 125174503.783 6  97538629.80943  23819922.586                    23819926.645
      3210.746        2501.877          41.800          23.000
 108449572.551 8  84506233.77547  20637275.289                    20637281.520
      1351.887        1053.633          51.800          45.000
 125960240.333 6  98150892.09544  23969450.953                    23969458.887
     -3599.879       -2805.063          41.000          29.100
 118083146.500 7  92012857.31945  22470483.758                    22470485.785
     -1949.223       -1518.728          43.700          32.100
 18  2 20  9 25 30.0000000  0  7G07G05G09G13G30G06G02
 109157089.665 8  85057519.31547  20771906.367                    20771910.418
      -439.398        -342.145          50.700          42.600
 110886218.641 8  86404875.50646  21100949.820                    21100953.672
      1916.211        1493.329          50.900          40.500
 115935472.745 8  90339399.53346  22061795.086                    22061800.887
     -2571.195       -2003.467          48.200          39.200
 125078243.803 6  97463622.05243  23801604.477                    23801609.203
      3206.613        2498.722          41.300          22.300
 108409278.583 8  84474835.89147  20629607.367                    20629614.039
      1334.340        1039.998          51.600          44.900
 126068279.135 6  98235078.11444  23990009.516                    23990017.934
     -3602.703       -2807.271          39.600          28.500
 118141835.238 7  92058588.75745  22481652.078                    22481653.672
     -1963.285       -1529.665          44.200          32.100
 18  2 20  9 26  0.0000000  0  7G07G05G09G13G30G06G02
 109170525.320 8  85067988.67447  20774463.328                    20774467.410
      -456.402        -355.398          52.100          42.000
 110828944.770 8  86360246.52146  21090051.227                    21090054.766
      1902.016        1482.272          51.700          40.800
 116012708.410 8  90399583.12846  22076492.758                    22076498.668
     -2577.875       -2008.604          49.700          38.900
 124982109.614 6  97388712.32243  23783310.703                    23783315.367
      3202.289        2495.351          39.500          22.800
 108369513.138 8  84443849.83847  20622039.969                    20622046.484
      1316.605        1026.192          51.500          45.000
 126176403.625 6  98319330.90944  24010583.961                    24010592.793
     -3605.602       -2809.508          39.900          28.200
 118200946.854 7  92104649.73345  22492901.063                    22492902.367
     -1977.516       -1540.682          43.900          31.900
 18  2 20  9 26 30.0000000  0  7G07G05G09G13G30G06G02
 109184464.643 8  85078850.49147  20777115.586                    20777120.297
      -473.027        -368.355          51.900          42.000
 110772092.185 8  86315945.79346  21079232.445                    21079236.387
      1887.996        1471.395          51.100          40.400
 116090135.217 8  90459915.67446  22091226.430                    22091232.344
     -2584.027       -2013.458          49.300          38.800
 124886098.944 6  97313898.84443  23765040.336                    23765044.813
      3198.375        2492.225          38.900          22.600
 108330273.941 8  84413273.85147  20614573.047                    20614579.625
      1299.219        1012.617          51.800          45.200
 126284608.010 6  98403645.96844  24031173.961                    24031183.254
     -3608.051       -2811.504          38.000          27.100
 118260476.006 7  92151036.06645  22504228.461                    22504230.711
     -1991.152       -1551.400          44.100          32.700
 18  2 20  9 27  0.0000000  0  7G07G05G09G13G30G06G02
 109198905.337 8  85090102.97347  20779863.555                    20779867.898
      -489.848        -381.438          51.200          42.300
 110715661.527 8  86271973.85346  21068494.188                    21068497.797
      1873.793        1460.346          51.000          40.600
 116167750.894 8  90520395.38946  22105996.188                    22106002.152
     -2590.449       -2018.405          48.900          39.200
 124790211.271 6  97239181.18043  23746793.773                    23746797.941
      3194.047        2489.006          38.200          22.300
 108291560.452 8  84383107.51147  20607205.977                    20607213.109
      1281.563         998.879          51.900          44.900
 126392887.954 6  98488019.88844  24051779.336                    24051788.625
     -3610.629       -2813.432          38.700          26.000
 118320419.247 7  92197745.03945  22515635.469                    22515637.711
     -2005.090       -1562.199          44.800          33.600
 18  2 20  9 27 30.0000000  0  7G07G05G09G13G30G06G02
 109213848.512 8  85101747.00447  20782707.586                    20782711.320
      -506.238        -394.306          51.200          42.000
 110659656.671 8  86228333.70246  21057836.563                    21057840.508
      1859.898        1449.431          51.200          40.200
 116245556.209 8  90581022.87846  22120802.359                    22120808.102
     -2596.410       -2023.158          49.100          38.800
 124694449.317 6  97164561.50343  23728570.969                    23728575.266
      3190.211        2485.865          38.900          21.500
 108253375.143 8  84353352.72747  20599939.617                    20599946.566
      1264.242         985.296          52.100          45.000
 126501242.446 6  98572451.87944  24072398.758                    24072407.609
     -3612.758       -2815.177          39.300          26.700
 118380776.001 7  92244776.24945  22527120.828                    22527123.563
     -2018.512       -1572.752          45.500          33.800
 18  2 20  9 28  0.0000000  0  7G07G05G09G13G30G06G02
 109229291.101 8  85113780.19447  20785645.602                    20785649.762
      -522.965        -407.404          49.600          42.300
 110604077.497 8  86185025.26046  21047260.406                    21047264.164
      1845.641        1438.239          51.000          40.800
 116323548.451 8  90641796.04546  22135643.211                    22135649.469
     -2602.816       -2028.126          48.000          38.400
 124598812.270 6  97090039.15643  23710371.734                    23710375.574
      3185.848        2482.501          39.600          22.300
 108215716.901 8  84324008.64947  20592773.398                    20592779.992
      1246.555         971.505          52.300          45.500
 126609666.812 6  98656938.33244  24093030.867                    24093039.934
     -3615.152       -2817.100          38.100          24.600
 118441542.135 7  92292126.47045  22538684.398                    22538687.270
     -2032.133       -1583.468          44.500          33.600
 18  2 20  9 28 30.0000000  0  7G07G05G09G13G30G06G02
 109245231.216 8  85126201.06747  20788678.617                    20788683.449
      -539.625        -420.353          49.900          42.000
 110548924.712 8  86142049.06846  21036764.836                    21036768.957
      1831.332        1427.101          51.200          40.300
 116401725.368 8  90702713.09846  22150519.555                    22150526.461
     -2609.000       -2032.957          48.200          38.600
 124503299.099 6  97015613.33243  23692195.055                    23692199.414
      3181.813        2479.208          40.100          21.700
 108178585.254 8  84295074.90547  20585707.789                    20585714.273
      1228.906         957.766          52.700          45.200
 126718156.856 6  98741475.95844  24113676.867                    24113685.141
     -3617.266       -2818.794          37.500          25.800
 118502714.297 7  92339793.05245  22550325.125                    22550327.758
     -2045.816       -1594.048          44.300          34.000
 18  2 20  9 29  0.0000000  0  7G07G05G09G13G30G06G02
 109261672.047 8  85139012.10547  20791807.695                    20791811.863
      -556.328        -433.310          51.300          42.000
 110494204.866 8  86099410.22546  21026352.203                    21026356.148
      1816.801        1415.843          51.700          40.600
 116480090.646 8  90763776.92246  22165431.797                    22165438.891
     -2615.230       -2037.805          49.400          38.000
 124407915.945 6  96941288.85143  23674043.633                    23674048.773
      3177.387        2475.848          40.800          22.200
 108141985.443 8  84266555.58547  20578742.992                    20578749.809
      1211.207         943.952          52.700          45.500
 126826714.375 6  98826066.20244  24134333.695                    24134342.980
     -3619.625       -2820.515          39.600          25.300
 118564294.679 7  92387777.71645  22562043.953                    22562045.789
     -2059.359       -1604.580          44.600          34.100
 18  2 20  9 29 30.0000000  0  7G07G05G09G13G30G06G02
 109278612.707 8  85152212.61447  20795031.430                    20795035.414
      -573.027        -446.273          50.300          42.100
 110439919.501 8  86057109.94946  21016022.180                    21016026.039
      1802.250        1404.526          51.500          40.500
 116558643.016 8  90824986.54746  22180379.781                    22180386.840
     -2621.543       -2042.651          49.800          37.900
 124312662.740 7  96867065.61943  23655918.469                    23655922.508
      3172.992        2472.454          42.200          22.300
 108105917.769 8  84238450.91247  20571879.453                    20571886.277
      1193.426         930.139          53.400          44.800
 126935336.251 6  98910706.57144  24155004.156                    24155012.785
     -3621.738       -2822.137          39.900          24.400
 118626280.590 7  92436078.37645  22573839.914                    22573841.223
     -2072.891       -1615.091          45.900          33.000
 18  2 20  9 30  0.0000000  0  7G07G05G09G13G30G06G02
 109296052.378 8  85165801.97747  20798349.695                    20798354.320
      -589.582        -459.215          50.000          42.500
 110386071.112 8  86015150.17546  21005774.961                    21005778.938
      1787.793        1393.201          51.500          39.900
 116637381.998 7  90886341.56746  22195363.453                    22195370.387
     -2627.621       -2047.461          47.500          38.300
 124217541.338 7  96792945.09143  23637817.781                    23637821.227
      3168.648        2469.046          43.400          22.600
 108070383.340 8  84210761.75147  20565117.563                    20565124.324
      1175.680         916.296          53.000          45.100
 127044019.988 6  98995395.14444  24175685.539                    24175694.945
     -3624.039       -2823.697          40.300          24.800
 118688670.176 7  92484693.59545  22585711.711                    22585714.258
     -2086.285       -1625.532          45.000          33.900
 18  2 20  9 30 30.0000000  0  7G07G05G09G13G30G06G02
 109313987.922 8  85179777.73346  20801762.836                    20801767.402
      -606.172        -471.992          51.400          41.600
 110332659.061 8  85973530.38646  20995610.781                    20995614.734
      1773.027        1381.920          50.500          39.800
 116716304.115 8  90947839.28746  22210382.055                    22210389.277
     -2633.906       -2052.127          48.500          37.600
 124122549.950 7  96718925.84244  23619741.570                    23619745.066
      3164.145        2465.745          43.800          24.600
 108035380.287 8  84183486.64947  20558456.414                    20558463.730
      1157.871         902.579          52.500          45.100
 127152760.224 6  99080127.73644  24196378.469                    24196388.223
     -3625.664       -2825.003          39.900          25.300
 118751458.680 7  92533619.66545  22597659.789                    22597662.215
     -2099.625       -1635.761          45.000          33.100
 18  2 20  9 31  0.0000000  0  7G07G05G09G13G30G06G02
 109332412.611 8  85194134.61846  20805269.492                    20805273.613
      -622.305        -484.719          51.100          41.800
 110279680.074 8  85932248.07046  20985528.797                    20985532.855
      1758.695        1370.603          50.600          39.000
 116795402.919 8  91009474.68546  22225434.664                    22225441.156
     -2639.664       -2056.748          48.400          37.600
 124027683.398 7  96645003.90144  23601689.625                    23601692.957
      3160.078        2462.452          44.000          24.000
 108000903.678 8  84156621.76947  20551895.570                    20551902.816
      1140.316         888.841          52.400          44.500
 127261548.629 6  99164897.87044  24217080.914                    24217089.797
     -3627.008       -2826.294          41.500          25.100
 118814638.140 7  92582850.36345  22609682.867                    22609684.480
     -2112.457       -1645.929          45.200          32.400
 18  2 20  9 31 30.0000000  0  7G07G05G09G13G30G06G02
 109351330.119 8  85208875.52647  20808868.914                    20808873.145
      -638.754        -497.540          51.800          42.300
 110227140.181 8  85891307.89446  20975530.906                    20975534.594
      1744.027        1359.151          50.800          39.500
 116874682.272 8  91071250.77546  22240521.148                    22240527.203
     -2645.531       -2061.449          48.800          38.100
 123932947.396 7  96571183.65043  23583661.469                    23583665.746
      3155.605        2459.028          42.800          23.000
 107966958.899 8  84130171.29047  20545436.336                    20545443.164
      1122.684         875.005          53.000          45.100
 127370387.192 6  99249707.06944  24237791.953                    24237801.133
     -3628.707       -2827.580          40.100          26.000
 118878210.931 7  92632387.54745  22621780.031                    22621782.027
     -2125.621       -1656.155          45.000          32.000
 18  2 20  9 32  0.0000000  0  7G07G05G09G13G30G06G02
 109370741.451 8  85224001.24347  20812563.055                    20812567.270
      -655.270        -510.400          50.200          42.300
 110175043.574 8  85850713.13446  20965617.367                    20965621.461
      1729.203        1347.573          51.000          39.700
 116954143.395 7  91133168.51646  22255640.789                    22255648.082
     -2651.520       -2066.183          47.100          37.300
 123838345.408 7  96497467.83543  23565659.414                    23565663.418
      3151.227        2455.533          42.200          23.900
 107933548.692 8  84104137.37447  20539078.461                    20539085.246
      1104.926         861.079          52.100          44.500
 127479275.181 6  99334554.80544  24258512.508                    24258521.934
     -3630.473       -2828.862          39.800          24.800
 118942177.037 7  92682231.20345  22633953.047                    22633953.930
     -2138.574       -1666.351          43.800          31.400
 18  2 20  9 32 30.0000000  0  7G07G05G09G13G30G06G02
 109390644.604 8  85239510.17247  20816350.563                    20816354.609
      -671.605        -523.186          51.300          42.300
 110123391.344 8  85810464.63246  20955788.633                    20955792.551
      1714.379        1335.965          51.300          39.500
 117033784.181 8  91195226.23146  22270796.492                    22270803.238
     -2657.699       -2070.894          48.500          37.600
 123743876.837 6  96423855.98843  23547682.211                    23547686.238
      3146.785        2451.987          40.200          23.800
 107900672.388 8  84078519.47647  20532822.344                    20532829.020
      1087.047         847.170          52.300          44.600
 127588208.551 6  99419437.89344  24279241.961                    24279251.715
     -3631.879       -2830.054          39.600          26.800
 119006532.572 7  92732378.32845  22646199.516                    22646200.461
     -2151.578       -1676.511          42.900          31.100
 18  2 20  9 33  0.0000000  0  7G07G05G09G13G30G06G02
 109411039.754 8  85255402.49347  20820231.672                    20820235.523
      -687.945        -535.873          52.200          42.300
 110072186.879 8  85770565.04946  20946044.445                    20946048.719
      1699.379        1324.402          51.500          39.900
 117113605.116 8  91257424.32446  22285985.945                    22285992.727
     -2663.684       -2075.477          48.800          37.500
 123649543.636 6  96350349.62344  23529731.148                    23529735.445
      3142.207        2448.538          39.900          24.100
 107868331.979 8  84053319.15347  20526668.281                    20526674.672
      1069.191         833.341          52.600          44.600
 127697185.938 6  99504355.27844  24299980.016                    24299989.727
     -3633.145       -2831.039          40.000          26.400
 119071276.921 7  92782828.41645  22658519.563                    22658521.523
     -2164.488       -1686.479          44.200          30.700
 18  2 20  9 33 30.0000000  0  7G07G05G09G13G30G06G02
 109431922.963 8  85271675.12247  20824205.836                    20824209.672
      -704.176        -548.569          52.300          42.700
 110021428.890 8  85731013.36346  20936385.773                    20936389.797
      1684.434        1312.728          51.700          41.100
 117193602.413 7  91319759.82746  22301209.477                    22301215.754
     -2669.500       -2080.095          47.600          37.300
 123555344.199 6  96276947.49243  23511805.313                    23511810.133
      3137.699        2445.003          39.000          21.800
 107836525.058 8  84028534.53647  20520615.805                    20520622.508
      1051.281         819.416          52.300          45.000
 127806201.667 6  99589302.52744  24320724.539                    24320734.520
     -3634.578       -2832.079          38.600          25.100
 119136404.752 7  92833577.33845  22670913.289                    22670914.637
     -2177.363       -1696.473          44.000          31.000
 18  2 20  9 34  0.0000000  0  7G07G05G09G13G30G06G02
 109453290.742 8  85288325.32347  20828272.180                    20828275.617
      -720.293        -561.146          50.500          42.600
 109971116.559 8  85691808.95046  20926811.352                    20926815.203
      1669.688        1301.148          51.900          40.400
 117273772.633 7  91382230.09246  22316465.766                    22316471.738
     -2675.168       -2084.559          46.800          37.100
 123461276.671 6  96203648.14643  23493904.977                    23493909.195
      3133.422        2441.598          41.100          22.900
 107805249.614 8  84004164.06047  20514664.273                    20514670.867
      1033.688         805.625          53.000          45.800
 127915250.306 6  99674275.44644  24341475.898                    24341486.035
     -3635.391       -2832.876          38.600          26.000
 119201910.881 7  92884621.03845  22683377.664                    22683379.750
     -2189.809       -1706.241          43.100          30.700
 18  2 20  9 34 30.0000000  0  7G07G05G09G13G30G06G02
 109475147.727 8  85305356.71947  20832431.156                    20832434.902
      -736.625        -573.812          51.100          42.100
 109921257.305 8  85652957.57546  20917323.789                    20917327.703
      1654.523        1289.370          52.100          40.400
 117354120.524 7  91444838.81446  22331754.508                    22331761.578
     -2681.207       -2089.154          46.500          36.500
 123367347.624 6  96130456.66944  23476030.953                    23476035.223
      3128.809        2438.019          40.600          24.900
 107774511.828 8  83980212.53747  20508815.156                    20508821.563
      1015.742         791.663          52.700          45.700
 128024334.879 6  99759276.32244  24362234.531                    24362244.277
     -3636.539       -2833.763          38.400          26.600
 119267798.589 7  92935962.06345  22695916.641                    22695917.863
     -2202.492       -1716.099          44.000          30.800
 18  2 20  9 35  0.0000000  0  7G07G05G09G13G30G06G02
 109497489.489 8  85322765.88147  20836682.859                    20836686.715
      -752.859        -586.456          51.600          42.000
 109871850.130 8  85614458.46546  20907921.891                    20907925.664
      1639.254        1277.537          52.200          40.400
 117434642.210 7  91507582.95246  22347077.250                    22347084.313
     -2687.012       -2093.714          47.200          36.500
 123273554.625 7  96057371.21544  23458183.188                    23458187.016
      3124.039        2434.404          42.000          24.700
 107744309.158 8  83956677.98747  20503067.758                    20503074.246
       997.734         777.692          52.500          46.100
 128133449.417 6  99844300.59944  24382998.117                    24383007.688
     -3637.660       -2834.575          39.700          27.200
 119334062.429 7  92987596.19245  22708526.141                    22708527.949
     -2215.141       -1725.929          44.100          30.700
 18  2 20  9 35 30.0000000  0  7G07G05G09G13G30G06G02
 109520317.143 8  85340553.65146  20841026.547                    20841030.168
      -768.906        -598.980          51.500          41.900
 109822898.737 8  85576314.50946  20898607.203                    20898610.660
      1624.180        1265.758          52.500          40.500
 117515338.825 7  91570463.39246  22362433.336                    22362440.574
     -2692.738       -2098.170          46.700          36.400
 123179901.049 6  95984394.39143  23440360.875                    23440365.418
      3119.453        2430.823          40.700          23.600
 107714644.085 8  83933562.33947  20497422.484                    20497429.344
       979.980         763.797          52.800          45.700
 128242593.225 6  99929347.61844  24403768.313                    24403777.484
     -3638.434       -2835.193          41.100          26.900
 119400701.787 7  93039522.93145  22721207.836                    22721209.617
     -2227.457       -1735.564          44.400          31.500
 18  2 20  9 36  0.0000000  0  7G07G05G09G13G30G06G02
 109543627.652 8  85358717.67646  20845462.492                    20845466.207
      -785.211        -611.527          50.800          41.800
 109774403.738 8  85538526.18446  20889378.578                    20889382.430
      1608.750        1253.859          52.000          40.600
 117596207.371 7  91633477.82146  22377821.969                    22377829.215
     -2698.594       -2102.652          47.700          36.700
 123086385.729 7  95911525.30544  23422565.594                    23422569.531
      3114.805        2427.210          42.100          24.700
 107685514.978 8  83910864.34047  20491879.742                    20491886.152
       961.863         749.850          52.600          45.500
 128351761.504 6 100014413.75544  24424541.992                    24424551.586
     -3639.445       -2835.848          39.400          27.000
 119467712.522 7  93091739.08145  22733959.242                    22733961.523
     -2240.016       -1745.210          44.100          31.800
 18  2 20  9 36 30.0000000  0  7G07G05G09G13G30G06G02
 109567420.431 8  85377257.49246  20849990.297                    20849993.949
      -800.980        -623.983          50.600          41.800
 109726367.441 8  85501095.30146  20880237.492                    20880241.434
      1593.754        1241.991          52.400          41.000
 117677247.938 8  91696626.26746  22393243.930                    22393251.074
     -2704.027       -2107.024          48.000          37.100
 122993009.796 6  95838764.83444  23404796.719                    23404801.180
      3110.371        2423.675          41.600          27.000
 107656923.176 8  83888585.01247  20486438.500                    20486445.168
       944.250         735.954          52.700          45.400
 128460952.328 6 100099497.44444  24445321.313                    24445329.805
     -3639.836       -2836.311          41.600          27.600
 119535092.901 7  93144243.24945  22746780.672                    22746782.809
     -2252.023       -1754.699          44.800          31.100
 18  2 20  9 37  0.0000000  0  7G07G05G09G13G30G06G02
 109591693.666 8  85396171.69346  20854609.102                    20854612.949
      -817.059        -636.546          51.300          41.600
 109678790.779 8  85464022.56746  20871184.070                    20871188.051
      1578.207        1229.899          52.600          41.300
 117758458.755 8  91759907.39646  22408697.734                    22408704.660
     -2709.918       -2111.573          49.000          37.000
 122899773.461 6  95766113.13844  23387054.023                    23387058.754
      3105.543        2419.891          40.900          26.900
 107628868.212 8  83866723.99747  20481100.008                    20481106.664
       926.160         721.903          51.900          45.500
 128570162.120 6 100184595.89344  24466101.859                    24466112.152
     -3640.711       -2836.896          41.100          27.200
 119602839.857 7  93197033.05245  22759671.906                    22759674.910
     -2264.469       -1764.311          44.600          31.700
 18  2 20  9 37 30.0000000  0  7G07G05G09G13G30G06G02
 109616446.779 8  85415459.82446  20859319.109                    20859323.113
      -833.020        -648.914          51.100          41.400
 109631676.166 8  85427309.88446  20862218.438                    20862222.324
      1562.906        1217.985          52.500          40.900
 117839839.736 8  91823321.09946  22424184.188                    22424191.406
     -2715.371       -2115.861          48.500          37.000
 122806678.966 7  95693571.95744  23369339.531                    23369343.664
      3101.055        2416.325          42.400          27.700
 107601351.269 8  83845282.21947  20475863.750                    20475870.586
       908.398         708.030          52.700          45.200
 128679388.850 7 100269707.55844  24486887.602                    24486897.207
     -3641.000       -2837.182          42.100          27.000
 119670951.474 7  93250106.99245  22772634.500                    22772636.109
     -2276.148       -1773.632          44.000          31.000
 18  2 20  9 38  0.0000000  0  7G07G05G09G13G30G06G02
 109641678.883 8  85435121.19147  20864120.898                    20864124.707
      -849.043        -661.446          51.100          42.000
 109585025.835 8  85390958.97146  20853341.258                    20853345.141
      1547.164        1205.781          52.300          41.400
 117921390.172 8  91886866.85546  22439703.211                    22439709.852
     -2721.203       -2120.374          49.000          36.700
 122713726.938 7  95621141.80544  23351650.938                    23351655.953
      3095.977        2412.481          42.300          28.300
 107574372.892 8  83824260.10447  20470730.094                    20470736.164
       890.242         693.903          53.500          45.700
 128788630.023 6 100354830.48144  24507676.563                    24507685.527
     -3641.691       -2837.687          41.700          27.500
 119739425.476 7  93303463.34445  22785664.172                    22785666.465
     -2288.512       -1783.153          44.200          30.400
 18  2 20  9 38 30.0000000  0  7G07G05G09G13G30G06G02
 109667387.718 8  85455154.05946  20869012.945                    20869016.773
      -864.992        -673.807          51.500          41.400
 109538840.220 8  85354970.17946  20844552.625                    20844556.379
      1531.734        1193.712          52.100          41.400
 118003107.981 8  91950543.04046  22455253.758                    22455260.254
     -2726.836       -2124.710          48.200          37.800
 122620916.855 7  95548822.25744  23333989.563                    23333994.684
      3091.176        2408.777          44.300          27.600
 107547932.201 8  83803656.97147  20465698.492                    20465704.770
       872.293         679.940          53.200          44.900
 128897881.559 7 100439961.47144  24528465.977                    24528474.859
     -3641.879       -2837.872          42.800          26.300
 119808258.291 7  93357099.27544  22798762.211                    22798764.324
     -2300.391       -1792.410          43.600          29.800
 18  2 20  9 39  0.0000000  0  7G07G05G09G13G30G06G02
 109693573.070 8  85475558.20346  20873996.227                    20873999.805
      -880.719        -686.092          50.500          41.800
 109493122.420 8  85319345.90746  20835852.734                    20835856.367
      1516.109        1181.589          52.000          40.900
 118084993.506 8  92014349.90246  22470835.750                    22470842.371
     -2732.266       -2128.977          48.700          37.300
 122528250.900 7  95476615.02044  23316356.258                    23316361.270
      3086.543        2405.112          42.700          26.900
 107522030.776 8  83783474.02847  20460769.727                    20460776.113
       854.512         666.009          53.100          45.100
 129007141.980 7 100525099.38544  24549257.930                    24549266.922
     -3642.070       -2838.007          42.400          27.800
 119877448.517 7  93411013.69145  22811929.055                    22811931.102
     -2312.203       -1801.594          43.700          30.700
 18  2 20  9 39 30.0000000  0  6G07G05G09G13G30G02
 109720232.205 8  85496331.54747  20879069.336                    20879072.941
      -896.469        -698.355          51.200          42.000
 109447872.725 8  85284086.40147  20827242.000                    20827245.621
      1500.609        1169.444          52.600          42.000
 118167044.301 8  92078285.56146  22486449.555                    22486455.988
     -2737.758       -2133.247          49.600          37.600
 122435728.258 7  95404519.46644  23298750.117                    23298754.895
      3081.680        2401.391          43.800          28.600
 107496667.313 8  83763710.28647  20455943.227                    20455949.582
       836.520         652.054          52.800          45.000
 119946991.742 7  93465203.18845  22825162.492                    22825165.023
     -2323.855       -1810.711          44.300          30.400
 18  2 20  9 40  0.0000000  0  6G07G05G09G13G30G02
 109747362.528 8  85517472.04846  20884231.953                    20884235.563
      -912.281        -710.725          51.200          41.400
 109403091.247 8  85249191.74346  20818720.406                    20818723.813
      1484.734        1157.136          52.400          41.400
 118249258.020 8  92142348.16846  22502094.023                    22502100.727
     -2743.320       -2137.590          49.900          37.300
 122343348.521 7  95332535.25144  23281169.820                    23281175.531
      3076.871        2397.553          43.400          29.600
 107471840.635 8  83744364.82747  20451218.758                    20451225.227
       818.496         637.994          53.300          45.300
 120016884.367 7  93519664.92145  22838463.414                    22838465.168
     -2335.625       -1819.864          44.500          31.600
 18  2 20  9 40 30.0000000  0  7G07G05G09G28G13G30G02
 109774963.088 8  85538978.96746  20889484.266                    20889487.805
      -927.844        -722.831          52.000          41.700
 109358780.371 8  85214663.78046  20810288.211                    20810292.094
      1469.168        1144.977          51.700          41.100
 118331634.229 8  92206537.37646  22517769.984                    22517776.605
     -2748.555       -2141.690          49.900          37.400
 127589046.134 6  99419880.79943  24279344.344                    24279350.063
      3277.387        2553.855          37.300          19.000
 122251112.910 7  95260663.31344  23263618.953                    23263623.359
      3072.066        2393.872          42.800          28.400
 107447551.435 8  83725438.17447  20446596.766                    20446603.316
       800.707         624.105          52.900          45.100
 120087123.909 7  93574396.99345  22851829.359                    22851831.684
     -2347.109       -1828.753          44.500          31.800
 18  2 20  9 41  0.0000000  0  7G07G05G09G28G13G30G02
 109803035.283 8  85560853.39446  20894826.445                    20894830.125
      -943.727        -735.102          52.700          41.400
 109314944.143 8  85180505.68046  20801946.266                    20801950.418
      1453.180        1132.587          51.600          41.300
 118414174.770 8  92270854.64046  22533477.008                    22533483.715
     -2754.141       -2145.984          48.900          36.700
 127490756.271 6  99343291.29943  24260641.547                    24260645.695
      3275.164        2552.181          36.700          19.300
 122159025.087 7  95188906.56344  23246094.734                    23246099.703
      3067.031        2389.984          43.600          27.600
 107423802.633 8  83706932.61147  20442077.273                    20442083.906
       782.543         610.018          52.800          45.300
 120157710.711 7  93629399.65945  22865261.836                    22865264.145
     -2358.812       -1837.798          43.600          32.300
 18  2 20  9 41 30.0000000  0  7G07G05G09G28G13G30G02
 109831578.110 8  85583094.54646  20900257.773                    20900261.457
      -959.199        -747.173          53.000          41.700
 109271584.758 8  85146719.14646  20793695.406                    20793699.305
      1437.477        1120.323          50.500          40.900
 118496878.825 8  92335299.32046  22549215.039                    22549222.055
     -2759.414       -2150.107          49.400          36.600
 127392533.431 6  99266754.10643  24241948.711                    24241954.359
      3273.164        2550.406          38.200          19.900
 122067085.997 7  95117265.71644  23228599.469                    23228604.281
      3062.336        2386.270          43.200          27.500
 107400594.563 8  83688848.40947  20437661.055                    20437667.785
       764.746         596.115          52.100          45.500
 120228642.544 7  93684671.17545  22878759.164                    22878761.879
     -2369.977       -1846.609          44.100          31.600
 18  2 20  9 42  0.0000000  0  7G07G05G09G28G13G30G02
 109860587.484 8  85605699.25646  20905778.234                    20905781.398
      -974.801        -759.429          52.100          41.600
 109228700.871 8  85113303.14046  20785534.469                    20785538.871
      1421.363        1107.776          51.400          41.000
 118579742.837 8  92399868.63446  22564983.914                    22564990.469
     -2764.918       -2154.406          48.700          36.500
 127294378.089 6  99190269.46643  24223271.500                    24223276.480
      3270.531        2548.510          39.600          19.900
 121975293.622 7  95045739.22244  23211132.367                    23211136.332
      3057.129        2382.275          42.500          28.900
 107377924.733 8  83671183.60847  20433347.031                    20433353.926
       746.535         581.967          52.200          45.200
 120299913.838 7  93740207.21145  22892322.250                    22892324.152
     -2381.555       -1855.542          44.100          31.800
 18  2 20  9 42 30.0000000  0  7G07G05G09G28G13G30G02
 109890065.887 8  85628669.42447  20911387.406                    20911391.453
      -990.238        -771.477          52.100          42.000
 109186298.351 8  85080262.21046  20777465.516                    20777470.113
      1405.492        1095.363          51.400          41.600
 118662769.418 8  92464564.62046  22580783.258                    22580790.133
     -2770.055       -2158.497          48.800          36.900
 127196296.525 6  99113842.31943  24204607.070                    24204611.570
      3268.383        2546.686          39.400          20.100
 121883652.216 7  94974330.36244  23193693.180                    23193697.676
      3052.242        2378.447          43.100          27.100
 107355796.790 8  83653941.05547  20429135.867                    20429142.828
       728.688         568.012          51.900          45.200
 120371525.322 7  93796008.33845  22905948.680                    22905950.930
     -2392.617       -1864.216          44.900          31.700
 18  2 20  9 43  0.0000000  0  7G07G05G09G28G13G30G02
 109920006.271 8  85651999.58946  20917084.641                    20917088.547
     -1005.859        -783.531          51.500          41.600
 109144372.639 8  85047592.82646  20769487.586                    20769492.168
      1389.566        1082.929          50.700          41.300
 118745952.105 8  92529382.26346  22596612.422                    22596619.879
     -2775.488       -2162.614          49.000          36.400
 127098285.597 6  99037470.22943  24185956.523                    24185961.074
      3265.664        2544.748          39.200          20.600
 121792157.320 7  94903035.64844  23176282.641                    23176286.906
      3047.363        2374.583          43.400          27.300
 107334205.275 8  83637116.50947  20425027.414                    20425034.320
       710.676         554.041          52.400          45.600
 120443468.941 7  93852068.27545  22919639.813                    22919641.336
     -2403.645       -1872.865          45.000          31.400
 18  2 20  9 43 30.0000000  0  7G07G05G09G28G13G30G02
 109950411.890 8  85675692.27046  20922871.055                    20922875.078
     -1021.371        -795.631          51.900          41.300
 109102930.946 8  85015300.60546  20761601.070                    20761606.148
      1373.227        1070.271          50.700          40.800
 118829295.241 8  92594324.91746  22612472.641                    22612479.512
     -2780.852       -2166.821          48.000          36.000
 127000354.014 6  98961159.94043  24167320.430                    24167325.469
      3263.008        2542.637          38.500          18.600
 121700814.559 7  94831859.45844  23158900.953                    23158905.195
      3042.109        2370.578          42.700          27.400
 107313155.552 8  83620714.13547  20421021.898                    20421028.555
       692.547         539.907          52.500          45.700
 120515747.457 7  93908389.15245  22933394.625                    22933395.379
     -2414.844       -1881.573          43.600          30.000
 18  2 20  9 44  0.0000000  0  7G07G05G09G28G13G30G02
 109981280.831 8  85699745.98246  20928745.047                    20928748.793
     -1036.660        -807.589          51.400          41.300
 109061973.811 8  84983385.95846  20753807.461                    20753812.059
      1357.133        1057.717          51.400          41.600
 118912796.776 7  92659390.98245  22628362.641                    22628368.293
     -2785.953       -2170.827          47.600          35.500
 126902503.591 6  98884912.91543  24148700.031                    24148705.074
      3260.199        2540.503          38.100          20.900
 121609624.060 7  94760801.97444  23141547.609                    23141551.480
      3036.953        2366.663          42.900          27.400
 107292646.576 8  83604733.12147  20417119.211                    20417125.664
       674.633         525.908          52.700          44.700
 120588356.791 7  93964967.82045  22947211.094                    22947212.359
     -2425.898       -1890.104          43.800          30.500
 18  2 20  9 44 30.0000000  0  7G07G05G09G28G13G30G02
 110012610.628 8  85724158.80646  20934706.742                    20934710.625
     -1052.055        -819.555          51.200          41.400
 109021501.932 8  84951849.42946  20746106.094                    20746110.082
      1340.938        1045.102          50.300          41.600
 118996454.917 7  92724579.12046  22644281.539                    22644288.363
     -2791.230       -2174.917          47.500          36.000
 126804735.699 6  98808730.19943  24130095.656                    24130100.078
      3257.398        2538.342          38.100          20.400
 121518585.714 7  94689862.98744  23124223.414                    23124227.461
      3032.039        2362.700          43.900          27.100
 107272677.545 8  83589172.84247  20413319.000                    20413325.648
       656.641         511.887          52.900          45.100
 120661293.638 7  94021801.72744  22961089.773                    22961091.750
     -2436.676       -1898.563          43.000          29.800
 18  2 20  9 45  0.0000000  0  7G07G05G09G28G13G30G02
 110044403.902 8  85748932.78946  20940756.805                    20940761.008
     -1067.457        -831.633          50.300          40.900
 108981520.740 8  84920695.26446  20738497.992                    20738502.203
      1324.523        1032.271          50.200          41.300
 119080272.977 7  92789891.86146  22660231.641                    22660238.609
     -2796.656       -2179.124          47.000          36.600
 126707057.601 6  98732617.47043  24111507.516                    24111512.742
      3254.313        2535.896          38.200          21.300
 121427704.494 7  94619046.46844  23106929.352                    23106933.336
      3026.656        2358.527          43.600          27.800
 107253252.660 8  83574036.56247  20409622.367                    20409628.711
       638.398         497.692          52.000          44.600
 120734559.499 7  94078891.96344  22975032.195                    22975033.898
     -2447.672       -1907.144          44.000          29.000
 18  2 20  9 45 30.0000000  0  7G07G05G09G28G13G30G02
 110076660.654 8  85774067.90846  20946895.172                    20946899.262
     -1082.816        -843.538          50.700          41.100
 108942032.912 8  84889925.53346  20730983.680                    20730987.887
      1308.148        1019.554          50.500          41.300
 119164250.821 7  92855329.11946  22676211.641                    22676218.656
     -2801.723       -2183.131          46.600          36.100
 126609473.478 6  98656577.95443  24092938.039                    24092942.863
      3251.230        2533.526          38.900          21.100
 121336981.952 7  94548353.57844  23089665.352                    23089669.398
      3021.469        2354.526          43.700          27.600
 107234372.695 8  83559324.91847  20406029.711                    20406035.840
       620.367         483.656          52.100          44.900
 120808152.369 7  94136237.00144  22989037.016                    22989038.930
     -2458.375       -1915.486          43.100          29.700
 18  2 20  9 46  0.0000000  0  7G07G05G09G28G13G30G02
 110109373.227 8  85799558.20446  20953120.211                    20953124.633
     -1097.930        -855.341          51.700          41.600
 108903034.826 8  84859537.41446  20723562.516                    20723566.672
      1291.840        1006.821          50.700          40.800
 119248382.131 7  92920885.95046  22692221.656                    22692228.289
     -2806.855       -2187.106          46.800          36.200
 126511980.637 6  98580609.57543  24074385.102                    24074390.598
      3248.223        2531.143          39.400          21.700
 121246413.012 7  94477780.36744  23072431.180                    23072434.426
      3016.559        2350.560          44.600          27.400
 107216032.272 8  83545033.67647  20402539.828                    20402545.832
       602.465         469.647          52.100          44.900
 120882063.911 7  94193830.39044  23003101.875                    23003103.602
     -2468.887       -1923.729          43.800          28.500
 18  2 20  9 46 30.0000000  0  7G07G05G09G28G13G30G02
 110142544.478 8  85825405.93446  20959432.789                    20959436.422
     -1113.137        -867.201          51.200          41.500
 108864531.832 8  84829535.08046  20716235.852                    20716239.770
      1275.406         993.969          50.500          41.400
 119332669.985 7  92986564.74845  22708261.172                    22708267.688
     -2811.992       -2191.125          47.000          35.000
 126414585.501 6  98504717.35443  24055852.195                    24055856.848
      3245.191        2528.613          40.300          21.300
 121156002.748 7  94407330.80444  23055226.273                    23055229.934
      3011.266        2346.437          45.400          28.700
 107198235.332 8  83531165.93847  20399153.164                    20399159.301
       584.477         455.574          52.300          44.800
 120956295.611 6  94251673.26344  23017226.805                    23017229.043
     -2479.488       -1931.948          41.300          29.200
 18  2 20  9 47  0.0000000  0  7G07G05G09G28G13G30G02
 110176168.984 8  85851606.85747  20965830.813                    20965835.391
     -1128.363        -879.062          51.600          42.100
 108826521.851 8  84799916.92046  20709002.836                    20709006.719
      1258.801         981.057          51.100          41.600
 119417109.569 7  93052361.80145  22724329.094                    22724336.340
     -2817.145       -2195.153          46.600          35.500
 126317287.313 6  98428900.68943  24037337.695                    24037342.336
      3241.621        2525.956          39.200          22.200
 121065748.563 7  94337002.86844  23038051.555                    23038055.258
      3005.840        2342.282          45.000          29.600
 107180978.000 8  83517718.66647  20395869.430                    20395875.563
       566.227         441.448          52.700          44.900
 121030840.841 6  94309760.39544  23031411.828                    23031414.664
     -2489.957       -1940.179          39.900          28.300
 18  2 20  9 47 30.0000000  0  7G07G05G09G28G13G30G02
 110210245.659 8  85878160.11246  20972315.789                    20972320.094
     -1143.613        -890.804          52.100          41.700
 108789006.088 8  84770683.85146  20701863.570                    20701867.461
      1242.160         968.197          51.100          41.700
 119501700.240 7  93118276.58045  22740426.250                    22740433.777
     -2822.406       -2199.077          46.100          34.700
 126220089.130 6  98353161.92543  24018840.547                    24018845.523
      3237.828        2523.281          39.400          21.800
 120975651.228 7  94266797.17744  23020906.578                    23020911.160
      3000.391        2338.181          45.300          29.100
 107164260.336 8  83504691.91347  20392688.094                    20392694.352
       548.090         427.411          52.800          45.100
 121105697.038 7  94368089.88344  23045657.539                    23045659.609
     -2500.551       -1948.243          43.000          29.100
 18  2 20  9 48  0.0000000  0  7G07G05G09G28G13G30G02
 110244773.943 8  85905065.27246  20978886.148                    20978890.246
     -1158.527        -902.524          52.600          41.400
 108751987.250 8  84741838.00346  20694819.375                    20694823.266
      1225.691         955.264          50.800          41.300
 119586441.981 7  93184309.08145  22756551.781                    22756559.203
     -2827.230       -2202.989          45.800          35.000
 126122994.782 6  98277504.08443  24000364.141                    24000369.090
      3234.688        2520.571          40.700          23.000
 120885712.363 7  94196714.95844  23003791.469                    23003796.375
      2995.223        2334.057          45.100          29.700
 107148083.205 8  83492086.35747  20389609.938                    20389615.836
       530.203         413.382          52.500          45.100
 121180862.494 6  94426660.35244  23059960.219                    23059963.109
     -2510.613       -1956.223          41.900          28.300
 18  2 20  9 48 30.0000000  0  7G07G05G09G28G13G30G02
 110279751.431 8  85932320.46946  20985541.898                    20985546.465
     -1173.426        -914.192          52.000          40.900
 108715465.933 8  84713379.83346  20687869.547                    20687873.359
      1209.020         942.313          51.000          41.600
 119671332.936 7  93250457.83345  22772705.984                    22772712.730
     -2832.207       -2206.858          45.300          34.400
 126026006.428 6  98201928.79043  23981907.797                    23981912.398
      3231.109        2517.780          38.400          21.800
 120795931.623 7  94126755.95344  22986706.617                    22986711.254
      2989.973        2329.933          44.600          29.200
 107132445.600 8  83479901.20747  20386633.883                    20386640.227
       512.223         399.345          53.200          45.300
 121256333.275 6  94485468.72644  23074322.133                    23074325.012
     -2520.859       -1964.122          41.800          29.300
 18  2 20  9 49  0.0000000  0  7G07G05G09G28G13G30G02
 110315179.714 8  85959926.92946  20992283.594                    20992288.219
     -1188.430        -925.896          52.400          41.400
 108679446.576 8  84685312.80347  20681015.414                    20681019.234
      1192.258         929.216          52.100          42.400
 119756375.327 7  93316724.59445  22788888.797                    22788896.641
     -2837.246       -2210.804          46.200          35.300
 125929129.585 6  98126440.43543  23963472.438                    23963477.984
      3227.457        2514.853          39.500          22.600
 120706313.149 7  94056923.40844  22969653.055                    22969657.805
      2984.488        2325.665          44.600          29.300
 107117350.412 8  83468138.72247  20383761.148                    20383767.703
       494.078         385.226          53.200          45.200
 121332109.919 7  94544515.41544  23088742.344                    23088745.031
     -2531.020       -1972.077          42.700          29.300
 18  2 20  9 49 30.0000000  0  7G07G05G09G28G13G30G02
 110351055.047 8  85987881.74146  20999111.086                    20999114.984
     -1203.207        -937.370          51.900          41.300
 108643929.114 8  84657636.86146  20674256.852                    20674260.598
      1175.621         916.273          51.800          41.800
 119841566.333 7  93383107.15245  22805100.141                    22805107.980
     -2842.137       -2214.566          46.700          34.000
 125832365.556 6  98051040.00943  23945058.875                    23945063.039
      3223.730        2511.983          37.500          20.400
 120616855.641 7  93987216.29644  22952629.531                    22952634.559
      2979.344        2321.605          43.900          29.500
 107102795.615 8  83456797.32847  20380991.891                    20380998.086
       476.250         371.322          53.000          45.500
 121408187.669 7  94603796.74245  23103219.953                    23103222.105
     -2540.840       -1979.757          44.000          30.300
 18  2 20  9 50  0.0000000  0  7G07G05G09G28G13G30G02
 110387374.808 8  86016182.86346  21006022.242                    21006026.387
     -1217.949        -948.889          51.900          41.600
 108608913.485 8  84630351.94946  20667593.508                    20667596.969
      1158.902         903.243          52.300          41.900
 119926903.819 7  93449603.84445  22821340.125                    22821347.070
     -2846.973       -2218.340          46.100          34.100
 125735715.718 6  97975728.56243  23926667.094                    23926671.398
      3219.863        2508.967          38.000          21.500
 120527558.760 7  93917634.31744  22935636.656                    22935641.973
      2974.063        2317.452          44.300          29.300
 107088779.831 8  83445875.93847  20378324.297                    20378331.199
       458.316         357.346          53.200          45.600
 121484562.211 7  94663309.35445  23117752.836                    23117755.680
     -2550.699       -1987.431          44.300          30.800
 18  2 20  9 50 30.0000000  0  7G07G05G09G28G13G30G02
 110424133.221 8  86044825.77446  21013017.250                    21013021.238
     -1232.676        -960.334          52.100          41.400
 108574396.935 8  84603455.92847  20661025.219                    20661028.617
      1142.109         890.182          51.600          42.400
 120012382.554 7  93516210.60245  22837606.000                    22837612.684
     -2851.793       -2222.084          46.400          33.400
 125639178.969 6  97900505.17443  23908296.586                    23908301.109
      3215.805        2505.918          38.900          21.800
 120438419.064 7  93848174.85144  22918674.227                    22918679.109
      2968.484        2313.237          44.300          29.400
 107075298.536 8  83435371.03647  20375759.273                    20375765.996
       440.297         343.369          53.000          45.800
 121561226.839 7  94723047.95944  23132342.148                    23132344.453
     -2560.309       -1994.979          44.300          28.500
 18  2 20  9 51  0.0000000  0  7G07G05G09G28G13G30G02
 110461337.304 8  86073815.96346  21020096.805                    21020100.914
     -1247.527        -971.911          51.500          41.300
 108540389.534 8  84576956.65047  20654554.102                    20654557.195
      1125.012         876.912          50.900          42.600
 120098010.402 7  93582933.58145  22853899.859                    22853907.094
     -2856.789       -2225.949          45.400          34.000
 125542766.831 6  97825378.88543  23889950.375                    23889954.348
      3211.602        2502.644          38.800          23.900
 120349445.933 7  93778845.14844  22901743.664                    22901748.102
      2962.953        2308.907          44.300          28.700
 107062360.330 8  83425289.32047  20373297.258                    20373303.848
       422.164         329.234          51.900          44.800
 121638187.479 7  94783017.23344  23146987.430                    23146989.520
     -2570.297       -2002.670          44.600          29.600
 18  2 20  9 51 30.0000000  0  7G07G05G09G28G13G30G02
 110498985.264 8  86103152.02946  21027261.016                    21027264.824
     -1262.426        -983.452          52.000          41.200
 108506892.261 8  84550854.87647  20648179.359                    20648182.855
      1107.988         863.613          51.100          42.400
 120183785.894 7  93649771.56845  22870222.836                    22870229.992
     -2861.742       -2229.812          45.100          33.600
 125446481.644 6  97750351.51443  23871627.938                    23871631.871
      3207.125        2499.266          40.500          22.600
 120260639.558 7  93709645.38044  22884843.797                    22884847.918
      2957.328        2304.525          45.000          29.500
 107049964.310 8  83415630.09747  20370938.273                    20370944.801
       404.055         315.131          52.800          45.000
 121715440.582 7  94843214.44044  23161687.688                    23161689.793
     -2580.051       -2010.247          45.100          29.400
 18  2 20  9 52  0.0000000  0  7G07G05G09G28G13G30G02
 110537074.662 8  86132832.09046  21034509.250                    21034512.996
     -1276.922        -994.836          52.400          41.300
 108473905.829 8  84525151.15047  20641902.438                    20641905.883
      1091.004         850.418          51.700          42.200
 120269707.422 7  93716723.37245  22886573.148                    22886580.539
     -2866.477       -2233.515          44.700          33.000
 125350325.449 6  97675424.67043  23853329.922                    23853334.016
      3202.992        2495.938          39.600          23.000
 120172000.350 7  93640575.87744  22867976.367                    22867980.844
      2951.828        2300.244          44.700          29.600
 107038109.566 8  83406392.62847  20368682.008                    20368688.953
       386.176         301.176          53.000          45.500
 121792982.761 7  94903636.85244  23176444.086                    23176445.914
     -2589.453       -2017.657          44.100          29.100
 18  2 20  9 52 30.0000000  0  7G07G05G09G28G13G30G02
 110575601.857 8  86162853.27546  21041840.531                    21041844.328
     -1291.441       -1006.154          52.600          41.100
 108441429.241 8  84499844.71146  20635722.117                    20635725.313
      1074.078         837.193          50.700          41.600
 120355771.862 7  93783786.52245  22902950.383                    22902957.184
     -2871.098       -2237.173          44.100          33.100
 125254298.998 6  97600598.92343  23835056.492                    23835060.273
      3198.930        2492.611          39.900          21.500
 120083526.581 7  93571635.28245  22851140.711                    22851144.785
      2946.461        2295.978          44.500          30.000
 107026793.672 8  83397575.06047  20366528.633                    20366535.520
       368.414         287.207          51.800          45.400
 121870808.819 7  94964280.48744  23191253.484                    23191255.125
     -2598.805       -2024.939          44.400          29.500
 18  2 20  9 53  0.0000000  0  7G07G05G09G28G13G30G02
 110614566.728 8  86193215.51046  21049255.266                    21049259.523
     -1305.965       -1017.517          52.400          41.000
 108409465.686 8  84474938.04147  20629639.805                    20629643.008
      1057.086         823.819          51.000          42.000
 120441980.230 7  93850961.81745  22919355.336                    22919361.887
     -2875.824       -2240.931          44.100          31.800
 125158407.046 6  97525877.96143  23816809.086                    23816812.145
      3194.406        2489.036          40.300          21.800
 119995221.349 7  93502826.03745  22834337.031                    22834340.828
      2940.949        2291.576          45.200          30.500
 107016018.206 8  83389178.59947  20364478.617                    20364484.781
       350.352         273.140          52.500          45.800
 121948918.020 7  95025144.73544  23206117.336                    23206119.043
     -2608.094       -2032.278          43.700          28.900
 18  2 20  9 53 30.0000000  0  7G07G05G09G28G13G30G02
 110653965.460 8  86223915.81446  21056752.664                    21056756.496
     -1320.613       -1028.797          52.300          41.100
 108378014.396 8  84450430.53646  20623654.922                    20623658.281
      1039.680         810.438          51.700          41.500
 120528329.100 7  93918246.61045  22935787.297                    22935794.078
     -2880.656       -2244.612          44.900          32.800
 125062649.822 6  97451262.01943  23798586.445                    23798590.793
      3189.641        2485.481          39.100          22.200
 119907082.643 7  93434146.54045  22817564.320                    22817568.531
      2935.117        2287.190          45.500          31.200
 107005780.329 8  83381201.03147  20362530.164                    20362536.934
       332.266         259.140          52.700          45.600
 122027304.933 7  95086225.40544  23221033.789                    23221036.121
     -2617.559       -2039.496          42.200          29.600
 18  2 20  9 54  0.0000000  0  7G07G05G09G28G13G30G02
 110693797.102 8  86254953.44446  21064332.461                    21064336.078
     -1334.770       -1039.950          52.800          41.200
 108347077.166 8  84426323.59747  20617767.359                    20617771.031
      1022.688         797.132          51.200          42.400
 120614818.255 7  93985640.70545  22952245.859                    22952252.121
     -2885.223       -2248.167          45.600          32.800
 124967030.916 6  97376753.85743  23780390.805                    23780394.809
      3184.797        2481.864          36.200          20.900
 119819111.809 7  93365597.83745  22800823.906                    22800828.352
      2929.637        2282.879          45.300          30.900
 106996080.376 8  83373642.62647  20360684.172                    20360691.191
       314.414         245.244          52.500          45.500
 122105967.451 6  95147520.81644  23236003.523                    23236004.922
     -2626.578       -2046.577          41.100          29.100
 18  2 20  9 54 30.0000000  0  8G07G05G09G28G13G30G20G02
 110734057.508 8  86286325.20146  21071993.281                    21071997.324
     -1349.137       -1051.065          52.700          40.800
 108316652.871 8  84402616.34447  20611978.172                    20611981.840
      1005.641         783.833          50.200          42.200
 120701444.314 7  94053141.47745  22968730.688                    22968736.633
     -2889.805       -2251.690          45.000          33.400
 124871550.799 6  97302353.84943  23762221.156                    23762225.270
      3180.355        2478.270          39.400          21.100
 119731307.296 7  93297178.74945  22784115.492                    22784119.508
      2924.063        2278.567          45.600          31.900
 106986915.532 8  83366501.18547  20358940.422                    20358946.887
       296.598         231.379          52.800          45.800
 128369942.396 6 100028562.72343  24427991.703                    24427995.785
      3609.492        2812.680          37.700          19.300
 122184900.080 7  95209026.70745  23251024.234                    23251026.500
     -2635.512       -2053.543          42.600          30.600
 18  2 20  9 55  0.0000000  0  8G07G05G09G28G13G30G20G02
 110774745.103 8  86318029.80046  21079736.414                    21079740.211
     -1363.344       -1062.272          52.100          40.900
 108286743.137 8  84379310.05346  20606286.688                    20606289.738
       988.363         770.302          50.300          41.900
 120788206.625 7  94120748.44045  22985240.625                    22985247.059
     -2894.332       -2255.386          46.500          33.600
 124776212.582 6  97228064.41843  23744078.594                    23744083.086
      3175.328        2474.372          38.400          21.300
 119643670.221 7  93228890.11045  22767438.773                    22767442.969
      2918.418        2274.068          45.200          31.800
 106978285.684 8  83359776.63447  20357298.188                    20357304.992
       278.734         217.327          52.800          45.300
 128261721.996 6  99944235.15343  24407398.359                    24407402.457
      3605.082        2809.191          39.000          20.100
 122264100.292 6  95270741.12445  23266094.758                    23266097.160
     -2644.559       -2060.595          41.800          30.200
 18  2 20  9 55 30.0000000  0  8G07G05G09G28G13G30G20G02
 110815858.168 8  86350065.94046  21087560.469                    21087563.363
     -1377.625       -1073.254          51.300          41.000
 108257348.879 8  84356405.42946  20600693.109                    20600696.520
       971.035         756.929          50.900          41.700
 120875104.007 7  94188460.63345  23001777.813                    23001782.859
     -2898.945       -2258.818          45.700          33.900
 124681018.910 6  97153887.63343  23725964.320                    23725969.992
      3170.469        2470.644          38.500          22.000
 119556200.839 7  93160732.16145  22750793.578                    22750797.973
      2912.664        2269.746          45.600          31.500
 106970190.170 8  83353468.45147  20355757.742                    20355764.352
       260.797         203.507          51.500          46.000
 128153631.917 6  99860009.12843  24386829.180                    24386833.457
      3600.504        2805.817          39.500          21.300
 122343564.809 6  95332661.47145  23281216.680                    23281219.547
     -2653.301       -2067.383          41.800          30.000
 18  2 20  9 56  0.0000000  0  8G07G05G09G28G13G30G20G02
 110857398.948 8  86382435.37546  21095465.352                    21095468.563
     -1391.840       -1084.311          52.200          41.100
 108228475.513 8  84333906.69846  20595198.352                    20595201.848
       953.691         743.428          50.800          41.600
 120962139.775 7  94256280.65345  23018340.078                    23018345.785
     -2903.559       -2262.384          47.200          33.600
 124585976.646 6  97079828.81343  23707877.484                    23707884.512
      3165.523        2466.717          37.700          22.800
 119468904.566 7  93092709.09745  22734182.156                    22734186.523
      2907.004        2265.299          45.800          31.800
 106962632.795 8  83347579.58047  20354319.508                    20354326.250
       242.914         189.573          52.200          46.400
 128045678.507 6  99775889.57543  24366285.945                    24366290.383
      3596.137        2802.319          40.000          21.100
 122423295.064 7  95394788.90544  23296389.156                    23296390.727
     -2662.113       -2074.195          42.100          29.300
 18  2 20  9 56 30.0000000  0  8G07G05G09G28G13G30G20G02
 110899363.942 8  86415135.34046  21103450.766                    21103454.309
     -1405.863       -1095.301          53.000          40.500
 108200122.340 8  84311813.31046  20589803.086                    20589806.824
       936.488         729.928          50.400          41.300
 121049310.832 7  94324206.12845  23034927.648                    23034934.383
     -2907.922       -2265.872          47.200          34.800
 124491086.508 6  97005888.56243  23689821.328                    23689827.590
      3160.469        2462.753          36.400          22.000
 119381779.647 7  93024819.55545  22717602.586                    22717607.359
      2901.230        2260.823          45.200          32.300
 106955610.933 8  83342108.00047  20352983.367                    20352990.273
       225.254         175.687          51.800          45.900
 127937862.139 6  99691876.85143  24345768.711                    24345773.406
      3591.453        2798.696          41.300          21.100
 122503285.894 7  95457119.35744  23311611.086                    23311613.133
     -2670.684       -2080.912          42.000          29.300
 18  2 20  9 57  0.0000000  0  8G07G05G09G28G13G30G20G02
 110941753.120 8  86448165.86446  21111516.977                    21111520.715
     -1420.008       -1106.305          53.000          41.100
 108172291.997 8  84290127.32646  20584507.102                    20584510.754
       918.961         716.323          50.500          41.900
 121136617.898 7  94392237.55945  23051542.188                    23051548.043
     -2912.465       -2269.386          47.200          35.200
 124396353.071 6  96932070.41843  23671794.719                    23671800.359
      3155.223        2458.607          37.200          22.800
 119294828.465 7  92957065.39745  22701056.500                    22701060.945
      2895.414        2256.311          45.100          31.300
 106949125.734 8  83337054.60147  20351749.242                    20351756.121
       207.285         161.745          51.900          45.900
 127830186.405 6  99607973.65843  24325279.773                    24325283.410
      3586.758        2795.011          40.400          21.100
 122583536.154 6  95519652.01044  23326881.570                    23326884.160
     -2679.281       -2087.617          41.700          29.500
 18  2 20  9 57 30.0000000  0  8G07G05G09G28G13G30G20G02
 110984565.163 8  86481525.89046  21119663.930                    21119667.652
     -1434.113       -1117.234          52.500          40.800
 108144986.093 8  84268850.00847  20579310.633                    20579314.805
       901.504         702.718          50.300          42.000
 121224060.289 7  94460374.44545  23068181.805                    23068188.789
     -2916.945       -2272.855          47.900          35.200
 124301779.274 6  96858376.60644  23653797.695                    23653802.156
      3149.805        2454.498          40.500          25.800
 119208052.048 7  92889447.42245  22684543.555                    22684547.793
      2889.648        2251.799          44.100          31.000
 106943176.971 8  83332419.20747  20350617.555                    20350623.914
       189.391         147.858          52.100          45.700
 127722653.750 6  99524181.99543  24304815.711                    24304820.418
      3581.934        2791.304          38.900          18.600
 122664043.211 7  95582384.71144  23342202.102                    23342203.879
     -2687.715       -2094.201          43.800          28.800
 18  2 20  9 58  0.0000000  0  8G07G05G09G28G13G30G20G02
 111027792.911 8  86515209.83046  21127890.219                    21127894.035
     -1447.621       -1127.903          52.200          41.000
 108118200.992 8  84247978.50047  20574213.695                    20574217.930
       884.336         689.285          51.200          42.000
 121311632.296 7  94528612.33745  23084845.984                    23084852.723
     -2920.980       -2276.113          47.000          35.100
 124207363.303 7  96784805.77144  23635831.047                    23635834.691
      3144.926        2450.497          42.000          26.500
 119121446.452 7  92821962.56645  22668062.852                    22668067.352
      2884.066        2247.457          44.200          30.000
 106937759.329 8  83328197.66447  20349586.227                    20349592.961
       171.953         134.163          51.400          45.200
 127615261.769 6  99440499.98043  24284380.070                    24284384.570
      3577.434        2787.716          38.700          19.000
 122744798.970 6  95645311.22744  23357569.234                    23357571.090
     -2695.824       -2100.541          41.700          29.600
 18  2 20  9 58 30.0000000  0  8G07G05G09G28G13G30G20G02
 111071433.681 8  86549215.62046  21136194.508                    21136198.383
     -1461.531       -1138.729          53.100          41.000
 108091936.695 8  84227512.81247  20569215.844                    20569220.281
       866.730         675.597          50.800          42.100
 121399331.678 7  94596949.47745  23101534.344                    23101542.113
     -2925.426       -2279.506          46.000          35.600
 124113106.708 6  96711359.11743  23617893.516                    23617897.879
      3139.133        2446.157          41.300          23.400
 119035010.766 7  92754610.09145  22651614.008                    22651618.805
      2878.340        2242.932          44.000          30.400
 106932870.992 8  83324388.57047  20348656.156                    20348662.641
       154.141         120.306          51.900          45.500
 127508011.038 6  99356928.00343  24263970.523                    24263975.457
      3572.711        2783.879          38.400          20.100
 122825799.741 7  95708428.64544  23372982.703                    23372984.949
     -2704.059       -2106.989          42.700          27.800
 18  2 20  9 59  0.0000000  0  8G07G05G09G28G13G30G20G02
 111115493.018 8  86583547.60346  21144578.281                    21144582.484
     -1475.445       -1149.651          52.400          40.900
 108066201.136 8  84207459.12447  20564318.648                    20564322.617
       849.152         661.807          51.700          42.100
 121487164.604 7  94665390.67545  23118248.836                    23118255.832
     -2929.812       -2283.053          44.300          35.300
 124019019.170 6  96638044.21344  23599990.008                    23599993.148
      3133.434        2441.661          41.600          24.800
 118948753.504 7  92687396.67345  22635199.172                    22635204.898
      2872.480        2238.198          43.200          30.200
 106928518.389 8  83320996.93347  20347828.047                    20347834.605
       136.281         106.321          50.900          45.300
 127400911.240 6  99273473.62143  24243590.625                    24243594.984
      3567.676        2779.914          38.300          19.300
 122907049.152 7  95771739.85544  23388444.023                    23388446.207
     -2712.336       -2113.494          43.800          27.200
 18  2 20  9 59 30.0000000  0  8G07G05G09G28G13G30G20G02
 111159964.988 8  86618201.04946  21153041.094                    21153045.172
     -1489.293       -1160.292          51.900          40.200
 108040991.826 8  84187815.50347  20559521.680                    20559525.852
       831.465         648.165          51.000          42.000
 121575126.352 7  94733932.25345  23134987.875                    23134994.805
     -2934.242       -2286.348          46.900          35.000
 123925099.767 6  96564860.35443  23582116.727                    23582121.285
      3127.875        2437.291          40.200          22.300
 118862671.552 7  92620319.84245  22618819.352                    22618823.363
      2866.430        2233.688          44.500          30.600
 106924697.250 8  83318019.42847  20347100.461                    20347107.332
       118.438          92.574          52.800          45.200
 127293960.830 6  99190135.67743  24223238.922                    24223243.297
      3562.332        2776.021          37.200          19.300
 122988540.558 7  95835239.58044  23403951.828                    23403953.152
     -2720.473       -2119.704          44.500          27.200
                            4  1
RINEX FILE SPLICE; other post-header comments skipped       COMMENT
 18  2 20 10  0  0.0000000  0  8G07G05G09G28G13G30G20G02
 111204849.036 8  86653175.60746  21161582.156                    21161586.410
     -1502.953                          52.100          40.500
 108016311.054 8  84168583.73547  20554824.555                    20554828.988
       813.809                          50.800          42.300
 121663216.981 7  94802574.25745  23151750.313                    23151757.891
     -2938.535                          46.900          34.300
 123831352.521 6  96491810.62043  23564276.867                    23564281.984
      3122.047                          39.200          22.200
 118776766.277 7  92553380.69245  22602472.297                    22602476.672
      2860.473                          46.400          32.600
 106921408.001 8  83315456.37747  20346474.680                    20346481.477
       100.750                          52.400          45.600
 127187162.833 6  99106916.43643  24202915.594                    24202920.328
      3557.340                          38.900          21.100
 123070272.350 7  95898926.65344  23419504.828                    23419506.527
     -2728.473                          43.700          28.100
 18  2 20 10  0 30.0000000  0  8G07G05G09G28G13G30G20G02
 111250145.004 8  86688471.17346  21170201.867                    21170205.953
     -1516.719       -1181.637          51.500          40.400
 107992161.494 8  84149765.89246  20550229.133                    20550233.473
       796.094         620.627          50.200          41.800
 121751437.443 7  94871317.43945  23168537.945                    23168545.266
     -2942.914       -2293.023          45.900          33.900
 123737781.831 6  96418898.46243  23546471.086                    23546476.785
      3116.094        2428.197          36.400          22.500
 118691040.499 7  92486581.41145  22586159.781                    22586163.656
      2854.582        2224.417          46.100          33.100
 106918651.850 8  83313308.73247  20345950.188                    20345957.246
        83.000          64.955          52.700          45.600
 127080521.428 6  99023819.23243  24182622.383                    24182626.430
      3552.074        2767.978          38.600          22.000
 123152242.960 7  95962799.81944  23435103.438                    23435104.695
     -2736.301       -2132.064          45.100          27.500
 18  2 20 10  1  0.0000000  0  8G07G05G09G28G13G30G20G02
 111295853.331 8  86724088.03846  21178899.859                    21178903.898
     -1530.363       -1192.358          51.600          40.200
 107968546.059 8  84131364.25346  20545735.391                    20545739.738
       778.371         606.717          49.900          41.600
 121839788.661 7  94940162.49045  23185351.234                    23185357.922
     -2947.160       -2296.446          46.600          33.900
 123644392.381 6  96346127.52243  23528699.914                    23528705.004
      3109.926        2423.433          37.500          22.500
 118605496.892 7  92419924.06145  22569880.750                    22569885.203
      2848.449        2219.648          46.300          33.500
 106916430.015 8  83311577.44147  20345527.391                    20345534.055
        65.184          51.038          52.400          45.300
 126974040.698 6  98940847.21343  24162360.336                    24162364.039
      3546.742        2763.717          39.800          20.100
 123234451.613 7  96026858.45544  23450747.195                    23450748.941
     -2744.117       -2138.210          44.300          28.800
 18  2 20 10  1 30.0000000  0  8G07G05G09G28G13G30G20G02
 111341968.884 8  86760022.22346  21187675.445                    21187679.703
     -1543.922       -1202.834          52.000          40.400
 107945462.602 8  84113377.14347  20541342.758                    20541347.066
       760.680         592.970          50.200          42.500
 121928266.568 7  95009106.28645  23202187.070                    23202194.918
     -2951.297       -2299.617          46.400          32.700
 123551183.786 6  96273497.48044  23510962.867                    23510968.512
      3104.023        2418.777          36.400          24.700
 118520132.539 7  92353406.39545  22553636.742                    22553641.023
      2842.563        2215.073          46.600          33.000
 106914738.737 8  83310259.56947  20345205.391                    20345212.398
        47.625          37.350          52.400          45.400
 126867719.753 6  98857999.74643  24142127.492                    24142131.430
      3541.445        2759.659          39.500          21.100
 123316892.046 7  96091097.69744  23466435.055                    23466436.938
     -2751.781       -2144.123          44.600          26.800
 18  2 20 10  2  0.0000000  0  8G07G05G09G28G13G30G20G02
 111388490.150 8  86796272.55946  21196528.359                    21196531.926
     -1557.504       -1213.414          50.900          40.600
 107922912.659 8  84095805.76047  20537051.375                    20537055.922
       742.691         579.030          50.500          42.800
 122016870.413 7  95078148.19545  23219047.938                    23219056.320
     -2955.566       -2302.946          45.500          32.800
 123458159.162 6  96201010.78544  23493260.703                    23493266.141
      3097.668        2413.886          39.500          25.600
 118434948.969 7  92287029.59645  22537427.117                    22537431.160
      2836.344        2210.291          47.200          33.900
 106913577.508 8  83309354.71947  20344984.898                    20344991.246
        29.820          23.523          52.300          45.900
 126761561.181 6  98775278.78943  24121926.234                    24121929.637
      3535.684        2755.318          40.300          22.500
 123399561.412 7  96155515.34044  23482166.805                    23482168.762
     -2759.547       -2150.102          44.400          29.400
 18  2 20 10  2 30.0000000  0  8G07G05G09G28G13G30G20G02
 111435414.771 8  86832837.18246  21205457.773                    21205461.488
     -1570.590       -1223.748          52.200          40.200
 107900896.827 8  84078650.56647  20532861.813                    20532866.621
       725.230         565.262          50.200          42.400
 122105598.831 7  95147287.22045  23235932.352                    23235940.234
     -2959.469       -2306.051          44.500          32.700
 123365320.367 6  96128668.85444  23475593.672                    23475599.637
      3091.676        2409.173          38.400          24.800
 118349946.382 7  92220793.83245  22521251.703                    22521255.563
      2830.570        2205.717          46.600          33.800
 106912945.203 8  83308862.01347  20344864.180                    20344871.246
        12.465           9.918          52.300          45.300
 126655566.624 6  98692685.62643  24101756.289                    24101759.734
      3530.578        2751.149          40.700          22.000
 123482456.247 7  96220108.65844  23497940.828                    23497942.910
     -2766.723       -2155.798          43.900          26.700
 18  2 20 10  3  0.0000000  0  8G07G05G09G28G13G30G20G02
 111482741.093 8  86869714.83246  21214463.953                    21214467.277
     -1584.359       -1234.410          51.900          39.500
 107879416.178 8  84061912.39047  20528774.523                    20528779.074
       706.930         551.091          50.100          42.600
 122194451.040 7  95216522.65345  23252840.711                    23252847.773
     -2963.945       -2309.518          43.700          32.400
 123272670.993 6  96056474.56944  23457963.641                    23457968.930
      3084.984        2403.972          39.400          25.100
 118265125.522 7  92154699.67345  22505110.492                    22505114.109
      2824.160        2200.724          47.500          33.000
 106912841.204 8  83308780.97447  20344844.828                    20344851.160
        -5.492          -4.060          51.500          45.700
 126549738.496 6  98610222.16043  24081618.313                    24081622.051
      3524.512        2746.548          41.300          21.800
 123565573.963 7  96284875.66544  23513757.469                    23513759.922
     -2774.477       -2161.800          43.700          28.500
 18  2 20 10  3 30.0000000  0  8G07G05G09G28G13G30G20G02
 111530470.902 8  86906906.89046  21223546.039                    21223549.945
     -1597.684       -1244.766          51.900          40.300
 107858475.309 8  84045594.83647  20524789.211                    20524793.961
       689.082         537.143          51.300          43.100
 122283429.584 7  95285856.53145  23269772.594                    23269779.813
     -2967.984       -2312.685          43.000          31.500
 123180217.404 6  95984432.83444  23440369.977                    23440376.227
      3078.629        2398.917          39.000          25.100
 118180490.843 7  92088750.58345  22489005.117                    22489008.336
      2818.105        2195.966          47.000          33.000
 106913268.402 8  83309113.85947  20344925.914                    20344932.563
       -23.027         -17.747          52.300          45.600
 126444082.557 6  98527892.87844  24061512.500                    24061516.625
      3519.070        2742.128          41.100          24.100
 123648914.852 7  96349816.53444  23529617.523                    23529619.590
     -2781.734       -2167.458          44.100          27.400
 18  2 20 10  4  0.0000000  0  8G07G05G09G28G13G30G20G02
 111578598.604 8  86944408.98946  21232704.906                    21232708.656
     -1610.918       -1255.011          52.200          40.200
 107838071.491 8  84029695.75947  20520906.961                    20520910.980
       671.176         523.271          50.800          42.600
 122372530.191 7  95355285.52045  23286728.492                    23286735.855
     -2972.062       -2315.780          43.000          31.800
 123087958.448 6  95912542.73744  23422814.438                    23422819.176
      3072.039        2393.921          39.900          25.000
 118096039.443 7  92022944.30245  22472934.367                    22472938.348
      2812.016        2191.305          47.100          32.800
 106914222.542 8  83309857.35447  20345107.359                    20345113.969
       -40.570         -31.329          52.100          45.100
 126338597.701 6  98445696.88743  24041439.148                    24041442.906
      3513.414        2737.755          40.900          22.300
 123732472.501 7  96414926.37544  23545517.250                    23545520.398
     -2788.766       -2172.949          43.900          28.100
 18  2 20 10  4 30.0000000  0  8G07G05G09G28G13G30G20G02
 111627123.710 8  86982220.76346  21241938.672                    21241942.664
     -1624.281       -1265.463          52.100          40.600
 107818206.375 8  84014216.44047  20517126.586                    20517131.066
       653.090         509.144          50.900          42.800
 122461752.455 7  95424809.32445  23303706.555                    23303714.109
     -2976.266       -2319.056          42.900          31.200
 122995897.854 6  95840807.22244  23405295.578                    23405301.004
      3065.160        2388.603          40.100          25.800
 118011772.688 7  91957281.90745  22456899.078                    22456902.836
      2805.664        2186.369          45.800          31.700
 106915703.489 8  83311011.34547  20345389.234                    20345395.719
       -58.207         -45.143          52.200          45.200
 126233286.669 6  98363636.35144  24021398.805                    24021402.301
      3507.270        2733.078          39.900          24.700
 123816244.610 7  96480203.26544  23561459.211                    23561462.316
     -2796.129       -2178.646          44.100          28.900
 18  2 20 10  5  0.0000000  0  8G07G05G09G28G13G30G20G02
 111676047.116 8  87020342.89246  21251248.344                    21251252.191
     -1637.336       -1275.657          51.800          40.300
 107798883.608 8  83999159.74147  20513449.531                    20513453.926
       635.059         495.122          51.100          43.100
 122551098.241 7  95494429.37945  23320708.281                    23320715.340
     -2980.043       -2322.166          43.000          30.600
 122904040.947 6  95769230.43544  23387816.156                    23387821.301
      3058.559        2383.368          39.800          26.100
 117927694.168 7  91891766.18445  22440898.797                    22440902.926
      2799.535        2181.519          45.900          31.700
 106917713.258 8  83312577.40447  20345771.422                    20345777.957
       -75.742         -58.791          52.000          45.300
 126128154.877 6  98281715.47243  24001393.617                    24001396.637
      3501.387        2728.482          41.100          21.500
 123900230.737 7  96545646.95044  23577440.117                    23577444.008
     -2803.000       -2184.062          42.800          29.700
 18  2 20 10  5 30.0000000  0  8G07G05G09G28G13G30G20G02
 111725363.146 8  87058770.96346  21260632.859                    21260636.852
     -1650.512       -1285.917          52.000          39.900
 107780101.195 8  83984524.09747  20509875.250                    20509880.020
       616.949         480.988          50.800          42.800
 122640563.919 7  95564142.82245  23337733.500                    23337739.875
     -2984.215       -2325.336          43.400          30.400
 122812387.854 7  95697812.47944  23370375.609                    23370379.797
      3051.605        2377.947          42.100          26.000
 117843801.883 7  91826395.59645  22424934.773                    22424939.195
      2793.145        2176.592          46.200          31.800
 106920248.262 8  83314552.74047  20346253.633                    20346260.801
       -93.398         -72.515          52.100          45.300
 126023201.603 6  98199933.72943  23981421.453                    23981424.379
      3495.387        2723.740          41.600          20.900
 123984425.208 7  96611252.96544  23593462.891                    23593466.039
     -2810.141       -2189.531          43.800          29.800
 18  2 20 10  6  0.0000000  0  8G07G05G09G28G13G30G20G02
 111775072.297 8  87097505.35646  21270092.023                    21270096.332
     -1663.574       -1296.013          52.300          40.100
 107761862.229 8  83970311.92247  20506404.406                    20506409.039
       598.844         466.974          50.000          42.300
 122730150.266 7  95633950.31745  23354780.953                    23354788.105
     -2988.293       -2328.371          44.100          31.400
 122720943.075 7  95626556.86144  23352974.023                    23352977.684
      3044.672        2372.611          42.300          26.700
 117760098.042 7  91761171.84245  22409006.266                    22409011.332
      2786.895        2171.796          45.100          31.200
 106923309.440 8  83316938.08247  20346836.320                    20346842.754
      -110.773         -86.054          51.900          45.000
 125918430.528 6  98118293.95043  23961484.477                    23961487.320
      3489.215        2719.096          41.300          22.500
 124068826.898 7  96677020.47444  23609523.734                    23609526.879
     -2816.699       -2194.745          44.500          29.600
 18  2 20 10  6 30.0000000  0  8G07G05G09G28G13G30G20G02
 111825169.641 8  87136542.23746  21279625.648                    21279629.539
     -1676.273       -1306.019          50.900          40.400
 107744164.434 8  83956521.44247  20503036.508                    20503041.203
       581.039         452.959          50.200          42.600
 122819853.276 7  95703848.71845  23371851.086                    23371857.324
     -2991.918       -2331.331          45.400          30.800
 122629706.410 7  95555463.38544  23335611.859                    23335616.371
      3037.781        2367.200          42.300          26.300
 117676581.088 7  91696093.69945  22393113.766                    22393118.469
      2780.918        2167.009          44.900          31.500
 106926892.904 8  83319730.40347  20347517.828                    20347524.988
      -128.066         -99.568          51.100          44.500
 125813841.503 6  98036796.01743  23941581.859                    23941584.676
      3483.383        2714.359          40.900          23.800
 124153429.385 7  96742944.44145  23625623.477                    23625626.910
     -2823.258       -2199.883          44.300          30.400
 18  2 20 10  7  0.0000000  0  8G07G05G09G28G13G30G20G02
 111875653.979 8  87175880.67946  21289232.477                    21289236.137
     -1689.082       -1316.099          51.600          39.900
 107727009.333 8  83943153.83547  20499772.367                    20499777.063
       562.891         438.788          50.500          42.400
 122909672.812 7  95773837.94745  23388943.281                    23388949.082
     -2995.820       -2334.411          45.500          30.500
 122538681.163 7  95484534.68144  23318290.102                    23318294.668
      3030.770        2361.626          42.200          25.600
 117593252.012 7  91631161.97245  22377256.367                    22377261.492
      2774.594        2162.043          43.900          32.600
 106930998.551 8  83322929.60947  20348299.422                    20348306.320
      -145.391        -113.166          51.000          45.000
 125709437.263 6  97955442.06843  23921713.867                    23921717.426
      3477.184        2709.491          40.600          22.500
 124238230.618 7  96809023.26245  23641760.711                    23641764.031
     -2829.910       -2205.091          43.800          31.000
 18  2 20 10  7 30.0000000  0  8G07G05G09G28G13G30G20G02
 111926524.087 8  87215519.72946  21298912.391                    21298916.629
     -1702.137       -1326.127          51.900          39.900
 107710398.198 8  83930210.10047  20496611.063                    20496615.965
       544.617         424.632          50.000          42.500
 122999608.451 7  95843917.62745  23406057.820                    23406063.570
     -2999.746       -2337.429          46.100          31.100
 122447870.480 6  95413773.17144  23301008.711                    23301014.012
      3023.355        2356.005          41.700          25.200
 117510112.063 7  91566377.61145  22361435.484                    22361440.410
      2768.125        2157.098          43.800          33.000
 106935626.050 8  83326535.45247  20349180.289                    20349186.891
      -163.012        -126.734          52.100          45.200
 125605220.703 6  97874234.40143  23901882.555                    23901885.055
      3470.648        2704.530          40.800          21.800
 124323228.171 7  96875255.08345  23657935.000                    23657938.488
     -2836.609       -2210.161          43.000          30.200
 18  2 20 10  8  0.0000000  0  8G07G05G09G28G13G30G20G02
 111977778.436 8  87255458.16546  21308666.203                    21308669.840
     -1714.867       -1336.095          51.500          40.300
 107694332.253 8  83917691.18847  20493553.977                    20493558.512
       526.508         410.454          50.700          42.700
 123089659.500 7  95914087.25845  23423193.422                    23423200.641
     -3003.633       -2340.438          45.300          31.200
 122357277.583 6  95343181.34144  23283769.586                    23283774.672
      3016.254        2350.316          41.200          26.700
 117427162.256 7  91501741.42945  22345650.563                    22345655.438
      2761.793        2152.146          43.900          31.800
 106940774.724 8  83330547.41047  20350159.469                    20350166.480
      -180.340        -140.271          51.900          45.200
 125501194.209 6  97793174.77143  23882086.656                    23882089.457
      3464.371        2699.552          40.900          21.300
 124408418.932 7  96941637.40645  23674146.266                    23674149.965
     -2842.770       -2215.146          42.700          30.100
 18  2 20 10  8 30.0000000  0  8G07G05G09G28G13G30G20G02
 112029417.437 8  87295696.33946  21318492.914                    21318496.215
     -1727.516       -1345.968          52.700          39.900
 107678814.746 8  83905599.62047  20490600.852                    20490605.707
       508.297         396.261          51.500          42.900
 123179827.523 7  95984348.00845  23440351.648                    23440358.664
     -3007.152       -2343.362          45.200          31.500
 122266907.650 6  95272763.31144  23266572.281                    23266577.887
      3008.789        2344.540          41.700          26.600
 117344405.948 7  91437256.00345  22329902.992                    22329907.328
      2755.504        2147.189          43.700          33.300
 106946446.154 8  83334966.71547  20351239.336                    20351246.047
      -197.578        -153.756          51.900          45.500
 125397362.685 6  97712267.11443  23862328.492                    23862331.309
      3458.020        2694.571          40.300          22.300
 124493802.387 7  97008169.94344  23690393.750                    23690397.176
     -2849.160       -2220.033          42.700          29.600
