     2.11           OBSERVATION DATA    G (GPS)             RINEX VERSION / TYPE
teqc  2016Nov7                          20180328 12:23:34UTCPGM / RUN BY / DATE
Linux 2.4.21-27.ELsmp|Opteron|gcc|Linux x86_64|=+           COMMENT
teqc  2016Nov7                          20180328 12:23:33UTCCOMMENT
     2.11           OBSERVATION DATA    M (MIXED)           COMMENT
teqc  2016Nov7                          20180328 12:23:32UTCCOMMENT
teqc  2016Nov7      IGN-RGP             20180220 09:16:08UTCCOMMENT
teqc  2015Jun23     IGN-RGP             20180220 09:07:43UTCCOMMENT
Linux2.4.20-8|i386|gcc|Win32-MinGW32|=                      COMMENT
   0.000      (antenna height)                              COMMENT
 +49.65372884 (latitude)                                    COMMENT
  +1.21568009 (longitude)                                   COMMENT
0219.400      (elevation)                                   COMMENT
BIT 2 OF LLI FLAGS DATA COLLECTED UNDER A/S CONDITION       COMMENT
19691M001 (COGO code)                                       COMMENT
SXJ6                                                        MARKER NAME
19691M001                                                   MARKER NUMBER
Automatic           GIE COOP&TECH                           OBSERVER / AGENCY
5133K77888          TRIMBLE NETR5       4.42                REC # / TYPE / VERS
1441127519          TRM57971.00     NONE                    ANT # / TYPE
  4136503.5040    87779.9330  4838110.7610                  APPROX POSITION XYZ
        0.5000        0.0000        0.0000                  ANTENNA: DELTA H/E/N
     1     1                                                WAVELENGTH FACT L1/2
     9    L1    L2    C1    S1    S2    P1    P2    D1    D2# / TYPES OF OBSERV
    30.0000                                                 INTERVAL
    18                                                      LEAP SECONDS
 SNR is mapped to RINEX snr flag value [0-9]                COMMENT
  L1 & L2: min(max(int(snr_dBHz/6), 0), 9)                  COMMENT
teqc_2016 edited: GLONASS # 25 - 30 excluded                COMMENT
Forced Modulo Decimation to 30 seconds                      COMMENT
teqc_2016 edited: all GLONASS satellites excluded           COMMENT
teqc_2016 edited: all SBAS satellites excluded              COMMENT
teqc_2016 edited: all Galileo satellites excluded           COMMENT
  2018     2    20     8     0    0.0000000     GPS         TIME OF FIRST OBS
                                                            END OF HEADER
 18  2 20  8  0  0.0000000  0  8G02G05G23G07G16G09G06G30
 114865907.143 7  89505869.91846  21858248.445          45.800          37.600
                  21858249.871         933.461
 124428566.275 7  96957365.08744  23677981.719          45.300          28.500
                  23677984.617        3282.414
 118386104.731 7  92248945.66845  22528127.617          47.300          34.500
                  22528129.523       -2540.867
 114509066.230 8  89227877.01446  21790354.695          51.400          39.000
                  21790358.441        2383.879
 127726643.371 6  99527317.58543  24305583.625          37.200          19.000
                  24305586.938        1069.590
 106287163.174 8  82821241.37547  20225782.211          51.700          46.000
                  20225787.445       -1006.152
 110965929.129 8  86466919.39946  21116101.695          49.400          41.500
                  21116107.727       -1842.703
 121815352.605 7  94921109.16645  23180696.078          45.500          31.600
                  23180702.871        3516.758
 18  2 20  8  0 30.0000000  0  8G02G05G23G07G16G09G06G30
 114838166.495 7  89484253.81946  21852970.164          45.200          37.600
                  21852970.813         915.984         713.915
 124330145.651 7  96880673.70244  23659252.766          44.300          27.600
                  23659255.488        3278.809        2555.053
 118462424.778 7  92308415.79945  22542651.047          47.000          35.000
                  22542653.152       -2547.148       -1984.717
 114437752.510 8  89172307.90646  21776784.414          50.000          38.600
                  21776787.836        2370.375        1847.228
 127694832.350 6  99502529.76443  24299529.695          36.200          19.600
                  24299532.566        1051.063         819.212
 106317545.784 8  82844916.13047  20231563.984          52.200          45.600
                  20231569.086       -1019.285        -794.114
 111021473.672 8  86510200.85046  21126671.406          49.700          41.100
                  21126678.258       -1860.293       -1449.371
 121709948.617 7  94838976.21245  23160638.844          44.300          30.900
                  23160645.316        3510.121        2735.299
 18  2 20  8  1  0.0000000  0  8G02G05G23G07G16G09G06G30
 114810953.642 7  89463048.98646  21847791.156          46.400          37.700
                  21847792.336         898.289         700.196
 124231831.322 7  96804065.11144  23640544.469          43.600          28.500
                  23640547.344        3275.371        2552.282
 118538934.833 7  92368034.00445  22557209.813          47.100          35.300
                  22557211.656       -2553.437       -1989.656
 114366844.697 8  89117055.07246  21763290.859          50.300          38.100
                  21763293.512        2356.844        1836.644
 127663580.899 6  99478178.05643  24293583.320          37.300          19.000
                  24293586.883        1032.344         804.673
 106348323.924 8  82868899.08647  20237420.969          52.400          45.700
                  20237426.164       -1032.512        -804.382
 111077547.891 8  86553895.03146  21137341.578          48.700          40.900
                  21137348.527       -1877.930       -1463.109
 121604741.874 7  94756996.95345  23140618.406          45.700          30.600
                  23140624.691        3503.570        2730.141
 18  2 20  8  1 30.0000000  0  8G02G05G23G07G16G09G06G30
 114784269.878 7  89442256.43246  21842713.492          45.700          38.200
                  21842714.254         880.578         686.434
 124133624.606 7  96727540.38144  23621856.047          44.700          28.700
                  23621859.270        3271.641        2549.438
 118615633.695 7  92427799.33045  22571805.742          47.900          35.300
                  22571807.266       -2559.887       -1994.561
 114296345.194 8  89062120.39646  21749875.031          51.000          38.100
                  21749878.965        2342.988        1825.998
 127632891.177 5  99454263.95743  24287742.898          35.800          19.000
                  24287745.926        1013.508         790.016
 106379496.553 8  82893189.44447  20243352.758          52.300          45.300
                  20243357.898       -1045.727        -814.638
 111134150.122 8  86598000.66146  21148112.930          48.700          41.200
                  21148119.512       -1895.672       -1476.827
 121499735.065 7  94675173.48945  23120636.133          45.500          31.400
                  23120642.852        3496.738        2724.900
 18  2 20  8  2  0.0000000  0  8G02G05G23G07G16G09G06G30
 114758115.685 7  89421876.53546  21837736.727          45.800          38.300
                  21837737.723         862.871         672.643
 124035527.047 7  96651100.72244  23603188.742          45.000          29.000
                  23603191.738        3267.949        2546.577
 118692519.980 7  92487710.69945  22586436.219          47.600          34.900
                  22586437.941       -2565.984       -1999.392
 114226255.435 8  89007505.03846  21736537.492          50.700          37.700
                  21736541.445        2329.453        1815.341
 127602764.806 6  99430788.87343  24282010.203          38.600          18.600
                  24282012.605         994.773         775.395
 106411062.301 8  82917786.12147  20249359.320          52.300          45.600
                  20249364.660       -1058.875        -824.831
 111191278.369 8  86642516.17746  21158983.727          48.900          41.800
                  21158990.391       -1913.137       -1490.451
 121394930.572 7  94593507.67245  23100693.047          45.700          30.300
                  23100698.652        3490.070        2719.617
 18  2 20  8  2 30.0000000  0  8G02G05G23G07G16G09G06G30
 114732492.268 7  89401910.23046  21832861.078          46.400          38.000
                  21832861.730         845.301         658.855
 123937540.716 7  96574747.74244  23584542.563          45.100          28.800
                  23584545.840        3264.371        2543.673
 118769592.088 7  92547766.85945  22601103.305          47.200          34.900
                  22601104.691       -2572.195       -2004.219
 114156577.301 8  88953210.38146  21723278.563          52.100          37.500
                  21723280.863        2315.680        1804.618
 127573203.129 6  99407753.83943  24276384.117          37.400          19.000
                  24276386.898         975.875         760.672
 106443019.693 8  82942687.98247  20255440.828          51.200          45.800
                  20255445.637       -1071.762        -834.989
 111248930.586 7  86687439.98246  21169954.539          47.600          41.400
                  21169961.359       -1930.402       -1504.049
 121290330.630 7  94512001.23145  23080787.055          45.200          30.200
                  23080793.371        3483.262        2714.265
 18  2 20  8  3  0.0000000  0  8G02G05G23G07G16G09G06G30
 114707401.160 7  89382358.70446  21828086.023          46.600          38.400
                  21828087.289         827.512         645.042
 123839667.054 7  96498482.54544  23565917.375          45.200          28.600
                  23565921.367        3260.543        2540.740
 118846849.131 8  92607967.14045  22615804.391          48.700          34.900
                  22615805.758       -2578.344       -2008.983
 114087313.074 8  88899238.26346  21710097.813          50.200          38.100
                  21710100.895        2302.016        1793.869
 127544208.073 6  99385160.27443  24270867.469          38.000          19.300
                  24270869.867         956.918         746.015
 106475367.862 8  82967894.33947  20261596.547          51.300          45.000
                  20261601.895       -1084.742        -845.097
 111307105.234 8  86732770.87247  21181025.305          49.100          42.200
                  21181031.457       -1947.875       -1517.585
 121185938.210 7  94430656.51645  23060922.383          45.400          30.900
                  23060928.965        3476.254        2708.857
 18  2 20  8  3 30.0000000  0  8G02G05G23G07G16G09G06G30
 114682842.992 7  89363222.45646  21823413.164          47.200          38.100
                  21823413.910         809.648         631.182
 123741907.618 7  96422306.36645  23547314.367          44.800          30.100
                  23547318.297        3256.648        2537.765
 118924289.962 7  92668310.61245  22630541.328          47.900          34.700
                  22630542.762       -2584.426       -2013.726
 114018464.626 8  88845590.15246  21696996.023          50.300          38.500
                  21697000.156        2287.930        1783.026
 127515781.121 6  99363009.49043  24265457.773          37.100          18.600
                  24265461.078         937.930         731.242
 106508105.735 8  82993404.36647  20267826.383          51.300          45.000
                  20267831.543       -1097.773        -855.217
 111365800.573 8  86778507.48847  21192194.375          49.100          42.200
                  21192201.152       -1965.187       -1531.072
 121081755.792 7  94349475.46045  23041096.813          44.300          30.900
                  23041103.281        3469.203        2703.380
 18  2 20  8  4  0.0000000  0  8G02G05G23G07G16G09G06G30
 114658818.725 7  89344502.24246  21818841.359          47.600          38.300
                  21818842.250         791.906         617.303
 123644263.146 7  96346219.77044  23528733.625          45.900          29.700
                  23528737.051        3252.902        2534.755
 119001912.968 7  92728796.05645  22645312.195          47.900          34.300
                  22645313.500       -2590.430       -2018.443
 113950033.628 8  88792267.30546  21683974.445          51.100          37.500
                  21683977.375        2274.063        1772.199
 127487923.629 6  99341302.34843  24260156.133          39.200          19.000
                  24260159.094         919.141         716.460
 106541231.908 8  83019216.96147  20274130.266          51.200          45.000
                  20274135.316       -1110.648        -865.268
 111425014.559 8  86824648.24746  21203462.750          49.100          41.700
                  21203469.145       -1982.430       -1544.506
 120977785.873 7  94268459.93645  23021311.633          45.100          31.000
                  23021319.125        3462.133        2697.837
 18  2 20  8  4 30.0000000  0  8G02G05G23G07G16G09G06G30
 114635329.629 7  89326199.04446  21814371.133          47.300          38.200
                  21814372.059         774.152         603.411
 123546735.663 7  96270224.33744  23510174.523          45.500          29.700
                  23510177.715        3248.945        2531.687
 119079717.288 8  92789422.78045  22660118.094          48.100          34.100
                  22660119.117       -2596.406       -2023.134
 113882022.352 8  88739271.52046  21671032.391          51.100          38.900
                  21671035.605        2260.090        1761.245
 127460637.859 6  99320040.76643  24254964.102          37.800          19.900
                  24254967.234         900.039         701.516
 106574745.467 8  83045331.42147  20280507.172          51.900          45.100
                  20280512.758       -1123.445        -875.321
 111484745.538 8  86871191.86347  21214829.188          49.200          42.200
                  21214835.469       -1999.527       -1557.905
 120874031.180 7  94187612.17345  23001568.250          45.700          31.600
                  23001574.566        3454.910        2692.217
 18  2 20  8  5  0.0000000  0  8G02G05G23G07G16G09G06G30
 114612376.662 8  89308313.60546  21810003.805          48.400          38.100
                  21810004.441         756.199         589.452
 123449326.959 7  96194321.44645  23491638.492          45.800          30.500
                  23491641.852        3244.883        2528.596
 119157701.244 8  92850189.47545  22674957.820          48.400          33.500
                  22674959.441       -2602.340       -2027.785
 113814432.401 8  88686604.03946  21658170.328          52.100          39.100
                  21658173.828        2245.984        1750.287
 127433925.019 6  99299225.54243  24249880.852          38.300          20.600
                  24249883.414         881.102         686.663
 106608644.984 8  83071746.63147  20286957.867          51.100          45.200
                  20286963.336       -1136.387        -885.333
 111544991.448 7  86918136.72246  21226293.320          47.500          41.900
                  21226300.082       -2016.699       -1571.262
 120770494.107 7  94106933.90445  22981866.148          44.700          31.400
                  22981872.223        3447.617        2686.541
 18  2 20  8  5 30.0000000  0  8G02G05G23G07G16G09G06G30
 114589960.594 7  89290846.52946  21805738.055          47.600          37.800
                  21805738.703         738.266         575.506
 123352038.361 7  96118512.15044  23473125.156          45.500          28.900
                  23473128.449        3241.035        2525.499
 119235863.856 8  92911095.38045  22689831.578          48.100          34.500
                  22689832.641       -2608.371       -2032.404
 113747265.623 8  88634266.30346  21645389.070          51.700          39.600
                  21645392.117        2231.875        1739.283
 127407786.450 6  99278857.83943  24244906.578          38.900          19.300
                  24244909.750         861.723         671.720
 106642929.243 8  83098461.62647  20293482.078          52.100          45.200
                  20293487.746       -1149.195        -895.286
 111605750.339 8  86965481.30046  21237855.609          49.000          41.700
                  21237862.270       -2033.805       -1584.552
 120667177.142 7  94026427.23745  22962205.617          46.300          32.300
                  22962212.500        3440.141        2680.783
 18  2 20  8  6  0.0000000  0  8G02G05G23G07G16G09G06G30
 114568082.649 7  89273798.76846  21801575.172          47.300          37.600
                  21801575.703         720.391         561.453
 123254871.004 7  96042797.31844  23454634.703          45.900          29.100
                  23454637.512        3236.996        2522.217
 119314203.963 8  92972139.59245  22704739.250          48.000          33.900
                  22704740.777       -2614.113       -2037.071
 113680523.825 8  88582259.72246  21632688.695          52.500          39.600
                  21632691.855        2217.727        1728.138
 127382223.758 6  99258938.89643  24240042.336          40.000          20.100
                  24240045.246         842.500         656.666
 106677597.107 8  83125475.53747  20300079.453          51.100          45.500
                  20300084.684       -1161.848        -905.307
 111667020.292 8  87013224.11146  21249514.719          48.800          41.500
                  21249521.578       -2050.664       -1597.874
 120564082.836 7  93946094.01245  22942586.813          44.900          31.000
                  22942593.168        3432.973        2674.908
 18  2 20  8  6 30.0000000  0  8G02G05G23G07G16G09G06G30
 114546743.133 7  89257170.56446  21797514.578          47.600          38.100
                  21797514.906         702.391         547.536
 123157827.091 7  95967178.67044  23436167.906          45.600          29.100
                  23436170.781        3232.898        2519.112
 119392720.129 8  93033321.00545  22719680.523          48.300          33.700
                  22719681.570       -2619.973       -2041.548
 113614208.734 8  88530585.64346  21620068.781          52.900          40.200
                  21620073.016        2203.516        1717.130
 127357238.273 6  99239469.71643  24235287.242          40.400          20.600
                  24235290.957         823.410         641.775
 106712647.124 8  83152787.23147  20306749.180          52.300          45.200
                  20306754.375       -1174.512        -915.142
 111728799.179 7  87061363.49946  21261271.023          47.800          40.700
                  21261277.387       -2067.602       -1610.981
 120461213.672 7  93865936.24745  22923012.055          45.100          31.900
                  22923019.641        3425.172        2669.102
 18  2 20  8  7  0.0000000  0  8G02G05G23G07G16G09G06G30
 114525943.606 7  89240963.14446  21793555.813          47.300          37.800
                  21793556.578         684.348         533.478
 123060908.189 7  95891657.44444  23417724.969          45.100          29.400
                  23417728.191        3228.492        2515.809
 119471411.292 8  93094638.76345  22734655.195          48.200          34.300
                  22734656.508       -2625.906       -2046.098
 113548322.349 8  88479245.60546  21607531.234          52.100          40.100
                  21607534.453        2189.047        1705.953
 127332831.915 6  99220451.79443  24230643.703          38.600          20.900
                  24230647.254         803.789         626.601
 106748078.624 8  83180396.17447  20313491.828          52.700          45.300
                  20313497.027       -1187.477        -925.077
 111791085.537 7  87109898.31146  21273123.836          47.500          40.300
                  21273129.906       -2084.648       -1624.172
 120358572.497 7  93785956.12345  22903479.391          45.500          31.200
                  22903485.520        3417.570        2663.133
 18  2 20  8  7 30.0000000  0  8G02G05G23G07G16G09G06G30
 114505684.528 7  89225176.83946  21789700.906          47.900          37.700
                  21789701.867         666.293         519.432
 122964115.808 7  95816234.78844  23399305.805          45.100          28.800
                  23399309.055        3224.324        2512.496
 119550275.813 8  93156091.62245  22749661.906          48.000          33.900
                  22749663.688       -2631.695       -2050.607
 113482866.476 8  88428241.02746  21595075.391          51.900          39.400
                  21595078.527        2174.648        1694.723
 127309005.754 6  99201885.97743  24226109.773          40.200          20.600
                  24226112.594         784.441         611.575
 106783889.926 8  83208301.08247  20320306.188          53.100          45.500
                  20320311.676       -1200.035        -934.932
 111853876.962 7  87158826.69246  21285072.492          47.200          40.100
                  21285078.758       -2101.324       -1637.265
 120256161.593 7  93706155.43045  22883991.664          45.700          33.100
                  22883998.934        3409.867        2657.114
 18  2 20  8  8  0.0000000  0  8G02G05G23G07G16G09G06G30
 114485967.072 8  89209812.59046  21785948.641          48.100          37.900
                  21785949.723         648.230         505.314
 122867451.539 7  95740911.97244  23380910.984          44.400          28.100
                  23380914.344        3220.051        2509.135
 119629313.054 7  93217679.05845  22764702.492          47.200          34.000
                  22764704.695       -2637.512       -2055.103
 113417843.421 8  88377573.71846  21582701.711          51.300          40.000
                  21582705.820        2160.211        1683.451
 127285761.356 6  99183773.44743  24221686.586          38.600          20.400
                  24221689.621         765.219         596.376
 106820080.104 8  83236501.21347  20327192.844          52.500          44.900
                  20327198.277       -1212.590        -944.756
 111917171.696 7  87208147.24346  21297116.813          47.400          39.900
                  21297123.098       -2118.211       -1650.340
 120153983.675 7  93626536.27945  22864547.414          46.300          31.000
                  22864553.555        3402.078        2651.017
 18  2 20  8  8 30.0000000  0  8G02G05G23G07G16G09G06G30
 114466792.502 7  89194871.36046  21782300.086          47.900          37.700
                  21782300.461         630.105         491.231
 122770916.313 7  95665689.71144  23362541.219          44.700          29.600
                  23362544.449        3215.578        2505.765
 119708522.224 8  93279400.46045  22779775.500          48.200          33.400
                  22779776.992       -2643.223       -2059.533
 113353254.589 8  88327244.77346  21570410.727          50.400          39.200
                  21570414.762        2145.703        1672.168
 127263100.242 6  99166115.41043  24217373.766          38.100          19.900
                  24217377.117         745.598         581.274
 106856648.131 8  83264995.77847  20334151.578          51.100          45.000
                  20334157.012       -1225.254        -954.555
 111980967.870 7  87257858.53446  21309256.961          47.500          40.100
                  21309263.203       -2134.883       -1663.313
 120052041.432 7  93547100.77145  22845148.930          46.400          33.000
                  22845155.734        3394.102        2644.863
 18  2 20  8  9  0.0000000  0  8G02G05G23G07G16G09G06G30
 114448161.584 7  89180353.75746  21778754.211          47.500          37.700
                  21778755.273         611.918         477.069
 122674512.840 7  95590570.12545  23344196.172          45.300          30.600
                  23344199.875        3211.172        2502.292
 119787901.735 7  93341254.59245  22794881.305          47.800          33.000
                  22794882.266       -2648.840       -2063.942
 113289102.186 8  88277255.89946  21558202.883          51.500          39.200
                  21558205.711        2131.133        1660.781
 127241023.816 6  99148912.99743  24213172.375          37.100          19.300
                  24213175.973         725.945         566.077
 106893592.857 8  83293783.86347  20341182.266          52.600          45.000
                  20341187.297       -1237.754        -964.334
 112045263.631 8  87307959.10646  21321491.836          48.500          40.000
                  21321498.824       -2151.492       -1676.281
 119950337.574 7  93467851.05045  22825795.547          45.900          32.600
                  22825801.805        3386.066        2638.606
 18  2 20  8  9 30.0000000  0  8G02G05G23G07G16G09G06G30
 114430074.247 8  89166259.72746  21775312.945          48.800          37.700
                  21775313.574         593.773         462.975
 122578242.595 7  95515554.35745  23325876.242          44.300          30.200
                  23325879.633        3206.742        2498.848
 119867449.761 8  93403240.05845  22810018.758          48.100          33.200
                  22810019.832       -2654.406       -2068.291
 113225387.192 8  88227607.83446  21546078.477          50.800          39.200
                  21546081.594        2116.457        1649.427
 127219532.995 6  99132166.90743  24209083.820          40.100          20.400
                  24209086.852         706.563         550.828
 106930912.512 8  83322864.11447  20348283.539          51.000          44.800
                  20348288.648       -1250.270        -974.042
 112110056.324 7  87358446.88346  21333821.680          47.500          40.200
                  21333828.465       -2168.043       -1689.153
 119848873.981 7  93388788.49545  22806487.352          46.400          32.600
                  22806493.762        3378.129        2632.389
 18  2 20  8 10  0.0000000  0  8G02G05G23G07G16G09G06G30
 114412531.675 8  89152590.18346  21771974.477          48.500          37.900
                  21771975.363         575.699         448.801
 122482106.438 7  95440643.06645  23307582.414          45.900          31.200
                  23307585.984        3202.203        2495.327
 119947165.426 8  93465356.13545  22825188.172          48.300          32.700
                  22825189.676       -2659.984       -2072.663
 113162111.682 8  88178302.26546  21534037.609          51.300          38.900
                  21534041.445        2101.824        1637.968
 127198629.420 6  99115878.38343  24205105.727          37.700          19.300
                  24205108.992         687.000         535.504
 106968606.052 8  83352235.69347  20355456.352          52.900          44.700
                  20355462.008       -1262.617        -983.743
 112175344.055 8  87409320.40246  21346245.406          48.500          40.300
                  21346252.250       -2184.504       -1701.999
 119747653.452 7  93309915.38245  22787225.617          47.000          33.600
                  22787232.598        3369.871        2626.004
 18  2 20  8 10 30.0000000  0  8G02G05G23G07G16G09G06G30
 114395534.652 8  89139345.74846  21768739.617          48.500          37.500
                  21768740.855         557.492         434.593
 122386106.196 7  95365837.68145  23289314.352          45.500          31.800
                  23289317.688        3197.746        2491.768
 120027047.643 8  93527601.98445  22840389.141          48.100          31.900
                  22840390.887       -2665.527       -2076.975
 113099277.277 8  88129340.40846  21522080.758          51.500          39.200
                  21522084.039        2087.121        1626.506
 127178314.272 6  99100048.38143  24201240.516          37.600          19.900
                  24201242.988         667.363         520.251
 107006672.265 8  83381897.67747  20362700.070          51.100          44.900
                  20362705.617       -1275.066        -993.416
 112241124.848 7  87460578.13146  21358763.336          47.000          40.200
                  21358770.070       -2200.973       -1714.780
 119646678.478 7  93231233.60945  22768010.773          46.800          33.800
                  22768017.633        3361.621        2619.603
 18  2 20  8 11  0.0000000  0  8G02G05G23G07G16G09G06G30
 114379084.269 8  89126527.25946  21765609.641          48.400          37.800
                  21765610.449         539.172         420.413
 122290243.198 7  95291139.23245  23271071.711          46.200          30.800
                  23271075.238        3193.059        2488.189
 120107095.421 8  93589976.86345  22855621.586          48.000          32.800
                  22855623.141       -2671.078       -2081.229
 113036886.121 8  88080723.92246  21510208.336          51.900          38.800
                  21510210.996        2072.238        1614.959
 127158589.057 6  99084678.10043  24197485.656          38.700          19.900
                  24197489.449         647.738         504.914
 107045110.245 8  83411849.33947  20370014.336          51.600          44.500
                  20370019.996       -1287.508       -1003.050
 112307396.870 8  87512218.63846  21371374.320          48.200          41.100
                  21371381.406       -2217.332       -1727.506
 119545951.895 7  93152745.38645  22748843.133          47.500          33.700
                  22748849.930        3353.285        2613.132
 18  2 20  8 11 30.0000000  0  8G02G05G23G07G16G09G06G30
 114363180.608 8  89114134.79146  21762583.336          48.600          37.700
                  21762584.180         521.000         406.217
 122194519.826 7  95216549.59745  23252856.297          44.600          31.400
                  23252860.293        3188.480        2484.569
 120187307.169 7  93652479.48745  22870885.680          47.600          32.400
                  22870887.129       -2676.359       -2085.461
 112974939.401 8  88032453.77946  21498420.344          51.300          39.200
                  21498422.840        2057.590        1603.425
 127139454.549 6  99069768.05943  24193845.102          38.300          19.600
                  24193848.078         628.105         489.572
 107083918.273 8  83442089.34647  20377399.813          51.700          45.100
                  20377404.941       -1299.668       -1012.623
 112374157.557 8  87564239.93646  21384078.680          49.100          41.500
                  21384085.215       -2233.355       -1740.147
 119445475.787 7  93074452.34545  22729723.047          46.900          33.600
                  22729730.180        3345.059        2606.607
 18  2 20  8 12  0.0000000  0  8G02G05G23G07G16G09G06G30
 114347824.981 8  89102169.35646  21759661.016          48.400          38.100
                  21759661.883         502.586         391.940
 122098937.802 7  95142070.09445  23234668.180          44.600          30.400
                  23234671.672        3183.563        2480.838
 120267682.010 7  93715109.21045  22886180.703          46.600          32.400
                  22886182.098       -2681.930       -2089.713
 112913439.326 8  87984531.64946  21486717.094          52.400          39.600
                  21486720.754        2042.461        1591.772
 127120912.149 6  99055319.40043  24190317.133          37.800          18.600
                  24190319.375         607.996         474.159
 107123095.474 8  83472617.02447  20384854.805          52.200          45.200
                  20384860.125       -1312.176       -1022.227
 112441405.117 7  87616640.61646  21396875.625          47.800          41.100
                  21396882.590       -2249.707       -1752.792
 119345252.963 7  92996356.65945  22710651.055          47.500          34.200
                  22710657.766        3336.430        2599.976
 18  2 20  8 12 30.0000000  0  8G02G05G23G07G16G09G06G30
 114333017.902 8  89090631.36846  21756843.531          48.600          37.800
                  21756844.488         484.516         377.707
 122003498.443 7  95067701.77345  23216506.336          44.500          30.200
                  23216509.602        3179.145        2477.146
 120348218.766 7  93777865.09845  22901506.289          47.700          32.000
                  22901507.375       -2687.086       -2093.875
 112852387.386 8  87936958.74446  21475099.500          52.200          39.900
                  21475103.066        2027.648        1580.124
 127102963.224 6  99041333.23042  24186900.328          36.400          17.800
                  24186904.602         588.473         458.742
 107162640.493 8  83503431.31247  20392380.102          53.000          45.600
                  20392385.227       -1324.184       -1031.751
 112509137.304 8  87669418.93046  21409764.844          48.800          41.000
                  21409771.395       -2265.684       -1765.349
 119245285.852 7  92918460.24345  22691628.289          46.700          34.800
                  22691635.105        3328.066        2593.312
 18  2 20  8 13  0.0000000  0  8G02G05G23G07G16G09G06G30
 114318760.006 8  89079521.30946  21754130.391          48.900          38.600
                  21754131.277         466.180         363.425
 121908203.115 7  94993445.66945  23198371.781          45.000          30.500
                  23198375.746        3174.125        2473.362
 120428916.153 7  93840746.15945  22916862.195          46.400          31.400
                  22916864.129       -2692.488       -2098.035
 112791784.943 8  87889736.09346  21463566.961          52.600          40.000
                  21463569.945        2012.582        1568.436
 127085608.613 6  99027810.17343  24183597.945          37.300          19.600
                  24183601.953         568.621         443.288
 107202552.069 8  83534531.24247  20399975.031          53.400          45.600
                  20399980.023       -1336.477       -1041.265
 112577351.949 8  87722573.17646  21422745.688          49.300          41.600
                  21422752.398       -2281.805       -1777.857
 119145576.948 7  92840765.02645  22672653.914          46.800          33.600
                  22672660.645        3319.395        2586.565
 18  2 20  8 13 30.0000000  0  8G02G05G23G07G16G09G06G30
 114305051.873 8  89068839.62346  21751521.648          48.400          38.300
                  21751522.078         447.559         349.121
 121813053.708 7  94919303.28645  23180265.836          44.300          30.800
                  23180269.648        3169.016        2469.539
 120509772.772 7  93903751.27945  22932248.883          46.800          31.000
                  22932250.281       -2698.047       -2102.178
 112731633.833 8  87842865.10946  21452120.313          52.300          40.100
                  21452123.496        1997.262        1556.651
 127068849.566 6  99014751.11643  24180409.266          36.200          19.600
                  24180412.914         548.469         427.795
 107242828.824 8  83565915.70947  20407639.477          52.800          45.200
                  20407644.785       -1348.859       -1050.749
 112646046.720 8  87776101.55546  21435817.414          48.700          41.400
                  21435824.316       -2297.973       -1790.321
 119046128.597 7  92763272.81845  22653730.477          47.600          35.300
                  22653736.836        3310.371        2579.762
 18  2 20  8 14  0.0000000  0  8G02G05G23G07G16G09G06G30
 114291894.384 8  89058587.02146  21749017.906          48.600          38.100
                  21749018.598         429.418         334.840
 121718051.613 7  94845275.66845  23162187.227          45.600          31.700
                  23162191.129        3164.285        2465.732
 120590788.010 7  93966880.02745  22947665.469          46.600          31.600
                  22947666.695       -2703.102       -2106.255
 112671936.101 8  87796347.42246  21440760.336          51.200          40.100
                  21440763.941        1982.313        1544.875
 127052687.567 6  99002157.38543  24177333.961          36.600          19.000
                  24177336.641         528.742         412.275
 107283469.930 8  83597584.09247  20415373.367          51.700          44.400
                  20415378.539       -1360.770       -1060.183
 112715219.821 8  87830002.63246  21448980.719          49.600          41.100
                  21448987.621       -2313.684       -1802.694
 118946943.708 7  92685985.92445  22634855.453          47.400          34.700
                  22634862.000        3301.738        2572.887
 18  2 20  8 14 30.0000000  0  8G02G05G23G07G16G09G06G30
 114279288.445 8  89048764.19946  21746619.305          48.000          38.200
                  21746620.012         411.113         320.540
 121623198.797 7  94771364.38645  23144137.438          45.600          31.600
                  23144141.469        3159.215        2461.825
 120671960.667 7  94030131.41845  22963112.516          45.500          31.000
                  22963114.332       -2708.398       -2110.331
 112612693.440 8  87750184.34146  21429486.414          51.700          39.900
                  21429490.449        1967.137        1533.057
 127037123.601 6  98990029.64343  24174372.305          39.200          18.600
                  24174375.375         508.883         396.762
 107324474.093 8  83629535.36947  20423176.609          52.100          44.700
                  20423181.461       -1372.801       -1069.580
 112784869.085 8  87884274.76846  21462234.719          49.100          41.300
                  21462241.598       -2329.422       -1814.995
 118848024.783 7  92608906.25445  22616032.078          46.000          34.500
                  22616038.258        3292.832        2565.974
 18  2 20  8 15  0.0000000  0  8G02G05G23G07G16G09G06G30
 114267234.521 8  89039371.52946  21744325.633          48.500          38.300
                  21744326.223         392.531         306.171
 121528498.269 7  94697571.75545  23126116.656          46.100          31.800
                  23126120.156        3154.055        2457.844
 120753290.000 7  94093504.88845  22978588.930          46.200          30.200
                  22978590.105       -2713.645       -2114.381
 112553907.816 8  87704377.36146  21418300.117          51.700          39.600
                  21418303.730        1951.844        1521.156
 127022159.281 6  98978369.13843  24171524.398          39.800          18.300
                  24171527.145         488.777         381.165
 107365840.595 8  83661768.99447  20431048.047          52.500          44.400
                  20431053.008       -1384.965       -1078.978
 112854992.783 8  87938916.56146  21475578.984          49.200          41.100
                  21475585.676       -2345.352       -1827.320
 118749374.780 7  92532036.15545  22597259.438          46.100          34.400
                  22597265.496        3283.777        2558.953
 18  2 20  8 15 30.0000000  0  8G02G05G23G07G16G09G06G30
 114255733.001 7  89030409.29246  21742137.031          47.200          38.400
                  21742137.918         374.160         291.824
 121433950.026 7  94623897.79945  23108125.031          46.800          33.300
                  23108128.797        3149.086        2453.892
 120834774.240 7  94156999.09045  22994094.938          45.400          31.100
                  22994096.016       -2718.719       -2118.391
 112495580.383 8  87658927.42446  21407200.906          50.500          39.700
                  21407204.234        1936.625        1509.258
 127007795.084 6  98967176.27143  24168791.555          40.200          19.300
                  24168793.449         468.789         365.607
 107407567.707 8  83694283.61947  20438988.336          53.000          44.300
                  20438993.672       -1396.883       -1088.314
 112925588.133 8  87993925.87846  21489012.945          49.800          40.600
                  21489019.414       -2360.973       -1839.532
 118650995.726 7  92455377.16845  22578538.078          46.400          33.700
                  22578545.063        3274.738        2551.914
 18  2 20  8 16  0.0000000  0  8G02G05G23G07G16G09G06G30
 114244783.922 8  89021877.52246  21740053.500          48.100          38.600
                  21740054.195         355.754         277.443
 121339555.798 7  94550343.85845  23090162.180          46.400          33.400
                  23090165.668        3143.852        2449.835
 120916411.761 7  94220612.71545  23009629.430          45.700          30.900
                  23009631.609       -2723.883       -2122.398
 112437711.702 8  87613834.96546  21396188.320          51.400          39.500
                  21396192.508        1921.227        1497.286
 126994031.250 6  98956451.24043  24166171.281          40.000          20.900
                  24166175.047         448.789         349.911
 107449653.343 8  83727077.61747  20446996.789          52.600          44.100
                  20447002.078       -1408.906       -1097.645
 112996652.173 8  88049300.41146  21502535.797          49.200          40.600
                  21502542.648       -2376.703       -1851.708
 118552889.299 7  92378930.62845  22559869.070          45.300          34.000
                  22559875.938        3265.602        2544.758
 18  2 20  8 16 30.0000000  0  8G02G05G23G07G16G09G06G30
 114234387.988 8  89013776.77946  21738075.148          48.600          38.400
                  21738075.816         337.367         263.067
 121245317.823 7  94476911.67645  23072229.484          46.800          33.600
                  23072232.711        3138.754        2445.733
 120998201.782 7  94284345.16844  23025193.773          44.300          29.800
                  23025195.789       -2728.844       -2126.349
 112380304.106 8  87569101.76546  21385264.125          50.700          40.000
                  21385268.242        1905.926        1485.297
 126980869.325 6  98946195.20043  24163666.789          40.700          19.300
                  24163670.746         428.727         334.306
 107492096.926 8  83760150.52847  20455073.555          52.500          45.000
                  20455078.703       -1420.723       -1106.925
 113068183.228 8  88105038.84846  21516147.836          49.300          40.200
                  21516154.316       -2392.105       -1863.805
 118455058.610 7  92302698.93545  22541252.273          46.000          34.300
                  22541259.168        3256.414        2537.566
 18  2 20  8 17  0.0000000  0  8G02G05G23G07G16G09G06G30
 114224545.836 8  89006107.55946  21736201.844          48.500          38.800
                  21736202.703         318.781         248.663
 121151236.739 7  94403601.74645  23054326.297          47.200          34.000
                  23054329.953        3133.469        2441.684
 121080143.284 7  94348195.65545  23040786.570          45.000          30.500
                  23040788.492       -2733.730       -2130.221
 112323358.859 8  87524728.85546  21374428.484          50.100          40.000
                  21374432.313        1890.488        1473.276
 126968310.291 6  98936409.01743  24161277.117          37.300          19.600
                  24161280.219         408.586         318.620
 107534897.023 8  83793501.24247  20463218.258          52.100          44.400
                  20463223.441       -1432.566       -1116.151
 113140178.919 8  88161139.34546  21529848.141          48.800          39.700
                  21529854.867       -2407.559       -1875.825
 118357505.991 7  92226683.91345  22522689.281          46.600          34.400
                  22522695.742        3247.055        2530.311
 18  2 20  8 17 30.0000000  0  8G02G05G23G07G16G09G06G30
 114215258.168 8  88998870.40446  21734434.891          49.100          37.800
                  21734435.410         300.473         234.322
 121057315.096 7  94330416.06045  23036453.945          45.700          34.200
                  23036457.219        3128.125        2437.537
 121162235.317 7  94412163.43845  23056408.453          45.800          30.900
                  23056409.742       -2738.766       -2134.093
 112266877.787 8  87480717.64046  21363679.938          51.000          40.100
                  21363684.109        1875.051        1461.243
 126956354.844 6  98927093.12143  24159001.930          39.200          19.000
                  24159005.121         388.449         302.999
 107578052.411 8  83827128.80447  20471430.422          51.600          44.500
                  20471435.945       -1444.293       -1125.315
 113212636.989 8  88217600.14546  21543636.148          48.200          39.000
                  21543643.012       -2422.906       -1887.768
 118260233.953 7  92150887.56245  22504178.938          45.000          34.300
                  22504184.969        3237.777        2523.050
 18  2 20  8 18  0.0000000  0  8G02G05G23G07G16G09G06G30
 114206524.903 7  88992065.24346  21732773.172          47.900          38.200
                  21732773.762         281.852         219.861
 120963554.794 7  94257356.10545  23018611.375          47.400          33.700
                  23018614.871        3122.613        2433.293
 121244476.015 7  94476247.08445  23072058.156          45.500          30.800
                  23072059.898       -2743.879       -2137.973
 112210862.472 8  87437069.34546  21353020.680          51.300          39.800
                  21353024.168        1859.395        1449.093
 126945003.855 6  98918248.22643  24156842.094          36.900          18.600
                  24156844.902         368.262         287.245
 107621561.750 8  83861032.17147  20479709.859          53.200          44.600
                  20479715.230       -1456.152       -1134.530
 113285555.017 8  88274419.35646  21557512.219          48.800          39.000
                  21557518.938       -2438.227       -1899.733
 118163244.890 7  92075311.67945  22485722.484          46.100          34.700
                  22485728.852        3228.180        2515.622
 18  2 20  8 18 30.0000000  0  8G02G05G23G07G16G09G06G30
 114198346.924 8  88985692.77246  21731216.820          48.400          37.800
                  21731217.184         263.352         205.450
 120869957.248 8  94184422.95545  23000800.180          48.000          34.100
                  23000804.207        3117.199        2429.042
 121326864.564 7  94540445.90944  23087736.023          45.400          29.600
                  23087737.988       -2748.680       -2141.801
 112155314.078 8  87393784.89546  21342450.266          51.900          39.900
                  21342453.508        1843.840        1436.934
 126934258.121 6  98909874.93143  24154797.531          40.900          19.600
                  24154799.371         348.102         271.503
 107665423.802 8  83895210.39647  20488056.258          52.800          44.500
                  20488061.754       -1467.980       -1143.687
 113358930.765 8  88331595.21446  21571475.125          49.700          39.000
                  21571481.641       -2453.496       -1911.594
 118066541.257 7  91999958.22845  22467320.188          47.200          35.000
                  22467326.879        3218.598        2508.171
 18  2 20  8 19  0.0000000  0  8G02G05G23G07G16G09G06G30
 114190724.395 8  88979753.12846  21729766.055          48.100          37.700
                  21729766.434         244.828         190.995
 120776524.420 7  94111618.13645  22983020.953          46.300          34.600
                  22983024.152        3111.652        2424.755
 121409400.104 7  94604759.29144  23103442.102          44.900          28.600
                  23103444.160       -2753.703       -2145.623
 112100234.397 8  87350865.68146  21331968.719          51.300          39.800
                  21331972.855        1828.121        1424.737
 126924118.706 6  98901974.10743  24152868.406          40.500          21.100
                  24152870.934         327.750         255.719
 107709637.478 8  83929662.59247  20496470.547          52.300          44.700
                  20496475.332       -1479.699       -1152.807
 113432761.962 8  88389126.00246  21585524.656          49.000          38.900
                  21585531.414       -2468.660       -1923.389
 117970125.638 7  91924829.18945  22448973.039          45.400          34.300
                  22448979.262        3208.977        2500.658
 18  2 20  8 19 30.0000000  0  8G02G05G23G07G16G09G06G30
 114183657.704 8  88974246.60046  21728421.344          49.100          37.300
                  21728422.215         226.270         176.538
 120683257.445 8  94038942.57645  22965272.867          48.000          34.700
                  22965276.188        3106.059        2420.375
 121492081.316 7  94669186.17844  23119175.992          44.300          29.100
                  23119177.445       -2758.516       -2149.408
 112045624.865 8  87308312.80446  21321577.031          51.200          40.200
                  21321580.887        1812.469        1412.483
 126914586.362 6  98894546.31343  24151053.539          40.100          20.600
                  24151056.590         307.816         239.930
 107754201.355 8  83964387.68047  20504950.719          53.400          44.500
                  20504956.066       -1491.312       -1161.916
 113507046.267 8  88447009.84346  21599660.625          49.700          39.500
                  21599667.121       -2483.734       -1935.157
 117874000.442 7  91849926.45245  22430680.930          46.600          34.100
                  22430687.438        3199.297        2493.064
 18  2 20  8 20  0.0000000  0  8G02G05G23G07G16G09G06G30
 114177147.959 8  88969174.06046  21727182.734          48.500          37.300
                  21727183.051         207.484         162.016
 120590158.134 7  93966397.65545  22947556.453          47.900          34.000
                  22947560.023        3100.223        2415.970
 121574907.755 7  94733726.22244  23134937.219          45.000          29.700
                  23134939.246       -2763.504       -2153.205
 111991487.490 8  87266127.85446  21311275.352          51.300          39.400
                  21311277.953        1796.500        1400.167
 126905662.271 6  98887592.43943  24149356.492          40.700          20.600
                  24149359.539         287.043         224.119
 107799114.658 8  83999385.05147  20513497.086          52.800          44.600
                  20513502.402       -1503.250       -1171.029
 113581781.703 8  88505245.22546  21613882.406          49.200          39.400
                  21613888.703       -2498.973       -1946.906
 117778168.533 7  91775252.24845  22412444.813          47.300          34.800
                  22412451.047        3189.191        2485.369
 18  2 20  8 20 30.0000000  0  8G02G05G23G07G16G09G06G30
 114171194.909 7  88964535.30546  21726049.758          47.900          37.300
                  21726050.109         188.984         147.573
 120497228.240 8  93893984.75445  22929872.797          48.200          35.500
                  22929875.875        3094.656        2411.558
 121657877.697 7  94798378.10144  23150726.180          45.400          27.800
                  23150727.176       -2768.098       -2156.893
 111937823.076 8  87224311.44446  21301062.852          51.400          40.000
                  21301065.723        1780.852        1387.876
 126897346.714 6  98881112.77143  24147772.672          39.700          21.100
                  24147776.301         266.809         208.278
 107844375.660 8  84034653.35147  20522109.758          52.900          44.500
                  20522115.648       -1514.629       -1180.011
 113656965.498 8  88563829.98346  21628190.273          48.600          39.400
                  21628196.152       -2513.641       -1958.490
 117682631.904 7  91700808.12445  22394264.867          47.200          35.100
                  22394271.199        3179.504        2477.689
 18  2 20  8 21  0.0000000  0  8G02G05G23G07G16G09G06G30
 114165798.540 7  88960330.33246  21725022.922          46.400          37.400
                  21725023.516         170.469         133.120
 120404470.284 7  93821705.82545  22912221.313          45.800          35.200
                  22912224.887        3088.891        2407.073
 121740989.657 7  94863140.63444  23166541.609          44.700          28.900
                  23166543.414       -2772.926       -2160.587
 111884632.828 8  87182864.50246  21290941.508          51.400          39.700
                  21290944.457        1764.922        1375.538
 126889640.320 6  98875107.80443  24146307.484          38.700          20.400
                  24146310.121         246.691         192.462
 107889982.864 8  84070191.41547  20530788.930          52.800          44.500
                  20530794.652       -1526.113       -1188.988
 113732594.998 8  88622762.03846  21642581.305          49.700          39.100
                  21642587.582       -2528.559       -1970.038
 117587392.762 7  91626595.82845  22376141.469          46.000          34.800
                  22376147.852        3169.523        2469.918
 18  2 20  8 21 30.0000000  0  8G02G05G23G07G16G09G06G30
 114160959.153 7  88956559.36946  21724102.383          47.200          36.900
                  21724102.793         152.137         118.694
 120311885.356 8  93749561.72745  22894603.289          48.100          35.100
                  22894606.852        3083.328        2402.594
 121824242.412 7  94928012.85244  23182384.656          44.700          29.300
                  23182386.035       -2777.441       -2164.186
 111831918.008 8  87141788.04646  21280910.000          51.600          39.700
                  21280913.375        1749.238        1363.214
 126882543.734 6  98869578.00643  24144956.063          39.100          19.900
                  24144959.094         226.652         176.680
 107935934.892 8  84105998.18347  20539533.406          52.700          44.300
                  20539538.434       -1537.406       -1197.886
 113808667.699 8  88682039.44046  21657057.719          49.200          39.600
                  21657064.625       -2543.059       -1981.469
 117492453.431 8  91552617.12645  22358075.305          48.000          35.700
                  22358081.594        3159.695        2462.168
 18  2 20  8 22  0.0000000  0  8G02G05G23G07G16G09G06G30
 114156677.573 7  88953223.05746  21723287.109          47.200          37.100
                  21723287.898         133.359         104.219
 120219475.630 7  93677554.14945  22877018.242          47.200          35.800
                  22877021.617        3077.391        2398.066
 121907635.486 7  94992994.45244  23198253.656          44.600          29.000
                  23198255.164       -2782.223       -2167.803
 111779680.699 8  87101083.65646  21270969.523          52.000          39.400
                  21270973.199        1733.242        1350.833
 126876058.167 6  98864524.30443  24143722.094          39.800          21.100
                  24143725.160         205.910         160.780
 107982231.016 8  84142073.07347  20548343.414          53.700          44.000
                  20548348.266       -1548.926       -1206.787
 113885181.769 8  88741660.75946  21671617.797          49.900          40.200
                  21671624.320       -2557.828       -1992.882
 117397816.919 7  91478874.39945  22340066.477          47.100          35.400
                  22340073.000        3149.492        2454.288
 18  2 20  8 22 30.0000000  0  8G02G05G23G07G16G09G06G30
 114152953.792 7  88950321.39446  21722578.344          47.000          37.300
                  21722579.094         114.836          89.725
 120127242.016 8  93605683.80945  22859466.648          48.100          35.700
                  22859470.395        3071.594        2393.462
 121991167.798 7  95058084.50744  23214149.523          45.200          28.100
                  23214150.918       -2786.777       -2171.405
 111727922.053 8  87060752.25846  21261119.789          51.700          39.400
                  21261123.160        1717.293        1338.364
 126870183.834 6  98859946.89243  24142605.117          39.200          20.900
                  24142607.063         185.758         144.895
 108028869.872 8  84178415.03547  20557218.273          52.700          44.700
                  20557223.512       -1560.266       -1215.679
 113962134.655 8  88801624.04246  21686261.313          49.300          39.200
                  21686267.902       -2572.289       -2004.240
 117303485.487 7  91405369.41345  22322115.977          47.300          35.400
                  22322122.008        3139.328        2446.332
 18  2 20  8 23  0.0000000  0  8G02G05G23G07G16G09G06G30
 114149788.357 7  88947854.80746  21721976.359          47.300          37.400
                  21721977.039          96.141          75.162
 120035186.717 7  93533952.40645  22841949.203          46.400          35.400
                  22841952.871        3065.410        2388.723
 122074838.337 7  95123282.30444  23230071.672          45.600          28.600
                  23230071.992       -2791.340       -2175.033
 111676643.554 8  87020794.99146  21251362.344          50.800          40.000
                  21251365.715        1701.145        1325.809
 126864921.925 6  98855846.67243  24141603.258          39.400          20.100
                  24141606.449         164.941         128.937
 108075850.237 8  84215023.09947  20566158.453          52.400          44.400
                  20566163.605       -1571.758       -1224.601
 114039523.975 8  88861927.39646  21700988.289          49.100          39.500
                  21700994.781       -2586.863       -2015.613
 117209461.655 7  91332104.09446  22304223.766          46.400          36.800
                  22304230.168        3128.875        2438.247
 18  2 20  8 23 30.0000000  0  8G02G05G23G07G16G09G06G30
 114147181.300 7  88945823.33046  21721479.898          47.200          37.800
                  21721480.555          77.547          60.682
 119943312.402 7  93462362.03645  22824466.227          46.800          35.900
                  22824469.348        3059.441        2384.054
 122158645.820 7  95188586.80744  23246019.758          45.000          29.300
                  23246021.098       -2795.949       -2178.546
 111625846.444 8  86981212.82746  21241695.852          51.600          40.000
                  21241699.891        1685.051        1313.330
 126860272.456 6  98852223.67243  24140718.563          39.400          21.300
                  24140721.527         144.695         113.043
 108123170.716 8  84251896.18447  20575163.172          51.900          44.100
                  20575168.336       -1583.164       -1233.387
 114117347.220 8  88922568.86946  21715797.211          48.700          40.000
                  21715803.738       -2601.457       -2026.820
 117115747.680 7  91259080.26046  22286390.313          45.300          36.100
                  22286397.043        3118.516        2430.195
 18  2 20  8 24  0.0000000  0  8G02G05G23G07G16G09G06G30
 114145133.254 7  88944227.43346  21721090.344          47.600          37.200
                  21721091.020          59.148          46.212
 119851620.217 7  93390913.58846  22807017.375          47.800          36.000
                  22807021.176        3053.387        2379.348
 122242589.251 7  95253997.22044  23261993.469          45.700          29.100
                  23261994.680       -2800.215       -2182.033
 111575532.404 8  86942007.10246  21232121.469          51.100          40.500
                  21232125.000        1669.156        1300.792
 126856236.236 6  98849078.53843  24139950.188          38.100          21.100
                  24139952.844         124.414          97.150
 108170830.290 8  84289033.49947  20584232.547          52.900          44.500
                  20584237.578       -1594.203       -1242.120
 114195602.122 8  88983546.70046  21730688.609          48.800          39.300
                  21730695.301       -2615.527       -2037.967
 117022346.233 7  91186299.90446  22268616.781          45.600          37.000
                  22268623.199        3108.254        2422.104
 18  2 20  8 24 30.0000000  0  8G02G05G23G07G16G09G06G30
 114143643.624 7  88943066.67046  21720807.094          47.200          37.900
                  21720808.059          40.285          31.664
 119760111.510 7  93319608.10745  22789604.023          47.200          35.000
                  22789607.285        3047.207        2374.529
 122326667.564 7  95319512.75144  23277992.891          45.700          29.400
                  23277994.070       -2804.832       -2185.539
 111525702.638 8  86903178.71346  21222639.063          51.500          40.100
                  21222642.641        1653.023        1288.202
 126852813.802 6  98846411.72343  24139299.516          38.600          21.700
                  24139302.164         103.781          81.128
 108218827.414 8  84326433.86347  20593365.852          52.100          44.300
                  20593371.188       -1605.508       -1250.918
 114274285.936 7  89044858.75146  21745661.594          47.800          39.500
                  21745668.516       -2629.969       -2049.113
 116929259.436 7  91113764.76746  22250902.430          45.800          36.100
                  22250909.395        3097.570        2413.855
 18  2 20  8 25  0.0000000  0  8G02G05G23G07G16G09G06G30
 114142713.186 7  88942341.65246  21720629.906          47.100          38.300
                  21720630.590          21.613          17.119
 119668787.850 8  93248446.82545  22772225.742          49.700          34.200
                  22772228.891        3040.875        2369.654
 122410880.011 7  95385132.78744  23294018.453          46.000          28.900
                  23294019.488       -2809.258       -2189.025
 111476358.070 8  86864728.41146  21213249.297          51.700          40.700
                  21213252.383        1636.695        1275.542
 126850006.174 6  98844223.91943  24138765.430          38.300          20.600
                  24138767.410          83.234          65.205
 108267161.126 8  84364096.48847  20602563.508          52.700          43.700
                  20602568.715       -1616.742       -1259.652
 114353396.499 8  89106503.32646  21760715.656          48.400          39.400
                  21760723.047       -2644.160       -2060.193
 116836489.995 7  91041476.89046  22233249.328          47.200          36.200
                  22233255.363        3086.969        2405.578
 18  2 20  8 25 30.0000000  0  8G02G05G23G07G16G09G06G30
 114142341.640 8  88942052.11846  21720559.234          48.000          38.200
                  21720560.047           3.152           2.665
 119577652.532 8  93177432.29345  22754883.242          50.000          34.500
                  22754886.332        3034.734        2364.815
 122495224.963 7  95450856.10244  23310068.391          46.000          29.400
                  23310069.434       -2813.648       -2192.400
 111427500.289 8  86826657.42946  21203951.859          52.100          39.900
                  21203955.480        1620.586        1262.944
 126847813.429 6  98842515.27343  24138347.867          40.200          20.600
                  24138350.594          62.906          49.276
 108315829.900 8  84402020.19147  20611825.055          52.100          43.700
                  20611830.086       -1627.738       -1268.294
 114432931.070 8  89168478.30146  21775850.766          48.500          38.900
                  21775858.082       -2658.070       -2071.102
 116744039.996 7  90969437.93445  22215656.555          47.100          35.000
                  22215662.598        3076.410        2397.296
 18  2 20  8 26  0.0000000  0  8G02G05G23G07G16G09G06G30
 114142529.625 8  88942198.58546  21720595.180          48.600          39.000
                  21720595.879         -15.473         -11.894
 119486705.856 8  93106564.75445  22737576.875          48.200          34.500
                  22737579.707        3028.523        2359.872
 122579701.663 7  95516682.06144  23326144.008          44.500          28.000
                  23326145.238       -2818.027       -2195.843
 111379130.616 8  86788966.79346  21194747.516          52.000          41.400
                  21194751.457        1604.316        1250.226
 126846235.785 6  98841285.93343  24138047.375          39.800          21.100
                  24138050.391          42.461          33.252
 108364832.570 8  84440204.06947  20621149.820          51.600          43.600
                  20621155.711       -1638.906       -1276.973
 114512887.287 7  89230781.83046  21791066.258          47.700          38.600
                  21791073.156       -2672.082       -2082.043
 116651911.990 7  90897649.89046  22198125.234          45.500          36.300
                  22198131.371        3065.613        2388.892
 18  2 20  8 26 30.0000000  0  8G02G05G23G07G16G09G06G30
 114143277.026 7  88942780.97146  21720737.578          47.600          38.400
                  21720738.195         -34.363         -26.431
 119395950.784 8  93035846.51745  22720306.633          48.900          34.200
                  22720309.691        3021.855        2354.846
 122664308.960 7  95582609.77944  23342244.086          45.000          29.400
                  23342245.090       -2822.477       -2199.212
 111331250.326 8  86751657.49446  21185636.063          52.100          40.900
                  21185639.938        1587.781        1237.497
 126845273.660 6  98840536.22543  24137864.297          40.200          20.400
                  24137867.426          21.555          17.251
 108414167.721 8  84478647.04147  20630537.750          53.200          44.100
                  20630543.516       -1650.109       -1285.604
 114593262.504 7  89293411.86846  21806360.953          47.200          38.400
                  21806368.035       -2686.199       -2092.888
 116560108.227 7  90826114.51045  22180655.539          46.200          35.500
                  22180662.082        3054.531        2380.421
 18  2 20  8 27  0.0000000  0  8G02G05G23G07G16G09G06G30
 114144583.846 7  88943799.26046  21720986.102          47.900          38.500
                  21720986.891         -52.758         -40.966
 119305388.655 8  92965278.62545  22703073.125          48.600          33.500
                  22703076.191        3015.555        2349.854
 122749045.716 7  95648638.36744  23358369.117          46.000          29.200
                  23358370.191       -2826.668       -2202.572
 111283860.522 8  86714730.40046  21176618.031          51.500          40.400
                  21176621.223        1571.535        1224.729
 126844927.996 6  98840266.88743  24137798.398          39.900          19.600
                  24137801.785           1.324           1.224
 108463834.189 8  84517348.18347  20639989.188          53.000          43.900
                  20639994.219       -1661.000       -1294.178
 114674054.291 8  89356366.48146  21821735.102          48.400          38.600
                  21821742.125       -2699.914       -2103.682
 116468631.129 7  90754833.66346  22163248.125          46.100          36.800
                  22163254.523        3043.801        2371.921
 18  2 20  8 27 30.0000000  0  8G02G05G23G07G16G09G06G30
 114146450.250 7  88945253.59946  21721341.242          47.900          39.200
                  21721341.836         -71.547         -55.498
 119215020.891 8  92894862.19645  22685876.625          48.600          34.000
                  22685879.941        3009.063        2344.760
 122833911.232 7  95714767.28944  23374518.617          46.100          28.500
                  23374519.559       -2830.871       -2205.883
 111236962.518 8  86678186.51946  21167693.609          52.100          40.300
                  21167696.484        1555.086        1211.950
 126845198.908 6  98840477.99243  24137849.250          36.000          20.100
                  24137853.281         -19.320         -14.789
 108513830.913 8  84556306.65647  20649503.359          53.100          44.300
                  20649508.613       -1672.000       -1302.746
 114755260.247 7  89419643.83046  21837188.195          47.600          38.100
                  21837194.777       -2713.672       -2114.420
 116377483.254 7  90683809.36746  22145903.336          47.300          36.600
                  22145909.684        3032.820        2363.325
 18  2 20  8 28  0.0000000  0  8G02G05G23G07G16G09G06G30
 114148876.102 8  88947143.86246  21721802.836          48.100          38.300
                  21721803.988         -89.988         -69.991
 119124849.695 7  92824598.93445  22668717.570          47.500          33.200
                  22668721.188        3002.559        2339.663
 122918904.035 7  95780995.40544  23390692.500          46.800          28.500
                  23390693.680       -2835.020       -2209.162
 111190557.399 8  86642026.68946  21158862.828          52.700          40.500
                  21158866.430        1538.727        1199.161
 126846086.361 6  98841169.52743  24138018.992          39.200          20.400
                  24138022.715         -39.758         -30.760
 108564156.273 8  84595521.20447  20659080.148          52.400          43.700
                  20659085.516       -1682.875       -1311.214
 114836877.598 7  89483241.75146  21852719.656          47.200          38.100
                  21852725.730       -2727.305       -2125.039
 116286666.684 7  90613043.20946  22128621.523          46.800          36.300
                  22128627.668        3021.855        2354.738
 18  2 20  8 28 30.0000000  0  8G02G05G23G07G16G09G06G30
 114151861.451 8  88949470.10246  21722370.711          48.100          38.800
                  21722371.578        -108.859         -84.610
 119034877.028 8  92754490.37445  22651596.406          48.000          34.100
                  22651599.902        2995.758        2334.406
 123004023.277 7  95847322.01844  23406889.641          43.200          28.700
                  23406890.934       -2839.281       -2212.494
 111144646.569 8  86606252.01946  21150126.375          51.900          40.400
                  21150130.621        1522.105        1186.255
 126847590.918 6  98842341.86443  24138305.656          37.600          21.100
                  24138308.137         -60.328         -46.811
 108614809.006 8  84634990.86047  20668718.891          52.000          44.100
                  20668724.031       -1693.871       -1319.784
 114918903.741 7  89547158.20546  21868328.750          45.300          37.500
                  21868335.559       -2740.965       -2135.680
 116196183.713 8  90542537.02846  22111402.922          48.000          36.400
                  22111409.734        3010.465        2345.977
 18  2 20  8 29  0.0000000  0  8G02G05G23G07G16G09G06G30
 114155406.528 8  88952232.49046  21723045.547          48.900          38.500
                  21723046.461        -127.504         -99.110
 118945104.068 8  92684537.42245  22634513.344          48.200          33.500
                  22634516.879        2989.027        2329.240
 123089268.073 7  95913746.50544  23423111.328          46.200          29.400
                  23423112.473       -2843.551       -2215.713
 111099230.900 8  86570863.21746  21141484.398          50.900          40.100
                  21141487.520        1505.555        1173.389
 126849712.968 6  98843995.44943  24138708.680          36.100          20.400
                  24138712.629         -80.934         -62.900
 108665788.063 8  84674714.78547  20678419.992          52.100          44.100
                  20678425.090       -1704.711       -1328.218
 115001336.326 7  89611391.35246  21884014.828          47.900          38.400
                  21884021.957       -2754.441       -2146.175
 116106036.963 8  90472292.80446  22094248.641          48.000          36.600
                  22094255.125        2999.250        2337.243
 18  2 20  8 29 30.0000000  0  8G02G05G23G07G16G09G06G30
 114159510.930 8  88955430.71546  21723826.398          48.800          38.700
                  21723827.434        -146.141        -113.642
 118855533.423 8  92614742.11745  22617468.336          48.400          33.700
                  22617472.129        2982.281        2323.958
 123174637.044 7  95980267.69944  23439356.484          44.100          28.700
                  23439357.867       -2847.703       -2218.937
 111054311.696 8  86535861.25346  21132935.820          51.600          39.400
                  21132939.383        1488.992        1160.480
 126852452.947 6  98846130.44343  24139230.414          38.000          20.600
                  24139233.461        -101.746         -78.938
 108717092.123 8  84714691.96447  20688182.758          52.500          43.900
                  20688187.793       -1715.602       -1336.654
 115084172.756 7  89675939.21246  21899778.148          47.500          37.900
                  21899784.691       -2767.937       -2156.666
 116016228.659 8  90402312.32446  22077159.078          48.500          36.900
                  22077165.387        2987.840        2328.406
 18  2 20  8 30  0.0000000  0  8G02G05G23G07G16G09G06G30
 114164174.601 8  88959064.73346  21724713.859          48.900          38.600
                  21724714.641        -164.746        -128.163
 118766166.719 7  92545105.72045  22600462.297          47.900          33.900
                  22600465.891        2975.426        2318.602
 123260129.508 7  96046885.16344  23455625.461          45.400          28.600
                  23455626.680       -2851.812       -2222.140
 111009890.005 8  86501246.95146  21124482.648          52.200          39.400
                  21124485.629        1472.395        1147.540
 126855810.827 6  98848747.00043  24139867.734          37.500          19.900
                  24139872.406        -122.301         -94.991
 108768719.762 8  84754921.28047  20698007.469          52.300          44.200
                  20698012.727       -1726.336       -1345.036
 115167410.152 7  89740799.49046  21915618.172          46.800          37.700
                  21915624.648       -2781.270       -2167.041
 115926761.038 8  90332597.30746  22060133.555          48.000          37.400
                  22060139.758        2976.480        2319.526
 18  2 20  8 30 30.0000000  0  8G02G05G23G07G16G09G06G30
 114169397.519 8  88963134.52546  21725707.930          48.200          38.100
                  21725708.879        -183.387        -142.674
 118677005.445 7  92475629.39145  22583495.672          47.900          33.000
                  22583499.270        2968.625        2313.294
 123345744.104 7  96113597.76644  23471917.188          44.900          29.300
                  23471919.336       -2855.785       -2225.280
 110965966.780 8  86467021.05246  21116124.672          51.500          40.000
                  21116127.973        1455.809        1134.599
 126859786.586 6  98851844.95843  24140624.930          36.800          19.300
                  24140629.043        -142.953        -111.041
 108820669.616 8  84795401.68547  20707892.766          51.800          44.500
                  20707898.121       -1736.984       -1353.366
 115251046.081 7  89805970.32446  21931533.313          46.700          38.400
                  21931539.742       -2794.477       -2177.332
 115837636.279 7  90263149.47046  22043173.609          47.800          36.700
                  22043179.980        2965.086        2310.611
 18  2 20  8 31  0.0000000  0  8G02G05G23G07G16G09G06G30
 114175179.665 8  88967640.08246  21726808.352          48.700          38.100
                  21726809.223        -201.988        -157.192
 118588051.564 8  92406314.66945  22566568.430          48.100          32.800
                  22566571.355        2961.785        2307.884
 123431480.145 7  96180405.00344  23488232.539          45.400          29.100
                  23488234.434       -2859.785       -2228.387
 110922543.767 8  86433184.94946  21107861.422          51.000          39.600
                  21107865.215        1439.207        1121.601
 126864381.243 5  98855425.24143  24141499.063          35.400          18.600
                  24141503.000        -163.496        -127.137
 108872940.724 8  84836132.39447  20717840.250          51.800          43.700
                  20717845.156       -1747.590       -1361.677
 115335078.170 7  89871449.85446  21947524.164          46.600          37.700
                  21947530.598       -2807.574       -2187.594
 115748857.056 8  90193970.87946  22026279.883          48.200          37.000
                  22026285.227        2953.637        2301.619
 18  2 20  8 31 30.0000000  0  8G02G05G23G07G16G09G06G30
 114181520.879 8  88972581.28146  21728014.977          48.400          38.100
                  21728015.691        -220.656        -171.758
 118499307.554 7  92337163.48945  22549680.719          47.800          32.800
                  22549684.410        2954.598        2302.358
 123517336.245 7  96247305.80444  23504570.031          42.000          28.600
                  23504572.023       -2863.859       -2231.554
 110879621.617 8  86399739.14446  21099693.484          50.700          39.900
                  21099697.473        1422.371        1108.526
 126869594.406 6  98859487.43343  24142491.992          38.600          20.600
                  24142494.938        -184.039        -143.217
 108925531.662 8  84877112.33847  20727847.547          51.800          43.900
                  20727852.480       -1758.391       -1370.051
 115419503.563 7  89937235.85846  21963589.859          45.600          37.300
                  21963596.191       -2820.730       -2197.824
 115660425.478 8  90125063.17246  22009451.125          48.800          37.100
                  22009457.605        2941.824        2292.506
 18  2 20  8 32  0.0000000  0  8G02G05G23G07G16G09G06G30
 114188421.154 8  88977958.11046  21729328.117          48.100          37.300
                  21729328.879        -239.336        -186.230
 118410774.851 7  92268176.96145  22532833.617          47.300          32.500
                  22532836.840        2947.570        2296.892
 123603311.618 7  96314299.53944  23520930.789          42.100          27.500
                  23520932.473       -2867.859       -2234.588
 110837201.549 8  86366684.54346  21091621.289          52.200          40.100
                  21091624.785        1405.598        1095.514
 126875425.999 6  98864031.52343  24143601.906          37.600          20.400
                  24143605.031        -204.793        -159.214
 108978441.164 8  84918340.51747  20737916.070          51.100          43.700
                  20737921.066       -1768.965       -1378.242
 115504319.705 7  90003326.34146  21979729.734          44.600          37.900
                  21979736.035       -2833.613       -2207.868
 115572343.908 8  90056428.21346  21992690.305          48.400          37.400
                  21992696.531        2930.180        2283.434
 18  2 20  8 32 30.0000000  0  8G02G05G23G07G16G09G06G30
 114195880.316 7  88983770.44146  21730747.359          47.900          37.100
                  21730748.168        -257.824        -200.764
 118322455.341 7  92199356.55445  22516027.625          47.300          33.500
                  22516030.379        2940.602        2291.336
 123689405.426 7  96381385.59144  23537313.563          42.800          28.400
                  23537315.184       -2871.648       -2237.703
 110795284.985 8  86334022.28946  21083645.172          52.400          41.000
                  21083648.621        1388.918        1082.417
 126881876.471 6  98869057.84843  24144828.422          38.100          19.900
                  24144832.688        -225.168        -175.324
 109031668.130 8  84959816.06947  20748044.828          52.300          43.900
                  20748049.652       -1779.383       -1386.490
 115589524.019 7  90069719.30146  21995943.531          47.400          37.100
                  21995950.711       -2846.508       -2217.978
 115484614.773 8  89988067.86446  21975995.906          49.100          36.900
                  21976001.324        2918.488        2274.227
 18  2 20  8 33  0.0000000  0  8G02G05G23G07G16G09G06G30
 114203898.038 8  88990018.01346  21732273.156          48.600          36.900
                  21732273.309        -276.473        -215.244
 118234350.758 7  92130703.63745  22499261.578          47.900          32.800
                  22499264.090        2933.355        2285.753
 123775616.658 7  96448563.09244  23553719.320          43.700          29.400
                  23553721.477       -2875.574       -2240.685
 110753872.634 8  86301752.93446  21075764.695          51.800          40.800
                  21075768.078        1372.059        1069.317
 126888945.835 6  98874566.48543  24146173.859          38.100          20.400
                  24146177.637        -245.809        -191.359
 109085211.069 8  85001537.82847  20758233.461          51.300          43.800
                  20758238.902       -1789.902       -1394.658
 115675113.840 7  90136412.64846  22012230.742          45.100          37.500
                  22012237.625       -2859.281       -2227.914
 115397240.129 8  89919983.74146  21959369.469          49.400          37.300
                  21959374.590        2906.652        2265.016
 18  2 20  8 33 30.0000000  0  8G02G05G23G07G16G09G06G30
 114212473.954 7  88996700.53146  21733904.680          47.800          37.000
                  21733905.551        -295.312        -229.763
 118146463.059 8  92062219.71445  22482537.344          48.400          33.600
                  22482540.023        2925.824        2280.057
 123861943.953 7  96515831.08144  23570146.555          43.400          26.400
                  23570148.285       -2879.512       -2243.726
 110712965.023 8  86269876.89246  21067980.367          51.800          41.400
                  21067983.852        1355.117        1056.176
 126896634.111 6  98880557.33643  24147637.516          39.000          19.900
                  24147641.230        -266.711        -207.463
 109139068.587 8  85043504.71147  20768482.352          52.800          44.200
                  20768488.023       -1800.527       -1402.849
 115761086.313 7  90203404.16146  22028590.914          46.200          37.400
                  22028597.258       -2872.199       -2237.858
 115310222.111 8  89852177.51146  21942810.180          49.200          37.600
                  21942816.574        2894.605        2255.699
 18  2 20  8 34  0.0000000  0  8G02G05G23G07G16G09G06G30
 114221607.779 7  89003817.79146  21735643.359          47.500          37.300
                  21735643.809        -313.652        -244.220
 118058794.065 7  91993906.22245  22465854.719          45.900          33.800
                  22465857.258        2918.734        2274.375
 123948386.429 7  96583188.79144  23586596.602          44.300          28.500
                  23586598.629       -2883.285       -2246.656
 110672563.363 8  86238395.08546  21060292.266          52.900          41.300
                  21060295.629        1338.332        1043.050
 126904940.870 6  98887030.13643  24149218.188          39.600          19.000
                  24149220.980        -287.105        -223.510
 109193239.493 8  85085715.80447  20778790.719          52.000          44.200
                  20778795.598       -1810.809       -1410.945
 115847438.793 7  90270691.77946  22045022.734          44.700          37.600
                  22045030.367       -2884.578       -2247.646
 115223563.109 7  89784651.01946  21926319.516          47.900          37.900
                  21926325.574        2882.715        2246.362
 18  2 20  8 34 30.0000000  0  8G02G05G23G07G16G09G06G30
 114231299.367 7  89011369.67346  21737486.773          47.500          37.400
                  21737487.914        -332.395        -258.736
 117971345.401 7  91925764.40945  22449213.617          47.700          33.800
                  22449216.449        2911.215        2268.610
 124034943.345 7  96650635.70044  23603067.539          43.100          27.500
                  23603069.133       -2887.164       -2249.649
 110632668.586 8  86207308.26946  21052700.156          52.300          41.400
                  21052703.910        1321.395        1029.862
 126913866.411 6  98893985.11343  24150915.977          38.700          20.100
                  24150920.313        -307.891        -239.559
 109247722.570 8  85128170.13647  20789158.477          50.700          43.900
                  20789163.840       -1821.312       -1419.047
 115934168.711 7  90338273.52046  22061526.953          43.700          37.200
                  22061534.047       -2897.160       -2257.414
 115137265.397 8  89717406.06346  21909897.664          49.000          37.700
                  21909903.801        2870.488        2236.939
 18  2 20  8 35  0.0000000  0  8G02G05G23G07G16G09G06G30
 114241548.608 8  89019356.07746  21739437.750          48.500          37.100
                  21739438.680        -350.934        -273.200
 117884119.138 8  91857795.90045  22432614.766          48.200          34.200
                  22432618.168        2903.809        2262.813
 124121613.323 7  96718170.68444  23619560.523          44.500          28.900
                  23619562.293       -2890.809       -2252.575
 110593281.827 8  86176617.30046  21045205.266          51.900          41.200
                  21045209.000        1304.457        1016.665
 126923411.063 6  98901422.50343  24152732.406          36.800          19.600
                  24152736.359        -328.320        -255.641
 109302516.566 8  85170866.75047  20799585.461          51.400          43.900
                  20799590.633       -1831.625       -1427.102
 116021273.429 7  90406147.30246  22078102.250          46.400          36.900
                  22078109.938       -2909.594       -2267.120
 115051331.231 8  89650444.38046  21893544.461          49.100          37.900
                  21893550.938        2858.535        2227.491
 18  2 20  8 35 30.0000000  0  8G02G05G23G07G16G09G06G30
 114252355.058 8  89027776.67746  21741494.320          48.600          37.700
                  21741494.895        -369.449        -287.654
 117797117.843 8  91790002.69445  22416058.813          48.100          34.500
                  22416062.164        2896.418        2256.984
 124208395.476 7  96785793.07044  23636074.992          44.700          26.500
                  23636076.395       -2894.555       -2255.462
 110554404.208 8  86146323.08246  21037807.141          51.500          41.100
                  21037810.695        1287.496        1003.448
 126933574.624 6  98909342.17643  24154667.445          38.200          19.300
                  24154670.469        -348.937        -271.689
 109357620.137 8  85213804.59147  20810071.328          50.900          43.600
                  20810076.594       -1841.812       -1435.105
 116108750.139 7  90474310.95046  22094748.555          45.600          36.800
                  22094756.414       -2921.980       -2276.723
 114965762.877 8  89583767.76346  21877261.234          48.100          38.400
                  21877268.277        2846.176        2217.967
 18  2 20  8 36  0.0000000  0  8G02G05G23G07G16G09G06G30
 114263718.326 8  89036631.15946  21743656.547          48.900          37.600
                  21743657.602        -387.965        -302.142
 117710342.318 8  91722385.40945  22399545.656          48.000          34.000
                  22399549.227        2888.840        2251.045
 124295288.863 7  96853502.17744  23652609.813          42.600          27.900
                  23652611.199       -2898.102       -2258.347
 110516036.488 8  86116426.16946  21030505.695          51.600          41.000
                  21030509.559        1270.480         990.154
 126944356.598 6  98917743.70643  24156718.781          38.100          19.900
                  24156721.633        -369.531        -287.832
 109413031.971 8  85256982.64147  20820615.734          51.400          43.600
                  20820620.855       -1852.117       -1443.138
 116196596.108 7  90542762.32846  22111465.453          45.000          37.300
                  22111472.375       -2934.273       -2286.327
 114880562.447 8  89517377.84146  21861048.055          48.400          37.900
                  21861055.160        2833.965        2208.362
 18  2 20  8 36 30.0000000  0  8G02G05G23G07G16G09G06G30
 114275638.051 7  89045919.24446  21745925.188          47.900          37.900
                  21745926.043        -406.570        -316.605
 117623795.138 8  91654946.04745  22383076.453          49.000          34.700
                  22383079.520        2881.176        2245.078
 124382292.651 7  96921297.28144  23669166.578          43.500          27.500
                  23669168.105       -2901.902       -2261.238
 110478179.481 8  86086927.22546  21023301.945          50.500          40.500
                  21023305.277        1253.414         976.866
 126955756.956 6  98926627.08743  24158888.859          39.200          19.900
                  24158891.371        -390.371        -303.910
 109468750.865 8  85300399.94747  20831218.898          50.300          43.500
                  20831223.809       -1862.340       -1451.091
 116284808.724 7  90611499.40346  22128251.633          46.200          36.900
                  22128258.949       -2946.414       -2295.819
 114795732.238 8  89451276.39946  21844905.977          49.200          38.100
                  21844911.750        2821.566        2198.718
 18  2 20  8 37  0.0000000  0  8G02G05G23G07G16G09G06G30
 114288114.051 8  89055640.79346  21748299.039          49.000          37.900
                  21748300.000        -425.078        -331.003
 117537478.401 8  91587686.25945  22366650.711          48.400          35.500
                  22366654.176        2873.398        2239.112
 124469405.688 7  96989177.52644  23685743.609          43.400          26.000
                  23685745.020       -2905.590       -2264.012
 110440833.934 8  86057826.81646  21016195.148          50.200          40.400
                  21016198.723        1236.313         963.603
 126967775.664 6  98935992.31242  24161175.789          39.400          17.800
                  24161177.676        -410.816        -319.895
 109524775.387 8  85344055.41547  20841879.781          50.400          43.900
                  20841885.027       -1872.512       -1458.977
 116373385.103 7  90680519.94246  22145107.203          46.300          37.300
                  22145114.305       -2958.543       -2305.206
 114711274.337 7  89385465.03746  21828834.172          47.800          38.900
                  21828840.582        2809.039        2189.041
 18  2 20  8 37 30.0000000  0  8G02G05G23G07G16G09G06G30
 114301145.774 8  89065795.36346  21750779.023          49.000          38.300
                  21750780.051        -443.660        -345.479
 117451393.803 7  91520607.34245  22350269.617          47.200          34.900
                  22350272.809        2865.527        2233.022
 124556627.120 7  97057142.24444  23702340.195          43.100          27.800
                  23702342.852       -2909.164       -2266.843
 110404001.172 8  86029125.98546  21009186.180          48.900          40.200
                  21009189.668        1219.203         950.212
 126980412.677 6  98945839.34443  24163580.875          39.900          19.900
                  24163582.766        -431.609        -336.013
 109581104.546 8  85387948.25847  20852598.953          50.900          43.800
                  20852604.281       -1882.719       -1466.926
 116462322.787 7  90749822.00846  22162031.734          46.300          37.100
                  22162038.852       -2970.531       -2314.598
 114627191.107 7  89319945.67646  21812833.602          46.200          38.600
                  21812840.008        2796.543        2179.225
 18  2 20  8 38  0.0000000  0  8G02G05G23G07G16G09G06G30
 114314732.546 8  89076382.44646  21753364.273          49.400          37.600
                  21753365.344        -462.148        -359.861
 117365543.038 7  91453710.64345  22333932.430          47.300          35.900
                  22333935.879        2857.832        2226.984
 124643955.754 7  97125190.47444  23718959.383          43.900          25.900
                  23718960.586       -2912.848       -2269.611
 110367682.124 8  86000825.45046  21002274.711          49.800          40.400
                  21002277.945        1202.105         936.902
 126993667.498 6  98956167.76243  24166102.688          40.300          19.900
                  24166105.484        -452.230        -352.054
 109637736.978 8  85432077.41947  20863375.961          50.500          43.600
                  20863380.902       -1892.824       -1474.754
 116551618.934 7  90819403.39146  22179024.430          45.900          36.800
                  22179031.566       -2982.469       -2323.841
 114543484.757 7  89254719.95546  21796905.016          47.000          38.800
                  21796910.684        2784.000        2169.465
 18  2 20  8 38 30.0000000  0  8G02G05G23G07G16G09G06G30
 114328874.496 8  89087402.13546  21756055.617          49.200          38.500
                  21756056.641        -480.562        -374.283
 117279927.820 8  91386997.47545  22317640.797          49.300          35.900
                  22317644.207        2849.918        2220.804
 124731391.152 7  97193321.91144  23735597.844          43.100          26.100
                  23735599.293       -2916.164       -2272.363
 110331877.730 8  85972925.93046  20995461.125          50.000          40.100
                  20995464.934        1185.008         923.532
 127007540.423 6  98966977.82443  24168743.602          40.900          19.300
                  24168744.910        -472.637        -368.070
 109694671.500 8  85476441.97447  20874209.977          51.200          43.300
                  20874215.305       -1902.762       -1482.587
 116641270.921 7  90889262.06246  22196084.617          46.800          36.400
                  22196091.090       -2994.199       -2333.056
 114460157.570 8  89189789.70646  21781048.023          49.600          39.200
                  21781054.219        2771.348        2159.585
 18  2 20  8 39  0.0000000  0  8G02G05G23G07G16G09G06G30
 114343570.614 8  89098853.64346  21758852.289          49.800          38.900
                  21758852.785        -499.141        -388.686
 117194550.523 8  91320469.72246  22301393.781          48.500          37.100
                  22301397.637        2841.973        2214.577
 124818931.852 7  97261535.35644  23752256.453          43.300          27.200
                  23752258.449       -2919.809       -2275.091
 110296587.959 8  85945427.42046  20988745.688          48.400          39.800
                  20988749.391        1167.789         910.150
 127022030.376 6  98978268.70543  24171500.164          40.600          19.900
                  24171501.996        -493.215        -384.121
 109751906.564 8  85521040.71647  20885101.641          49.500          43.800
                  20885106.941       -1912.805       -1490.381
 116731275.735 7  90959395.65846  22213211.727          45.900          36.500
                  22213218.980       -3005.977       -2342.188
 114377211.374 8  89125156.33446  21765264.328          48.600          39.100
                  21765270.129        2758.543        2149.646
 18  2 20  8 39 30.0000000  0  8G02G05G23G07G16G09G06G30
 114358820.648 8  89110736.77646  21761754.102          49.700          38.600
                  21761754.973        -517.594        -403.071
 117109411.918 8  91254127.95746  22285192.617          49.300          38.000
                  22285196.355        2833.879        2208.340
 124906577.305 6  97329830.45344  23768934.703          41.800          25.300
                  23768936.336       -2923.285       -2277.817
 110261814.201 8  85918330.99746  20982128.617          48.300          40.100
                  20982132.195        1150.516         896.725
 127037137.674 6  98990040.62643  24174375.297          40.200          19.900
                  24174377.309        -513.898        -400.132
 109809441.142 8  85565872.84547  20896049.922          50.800          43.400
                  20896055.141       -1922.801       -1498.158
 116821630.804 7  91029802.17845  22230405.906          44.700          34.800
                  22230412.438       -3017.730       -2351.283
 114294648.579 8  89060821.70246  21749552.828          49.200          39.200
                  21749558.637        2745.688        2139.646
 18  2 20  8 40  0.0000000  0  8G02G05G23G07G16G09G06G30
 114374624.001 8  89123051.06246  21764761.758          49.900          38.600
                  21764762.309        -535.930        -417.391
 117024515.695 8  91187975.06646  22269037.359          48.700          38.100
                  22269040.875        2825.945        2202.083
 124994326.214 7  97398206.18044  23785632.922          43.700          25.600
                  23785634.352       -2926.461       -2280.437
 110227556.876 8  85891637.00346  20975609.695          50.200          40.500
                  20975613.336        1133.422         883.344
 127052862.045 6  99002293.38543  24177367.328          41.900          21.500
                  24177369.684        -534.152        -416.142
 109867273.731 8  85610937.18947  20907055.203          49.600          43.600
                  20907060.582       -1932.551       -1505.841
 116912333.173 7  91100479.31845  22247665.773          44.100          35.600
                  22247672.770       -3029.066       -2360.199
 114212471.143 8  88996787.36646  21733915.055          50.800          39.500
                  21733921.609        2732.934        2129.655
 18  2 20  8 40 30.0000000  0  8G02G05G23G07G16G09G06G30
 114390980.654 8  89135796.48946  21767874.117          49.200          38.400
                  21767874.727        -554.422        -431.773
 116939863.440 8  91122012.28246  22252928.734          49.900          38.300
                  22252932.227        2817.699        2195.711
 125082177.826 7  97466661.90944  23802350.789          43.200          27.100
                  23802353.090       -2930.148       -2283.121
 110193817.216 8  85865346.36046  20969189.336          50.000          41.100
                  20969192.543        1116.059         869.872
 127069203.037 6  99015026.64343  24180476.305          41.100          20.600
                  24180479.977        -555.105        -432.207
 109925403.433 8  85656233.05047  20918116.617          50.300          43.600
                  20918122.141       -1942.504       -1513.561
 117003380.424 7  91171425.18546  22264991.773          46.000          36.200
                  22264998.488       -3040.555       -2369.151
 114130681.531 8  88933055.23746  21718350.633          50.700          39.100
                  21718357.176        2719.852        2119.537
 18  2 20  8 41  0.0000000  0  8G02G05G23G07G16G09G06G30
 114407889.498 8  89148972.20846  21771091.648          48.400          37.700
                  21771092.449        -572.855        -446.148
 116855456.539 8  91056240.68046  22236866.547          48.300          37.800
                  22236869.613        2809.332        2189.272
 125170131.097 7  97535196.89144  23819087.188          42.600          26.700
                  23819088.938       -2933.547       -2285.799
 110160595.457 8  85839459.28546  20962867.203          50.500          40.900
                  20962870.746        1098.699         856.377
 127086160.111 6  99028239.87343  24183703.719          41.800          20.400
                  24183706.574        -575.570        -448.208
 109983828.695 8  85701759.22947  20929234.680          50.700          43.500
                  20929240.266       -1952.437       -1521.266
 117094769.463 7  91242637.39245  22282382.859          44.300          34.800
                  22282389.055       -3051.984       -2378.013
 114049281.621 8  88869626.74546  21702860.992          48.600          39.400
                  21702866.824        2706.762        2109.349
 18  2 20  8 41 30.0000000  0  8G02G05G23G07G16G09G06G30
 114425350.635 8  89162578.27346  21774414.586          49.200          37.900
                  21774415.387        -591.234        -460.472
 116771297.144 8  90990661.93046  22220851.805          49.900          38.100
                  22220854.703        2801.102        2182.814
 125258185.633 7  97603810.75044  23835843.461          43.400          26.200
                  23835845.766       -2936.703       -2288.421
 110127893.153 8  85813976.98646  20956644.383          50.900          41.100
                  20956647.648        1081.359         842.872
 127103733.289 6  99041933.24243  24187047.422          40.600          19.300
                  24187050.328        -596.113        -464.183
 110042548.732 8  85747515.09047  20940409.016          50.200          43.900
                  20940414.832       -1962.258       -1528.900
 117186498.076 7  91314114.20645  22299838.203          45.800          35.400
                  22299844.879       -3063.246       -2386.802
 113968274.012 8  88806503.96546  21687445.867          49.700          38.900
                  21687451.586        2693.727        2099.145
 18  2 20  8 42  0.0000000  0  8G02G05G23G07G16G09G06G30
 114443363.131 8  89176613.99446  21777842.352          48.600          37.700
                  21777843.105        -609.465        -474.711
 116687387.133 8  90925277.50946  22204883.977          49.300          38.500
                  22204887.137        2792.902        2176.378
 125346339.873 7  97672502.28844  23852619.102          43.900          25.800
                  23852621.391       -2940.129       -2290.906
 110095710.728 8  85788899.77246  20950520.367          51.600          41.600
                  20950523.891        1064.184         829.423
 127121921.704 6  99056106.00643  24190508.688          39.600          20.600
                  24190511.379        -616.441        -480.088
 110101562.037 8  85793499.46947  20951638.492          51.200          43.700
                  20951644.609       -1971.949       -1536.441
 117278563.103 7  91385853.17245  22317357.219          45.500          35.000
                  22317364.020       -3074.336       -2395.449
 113887660.534 8  88743688.30446  21672105.375          50.400          39.200
                  21672111.156        2680.652        2088.948
 18  2 20  8 42 30.0000000  0  8G02G05G23G07G16G09G06G30
 114461926.009 8  89191078.56746  21781374.367          48.800          38.000
                  21781375.469        -627.996        -489.047
 116603729.190 7  90860089.50846  22188964.305          47.400          37.900
                  22188967.930        2784.316        2169.779
 125434593.150 7  97741271.02344  23869412.719          42.200          26.700
                  23869415.035       -2943.484       -2293.508
 110064048.608 8  85764228.00046  20944495.359          50.900          41.600
                  20944498.996        1046.617         815.874
 127140725.374 6  99070758.18843  24194086.273          40.600          19.900
                  24194090.473        -637.145        -496.094
 110160867.184 8  85839711.26047  20962923.906          51.600          44.000
                  20962929.453       -1981.676       -1544.021
 117370961.727 7  91457852.07845  22334940.461          44.900          34.800
                  22334946.234       -3085.602       -2404.112
 113807443.248 7  88681181.35746  21656840.203          47.500          39.000
                  21656847.016        2667.211        2078.577
 18  2 20  8 43  0.0000000  0  8G02G05G23G07G16G09G06G30
 114481038.841 8  89205971.67746  21785011.469          48.300          37.800
                  21785012.426        -646.176        -503.308
 116520324.386 8  90795098.75746  22173092.836          50.300          38.100
                  22173096.387        2776.039        2163.177
 125522944.531 7  97810116.19244  23886225.383          43.300          27.100
                  23886228.148       -2946.406       -2296.021
 110032907.572 8  85739962.27246  20938569.242          51.700          41.800
                  20938573.129        1029.469         802.350
 127160143.423 6  99085889.12943  24197781.906          41.400          20.100
                  24197785.445        -657.430        -512.064
 110220463.002 8  85886149.55747  20974264.813          51.600          43.600
                  20974270.305       -1991.219       -1551.548
 117463691.143 7  91530108.72445  22352586.188          45.100          34.900
                  22352593.125       -3096.363       -2412.664
 113727624.202 8  88618984.74346  21641651.203          51.100          39.200
                  21641656.980        2654.086        2068.246
 18  2 20  8 43 30.0000000  0  8G02G05G23G07G16G09G06G30
 114500700.760 7  89221292.63846  21788753.242          47.600          38.000
                  21788753.785        -664.598        -517.588
 116437174.762 8  90730306.83946  22157270.195          48.100          38.800
                  22157273.516        2767.258        2156.482
 125611393.036 7  97879037.03744  23903057.031          42.600          26.500
                  23903059.145       -2949.891       -2298.586
 110002287.957 8  85716102.84646  20932742.234          50.800          41.000
                  20932746.270        1011.785         788.744
 127180175.285 6  99101498.32643  24201593.656          40.800          19.900
                  24201597.301        -678.133        -528.031
 110280347.942 8  85932813.12947  20985660.734          51.600          43.800
                  20985666.023       -2001.000       -1559.090
 117556748.210 7  91602620.69645  22370294.289          45.300          34.600
                  22370301.023       -3107.414       -2421.189
 113648205.279 7  88557099.87746  21626538.430          47.600          38.900
                  21626544.496        2640.504        2057.751
 18  2 20  8 44  0.0000000  0  8G02G05G23G07G16G09G06G30
 114520911.078 7  89237040.92846  21792598.867          47.900          37.500
                  21792599.660        -682.703        -531.832
 116354282.404 8  90665715.39846  22141496.063          48.600          38.100
                  22141499.676        2758.758        2149.775
 125699937.571 7  97948032.69944  23919906.703          42.500          25.500
                  23919908.758       -2953.047       -2301.053
 109972190.807 8  85692650.52346  20927015.141          51.600          40.900
                  20927018.340         994.691         775.165
 127200820.539 6  99117585.51043  24205522.602          40.200          19.000
                  24205525.496        -698.191        -543.940
 110340521.002 8  85979701.20447  20997111.148          52.300          43.300
                  20997116.906       -2010.477       -1566.567
 117650130.427 7  91675386.02945  22388063.844          43.900          34.200
                  22388070.805       -3118.117       -2429.588
 113569188.699 8  88495528.56946  21611501.820          49.000          38.700
                  21611508.582        2627.219        2047.291
 18  2 20  8 44 30.0000000  0  8G02G05G23G07G16G09G06G30
 114541669.527 8  89253216.32446  21796548.852          48.200          37.400
                  21796550.324        -701.090        -546.060
 116271648.478 8  90601325.33046  22125771.289          48.100          38.400
                  22125775.602        2750.133        2143.069
 125788577.351 7  98017102.60644  23936774.086          43.000          24.400
                  23936776.031       -2956.234       -2303.554
 109942617.150 8  85669606.12246  20921387.531          50.500          41.300
                  20921390.340         977.133         761.567
 127222079.222 6  99134150.73243  24209567.609          40.300          19.900
                  24209570.855        -718.910        -559.860
 110400981.169 8  86026813.01647  21008616.125          51.000          43.400
                  21008622.258       -2020.098       -1573.980
 117743835.216 7  91748402.71545  22405895.445          42.400          34.400
                  22405902.840       -3128.730       -2437.916
 113490576.924 7  88434272.68346  21596542.422          47.900          38.800
                  21596548.609        2613.578        2036.749
 18  2 20  8 45  0.0000000  0  8G02G05G23G07G16G09G06G30
 114562975.053 7  89269818.02446  21800602.961          46.400          37.100
                  21800604.484        -719.215        -560.254
 116189276.212 8  90537139.16646  22110096.375          49.500          38.200
                  22110099.465        2741.531        2136.243
 125877311.399 6  98086245.95744  23953659.797          41.800          26.200
                  23953661.484       -2959.238       -2305.942
 109913566.622 8  85646969.35246  20915859.102          50.200          41.000
                  20915862.340         959.789         747.979
 127243949.907 6  99151192.81843  24213729.492          39.700          20.600
                  24213733.375        -739.129        -575.750
 110461726.785 8  86074147.24547  21020175.508          51.900          43.400
                  21020181.145       -2029.441       -1581.370
 117837859.359 7  91821668.26645  22423787.805          43.400          34.100
                  22423794.664       -3139.391       -2446.171
 113412371.421 8  88373333.35146  21581660.492          51.100          39.500
                  21581667.000        2600.176        2026.193
 18  2 20  8 45 30.0000000  0  8G02G05G23G07G16G09G06G30
 114584826.648 7  89286845.23246  21804761.023          47.700          36.500
                  21804762.609        -737.340        -574.450
 116107167.684 8  90473158.49346  22094471.648          49.600          37.800
                  22094475.391        2732.629        2129.348
 125966138.965 6  98155462.17144  23970562.781          41.300          24.600
                  23970565.563       -2962.395       -2308.391
 109885040.054 8  85624740.86746  20910431.016          49.900          40.800
                  20910434.547         942.332         734.332
 127266431.912 6  99168711.22743  24218008.508          40.400          20.100
                  24218011.777        -759.340        -591.626
 110522756.631 8  86121702.95547  21031789.055          51.400          43.200
                  21031794.840       -2038.883       -1588.766
 117932199.999 7  91895180.43845  22441740.188          42.700          34.900
                  22441747.250       -3149.801       -2454.372
 113334574.365 8  88312712.28746  21566855.859          50.500          40.900
                  21566862.535        2586.547        2015.528
 18  2 20  8 46  0.0000000  0  8G02G05G23G07G16G09G06G30
 114607223.897 7  89304297.61946  21809023.633          47.200          36.600
                  21809024.633        -755.648        -588.592
 116025324.138 8  90409384.31846  22078897.336          48.400          37.200
                  22078901.199        2723.648        2122.463
 126055059.367 7  98224750.70644  23987484.008          42.200          25.500
                  23987486.031       -2965.582       -2310.766
 109857038.336 8  85602921.35646  20905101.969          50.400          40.500
                  20905106.086         924.664         720.733
 127289525.127 6  99186705.97143  24222402.227          39.400          19.000
                  24222406.730        -779.801        -607.450
 110584069.696 8  86169479.34947  21043456.672          51.900          43.700
                  21043462.285       -2048.508       -1596.084
 118026854.596 7  91968937.23445  22459752.375          42.500          33.200
                  22459759.367       -3160.379       -2462.469
 113257187.950 8  88252411.20146  21552130.211          49.600          40.300
                  21552135.965        2572.691        2004.893
 18  2 20  8 46 30.0000000  0  8G02G05G23G07G16G09G06G30
 114630165.786 7  89322174.39046  21813389.219          47.400          36.900
                  21813390.004        -773.719        -602.703
 115943747.439 8  90345818.06646  22063374.063          48.600          37.300
                  22063377.285        2714.840        2115.536
 126144071.247 7  98294110.58044  24004422.133          43.900          27.000
                  24004424.426       -2968.402       -2313.104
 109829561.807 8  85581511.07546  20899873.625          49.800          41.300
                  20899877.348         907.191         707.107
 127313228.643 6  99205176.22243  24226913.797          40.700          20.100
                  24226917.023        -800.203        -623.317
 110645664.485 8  86217475.26747  21055178.172          51.100          43.000
                  21055183.871       -2057.777       -1603.377
 118121820.015 7  92042936.23845  22477823.680          42.700          34.000
                  22477830.828       -3170.496       -2470.470
 113180214.086 8  88192431.57046  21537482.688          49.900          40.800
                  21537489.316        2558.969        1994.150
 18  2 20  8 47  0.0000000  0  8G02G05G23G07G16G09G06G30
 114653651.772 8  89340475.13146  21817858.750          49.000          37.300
                  21817859.680        -791.902        -616.804
 115862439.493 8  90282461.23446  22047901.547          48.900          37.500
                  22047905.152        2705.828        2108.542
 126233173.884 7  98363541.12744  24021378.242          42.500          27.600
                  24021380.418       -2971.625       -2315.458
 109802611.103 8  85560510.53746  20894744.727          49.100          40.600
                  20894748.527         889.555         693.446
 127337541.967 6  99224121.68443  24231539.992          41.100          19.900
                  24231543.258        -820.570        -639.094
 110707540.036 8  86265689.96847  21066952.547          51.900          43.100
                  21066957.980       -2067.184       -1610.637
 118217093.776 7  92117175.51445  22495953.773          43.100          34.600
                  22495961.488       -3180.871       -2478.450
 113103654.946 8  88132775.14146  21522913.945          49.800          40.600
                  21522920.598        2545.133        1983.381
 18  2 20  8 47 30.0000000  0  8G02G05G23G07G16G09G06G30
 114677681.022 8  89359199.20846  21822431.172          48.500          37.700
                  21822432.270        -810.012        -630.920
 115781402.299 8  90219315.37046  22032480.430          49.100          37.100
                  22032483.949        2696.781        2101.447
 126322366.465 7  98433041.77344  24038351.469          42.100          25.700
                  24038353.559       -2974.582       -2317.791
 109776186.659 8  85539920.07046  20889716.961          49.800          41.100
                  20889719.895         872.207         679.764
 127362464.082 6  99243541.52943  24236282.688          40.400          18.600
                  24236285.961        -840.793        -654.936
 110769694.985 8  86314122.36647  21078780.297          51.600          43.100
                  21078786.008       -2076.445       -1617.883
 118312672.784 7  92191652.62545  22514142.063          43.900          33.800
                  22514148.930       -3190.984       -2486.367
 113027512.481 8  88073443.33846  21508424.414          51.800          40.500
                  21508430.125        2531.242        1972.519
 18  2 20  8 48  0.0000000  0  8G02G05G23G07G16G09G06G30
 114702252.692 8  89378345.95646  21827107.117          48.500          37.700
                  21827108.012        -827.980        -645.012
 115700639.105 8  90156383.01046  22017111.828          49.300          37.200
                  22017115.504        2687.559        2094.296
 126411648.106 7  98502611.77144  24055341.016          44.400          24.800
                  24055343.305       -2977.492       -2320.123
 109750289.210 8  85519740.24246  20884788.430          48.900          41.200
                  20884791.965         854.520         666.050
 127387994.757 6  99263435.55943  24241140.727          39.900          18.300
                  24241143.820        -861.008        -670.750
 110832128.044 8  86362771.48747  21090661.023          50.100          42.700
                  21090666.621       -2085.703       -1625.108
 118408554.204 7  92266365.41345  22532387.711          43.400          33.700
                  22532395.227       -3200.898       -2494.206
 112951788.553 8  88014437.70146  21494015.086          50.000          41.100
                  21494021.359        2517.191        1961.574
 18  2 20  8 48 30.0000000  0  8G02G05G23G07G16G09G06G30
 114727365.833 8  89397914.62946  21831885.875          48.300          37.900
                  21831886.785        -846.227        -659.106
 115620150.738 8  90093664.80946  22001795.563          49.200          37.500
                  22001798.813        2678.219        2087.116
 126501017.911 7  98572250.54044  24072347.680          43.100          26.200
                  24072349.918       -2980.508       -2322.402
 109724918.792 8  85499971.08846  20879961.086          49.400          41.100
                  20879963.922         836.742         652.328
 127414132.990 6  99283802.97842  24246113.766          38.300          17.400
                  24246117.680        -881.352        -686.563
 110894837.829 8  86411636.23847  21102594.336          50.200          42.600
                  21102600.266       -2095.039       -1632.324
 118504735.041 7  92341311.47045  22550690.234          43.900          34.200
                  22550697.410       -3211.129       -2501.971
 112876485.039 8  87955759.67546  21479684.719          51.900          41.400
                  21479690.918        2502.988        1950.613
 18  2 20  8 49  0.0000000  0  8G02G05G23G07G16G09G06G30
 114753019.424 8  89417904.44146  21836767.602          48.000          37.500
                  21836768.848        -863.953        -673.044
 115539939.729 8  90031162.72246  21986531.898          49.500          37.600
                  21986535.465        2669.258        2079.971
 126590474.786 7  98641957.12444  24089370.633          43.200          25.300
                  24089372.547       -2983.184       -2324.579
 109700076.473 8  85480613.44946  20875233.766          49.100          41.200
                  20875236.973         819.406         638.688
 127440877.808 6  99304643.17842  24251203.633          39.200          17.400
                  24251206.703        -901.395        -702.237
 110957823.461 8  86460715.93047  21114579.852          49.800          42.400
                  21114585.301       -2103.934       -1639.380
 118601212.701 7  92416488.86545  22569049.383          43.800          34.100
                  22569056.492       -3220.691       -2509.548
 112801604.289 8  87897411.02746  21465435.563          51.100          40.900
                  21465441.195        2489.102        1939.707
 18  2 20  8 49 30.0000000  0  8G02G05G23G07G16G09G06G30
 114779212.613 8  89438314.70746  21841752.313          48.500          38.100
                  21841753.168        -881.852        -687.094
 115460007.410 8  89968877.80446  21971320.672          49.000          37.200
                  21971324.672        2659.855        2072.660
 126680018.122 7  98711731.06744  24106409.898          43.600          25.600
                  24106413.168       -2986.074       -2326.869
 109675762.194 8  85461667.26746  20870606.719          49.800          41.300
                  20870610.012         801.836         624.916
 127468228.694 6  99325955.51142  24256408.719          37.700          17.400
                  24256411.680        -921.590        -717.975
 111021083.601 8  86510009.53347  21126617.906          50.800          42.300
                  21126623.266       -2113.125       -1646.549
 118697984.372 7  92491895.29645  22587464.695          43.600          34.900
                  22587472.035       -3230.508       -2517.226
 112727148.119 8  87839393.24446  21451266.797          51.400          41.200
                  21451272.980        2474.895        1928.588
 18  2 20  8 50  0.0000000  0  8G02G05G23G07G16G09G06G30
 114805944.198 8  89459144.49646  21846839.109          48.600          37.900
                  21846839.930        -900.016        -701.077
 115380356.045 8  89906811.80746  21956163.977          48.600          37.400
                  21956167.527        2650.391        2065.313
 126769647.210 7  98781571.84944  24123465.836          42.400          25.600
                  24123468.488       -2989.020       -2329.108
 109651976.546 8  85443133.01146  20866080.320          50.500          41.300
                  20866083.582         784.105         611.163
 127496184.629 6  99347739.34143  24261728.914          38.400          19.300
                  24261731.750        -941.777        -733.748
 111084616.924 8  86559516.01247  21138708.047          51.600          42.100
                  21138713.430       -2122.340       -1653.649
 118795046.936 7  92567528.44845  22605934.453          43.900          33.400
                  22605942.477       -3240.227       -2524.734
 112653118.367 8  87781707.74146  21437179.727          50.900          40.600
                  21437186.004        2460.512        1917.487
 18  2 20  8 50 30.0000000  0  8G02G05G23G07G16G09G06G30
 114833213.421 8  89480393.23246  21852028.266          48.100          37.900
                  21852029.164        -917.852        -715.008
 115300987.158 8  89844965.92946  21941060.836          49.200          36.900
                  21941064.188        2640.953        2057.986
 126859360.808 7  98851478.46444  24140538.156          43.000          25.300
                  24140540.469       -2991.805       -2331.247
 109628719.798 8  85425010.87046  20861654.805          49.800          41.400
                  20861658.121         766.426         597.448
 127524744.308 6  99369993.58843  24267164.086          41.400          20.900
                  24267166.977        -961.957        -749.351
 111148422.076 8  86609234.28946  21150850.000          49.800          41.700
                  21150855.152       -2131.277       -1660.651
 118892397.505 7  92643385.99345  22624459.883          44.900          34.500
                  22624467.797       -3249.766       -2532.149
 112579516.841 8  87724355.90646  21423173.500          51.100          40.300
                  21423178.676        2446.258        1906.344
 18  2 20  8 51  0.0000000  0  8G02G05G23G07G16G09G06G30
 114861019.170 7  89502060.02946  21857319.375          47.200          38.100
                  21857320.113        -935.617        -728.930
 115221903.928 8  89783342.63246  21926011.359          49.800          37.300
                  21926014.922        2631.434        2050.523
 126949158.212 7  98921450.39244  24157626.125          43.800          26.200
                  24157628.426       -2994.602       -2333.446
 109605992.155 8  85407301.03446  20857329.820          49.000          41.800
                  20857333.152         748.867         583.674
 127553907.311 7  99392717.99843  24272713.398          42.400          20.100
                  24272716.457        -982.168        -765.036
 111212497.844 8  86659163.44446  21163043.023          49.800          41.800
                  21163048.270       -2140.246       -1667.674
 118990033.131 7  92719465.66245  22643039.320          43.700          34.000
                  22643046.891       -3259.059       -2539.531
 112506345.487 8  87667339.25546  21409249.711          50.300          39.900
                  21409255.930        2431.945        1895.162
 18  2 20  8 51 30.0000000  0  8G02G05G23G07G16G09G06G30
 114889360.464 8  89524144.12746  21862712.336          48.200          37.800
                  21862713.816        -953.551        -742.824
 115143107.990 8  89721943.20646  21911017.359          50.200          37.500
                  21911020.703        2621.727        2043.057
 127039038.483 7  98991486.90043  24174729.352          43.700          23.800
                  24174731.434       -2997.301       -2335.582
 109583794.356 8  85390004.05547  20853106.039          50.100          42.000
                  20853109.020         731.105         569.920
 127583672.553 6  99415911.65343  24278377.406          41.700          20.100
                  24278380.410       -1002.160        -780.665
 111276843.162 8  86709302.63746  21175287.430          50.500          41.600
                  21175292.676       -2149.266       -1674.670
 119087951.139 7  92795765.37945  22661673.148          44.300          33.200
                  22661679.563       -3268.715       -2546.850
 112433606.395 8  87610659.47346  21395407.617          50.500          39.700
                  21395413.949        2417.547        1883.906
 18  2 20  8 52  0.0000000  0  8G02G05G23G07G16G09G06G30
 114918236.576 7  89546644.98546  21868207.797          47.400          37.400
                  21868208.422        -971.316        -756.769
 115064600.912 8  89660768.85946  21896077.750          50.200          37.600
                  21896080.902        2612.250        2035.493
 127129000.996 7  99061587.49344  24191848.859          44.900          25.600
                  24191852.059       -2999.996       -2337.722
 109562126.615 8  85373120.12146  20848982.836          50.200          41.600
                  20848985.961         713.520         556.120
 127614039.569 6  99439574.22742  24284155.313          39.200          16.900
                  24284159.402       -1022.191        -796.322
 111341456.747 8  86759650.86946  21187583.367          51.900          41.600
                  21187587.848       -2158.148       -1681.638
 119186148.570 7  92872282.83745  22680359.008          44.800          34.200
                  22680366.309       -3277.801       -2554.086
 112361301.405 8  87554317.93146  21381648.570          50.500          39.900
                  21381654.227        2402.984        1872.572
 18  2 20  8 52 30.0000000  0  8G02G05G23G07G16G09G06G30
 114947646.584 7  89569561.84246  21873804.375          47.600          37.700
                  21873805.344        -989.102        -770.574
 114986385.258 8  89599821.60046  21881194.016          49.000          37.300
                  21881197.473        2602.352        2027.891
 127219045.105 7  99131751.68744  24208983.695          44.600          24.200
                  24208985.527       -3002.754       -2339.821
 109540989.531 8  85356649.67546  20844960.438          49.600          41.400
                  20844963.305         695.715         542.349
 127645006.488 6  99463704.30542  24290048.320          38.400          16.300
                  24290051.031       -1042.293        -811.871
 111406337.520 8  86810207.28946  21199930.000          51.600          41.100
                  21199935.051       -2167.109       -1688.555
 119284622.653 7  92949015.82745  22699098.164          43.400          33.800
                  22699105.602       -3287.035       -2561.208
 112289432.444 8  87498316.13446  21367972.258          50.500          39.900
                  21367978.270        2388.387        1861.236
 18  2 20  8 53  0.0000000  0  8G02G05G23G07G16G09G06G30
 114977588.910 7  89592893.49146  21879501.688          47.700          37.400
                  21879503.070       -1007.094        -784.403
 114908462.285 8  89539102.39346  21866365.828          49.400          37.400
                  21866369.008        2592.496        2020.282
 127309169.415 7  99201978.35844  24226134.492          43.400          25.700
                  24226137.172       -3005.461       -2341.915
 109520383.097 8  85340592.71647  20841038.641          49.300          42.100
                  20841041.871         678.074         528.565
 127676573.089 5  99488301.66942  24296055.453          34.600          16.900
                  24296057.922       -1062.270        -827.463
 111471484.164 8  86860970.89746  21212326.773          52.200          41.500
                  21212331.504       -2176.051       -1695.454
 119383370.408 7  93025962.12245  22717889.000          44.000          32.500
                  22717895.988       -3296.113       -2568.282
 112218001.394 8  87442655.60546  21354379.383          50.600          40.800
                  21354385.422        2373.715        1849.836
 18  2 20  8 53 30.0000000  0  8G02G05G23G07G16G09G06G30
 115008062.749 7  89616639.34446  21885301.117          47.600          37.900
                  21885302.055       -1024.676        -798.206
 114830834.427 7  89478613.15046  21851593.703          47.900          37.400
                  21851596.863        2582.652        2012.571
 127399373.363 7  99272267.11244  24243299.484          43.600          25.100
                  24243301.555       -3008.191       -2343.967
 109500307.702 8  85324949.56646  20837218.883          49.000          41.500
                  20837221.836         660.238         514.750
 127708738.414 6  99513365.52143  24302177.094          39.200          18.600
                  24302179.566       -1082.293        -842.990
 111536895.466 8  86911940.72447  21224773.977          51.300          42.000
                  21224779.152       -2184.910       -1702.325
 119482389.000 7  93103119.42045  22736732.094          43.400          32.800
                  22736739.555       -3305.258       -2575.323
 112147010.131 8  87387337.76146  21340870.469          51.700          40.300
                  21340876.156        2358.914        1838.368
 18  2 20  8 54  0.0000000  0  8G02G05G23G07G16G09G06G30
 115039066.584 7  89640798.18846  21891200.836          46.500          37.700
                  21891201.777       -1042.223        -811.952
 114753503.651 8  89418355.39946  21836878.047          49.300          37.600
                  21836881.055        2572.754        2004.819
 127489655.952 7  99342617.10243  24260479.484          43.600          22.500
                  24260482.711       -3010.707       -2345.983
 109480763.270 8  85309720.14146  20833499.500          49.800          41.100
                  20833502.762         642.637         500.972
 127741501.046 6  99538894.81643  24308410.914          39.400          20.100
                  24308414.484       -1102.066        -858.463
 111602569.928 8  86963115.62347  21237271.625          50.500          42.600
                  21237277.297       -2193.496       -1709.137
 119581675.101 7  93180485.17745  22755625.594          43.400          32.100
                  22755632.438       -3313.906       -2582.186
 112076460.126 8  87332363.73446  21327445.070          51.200          41.900
                  21327451.023        2344.305        1826.892
 18  2 20  8 54 30.0000000  0  8G02G05G23G07G16G09G06G30
 115070599.696 7  89665369.46646  21897200.883          46.700          37.600
                  21897202.586       -1059.934        -825.686
 114676471.743 8  89358330.52946  21822219.594          49.300          37.500
                  21822222.543        2562.664        1997.044
 127580016.399 7  99413027.81843  24277674.227          42.000          23.900
                  24277677.590       -3013.270       -2347.992
 109461750.238 8  85294904.80246  20829881.586          50.000          41.600
                  20829884.922         624.871         487.150
 127774859.410 6  99564888.29543  24314758.500          38.000          20.600
                  24314762.945       -1121.730        -873.945
 111668506.517 8  87014494.77047  21249818.688          50.900          42.000
                  21249823.926       -2202.301       -1715.927
 119681226.202 7  93258057.44645  22774570.273          43.200          32.400
                  22774575.824       -3322.754       -2589.060
 112006353.424 8  87277735.15847  21314104.242          51.500          42.100
                  21314110.305        2329.523        1815.365
 18  2 20  8 55  0.0000000  0  8G02G05G23G07G16G09G06G30
 115102660.743 7  89690352.10146  21903302.141          47.500          37.300
                  21903303.703       -1077.504        -839.351
 114599741.220 8  89298540.51246  21807618.141          50.100          38.000
                  21807621.078        2552.629        1989.223
 127670453.764 7  99483498.46544  24294884.414          43.000          24.700
                  24294886.918       -3015.859       -2349.958
 109443268.960 8  85280503.80646  20826364.492          50.200          41.100
                  20826367.949         607.148         473.367
 127808813.321 6  99591345.85642  24321219.328          37.500          17.400
                  24321223.871       -1141.793        -889.397
 111734704.122 8  87066077.31247  21262415.953          51.300          42.300
                  21262421.359       -2210.898       -1722.683
 119781039.248 7  93335833.81345  22793562.953          42.800          33.000
                  22793570.527       -3331.402       -2595.785
 111936691.924 8  87223453.49947  21300848.039          51.800          42.200
                  21300853.922        2314.590        1803.795
 18  2 20  8 55 30.0000000  0  8G02G05G23G07G16G09G06G30
 115135248.423 7  89715745.07046  21909503.289          45.800          37.300
                  21909504.945       -1095.012        -853.033
 114523313.314 8  89238986.29946  21793074.289          50.100          37.800
                  21793077.414        2542.629        1981.330
 127760967.514 7  99554028.62043  24312108.578          43.000          22.300
                  24312110.262       -3018.309       -2351.966
 109425319.550 8  85266517.26746  20822948.820          50.800          41.600
                  20822952.570         589.461         459.526
 127843360.933 5  99618265.99642  24327794.000          34.300          16.900
                  24327797.625       -1161.270        -904.738
 111801161.318 8  87117862.12447  21275062.109          50.700          42.400
                  21275067.324       -2219.543       -1729.416
 119881111.376 6  93413812.07044  22812606.469          41.800          29.900
                  22812612.352       -3340.004       -2602.523
 111867477.266 8  87169520.01646  21287676.930          52.500          41.900
                  21287683.117        2299.672        1792.160
 18  2 20  8 56  0.0000000  0  8G02G05G23G07G16G09G06G30
 115168361.576 7  89741547.50646  21915804.305          46.800          37.300
                  21915805.871       -1112.570        -866.669
 114447190.873 8  89179670.10246  21778588.930          48.700          38.600
                  21778592.348        2532.238        1973.361
 127851556.871 7  99624617.66944  24329347.219          42.900          25.600
                  24329350.191       -3021.059       -2353.919
 109407902.801 8  85252945.78346  20819634.523          49.500          41.600
                  20819637.734         571.563         445.703
 127878501.779 6  99645648.46442  24334482.102          37.300          17.400
                  24334483.348       -1181.297        -920.171
 111867877.301 8  87169848.59247  21287757.844          51.900          42.600
                  21287763.207       -2228.266       -1736.116
 119981439.822 7  93491990.07945  22831698.000          43.200          32.100
                  22831705.938       -3348.586       -2609.124
 111798711.564 8  87115936.36646  21274591.367          51.700          41.500
                  21274597.516        2284.551        1780.459
 18  2 20  8 56 30.0000000  0  8G02G05G23G07G16G09G06G30
 115201998.923 7  89767758.37846  21922205.844          47.000          37.700
                  21922207.008       -1130.062        -880.281
 114371375.552 8  89120593.23546  21764161.656          50.400          38.700
                  21764164.766        2521.918        1965.331
 127942220.747 6  99695264.85143  24346599.156          41.200          22.300
                  24346602.070       -3023.402       -2355.844
 109391017.936 8  85239788.75646  20816421.328          51.400          41.500
                  20816424.867         553.926         431.867
 127914234.410 6  99673492.09843  24341281.570          39.600          19.300
                  24341283.387       -1200.801        -935.546
 111934850.471 8  87222035.47747  21300502.008          51.300          42.000
                  21300507.824       -2236.777       -1742.794
 120082021.546 6  93570365.36644  22850838.156          41.200          29.800
                  22850845.102       -3356.887       -2615.678
 111730396.263 8  87062703.67947  21261591.570          51.000          42.000
                  21261597.438        2269.625        1768.739
 18  2 20  8 57  0.0000000  0  8G02G05G23G07G16G09G06G30
 115236159.834 7  89794377.23446  21928706.727          45.900          37.300
                  21928707.469       -1147.402        -893.862
 114295869.406 8  89061757.27346  21749793.281          50.800          38.400
                  21749796.629        2511.738        1957.299
 128032958.269 7  99765969.33643  24363866.367          42.200          22.000
                  24363869.973       -3025.773       -2357.729
 109374665.605 8  85227046.69446  20813309.891          51.300          41.600
                  20813313.023         536.234         418.047
 127950557.551 6  99701795.82043  24348193.828          40.600          21.100
                  24348197.078       -1220.516        -950.832
 112002079.824 8  87274421.97347  21313296.031          50.200          42.100
                  21313300.809       -2245.223       -1749.429
 120182853.468 7  93648935.72545  22870025.359          42.900          31.200
                  22870033.203       -3365.172       -2622.140
 111662533.234 8  87009823.44846  21248677.023          51.000          41.700
                  21248682.980        2254.617        1756.984
 18  2 20  8 57 30.0000000  0  8G02G05G23G07G16G09G06G30
 115270842.441 7  89821402.60546  21935306.500          45.800          36.600
                  21935307.340       -1164.848        -907.406
 114220674.771 8  89003164.05446  21735484.148          50.800          39.100
                  21735487.320        2501.172        1949.159
 128123768.765 6  99836730.79444  24381146.984          41.900          24.200
                  24381150.500       -3028.285       -2359.594
 109358845.851 8  85214719.62746  20810299.523          50.800          41.000
                  20810303.000         518.441         404.197
 127987469.743 6  99730558.50843  24355216.563          39.400          19.300
                  24355221.531       -1240.367        -966.166
 112069564.006 8  87327007.03947  21326137.680          50.700          43.000
                  21326142.684       -2253.840       -1756.044
 120283932.820 7  93727698.73045  22889261.781          42.600          31.600
                  22889268.789       -3373.430       -2628.528
 111595124.222 8  86957296.93746  21235849.070          52.300          41.000
                  21235855.516        2239.305        1745.153
 18  2 20  8 58  0.0000000  0  8G02G05G23G07G16G09G06G30
 115306045.584 7  89848833.60546  21942005.133          46.200          37.500
                  21942006.254       -1182.008        -920.861
 114145793.342 8  88944814.88546  21721234.828          52.100          38.500
                  21721237.828        2490.906        1941.062
 128214651.706 6  99907548.60443  24398442.172          41.600          21.800
                  24398444.613       -3030.406       -2361.467
 109343558.782 8  85202807.63346  20807390.344          51.100          41.800
                  20807393.797         500.734         390.418
 128024970.147 5  99759779.50742  24362351.805          35.700          17.800
                  24362358.277       -1259.637        -981.372
 112137302.004 8  87379789.88447  21339027.445          51.200          42.600
                  21339033.215       -2262.051       -1762.573
 120385256.626 7  93806652.39144  22908541.484          42.100          28.800
                  22908548.215       -3381.453       -2634.787
 111528171.089 8  86905125.63446  21223108.836          51.700          41.000
                  21223115.176        2224.219        1733.342
 18  2 20  8 58 30.0000000  0  8G02G05G23G07G16G09G06G30
 115341768.093 7  89876669.29146  21948803.320          47.800          36.900
                  21948804.383       -1199.293        -934.355
 114071227.567 8  88886711.69046  21707045.242          51.900          39.700
                  21707048.746        2480.336        1932.808
 128305606.031 7  99978422.06843  24415749.844          42.400          22.600
                  24415752.477       -3032.836       -2363.348
 109328804.574 8  85191310.86446  20804582.781          51.200          41.100
                  20804586.078         482.938         376.516
 128063057.675 6  99789458.03942  24369601.836          37.900          17.800
                  24369606.035       -1279.699        -996.702
 112205292.646 8  87432769.59247  21351965.805          51.500          42.100
                  21351971.051       -2270.559       -1769.154
 120486822.215 7  93885794.32645  22927870.016          42.600          32.900
                  22927877.910       -3389.426       -2641.075
 111461675.461 8  86853310.89246  21210455.469          48.300          40.600
                  21210461.777        2208.891        1721.397
 18  2 20  8 59  0.0000000  0  8G02G05G23G07G16G09G06G30
 115378008.561 7  89904908.60346  21955699.547          46.500          37.500
                  21955700.656       -1216.668        -947.777
 113996978.977 8  88828855.63946  21692916.336          51.300          39.300
                  21692919.461        2469.641        1924.566
 128396630.801 6 100049350.50443  24433071.594          41.700          23.000
                  24433074.070       -3035.340       -2365.122
 109314583.207 8  85180229.27846  20801876.484          51.500          41.600
                  20801880.309         465.090         362.717
 128101730.199 6  99819592.41743  24376961.938          38.100          19.300
                  24376964.145       -1298.922       -1011.787
 112273534.497 8  87485945.04047  21364952.102          51.800          42.600
                  21364957.496       -2278.906       -1775.636
 120588626.244 7  93965122.10944  22947241.594          42.400          27.800
                  22947248.980       -3397.430       -2647.217
 111395638.943 8  86801853.89646  21197888.477          49.900          40.600
                  21197894.504        2193.531        1709.469
 18  2 20  8 59 30.0000000  0  8G02G05G23G07G16G09G06G30
 115414765.493 7  89933550.36546  21962694.406          47.200          36.700
                  21962695.297       -1233.789        -961.214
 113923049.428 8  88771248.20446  21678847.852          51.200          39.100
                  21678851.246        2458.969        1916.192
 128487725.113 7 100120332.99843  24450406.500          42.700          23.600
                  24450409.492       -3037.629       -2366.990
 109300894.663 8  85169562.89846  20799271.758          51.400          41.700
                  20799275.129         447.344         348.817
 128140986.899 6  99850182.12343  24384431.188          40.000          18.300
                  24384433.488       -1318.258       -1027.001
 112342026.367 8  87539315.31947  21377985.203          50.900          43.000
                  21377991.309       -2287.242       -1782.165
 120690665.908 7  94044633.53545  22966660.164          44.200          30.900
                  22966666.836       -3405.152       -2653.350
 111330063.203 8  86750755.91346  21185410.125          51.000          40.500
                  21185415.918        2178.164        1697.440
                            4  1
RINEX FILE SPLICE; other post-header comments skipped       COMMENT
 18  2 20  9  0  0.0000000  0  9G02G05G23G07G16G09G06G30G13
 115452037.917 7  89962593.78746  21969786.633          46.600          36.500
                  21969788.277       -1250.930
 113849441.550 8  88713891.42446  21664840.930          51.300          39.900
                  21664844.090        2448.289
 128578888.701 7 100191369.60143  24467753.469          43.000          22.500
                  24467756.168       -3039.801
 109287739.518 8  85159312.14646  20796767.867          52.200          41.300
                  20796771.445         429.598
 128180826.848 6  99881226.32243  24392011.531          39.000          19.000
                  24392014.172       -1337.656
 112410767.465 8  87592879.80547  21391066.477          50.700          42.700
                  21391072.336       -2295.500
 120792938.594 6  94124326.44745  22986121.953          41.100          30.000
                  22986129.426       -3412.906
 111264950.312 8  86700018.60546  21173019.586          52.400          41.100
                  21173025.977        2162.750
 129727147.885 6 101086136.72942  24686266.242          37.100          17.400
                  24686269.348        3359.570
 18  2 20  9  0 30.0000000  0  9G02G05G23G07G16G09G06G30G13
 115489824.253 7  89992037.64446  21976977.398          47.200          36.900
                  21976978.461       -1268.062        -987.851
 113776156.932 8  88656786.53046  21650895.172          51.500          39.900
                  21650898.297        2437.344        1899.460
 128670120.555 7 100262459.28343  24485114.984          42.100          22.200
                  24485117.574       -3042.227       -2370.479
 109275117.480 8  85149476.78847  20794366.539          50.800          42.000
                  20794369.840         411.777         321.195
 128221248.965 5  99912723.94642  24399702.078          32.900          17.800
                  24399707.926       -1357.160       -1057.123
 112479756.439 8  87646637.43947  21404194.484          50.900          42.200
                  21404200.430       -2303.840       -1794.984
 120895441.179 7  94204198.61644  23005627.414          44.100          29.900
                  23005633.652       -3420.625       -2665.232
 111200301.766 8  86649643.12046  21160717.453          52.300          40.900
                  21160723.172        2147.191        1673.379
 129626405.483 6 101007636.11942  24667095.320          36.700          16.900
                  24667098.613        3356.531        2615.655
 18  2 20  9  1  0.0000000  0  9G02G05G23G07G16G09G06G30G13
 115528123.342 7  90021881.07546  21984265.172          46.700          36.200
                  21984266.641       -1285.207       -1001.210
 113703198.197 8  88599935.57446  21637011.813          50.900          40.300
                  21637015.156        2426.523        1890.923
 128761419.924 6 100333601.63543  24502488.328          41.100          22.300
                  24502490.750       -3044.477       -2372.258
 109263028.523 8  85140056.83246  20792065.836          51.100          41.600
                  20792069.281         394.082         307.294
 128262250.924 6  99944673.42343  24407508.133          36.900          18.600
                  24407510.645       -1376.590       -1072.268
 112548992.177 8  87700587.36247  21417369.383          51.100          42.600
                  21417375.637       -2312.098       -1801.434
 120998170.835 7  94284247.65045  23025175.656          42.000          30.500
                  23025183.305       -3428.016       -2671.128
 111136119.233 8  86599630.75846  21148504.609          51.300          41.100
                  21148509.320        2131.566        1661.206
 129525749.676 6 100929203.02942  24647941.000          36.900          16.900
                  24647944.902        3353.508        2613.300
 18  2 20  9  1 30.0000000  0  9G02G05G23G07G16G09G06G30G13
 115566933.293 7  90052122.59346  21991650.719          47.600          36.700
                  21991652.105       -1302.152       -1014.477
 113630567.122 8  88543339.94146  21623190.250          50.700          40.200
                  21623193.711        2415.621        1882.381
 128852786.073 6 100404796.03943  24519874.500          41.600          21.700
                  24519877.469       -3046.672       -2374.022
 109251472.438 8  85131052.09246  20789866.805          51.000          41.400
                  20789870.074         376.441         293.470
 128303831.428 6  99977073.80343  24415420.305          39.600          21.800
                  24415423.156       -1395.527       -1087.293
 112618473.333 8  87754728.49647  21430591.688          50.600          42.000
                  21430597.645       -2320.031       -1807.770
 121101124.466 7  94364471.24444  23044767.289          42.600          28.100
                  23044773.711       -3435.469       -2676.904
 111072404.200 8  86549982.70846  21136379.828          51.300          41.100
                  21136385.496        2116.094        1649.044
 129425182.319 6 100850838.89143  24628804.766          38.300          19.300
                  24628808.008        3350.605        2611.019
 18  2 20  9  2  0.0000000  0  9G02G05G23G07G16G09G06G30G13
 115606252.724 7  90082761.13546  21999132.844          46.600          37.100
                  21999134.180       -1319.129       -1027.677
 113558264.956 8  88487000.60246  21609431.641          50.300          40.900
                  21609434.828        2404.516        1873.806
 128944217.775 7 100476041.40643  24537273.977          42.600          22.500
                  24537277.414       -3048.922       -2375.697
 109240449.267 8  85122462.60946  20787769.039          50.500          41.300
                  20787772.113         358.484         279.606
 128345989.100 6 100009923.96443  24423442.844          39.800          19.900
                  24423444.590       -1414.910       -1102.251
 112688198.477 8  87809059.77747  21443859.633          51.000          42.100
                  21443865.234       -2328.258       -1814.119
 121204298.900 7  94444866.85744  23064400.531          42.900          29.900
                  23064408.484       -3442.824       -2682.611
 111009158.103 8  86500700.05846  21124344.367          51.500          41.400
                  21124349.648        2100.348        1636.826
 129324703.653 6 100772543.87243  24609683.070          37.400          18.300
                  24609687.066        3347.848        2608.721
 18  2 20  9  2 30.0000000  0  9G02G05G23G07G16G09G06G30G13
 115646080.388 7  90113795.68946  22006711.664          47.600          36.800
                  22006712.992       -1335.977       -1040.858
 113486294.458 8  88430919.69146  21595736.445          50.800          40.800
                  21595739.527        2393.496        1865.168
 129035714.711 6 100547337.73143  24554684.953          41.700          21.800
                  24554687.711       -3051.055       -2377.374
 109229959.488 8  85114288.75546  20785772.891          50.300          41.500
                  20785776.227         340.770         265.754
 128388722.948 6 100043223.18942  24431573.031          38.300          17.800
                  24431575.836       -1434.094       -1117.223
 112758166.797 8  87863580.54646  21457173.922          50.700          41.400
                  21457179.547       -2336.285       -1820.392
 121307691.533 7  94525432.50244  23084075.695          42.400          28.900
                  23084082.848       -3450.055       -2688.253
 110946382.880 8  86451784.30946  21112398.266          52.100          41.600
                  21112404.324        2084.680        1624.598
 129224314.857 6 100694318.86343  24590580.422          38.800          18.600
                  24590584.539        3344.906        2606.352
 18  2 20  9  3  0.0000000  0  9G02G05G23G07G16G09G06G30G13
 115686414.638 7  90145224.96346  22014387.430          47.300          36.800
                  22014388.586       -1353.141       -1054.051
 113414657.261 8  88375098.50946  21582104.031          51.400          41.600
                  21582107.539        2382.145        1856.441
 129127275.629 6 100618683.83143  24572107.594          41.600          21.300
                  24572111.426       -3053.332       -2379.065
 109220002.090 8  85106529.74446  20783878.375          50.400          41.300
                  20783881.199         322.875         251.891
 128432031.093 5 100076969.75042  24439811.586          31.200          16.300
                  24439817.246       -1453.543       -1132.139
 112828376.904 8  87918289.69046  21470534.906          50.300          40.800
                  21470540.422       -2344.477       -1826.709
 121411299.204 7  94606165.73244  23103792.063          43.000          29.700
                  23103798.652       -3457.406       -2693.849
 110884079.900 8  86403236.53247  21100542.188          52.800          42.100
                  21100548.309        2068.703        1612.257
 129124016.740 6 100616164.49143  24571493.281          37.200          19.300
                  24571497.945        3341.711        2603.958
 18  2 20  9  3 30.0000000  0  9G02G05G23G07G16G09G06G30G13
 115727253.860 7  90177047.73846  22022158.789          46.800          36.500
                  22022160.059       -1369.578       -1067.067
 113343355.657 8  88319538.82146  21568536.117          51.500          40.700
                  21568539.195        2371.207        1847.777
 129218900.258 7 100690079.62343  24589544.523          42.000          21.500
                  24589546.645       -3055.066       -2380.621
 109210577.275 8  85099185.73746  20782084.969          49.000          41.800
                  20782088.477         305.402         238.131
 128475911.770 6 100111162.39643  24448167.398          37.800          19.300
                  24448168.852       -1472.137       -1146.879
 112898827.518 8  87973186.26646  21483941.000          51.200          40.800
                  21483946.285       -2352.199       -1832.866
 121515118.883 7  94687064.11844  23123548.063          42.400          29.900
                  23123555.508       -3464.129       -2699.218
 110822250.657 8  86355057.90946  21088776.688          53.400          41.800
                  21088782.820        2053.191        1600.015
 129023809.769 6 100538081.24043  24552424.758          37.000          19.300
                  24552429.605        3338.863        2601.662
 18  2 20  9  4  0.0000000  0  9G02G05G23G07G16G09G06G30G13
 115768596.898 7  90209263.09746  22030026.164          47.300          36.400
                  22030027.410       -1386.480       -1080.172
 113272391.837 8  88264242.34246  21555031.961          51.500          41.600
                  21555035.543        2359.715        1838.920
 129310587.567 6 100761524.18643  24606991.398          40.200          20.100
                  24606994.242       -3057.246       -2382.271
 109201685.370 8  85092256.98446  20780392.938          51.100          41.400
                  20780395.977         287.457         224.244
 128520363.600 7 100145800.17143  24456624.992          42.100          22.500
                  24456628.184       -1491.234       -1161.781
 112969517.806 8  88028269.59046  21497393.195          49.000          40.900
                  21497398.020       -2360.426       -1839.125
 121619147.923 7  94768125.67645  23143344.820          42.800          31.000
                  23143351.605       -3471.148       -2704.671
 110760897.030 8  86307249.89847  21077101.430          51.700          42.300
                  21077107.285        2037.133        1587.596
 128923694.821 6 100460069.61343  24533372.977          37.700          19.000
                  24533377.516        3335.727        2599.192
 18  2 20  9  4 30.0000000  0  9G02G05G23G07G16G09G06G30G13
 115810441.764 7  90241869.49346  22037988.695          47.300          36.100
                  22037989.875       -1403.352       -1093.212
 113201767.753 8  88209210.59146  21541592.305          51.400          41.500
                  21541595.723        2348.367        1830.073
 129402336.642 6 100833016.92543  24624451.281          40.600          22.300
                  24624453.320       -3059.465       -2383.892
 109193325.918 8  85085743.12446  20778801.852          50.000          41.800
                  20778805.430         269.637         210.399
 128565385.518 7 100180882.19243  24465191.930          42.200          22.000
                  24465195.395       -1510.262       -1176.578
 113040446.297 8  88083538.52046  21510890.148          50.200          39.900
                  21510895.535       -2368.387       -1845.320
 121723383.162 7  94849347.88244  23163179.352          42.000          28.600
                  23163187.008       -3478.039       -2710.008
 110700020.274 8  86259813.46047  21065517.172          51.500          42.100
                  21065523.223        2021.141        1575.174
 128823673.231 6 100382130.77243  24514340.078          38.400          20.100
                  24514344.363        3332.402        2596.715
 18  2 20  9  5  0.0000000  0  9G02G05G23G07G16G09G06G30G13
 115852786.900 7  90274865.70046  22046046.578          46.500          37.100
                  22046048.180       -1419.770       -1106.129
 113131484.906 8  88154444.74046  21528218.188          51.700          41.600
                  21528221.543        2337.047        1821.239
 129494146.776 6 100904557.21443  24641921.484          40.700          22.300
                  24641925.555       -3061.316       -2385.435
 109185498.666 8  85079643.97546  20777312.594          49.700          41.700
                  20777315.973         252.063         196.655
 128610975.546 6 100216406.92143  24473865.797          37.800          18.300
                  24473870.227       -1528.988       -1191.247
 113111611.836 8  88138992.16946  21524432.336          49.900          40.600
                  21524438.020       -2376.113       -1851.396
 121827821.582 7  94930728.46244  23183053.289          43.900          29.600
                  23183060.609       -3484.680       -2715.192
 110639621.904 8  86212749.80347  21054023.984          50.200          42.300
                  21054030.105        2005.262        1562.801
 128723745.599 6 100304265.10743  24495324.547          38.800          19.300
                  24495328.828        3329.328        2594.381
 18  2 20  9  5 30.0000000  0  9G02G05G23G07G16G09G06G30G13
 115895631.109 7  90308250.81346  22054199.930          47.000          37.500
                  22054201.070       -1436.484       -1119.076
 113061545.954 8  88099946.86447  21514909.203          50.800          42.000
                  21514912.422        2325.492        1812.258
 129586017.649 7 100976144.78243  24659404.750          42.200          22.200
                  24659407.355       -3063.387       -2386.993
 109178203.593 8  85073959.50347  20775924.141          48.800          42.200
                  20775927.516         234.180         182.793
 128657132.020 5 100252373.01742  24482649.625          33.600          16.300
                  24482653.188       -1547.832       -1205.923
 113183013.451 8  88194629.78046  21538019.602          49.800          39.600
                  21538025.164       -2383.984       -1857.540
 121932460.412 6  95012265.14644  23202965.859          41.000          28.800
                  23202973.332       -3491.297       -2720.377
 110579703.620 8  86166060.25447  21042621.375          51.100          42.000
                  21042627.547        1989.219        1550.288
 128623912.958 6 100226473.47443  24476325.844          38.700          19.900
                  24476331.148        3326.195        2591.866
 18  2 20  9  6  0.0000000  0  9G02G05G23G07G16G09G06G30G13
 115938972.442 7  90342023.27146  22062447.359          46.800          36.800
                  22062448.547       -1452.957       -1131.973
 112991952.476 8  88045718.18446  21501665.984          51.700          40.900
                  21501669.379        2314.000        1803.269
 129677947.962 6 101047778.69143  24676898.688          41.100          19.000
                  24676900.145       -3065.309       -2388.530
 109171440.556 8  85068689.60946  20774637.422          50.500          41.400
                  20774640.863         216.551         168.985
 128703853.708 6 100288779.50343  24491542.125          37.800          18.600
                  24491543.707       -1566.645       -1220.657
 113254649.961 8  88250450.42146  21551652.172          49.600          40.200
                  21551657.328       -2391.762       -1863.643
 122037296.667 7  95093955.71544  23222915.609          42.300          28.400
                  23222922.680       -3497.781       -2725.448
 110520266.902 8  86119745.93846  21031310.930          52.300          41.300
                  21031317.059        1973.199        1537.739
 128524175.913 6 100148756.31643  24457348.164          39.100          19.300
                  24457351.625        3323.105        2589.393
 18  2 20  9  6 30.0000000  0  8G02G05G07G16G09G06G30G13
 115982809.800 7  90376182.24546  22070789.305          46.300          36.500
                  22070790.305       -1469.437       -1144.863
 112922707.033 8  87991760.69846  21488488.984          51.500          41.800
                  21488492.039        2302.398        1794.179
 109165210.008 8  85063834.63847  20773451.742          49.500          42.000
                  20773455.195         198.895         155.155
 128751138.642 6 100325624.95443  24500540.344          41.800          21.300
                  24500541.887       -1585.441       -1235.254
 113326520.320 8  88306453.29646  21565328.328          49.500          39.900
                  21565334.477       -2399.480       -1869.703
 122142327.671 7  95175798.01444  23242902.375          42.300          28.500
                  23242909.285       -3504.187       -2730.502
 110461313.401 8  86073808.14547  21020092.406          52.000          42.400
                  21020098.547        1957.168        1525.182
 128424535.872 6 100071114.76043  24438386.961          39.800          19.600
                  24438390.914        3319.805        2586.811
 18  2 20  9  7  0.0000000  0  8G02G05G07G16G09G06G30G13
 116027141.173 7  90410726.18345  22079225.523          46.300          35.600
                  22079226.086       -1486.059       -1157.686
 112853811.430 8  87938075.81246  21475378.641          51.200          41.800
                  21475382.191        2290.609        1785.066
 109159510.788 8  85059393.69346  20772366.883          50.500          41.700
                  20772370.617         181.027         141.334
 128798985.104 6 100362907.89343  24509643.141          38.100          20.100
                  24509647.469       -1604.305       -1249.837
 113398623.185 8  88362637.30046  21579049.094          48.900          40.200
                  21579055.227       -2407.355       -1875.732
 122247550.045 6  95257789.44044  23262925.250          41.100          27.900
                  23262933.277       -3510.695       -2735.451
 110402844.337 8  86028247.84147  21008966.242          52.500          42.500
                  21008972.523        1940.758        1512.559
 128324993.045 6  99993548.93943  24419445.016          40.100          19.000
                  24419447.547        3316.469        2584.285
 18  2 20  9  7 30.0000000  0  8G02G05G07G16G09G06G30G13
 116071964.714 7  90445653.59946  22087754.992          45.900          36.500
                  22087756.152       -1502.293       -1170.436
 112785267.350 8  87884664.84246  21462334.984          51.400          41.000
                  21462338.813        2278.867        1775.909
 109154342.577 8  85055366.51447  20771383.625          50.900          42.000
                  20771387.512         163.363         127.549
 128847391.892 5 100400627.40143  24518854.633          35.500          18.600
                  24518858.621       -1623.016       -1264.390
 113470957.247 8  88419001.50546  21592813.844          49.400          39.100
                  21592819.129       -2415.047       -1881.722
 122352960.879 6  95339927.73444  23282984.258          41.200          28.200
                  23282991.176       -3516.891       -2740.324
 110344861.062 8  85983066.06747  20997932.688          53.500          42.800
                  20997938.684        1924.617        1499.909
 128225548.355 6  99916059.56943  24400521.445          39.400          19.000
                  24400524.652        3313.090        2581.675
 18  2 20  9  8  0.0000000  0  8G02G05G07G16G09G06G30G13
 116117279.008 7  90480963.44146  22096378.055          47.000          36.000
                  22096378.969       -1518.570       -1183.136
 112717076.805 8  87831529.35546  21449359.063          52.000          41.700
                  21449362.527        2267.133        1766.742
 109149705.522 8  85051753.23346  20770501.273          51.100          41.500
                  20770504.793         145.746         113.785
 128896356.991 6 100438781.98443  24528173.648          38.400          19.300
                  24528176.168       -1641.398       -1278.801
 113543521.471 8  88475545.05146  21606622.125          49.100          40.400
                  21606628.613       -2422.574       -1887.655
 122458557.269 6  95422210.57644  23303078.109          40.400          27.900
                  23303086.652       -3522.887       -2745.077
 110287365.046 8  85938263.98147  20986991.453          53.100          42.300
                  20986997.313        1908.465        1487.283
 128126202.924 6  99838647.59543  24381616.281          39.300          20.600
                  24381619.754        3309.918        2579.169
 18  2 20  9  8 30.0000000  0  8G02G05G07G16G09G06G30G13
 116163082.404 7  90516654.39845  22105093.672          46.200          35.000
                  22105095.055       -1535.020       -1195.833
 112649241.930 8  87778671.00946  21436450.117          49.900          41.000
                  21436453.781        2255.000        1757.450
 109145599.433 8  85048553.69146  20769719.484          49.400          41.400
                  20769723.371         127.855          99.985
 128945878.152 6 100477369.95543  24537596.438          39.400          19.900
                  24537599.281       -1660.074       -1293.224
 113616314.881 8  88532267.15246  21620474.680          49.100          40.200
                  21620480.668       -2430.355       -1893.595
 122564336.343 7  95504635.80144  23323208.227          42.700          26.500
                  23323214.324       -3529.062       -2749.776
 110230357.900 8  85893842.85147  20976143.164          52.300          42.200
                  20976149.246        1891.953        1474.550
 128026957.381 6  99761313.41443  24362730.086          39.800          19.300
                  24362733.488        3306.434        2576.561
 18  2 20  9  9  0.0000000  0  8G02G05G07G16G09G06G30G13
 116209373.007 7  90552724.99245  22113902.430          46.000          35.600
                  22113903.898       -1551.086       -1208.451
 112581765.193 8  87726091.72846  21423609.906          51.000          41.100
                  21423613.773        2243.230        1748.143
 109142024.066 8  85045767.69046  20769039.617          50.900          41.700
                  20769043.188         110.320          86.215
 128995954.423 6 100516390.50843  24547125.898          40.100          20.400
                  24547128.688       -1678.453       -1307.634
 113689336.290 8  88589166.93646  21634370.086          50.200          39.100
                  21634375.391       -2437.844       -1899.512
 122670295.257 7  95587201.14744  23343371.273          42.600          27.400
                  23343378.695       -3534.937       -2754.402
 110173841.001 8  85849803.74047  20965388.414          51.900          42.400
                  20965394.289        1875.688        1461.815
 127927813.014 6  99684058.09343  24343863.367          38.400          21.100
                  24343867.578        3303.191        2573.931
 18  2 20  9  9 30.0000000  0  8G02G05G07G16G09G06G30G13
 116256149.029 7  90589173.82145  22122804.438          46.600          34.600
                  22122804.473       -1567.102       -1221.025
 112514648.369 8  87673792.90646  21410838.391          50.900          41.400
                  21410841.582        2231.313        1738.765
 109138978.791 8  85043394.75246  20768459.977          51.100          41.700
                  20768463.633          92.859          72.451
 129046584.000 6 100555842.13243  24556759.625          36.200          19.600
                  24556763.910       -1696.539       -1322.006
 113762584.380 8  88646243.36446  21648308.906          48.800          38.700
                  21648314.078       -2445.270       -1905.389
 122776430.851 6  95669904.15744  23363568.656          41.400          28.300
                  23363575.656       -3540.773       -2758.969
 110117815.611 8  85806147.61246  20954727.250          51.300          41.600
                  20954732.734        1859.426        1449.029
 127828769.850 6  99606881.67143  24325015.727          39.400          21.100
                  24325019.895        3299.789        2571.247
 18  2 20  9 10  0.0000000  0  8G02G05G07G16G09G06G30G13
 116303408.817 7  90625999.61945  22131797.211          45.800          34.500
                  22131798.344       -1583.477       -1233.592
 112447893.702 8  87621776.28346  21398134.961          51.100          41.300
                  21398138.285        2219.074        1729.329
 109136463.460 8  85041434.76347  20767981.320          51.400          42.000
                  20767984.609          75.012          58.685
 129097764.835 6 100595723.20243  24566500.453          36.500          19.900
                  24566503.949       -1715.227       -1336.284
 113836058.326 8  88703495.76646  21662290.398          50.100          39.400
                  21662296.160       -2452.969       -1911.253
 122882740.391 6  95752742.75344  23383798.188          41.700          28.300
                  23383805.883       -3546.492       -2763.422
 110062283.317 8  85762875.72246  20944159.508          51.800          41.900
                  20944165.352        1842.781        1436.206
 127729829.797 6  99529785.51143  24306188.563          37.900          20.900
                  24306193.254        3296.211        2568.581
 18  2 20  9 10 30.0000000  0  8G02G05G07G16G09G06G30G13
 116351150.706 7  90663201.07645  22140882.359          46.600          34.700
                  22140882.703       -1599.441       -1246.104
 112381502.925 8  87570043.21446  21385501.195          50.700          40.600
                  21385504.465        2207.020        1719.843
 109134477.913 8  85039887.58147  20767603.164          51.600          42.000
                  20767606.871          57.348          44.917
 129149495.483 6 100636032.78343  24576345.070          40.100          21.500
                  24576348.223       -1733.500       -1350.542
 113909756.977 8  88760923.26446  21676314.930          49.500          38.400
                  21676319.949       -2460.352       -1917.078
 122989221.044 7  95835714.61044  23404060.297          42.000          27.700
                  23404068.293       -3552.082       -2767.858
 110007245.544 8  85719989.16547  20933686.266          51.300          42.100
                  20933692.055        1826.410        1423.321
 127630992.924 5  99452769.82143  24287380.117          35.500          20.900
                  24287384.523        3292.922        2565.865
 18  2 20  9 11  0.0000000  0  7G02G05G07G09G06G30G13
 116399373.009 7  90700776.90645  22150058.602          46.100          35.000
                  22150059.605       -1615.437       -1258.602
 112315477.117 8  87518594.54146  21372937.023          50.600          40.600
                  21372940.234        2194.688        1710.279
 109133021.009 8  85038752.33447  20767326.359          50.500          42.200
                  20767329.813          39.762          31.150
 113983678.551 8  88818524.47246  21690381.555          49.400          39.200
                  21690386.898       -2467.762       -1922.876
 123095869.113 6  95918816.98344  23424354.563          40.400          24.800
                  23424362.328       -3557.691       -2772.224
 109952702.939 8  85677488.44746  20923306.820          51.200          41.900
                  20923313.266        1809.758        1410.408
 127532260.078 6  99375835.15043  24268591.664          38.300          21.100
                  24268596.301        3289.258        2563.137
 18  2 20  9 11 30.0000000  0  7G02G05G07G09G06G30G13
 116448073.688 7  90738725.46545  22159326.133          46.800          35.100
                  22159327.266       -1631.355       -1270.950
 112249818.939 8  87467432.32146  21360442.617          50.100          40.900
                  21360446.180        2182.434        1700.766
 109132092.838 8  85038029.09047  20767149.828          51.800          42.100
                  20767153.246          22.105          17.464
 114057822.267 8  88876298.78846  21704490.414          49.600          39.300
                  21704496.301       -2475.191       -1928.617
 123202682.072 6  96002047.79944  23444680.484          41.100          25.900
                  23444689.125       -3563.289       -2776.433
 109898657.178 8  85635374.89247  20913022.016          51.500          42.500
                  20913028.352        1793.246        1397.520
 127433632.418 6  99298982.46243  24249823.711          37.300          19.300
                  24249827.945        3285.637        2560.405
 18  2 20  9 12  0.0000000  0  7G02G05G07G09G06G30G13
 116497250.822 7  90777045.29345  22168683.961          46.300          34.900
                  22168685.109       -1647.234       -1283.287
 112184531.241 8  87416558.78646  21348018.953          51.100          40.600
                  21348022.191        2170.066        1691.139
 109131693.436 8  85037717.86747  20767073.500          51.700          42.000
                  20767077.023           4.480           3.745
 114132187.183 8  88934245.45446  21718641.359          50.300          38.700
                  21718647.227       -2482.492       -1934.312
 123309657.165 6  96085404.96344  23465037.234          39.400          25.600
                  23465045.484       -3568.516       -2780.595
 109845109.797 8  85593649.66547  20902832.289          52.800          42.300
                  20902838.477        1776.574        1384.569
 127335110.667 6  99222212.29143  24231075.391          38.700          20.900
                  24231079.910        3282.344        2557.661
 18  2 20  9 12 30.0000000  0  7G02G05G07G09G06G30G13
 116546903.087 7  90815735.34645  22178132.859          46.000          34.400
                  22178133.723       -1662.906       -1295.635
 112119615.737 8  87365975.27046  21335665.742          51.000          40.000
                  21335669.012        2157.695        1681.437
 109131822.545 8  85037818.48546  20767098.500          51.200          41.600
                  20767102.227         -13.066          -9.986
 114206772.487 8  88992363.85346  21732834.844          49.100          39.400
                  21732840.211       -2489.840       -1940.050
 123416791.655 6  96168886.34544  23485425.203          40.500          25.400
                  23485432.605       -3573.781       -2784.701
 109792062.325 8  85552313.97447  20892738.211          52.800          42.900
                  20892744.383        1759.965        1371.567
 127236696.112 6  99145525.64343  24212347.945          38.400          20.400
                  24212351.859        3278.723        2554.870
 18  2 20  9 13  0.0000000  0  7G02G05G07G09G06G30G13
 116597028.710 7  90854794.24045  22187671.508          46.200          34.600
                  22187672.477       -1678.773       -1307.884
 112055073.990 8  87315683.00846  21323383.945          50.900          40.500
                  21323387.168        2145.102        1671.695
 109132479.416 8  85038330.33447  20767223.328          51.400          42.200
                  20767226.730         -30.781         -23.691
 114281576.799 8  89050652.91846  21747069.648          50.200          39.200
                  21747075.641       -2497.203       -1945.717
 123524082.440 6  96252489.48444  23505840.844          40.900          25.700
                  23505849.027       -3579.031       -2788.719
 109739515.861 8  85511368.68947  20882738.586          51.900          42.600
                  20882745.082        1743.168        1358.555
 127138389.408 6  99068923.04843  24193640.938          39.400          20.900
                  24193644.727        3275.098        2552.041
 18  2 20  9 13 30.0000000  0  7G02G05G07G09G06G30G13
 116647625.605 7  90894220.35345  22197299.344          46.900          35.100
                  22197300.695       -1694.398       -1320.106
 111990908.740 8  87265684.11046  21311173.555          50.800          39.700
                  21311176.910        2132.520        1661.889
 109133663.725 8  85039253.17246  20767448.625          52.500          41.900
                  20767452.035         -48.297         -37.366
 114356599.310 8  89109111.98846  21761346.156          50.200          39.700
                  21761352.500       -2504.398       -1951.343
 123631526.789 7  96336212.35144  23526287.172          42.100          26.000
                  23526294.273       -3584.070       -2792.674
 109687471.866 8  85470814.95347  20872835.078          52.000          42.800
                  20872841.152        1726.348        1345.485
 127040191.758 6  98992405.41643  24174954.289          38.100          20.600
                  24174958.730        3271.535        2549.223
 18  2 20  9 14  0.0000000  0  7G02G05G07G09G06G30G13
 116698692.022 7  90934012.32045  22207017.617          47.100          35.300
                  22207018.629       -1709.961       -1332.298
 111927121.660 8  87215979.89346  21299035.453          51.300          40.000
                  21299038.652        2119.934        1652.031
 109135374.953 8  85040586.60347  20767774.211          51.700          42.100
                  20767777.766         -65.816         -51.060
 114431838.711 8  89167740.06946  21775663.727          51.300          39.900
                  21775669.168       -2511.578       -1956.985
 123739121.613 6  96420052.38144  23546762.297          41.600          24.400
                  23546769.949       -3588.980       -2796.520
 109635931.435 8  85430653.59747  20863027.750          52.200          42.700
                  20863033.262        1709.559        1332.371
 126942103.722 6  98915973.23643  24156288.844          40.700          21.700
                  24156293.355        3267.980        2546.379
 18  2 20  9 14 30.0000000  0  7G02G05G07G09G06G30G13
 116750225.424 7  90974168.17345  22216823.617          47.000          35.500
                  22216825.227       -1725.582       -1344.392
 111863713.336 8  87166570.81146  21286969.367          51.100          39.900
                  21286972.750        2107.188        1642.163
 109137611.960 8  85042329.73147  20768199.898          51.400          42.100
                  20768203.422         -83.437         -64.720
 114507293.296 8  89226535.84346  21790021.992          51.600          39.600
                  21790028.086       -2518.758       -1962.589
 123846863.416 6  96504007.00044  23567265.789          40.600          25.400
                  23567271.773       -3594.012       -2800.333
 109584895.221 8  85390885.13647  20853315.406          52.000          43.000
                  20853321.582        1692.715        1319.246
 126844125.595 6  98839626.68543  24137644.305          40.200          20.400
                  24137648.113        3263.949        2543.459
 18  2 20  9 15  0.0000000  0  7G02G05G07G09G06G30G13
 116802224.340 7  91014686.77245  22226718.938          47.300          35.500
                  22226720.121       -1741.039       -1356.448
 111800687.815 8  87117460.00846  21274975.781          51.300          39.400
                  21274979.418        2094.563        1632.219
 109140374.873 8  85044482.65047  20768725.742          51.100          42.500
                  20768729.254        -100.816         -78.350
 114582962.500 8  89285498.82446  21804421.945          51.300          39.900
                  21804428.250       -2525.828       -1968.114
 123954749.739 6  96588074.20744  23587795.211          40.900          25.100
                  23587802.777       -3598.484       -2803.996
 109534364.953 8  85351510.92347  20843699.961          52.500          43.000
                  20843706.238        1675.941        1306.116
 126746257.804 6  98763366.06143  24119020.453          39.500          20.900
                  24119024.250        3260.578        2540.623
 18  2 20  9 15 30.0000000  0  7G02G05G07G09G06G30G13
 116854686.841 7  91055566.59745  22236702.602          46.800          35.500
                  22236703.152       -1756.301       -1368.457
 111738046.003 8  87068648.20446  21263055.711          51.100          39.600
                  21263058.547        2081.707        1622.234
 109143662.765 8  85047044.65047  20769351.297          51.900          42.100
                  20769354.602        -118.254         -91.996
 114658845.037 8  89344628.03746  21818861.789          51.700          40.400
                  21818867.410       -2532.852       -1973.632
 124062777.525 6  96672251.67444  23608351.969          40.700          25.600
                  23608359.414       -3603.195       -2807.665
 109484341.641 8  85312531.74147  20834180.922          52.800          43.400
                  20834186.926        1659.090        1292.940
 126648502.931 6  98687193.45043  24100418.625          40.300          21.300
                  24100421.707        3256.723        2537.670
 18  2 20  9 16  0.0000000  0  7G02G05G07G09G06G30G13
 116907610.758 7  91096805.97045  22246773.797          47.600          35.600
                  22246774.434       -1771.863       -1380.459
 111675790.164 8  87020137.15946  21251208.609          50.800          39.600
                  21251211.855        2068.629        1612.146
 109147475.268 8  85050015.42847  20770076.852          51.400          42.600
                  20770080.359        -135.965        -105.631
 114734939.832 8  89403922.69646  21833341.742          51.200          40.100
                  21833347.262       -2540.195       -1979.188
 124170943.862 6  96756537.07544  23628936.555          40.900          24.900
                  23628942.949       -3607.969       -2811.244
 109434826.477 8  85273948.51547  20824758.625          52.200          42.800
                  20824764.113        1641.930        1279.693
 126550860.983 6  98611108.85043  24081838.008          41.200          20.900
                  24081841.594        3252.871        2534.728
 18  2 20  9 16 30.0000000  0  7G02G05G07G09G06G30G13
 116960994.028 7  91138403.29845  22256931.883          47.200          35.600
                  22256933.285       -1787.020       -1392.315
 111613922.155 8  86971928.31246  21239435.352          51.000          39.200
                  21239438.484        2055.836        1602.087
 109151811.851 8  85053394.57946  20770902.227          52.400          41.900
                  20770905.773        -153.180        -119.190
 114811245.679 8  89463381.76146  21847862.922          51.000          40.700
                  21847868.273       -2547.000       -1984.605
 124279245.652 6  96840928.02244  23649544.633          40.400          25.500
                  23649552.477       -3612.176       -2814.701
 109385820.514 8  85235762.07047  20815432.797          53.300          42.700
                  20815438.633        1625.078        1266.498
 126453332.408 6  98535112.57843  24063278.852          41.300          22.000
                  24063283.160        3249.211        2531.808
 18  2 20  9 17  0.0000000  0  7G02G05G07G09G06G30G13
 117014835.004 7  91180357.26545  22267177.320          47.700          35.900
                  22267178.832       -1802.301       -1404.171
 111552444.145 8  86924023.36446  21227736.836          50.900          39.000
                  21227739.590        2042.797        1591.946
 109156672.462 8  85057182.07446  20771826.859          52.200          41.700
                  20771830.195        -170.660        -132.782
 114887761.764 8  89523004.67146  21862423.109          51.400          40.300
                  21862429.609       -2554.035       -1990.046
 124387680.288 6  96925422.50544  23670179.258          39.200          24.700
                  23670186.570       -3616.629       -2818.089
 109337325.219 8  85197973.53747  20806204.500          53.200          42.800
                  20806210.109        1608.016        1253.212
 126355918.474 6  98459205.66243  24044742.125          41.300          22.800
                  24044745.234        3245.242        2528.804
 18  2 20  9 17 30.0000000  0  7G02G05G07G09G06G30G13
 117069131.375 7  91222666.07545  22277509.672          46.800          35.000
                  22277511.281       -1817.445       -1415.980
 111491357.572 8  86876423.43446  21216112.313          51.300          38.100
                  21216115.293        2029.660        1581.741
 109162055.705 8  85061376.80047  20772851.344          51.700          43.000
                  20772854.516        -188.105        -146.361
 114964486.633 8  89582790.25646  21877023.328          49.900          40.800
                  21877029.219       -2560.973       -1995.452
 124496244.535 6  97010017.93343  23690838.563          38.800          23.500
                  23690845.684       -3620.887       -2821.420
 109289341.300 8  85160583.48347  20797073.258          52.500          42.800
                  20797079.266        1590.949        1239.915
 126258619.723 6  98383388.48043  24026225.930          41.100          21.700
                  24026229.699        3241.438        2525.781
 18  2 20  9 18  0.0000000  0  7G02G05G07G09G06G30G13
 117123881.475 7  91265328.46745  22287928.352          46.600          35.400
                  22287929.195       -1832.711       -1427.796
 111430665.037 8  86829130.53946  21204562.922          50.700          38.900
                  21204565.824        2016.391        1571.457
 109167961.329 8  85065978.58447  20773975.039          52.300          42.600
                  20773978.605        -205.668        -159.976
 115041419.449 8  89642737.88346  21891663.461          50.700          40.400
                  21891669.141       -2568.082       -2000.885
 124604935.582 6  97094712.22943  23711522.219          40.000          22.900
                  23711528.047       -3625.387       -2824.728
 109241870.107 8  85123592.95947  20788039.898          52.300          42.600
                  20788045.746        1573.648        1226.540
 126161437.130 6  98307661.79743  24007733.445          41.000          22.200
                  24007736.266        3237.301        2522.720
 18  2 20  9 18 30.0000000  0  7G02G05G07G09G06G30G13
 117179083.131 7  91308342.71545  22298432.867          46.500          34.900
                  22298434.176       -1847.531       -1439.443
 111370368.061 8  86782145.88546  21193088.648          51.100          38.300
                  21193091.656        2003.375        1561.176
 109174388.733 8  85070986.95047  20775198.477          52.600          42.500
                  20775201.910        -222.965        -173.484
 115118559.045 8  89702846.64946  21906342.164          49.300          41.100
                  21906349.289       -2574.750       -2006.206
 124713750.477 6  97179502.96244  23732228.695          41.300          24.500
                  23732235.973       -3629.094       -2827.886
 109194912.708 8  85087002.79247  20779104.211          52.300          43.200
                  20779109.844        1556.770        1213.218
 126064371.837 6  98232026.52943  23989261.711          40.800          22.800
                  23989265.473        3233.465        2519.702
 18  2 20  9 19  0.0000000  0  7G02G05G07G09G06G30G13
 117234734.105 7  91351707.07445  22309022.898          46.800          35.100
                  22309024.266       -1862.559       -1451.090
 111310468.654 8  86735471.01346  21181690.273          51.300          38.200
                  21181693.551        1990.059        1550.822
 109181337.145 8  85076401.28447  20776520.297          52.600          42.400
                  20776523.844        -240.309        -187.004
 115195904.261 8  89763115.61346  21921061.008          49.600          40.300
                  21921066.543       -2581.645       -2011.524
 124822686.221 6  97264387.93143  23752958.109          41.100          22.600
                  23752965.012       -3633.035       -2830.980
 109148470.073 8  85050813.72747  20770266.359          51.400          42.200
                  20770271.988        1539.508        1199.847
 125967424.395 6  98156483.07943  23970813.148          41.500          22.200
                  23970817.219        3229.512        2516.635
 18  2 20  9 19 30.0000000  0  7G02G05G07G09G06G30G13
 117290832.672 7  91395420.21445  22319698.266          45.800          34.200
                  22319699.477       -1877.395       -1462.739
 111250969.262 8  86689107.84646  21170367.758          51.000          38.200
                  21170371.305        1976.637        1540.376
 109188806.176 8  85082221.30447  20777942.016          52.700          42.600
                  20777945.063        -257.648        -200.572
 115273454.258 8  89823544.18446  21935817.672          49.600          40.300
                  21935823.586       -2588.379       -2016.875
 124931740.222 6  97349365.00944  23773711.672          40.800          24.000
                  23773718.180       -3637.062       -2834.049
 109102543.497 8  85015026.79647  20761527.047          51.700          42.300
                  20761532.848        1522.320        1186.382
 125870595.493 6  98081032.01343  23952387.836          41.800          22.200
                  23952391.055        3225.590        2513.500
 18  2 20  9 20  0.0000000  0  7G02G05G07G09G06G30G13
 117347376.526 7  91439480.31545  22330458.227          45.800          34.800
                  22330459.875       -1892.223       -1474.225
 111191871.754 8  86643057.84246  21159122.078          50.600          38.200
                  21159125.043        1963.203        1529.948
 109196794.802 8  85088446.21047  20779462.047          52.200          42.400
                  20779465.344        -274.883        -214.009
 115351207.826 8  89884131.35446  21950614.383          48.900          40.200
                  21950620.129       -2595.109       -2022.093
 125040909.308 6  97434431.79543  23794485.039          41.300          22.600
                  23794491.910       -3640.652       -2836.959
 109057133.844 8  84979642.65647  20752885.727          51.300          43.400
                  20752892.203        1505.031        1172.983
 125773886.208 7  98005674.17144  23933984.727          42.500          24.200
                  23933988.383        3221.711        2510.458
 18  2 20  9 20 30.0000000  0  7G02G05G07G09G06G30G13
 117404363.780 7  91483885.94045  22341302.844          45.800          34.000
                  22341304.055       -1906.844       -1485.717
 111133177.740 8  86597322.23946  21147952.750          49.800          37.900
                  21147955.824        1949.723        1519.442
 109205302.561 8  85095075.62547  20781080.930          53.000          42.300
                  20781084.145        -292.168        -227.472
 115429163.877 8  89944876.29946  21965448.719          49.100          39.800
                  21965455.176       -2601.859       -2027.339
 125150190.594 6  97519586.00943  23815281.125          40.100          22.800
                  23815287.402       -3644.477       -2839.831
 109012242.108 8  84944662.09547  20744343.305          51.900          43.500
                  20744349.410        1487.805        1159.520
 125677297.565 6  97930410.30844  23915604.469          41.600          24.700
                  23915607.930        3217.715        2507.285
 18  2 20  9 21  0.0000000  0  7G02G05G07G09G06G30G13
 117461791.813 7  91528635.04345  22352230.555          46.300          34.000
                  22352231.977       -1921.687       -1497.159
 111074888.774 8  86551902.25246  21136860.805          50.300          38.100
                  21136864.094        1936.129        1508.906
 109214328.648 8  85102108.92947  20782798.609          52.300          42.200
                  20782801.383        -309.566        -240.952
 115507321.033 8  90005777.97546  21980321.672          48.400          40.100
                  21980327.043       -2608.539       -2032.585
 125259580.985 6  97604825.23143  23836096.617          39.800          22.200
                  23836104.203       -3648.184       -2842.645
 108967869.110 8  84910085.73647  20735899.289          51.400          43.900
                  20735905.406        1470.340        1146.003
 125580830.248 7  97855241.01743  23897247.758          42.700          22.600
                  23897251.301        3213.555        2504.102
 18  2 20  9 21 30.0000000  0  7G02G05G07G09G06G30G13
 117519659.101 7  91573726.42345  22363242.242          46.100          33.300
                  22363243.676       -1936.187       -1508.553
 111017007.483 8  86506799.95246  21125846.578          50.300          37.900
                  21125849.543        1922.543        1498.259
 109223872.594 8  85109545.76747  20784614.578          52.500          42.100
                  20784617.363        -326.727        -254.400
 115585678.826 7  90066835.96846  21995232.805          47.900          39.900
                  21995238.559       -2615.223       -2037.785
 125369077.927 6  97690147.47843  23856933.016          39.000          22.500
                  23856941.070       -3651.680       -2845.427
 108924016.247 8  84875914.67047  20727554.609          52.800          43.900
                  20727560.043        1453.145        1132.494
 125484485.133 7  97780166.92843  23878913.289          42.200          23.200
                  23878916.918        3209.441        2500.894
 18  2 20  9 22  0.0000000  0  7G02G05G07G09G06G30G13
 117577963.265 7  91619158.20245  22374337.375          45.700          33.000
                  22374338.586       -1950.723       -1519.853
 110959535.802 8  86462016.82246  21114909.719          50.700          38.700
                  21114912.918        1908.852        1487.625
 109233933.631 8  85117385.53347  20786529.258          52.700          42.200
                  20786532.188        -343.961        -267.798
 115664235.896 8  90128049.24546  22010181.656          48.300          39.500
                  22010187.523       -2621.895       -2042.924
 125478678.352 6  97775550.34543  23877789.102          39.100          22.800
                  23877797.352       -3655.055       -2848.019
 108880684.334 8  84842149.55547  20719308.531          51.300          44.100
                  20719314.453        1435.695        1118.963
 125388263.209 7  97705188.82144  23860602.133          42.400          24.100
                  23860606.297        3205.391        2497.734
 18  2 20  9 22 30.0000000  0  7G02G05G07G09G06G30G13
 117636702.196 7  91664928.77345  22385515.320          44.900          33.000
                  22385516.527       -1965.121       -1531.148
 110902475.442 8  86417554.20246  21104051.531          50.800          38.000
                  21104054.602        1895.207        1476.866
 109244510.880 8  85125627.54147  20788542.383          52.500          42.100
                  20788545.168        -361.187        -281.241
 115742991.240 7  90189417.02846  22025168.328          47.800          39.100
                  22025173.375       -2628.473       -2048.103
 125588379.395 6  97861031.64843  23898665.117          38.100          23.400
                  23898672.715       -3658.309       -2850.680
 108837874.324 8  84808791.11147  20711162.281          51.900          44.300
                  20711168.152        1418.332        1105.349
 125292165.097 7  97630307.20644  23842316.320          42.100          24.500
                  23842319.738        3201.289        2494.438
 18  2 20  9 23  0.0000000  0  7G02G05G07G09G06G30G13
 117695873.897 7  91711036.55345  22396775.094          45.600          33.200
                  22396776.688       -1979.578       -1542.333
 110845828.680 8  86373413.86346  21093272.047          50.900          39.500
                  21093275.324        1881.270        1466.139
 109255603.612 8  85134271.22447  20790653.320          52.000          42.300
                  20790656.180        -378.422        -294.597
 115821943.889 8  90250938.55646  22040192.000          49.100          39.200
                  22040198.094       -2635.117       -2053.192
 125698178.241 6  97946589.13544  23919558.828          38.700          24.900
                  23919566.629       -3661.422       -2853.118
 108795587.241 8  84775840.14647  20703115.188          52.000          44.400
                  20703121.113        1400.855        1091.792
 125196191.716 7  97555522.76043  23824052.898          42.200          22.900
                  23824056.531        3197.047        2491.256
 18  2 20  9 23 30.0000000  0  7G02G05G07G09G06G30G13
 117755476.062 7  91757479.77945  22408117.109          46.700          34.000
                  22408118.359       -1993.996       -1553.537
 110789596.988 8  86329596.95446  21082571.734          50.800          38.900
                  21082574.668        1867.324        1455.292
 109267211.242 8  85143316.12647  20792862.102          53.000          42.500
                  20792865.469        -395.660        -307.998
 115901092.629 8  90312612.87646  22055253.859          48.400          39.100
                  22055260.234       -2641.664       -2058.292
 125808071.867 6  98032220.45243  23940471.859          40.100          23.500
                  23940479.082       -3664.922       -2855.589
 108753823.866 8  84743297.27047  20695167.641          51.900          43.900
                  20695173.586        1383.328        1078.152
 125100343.936 6  97480836.20144  23805813.141          41.900          25.000
                  23805817.316        3192.664        2487.939
 18  2 20  9 24  0.0000000  0  7G02G05G07G09G06G30G13
 117815506.075 7  91804256.38245  22419540.531          47.200          33.300
                  22419541.668       -2008.078       -1564.555
 110733782.111 8  86286104.84646  21071950.188          51.100          39.200
                  21071953.531        1853.547        1444.500
 109279332.383 8  85152761.17147  20795168.414          52.200          42.500
                  20795171.516        -412.625        -321.272
 115980436.237 7  90374439.03046  22070352.625          47.800          38.000
                  22070357.777       -2648.059       -2063.305
 125918057.070 6  98117923.21143  23961400.727          40.900          22.500
                  23961408.160       -3667.680       -2857.884
 108712584.848 8  84711162.97147  20687320.250          52.100          44.300
                  20687326.336        1365.914        1064.572
 125004622.514 7  97406248.09343  23787598.125          43.300          22.800
                  23787601.656        3188.484        2484.690
 18  2 20  9 24 30.0000000  0  7G02G05G07G09G06G30G13
 117875962.289 7  91851365.09845  22431045.016          45.300          33.200
                  22431046.086       -2022.387       -1575.646
 110678386.791 8  86242939.65946  21061409.281          51.000          39.700
                  21061412.375        1839.430        1433.530
 109291966.628 8  85162606.03347  20797572.594          52.900          42.600
                  20797575.934        -429.754        -334.620
 116059973.971 8  90436416.47146  22085487.703          48.700          38.400
                  22085493.160       -2654.562       -2068.365
 126028131.439 6  98203695.35443  23982347.406          40.800          23.500
                  23982355.691       -3670.578       -2860.191
 108671871.466 8  84679438.27247  20679572.938          52.100          43.900
                  20679578.520        1348.219        1050.853
 124909028.394 6  97331759.17243  23769406.891          41.900          22.800
                  23769411.301        3184.313        2481.333
 18  2 20  9 25  0.0000000  0  7G02G05G07G09G06G30G13
 117936841.979 7  91898803.77645  22442630.359          45.700          33.500
                  22442631.828       -2036.332       -1586.581
 110623412.270 8  86200102.36446  21050947.805          51.100          40.400
                  21050951.063        1825.496        1422.630
 109305112.853 8  85172849.84147  20800074.352          52.900          42.500
                  20800077.672        -446.652        -347.866
 116139704.472 8  90498544.11946  22100659.992          48.000          38.000
                  22100666.586       -2660.793       -2073.323
 126138291.714 6  98289534.48643  24003310.664          40.900          21.100
                  24003317.156       -3673.152       -2862.309
 108631684.185 8  84648123.51747  20671925.023          52.700          43.400
                  20671930.996        1330.828        1037.234
 124813562.284 7  97257369.99743  23751240.859          42.900          22.800
                  23751244.352        3180.098        2478.023
 18  2 20  9 25 30.0000000  0  7G02G05G07G09G06G30G13
 117998143.136 7  91946570.88745  22454294.852          46.200          32.700
                  22454296.344       -2050.367       -1597.510
 110568860.375 8  86157594.39546  21040566.664          51.100          40.100
                  21040570.461        1811.293        1411.619
 109318770.349 8  85183492.02747  20802673.305          52.700          42.300
                  20802676.199        -463.734        -361.127
 116219626.814 8  90560821.22446  22115869.063          48.200          37.600
                  22115874.707       -2667.262       -2078.269
 126248535.087 6  98375438.34843  24024288.563          40.100          22.300
                  24024296.578       -3676.301       -2864.468
 108592024.023 8  84617219.49447  20664377.977          51.700          43.300
                  20664384.508        1313.227        1023.517
 124718225.012 7  97183081.23143  23733098.875          43.100          23.900
                  23733102.457        3175.742        2474.673
 18  2 20  9 26  0.0000000  0  7G02G05G07G09G06G30G13
 118059864.087 7  91994665.09945  22466040.266          46.400          32.600
                  22466041.285       -2064.434       -1608.363
 110514733.700 8  86115417.76446  21030266.938          51.000          40.500
                  21030270.191        1797.070        1400.568
 109332938.986 8  85194532.53347  20805369.297          52.000          42.200
                  20805373.023        -480.863        -374.420
 116299740.539 7  90623247.49646  22131113.750          47.900          37.700
                  22131119.340       -2673.719       -2083.226
 126358859.280 6  98461405.16943  24045283.273          41.400          22.800
                  24045289.914       -3678.797       -2866.539
 108552892.353 8  84586727.29847  20656931.289          51.100          43.600
                  20656937.535        1295.563        1009.792
 124623018.156 7  97108894.10444  23714981.789          42.000          24.600
                  23714985.402        3171.273        2471.294
 18  2 20  9 26 30.0000000  0  7G02G05G07G09G06G30G13
 118122001.779 7  92043084.05545  22477864.711          45.600          33.500
                  22477866.090       -2078.156       -1619.186
 110461033.577 8  86073573.51246  21020048.164          51.300          41.000
                  21020051.379        1782.852        1389.419
 109347617.150 8  85205970.05747  20808162.289          52.600          42.500
                  20808165.922        -497.734        -387.649
 116380044.014 7  90685821.60746  22146395.313          46.800          37.200
                  22146401.141       -2679.832       -2088.197
 126469260.750 6  98547432.27443  24066290.352          38.800          21.300
                  24066298.078       -3681.500       -2868.545
 108514289.324 8  84556647.02947  20649585.711          51.500          43.700
                  20649591.371        1277.934         996.014
 124527941.833 7  97034808.70844  23696889.133          42.200          25.300
                  23696892.246        3166.922        2467.823
 18  2 20  9 27  0.0000000  0  7G02G05G07G09G06G30G13
 118184554.199 7  92091826.16345  22489768.305          46.300          33.100
                  22489769.121       -2092.078       -1629.938
 110407761.995 8  86032063.18246  21009911.063          52.000          41.100
                  21009914.215        1768.480        1378.249
 109362803.889 8  85217803.87346  20811052.695          52.800          41.900
                  20811055.902        -514.812        -400.867
 116460536.256 8  90748542.79746  22161712.648          48.100          37.100
                  22161718.316       -2686.297       -2093.080
 126579736.773 6  98633517.40144  24087315.414          39.700          24.000
                  24087321.973       -3683.875       -2870.405
 108476215.828 8  84526979.37147  20642340.453          52.000          43.700
                  20642346.453        1260.215         982.242
 124432996.907 6  96960825.68643  23678821.617          40.000          23.900
                  23678825.070        3162.492        2464.420
 18  2 20  9 27 30.0000000  0  7G02G05G07G09G06G30G13
 118247519.079 7  92140889.69945  22501750.148          46.000          33.300
                  22501751.020       -2105.539       -1640.579
 110354921.166 8  85990888.50946  20999855.805          51.900          41.100
                  20999859.156        1754.207        1367.076
 109378498.801 8  85230033.65746  20814038.773          52.500          41.900
                  20814042.469        -531.520        -413.992
 116541216.331 8  90811410.37446  22177065.164          48.100          37.000
                  22177070.914       -2692.336       -2097.927
 126690284.543 6  98719658.47443  24108350.398          37.400          20.600
                  24108358.426       -3685.949       -2872.251
 108438672.781 8  84497725.05547  20635196.109          51.600          43.500
                  20635202.172        1242.691         968.500
 124338184.544 6  96886945.92544  23660779.367          40.000          25.200
                  23660783.047        3158.277        2461.010
 18  2 20  9 28  0.0000000  0  7G02G05G07G09G06G30G13
 118310893.981 7  92190272.70645  22513809.828          45.400          33.600
                  22513811.293       -2119.238       -1651.217
 110302512.529 8  85950050.60346  20989882.797          51.800          40.700
                  20989886.027        1739.723        1355.828
 109394700.453 8  85242658.32246  20817122.258          52.300          41.700
                  20817125.512        -548.441        -427.184
 116622083.145 7  90874423.43946  22192454.164          47.000          37.500
                  22192460.215       -2698.617       -2102.760
 126800901.077 6  98805853.10244  24129401.641          40.300          25.200
                  24129409.289       -3688.168       -2873.988
 108401660.736 8  84468884.50747  20628153.172          51.100          43.700
                  20628159.305        1224.980         954.704
 124243505.468 6  96813170.04544  23642761.938          39.400          24.700
                  23642766.477        3153.828        2457.537
 18  2 20  9 28 30.0000000  0  7G02G05G07G09G06G30G13
 118374676.781 7  92239973.54545  22525947.945          46.000          32.300
                  22525948.777       -2132.957       -1661.795
 110250538.040 8  85909551.00446  20979992.305          51.700          41.000
                  20979995.707        1725.145        1344.528
 109411408.248 8  85255677.37347  20820301.766          51.500          42.000
                  20820304.621        -565.328        -440.294
 116703135.713 7  90937581.25946  22207877.953          47.700          37.300
                  22207883.223       -2704.930       -2107.576
 126911583.583 6  98892099.14143  24150462.766          37.900          22.000
                  24150470.848       -3690.434       -2875.656
 108365180.605 8  84440458.43347  20621211.281          51.700          44.000
                  20621217.531        1207.043         940.856
 124148960.086 6  96739498.35944  23624771.094          40.800          24.200
                  23624775.113        3149.348        2454.031
 18  2 20  9 29  0.0000000  0  7G02G05G07G09G06G30G13
 118438864.869 7  92289990.22545  22538161.914          45.600          32.700
                  22538162.961       -2146.164       -1672.287
 110198999.342 8  85869390.97246  20970184.805          50.900          41.200
                  20970188.324        1710.863        1333.196
 109428620.684 8  85269089.65147  20823577.211          51.800          42.200
                  20823580.695        -581.965        -453.392
 116784372.810 7  91000882.87046  22223336.516          47.500          37.300
                  22223342.645       -2710.797       -2112.343
 127022329.036 6  98978394.22944  24171538.320          39.100          24.400
                  24171545.258       -3692.398       -2877.259
 108329232.825 8  84412447.19347  20614370.602          52.100          44.400
                  20614376.703        1189.492         927.013
 124054549.798 6  96665931.91744  23606805.414          40.100          25.200
                  23606809.246        3145.031        2450.529
 18  2 20  9 29 30.0000000  0  7G02G05G07G09G06G30G13
 118503456.080 7  92340321.00845  22550452.688          45.100          33.500
                  22550454.879       -2159.785       -1682.767
 110147898.524 8  85829572.15146  20960460.438          51.400          40.800
                  20960464.215        1695.984        1321.745
 109446337.325 8  85282894.83146  20826948.453          51.200          41.500
                  20826951.445        -598.918        -466.529
 116865793.672 7  91064327.66746  22238830.969          47.100          37.100
                  22238836.434       -2717.109       -2117.158
 127133134.724 6  99064736.27043  24192622.391          37.800          22.000
                  24192631.250       -3694.516       -2878.850
 108293818.278 8  84384851.44647  20607631.703          52.600          44.300
                  20607637.410        1171.668         913.132
 123960275.036 7  96592471.07144  23588865.406          42.400          25.100
                  23588869.426        3140.305        2446.986
 18  2 20  9 30  0.0000000  0  7G02G05G07G09G06G30G13
 118568447.920 7  92390963.96245  22562820.766          44.200          31.700
                  22562822.184       -2172.977       -1693.111
 110097237.376 8  85790095.93946  20950820.078          51.100          41.200
                  20950823.723        1681.512        1310.346
 109464556.869 8  85297091.86147  20830415.688          50.900          42.200
                  20830418.797        -615.594        -479.537
 116947397.079 8  91127914.71246  22254358.820          48.100          37.500
                  22254365.512       -2723.113       -2121.844
 127243997.683 6  99151122.94743  24213719.586          37.900          22.300
                  24213727.133       -3696.473       -2880.265
 108258937.560 8  84357671.66747  20600994.023          53.600          44.300
                  20600999.820        1153.895         899.281
 123866137.183 7  96519116.92043  23570951.438          42.100          23.000
                  23570955.352        3135.848        2443.437
 18  2 20  9 30 30.0000000  0  7G02G05G07G09G06G30G13
 118633838.325 7  92441917.50645  22575264.297          43.800          32.800
                  22575265.484       -2186.320       -1703.445
 110047017.937 8  85750963.90046  20941263.469          51.000          40.900
                  20941267.324        1666.559        1298.816
 109483278.849 8  85311680.41246  20833978.125          51.800          41.900
                  20833981.566        -632.410        -492.586
 117029182.290 8  91191643.42546  22269922.414          48.400          36.900
                  22269928.129       -2729.281       -2126.571
 127354915.314 5  99237552.19443  24234825.617          35.200          19.900
                  24234834.551       -3698.402       -2881.712
 108224591.482 8  84330908.49447  20594458.047          53.100          44.700
                  20594464.363        1135.980         885.376
 123772137.007 6  96445870.07743  23553063.523          41.600          22.800
                  23553067.496        3131.105        2439.834
 18  2 20  9 31  0.0000000  0  7G02G05G07G09G06G30G13
 118699624.982 7  92493179.79145  22587782.859          43.700          32.600
                  22587784.926       -2199.445       -1713.697
 109997242.454 8  85712177.80846  20931791.516          50.500          41.200
                  20931795.086        1651.820        1287.275
 109502502.192 8  85326659.62846  20837636.578          50.200          41.600
                  20837639.609        -649.117        -505.611
 117111148.369 7  91255513.07446  22285520.234          47.300          37.300
                  22285525.316       -2735.125       -2131.251
 127465884.753 6  99324021.82543  24255943.063          38.700          20.100
                  24255951.344       -3699.734       -2882.978
 108190780.824 8  84304562.53547  20588024.328          53.000          44.400
                  20588030.480        1118.066         871.449
 123678275.189 7  96372730.99944  23535202.680          42.800          24.800
                  23535206.137        3126.469        2436.225
 18  2 20  9 31 30.0000000  0  7G02G05G07G09G06G30G13
 118765805.063 7  92544748.64845  22600376.000          44.300          32.000
                  22600378.016       -2212.555       -1723.875
 109947911.718 8  85673738.27446  20922404.188          51.200          40.900
                  20922407.781        1636.949        1275.736
 109522225.417 8  85342028.35446  20841389.203          50.900          41.300
                  20841393.102        -665.719        -518.534
 117193293.953 7  91319522.59446  22301151.648          47.800          37.200
                  22301158.090       -2741.137       -2135.875
 127576902.918 6  99410529.43143  24277068.578          36.000          19.600
                  24277077.148       -3701.371       -2884.133
 108157505.819 8  84278633.96547  20581692.273          53.200          44.500
                  20581698.668        1100.270         857.571
 123584552.184 7  96299700.07143  23517367.773          42.100          22.900
                  23517370.547        3121.746        2432.643
 18  2 20  9 32  0.0000000  0  7G02G05G07G09G06G30G13
 118832376.238 7  92596622.26845  22613044.320          44.500          32.600
                  22613046.617       -2225.453       -1733.986
 109899027.678 8  85635646.81946  20913101.844          50.300          41.200
                  20913105.738        1622.059        1264.100
 109542447.327 8  85357785.68947  20845237.531          51.400          42.100
                  20845241.676        -682.301        -531.490
 117275618.040 8  91383671.18046  22316817.930          49.100          37.300
                  22316823.746       -2747.086       -2140.517
 127687966.966 6  99497072.75243  24298204.977          39.500          20.900
                  24298212.656       -3702.785       -2885.330
 108124767.072 8  84253123.25647  20575462.273          53.000          44.500
                  20575468.324        1082.391         843.633
 123490969.365 6  96226778.42143  23499559.234          41.500          23.300
                  23499562.746        3117.039        2428.978
 18  2 20  9 32 30.0000000  0  7G02G05G07G09G06G30G13
 118899336.091 7  92648798.71045  22625787.203          45.000          33.300
                  22625788.645       -2238.297       -1744.080
 109850592.684 8  85597905.27446  20903885.031          50.300          40.600
                  20903888.648        1607.113        1252.386
 109563167.329 8  85373931.13346  20849180.492          51.400          41.600
                  20849184.391        -698.863        -544.426
 117358119.683 8  91447958.14646  22332517.117          49.100          36.800
                  22332522.293       -2752.875       -2145.121
 127799074.088 6  99583649.70443  24319348.266          38.600          19.600
                  24319355.445       -3704.277       -2886.415
 108092565.273 8  84228030.95047  20569334.469          53.200          44.300
                  20569340.422        1064.617         829.655
 123397527.443 7  96153966.52244  23481777.438          42.300          24.400
                  23481781.695        3112.414        2425.282
 18  2 20  9 33  0.0000000  0  7G02G05G07G09G06G30G13
 118966682.509 7  92701276.42445  22638602.070          44.600          32.800
                  22638603.891       -2251.309       -1754.088
 109802608.671 8  85560515.12646  20894754.102          50.200          40.700
                  20894757.504        1591.945        1240.682
 109584384.146 8  85390463.72146  20853217.781          51.100          41.700
                  20853221.238        -715.500        -557.307
 117440798.020 8  91512382.79846  22348250.641          48.000          36.300
                  22348256.211       -2758.867       -2149.677
 127910221.518 6  99670258.01543  24340497.750          40.100          22.000
                  24340506.133       -3705.414       -2887.382
 108060901.051 8  84203357.53647  20563308.672          52.600          44.200
                  20563314.734        1046.465         815.708
 123304226.912 6  96081264.84444  23464022.539          40.400          24.600
                  23464026.445        3107.633        2421.620
 18  2 20  9 33 30.0000000  0  7G02G05G07G09G06G30G13
 119034412.997 7  92754053.37545  22651491.539          44.900          33.000
                  22651493.113       -2263.930       -1763.985
 109755077.113 8  85523477.55446  20885708.984          50.500          40.600
                  20885712.613        1577.035        1228.925
 109606096.759 8  85407382.63547  20857349.516          51.700          42.100
                  20857353.047        -731.777        -570.136
 117523651.986 8  91576944.30146  22364017.094          48.300          36.600
                  22364022.828       -2764.508       -2154.211
 128021406.534 6  99756895.58843  24361656.516          37.600          20.400
                  24361663.730       -3706.637       -2888.353
 108029774.871 8  84179103.36747  20557385.961          51.700          44.100
                  20557391.691        1028.793         801.759
 123211069.137 6  96008674.35944  23446296.039          40.600          24.000
                  23446299.672        3102.953        2417.918
 18  2 20  9 34  0.0000000  0  7G02G05G07G09G06G30G13
 119102524.900 7  92807127.54445  22664452.375          45.100          33.300
                  22664454.840       -2276.672       -1773.866
 109707999.630 8  85486793.80046  20876750.859          50.500          41.200
                  20876754.063        1561.699        1217.118
 109628304.170 8  85424687.10846  20861575.805          50.000          41.400
                  20861578.621        -748.465        -582.979
 117606680.591 7  91641641.86946  22379816.703          47.800          37.100
                  22379822.891       -2770.477       -2158.725
 128132626.121 6  99843560.14343  24382820.727          37.600          20.400
                  24382827.621       -3707.762       -2889.154
 107999187.306 8  84155268.90747  20551564.914          52.500          43.800
                  20551570.840        1010.605         787.755
 123118054.776 7  95936195.63544  23428596.641          42.800          25.500
                  23428599.746        3098.125        2414.198
 18  2 20  9 34 30.0000000  0  7G02G05G07G09G06G30G13
 119171015.548 7  92860496.84845  22677485.859          44.700          31.800
                  22677487.352       -2289.383       -1783.710
 109661377.732 8  85450465.05646  20867878.609          51.600          41.300
                  20867882.238        1546.418        1205.207
 109651005.151 8  85442376.17546  20865895.781          50.200          41.600
                  20865898.441        -764.902        -595.819
 117689882.694 7  91706474.63346  22395649.508          46.800          36.100
                  22395655.570       -2776.410       -2163.258
 128243877.395 6  99930249.38443  24403990.336          37.500          22.000
                  24403999.609       -3708.895       -2890.025
 107969138.663 8  84131854.38247  20545847.086          52.000          45.100
                  20545852.895         992.641         773.708
 123025184.572 6  95863829.19744  23410924.438          41.700          24.700
                  23410926.516        3093.297        2410.386
 18  2 20  9 35  0.0000000  0  7G02G05G07G09G06G30G13
 119239882.545 7  92914159.42045  22690590.797          45.400          33.100
                  22690592.773       -2301.801       -1793.422
 109615213.401 8  85414492.84546  20859093.938          51.100          41.000
                  20859097.629        1531.121        1193.338
 109674198.401 8  85460448.83746  20870309.031          51.500          41.600
                  20870312.324        -781.254        -608.577
 117773257.386 8  91771441.87246  22411515.039          48.500          36.300
                  22411521.137       -2782.031       -2167.691
 128355157.732 6 100016961.14143  24425166.836          36.900          19.900
                  24425175.355       -3709.934       -2890.738
 107939629.549 8  84108860.27947  20540231.781          52.600          44.300
                  20540237.766         974.664         759.714
 122932459.197 6  95791575.66944  23393278.320          40.700          24.400
                  23393281.656        3088.508        2406.645
 18  2 20  9 35 30.0000000  0  7G02G05G07G09G06G30G13
 119309123.312 7  92968113.21745  22703766.734          44.600          32.300
                  22703768.930       -2314.227       -1803.154
 109569508.226 8  85378878.42646  20850396.625          50.300          41.400
                  20850400.391        1515.922        1181.332
 109697882.957 8  85478904.33746  20874816.148          50.700          41.400
                  20874819.105        -797.594        -621.372
 117856803.683 7  91836542.85445  22427414.031          47.300          35.000
                  22427419.008       -2787.711       -2172.210
 128466464.068 6 100103693.35843  24446347.734          36.100          19.000
                  24446355.570       -3710.820       -2891.433
 107910660.402 8  84086286.91747  20534718.977          52.900          44.000
                  20534724.957         956.648         745.630
 122839879.935 6  95719435.97943  23375661.297          40.800          22.800
                  23375664.730        3083.605        2402.784
 18  2 20  9 36  0.0000000  0  7G02G05G07G09G06G30G13
 119378735.859 7  93022356.72545  22717014.156          45.500          31.900
                  22717015.297       -2326.504       -1812.767
 109524264.994 8  85343623.97046  20841786.758          50.700          40.900
                  20841790.242        1500.430        1169.314
 109722058.064 8  85497742.07746  20879416.117          51.500          41.700
                  20879419.645        -813.965        -634.083
 117940520.839 7  91901776.97446  22443344.766          47.000          36.200
                  22443350.629       -2793.430       -2176.634
 128577794.057 5 100190443.90843  24467532.211          35.900          19.600
                  24467542.254       -3711.305       -2892.011
 107882231.896 8  84064134.83747  20529309.063          52.300          43.900
                  20529315.086         938.637         731.592
 122747447.932 6  95647411.03444  23358071.969          41.800          25.800
                  23358075.938        3078.707        2398.941
 18  2 20  9 36 30.0000000  0  7G02G05G07G09G06G30G13
 119448717.391 7  93076887.73645  22730331.070          44.600          32.700
                  22730332.746       -2338.945       -1822.308
 109479484.864 8  85308730.36046  20833265.523          50.300          41.400
                  20833269.215        1484.910        1157.297
 109746722.045 8  85516960.76646  20884109.711          49.900          41.300
                  20884113.715        -830.324        -646.764
 118024407.666 7  91967143.29546  22459306.977          46.700          36.100
                  22459314.195       -2799.043       -2181.002
 128689144.582 6 100277210.47943  24488722.398          38.500          19.600
                  24488731.152       -3711.926       -2892.466
 107854344.306 8  84042404.24347  20524002.406          52.200          44.400
                  20524008.367         920.496         717.556
 122655163.321 6  95575500.93343  23340511.031          41.600          23.500
                  23340514.488        3073.723        2395.162
 18  2 20  9 37  0.0000000  0  7G02G05G07G09G06G30G13
 119519065.651 7  93131704.50945  22743717.945          45.500          32.600
                  22743719.270       -2351.078       -1831.808
 109435169.550 8  85274198.95146  20824832.531          51.000          41.700
                  20824835.895        1469.434        1145.210
 109771873.983 8  85536559.67046  20888895.844          50.700          41.300
                  20888899.457        -846.547        -659.401
 118108463.361 7  92032641.16646  22475303.445          46.500          36.200
                  22475308.965       -2804.633       -2185.372
 128800513.046 6 100363991.02143  24509914.828          36.400          19.000
                  24509923.824       -3712.750       -2892.876
 107826998.088 8  84021095.50747  20518798.469          52.500          44.300
                  20518804.227         902.477         703.510
 122563027.121 7  95503706.46144  23322977.945          42.000          26.500
                  23322981.500        3068.707        2391.293
 18  2 20  9 37 30.0000000  0  7G02G05G07G09G06G30G13
 119589777.815 7  93186804.89145  22757174.164          45.100          31.600
                  22757175.117       -2363.219       -1841.273
 109391320.569 8  85240030.91646  20816488.781          50.500          41.700
                  20816492.434        1453.703        1133.018
 109797512.399 8  85556537.65446  20893774.898          50.000          40.600
                  20893778.691        -862.922        -672.071
 118192686.762 7  92098269.76346  22491330.188          46.300          36.000
                  22491335.168       -2810.367       -2189.774
 128911896.450 6 100450783.20343  24531111.445          38.900          21.500
                  24531119.672       -3712.957       -2893.248
 107800193.564 8  84000208.87047  20513697.922          52.400          44.800
                  20513703.660         884.305         689.373
 122471040.734 7  95432028.74844  23305473.680          43.000          26.000
                  23305477.406        3063.559        2387.336
 18  2 20  9 38  0.0000000  0  7G02G05G07G09G06G30G13
 119660851.248 7  93242186.73145  22770699.156          45.800          32.900
                  22770700.684       -2375.102       -1850.573
 109347939.651 8  85206227.61046  20808233.688          49.800          41.300
                  20808236.988        1438.219        1120.894
 109823636.081 8  85576893.76146  20898746.250          49.500          41.300
                  20898749.418        -878.801        -684.598
 118277076.746 7  92164028.19145  22507388.844          45.600          35.100
                  22507394.742       -2815.645       -2194.009
 129023291.947 6 100537584.84842  24552307.266          36.100          17.800
                  24552317.008       -3713.352       -2893.514
 107773930.946 8  83979744.49547  20508700.148          52.800          44.800
                  20508706.148         866.352         675.349
 122379204.405 7  95360467.99544  23287997.531          42.700          25.900
                  23288001.191        3058.734        2383.479
 18  2 20  9 38 30.0000000  0  6G02G05G07G09G30G13
 119732284.069 7  93297848.63145  22784292.070          44.800          31.800
                  22784293.453       -2387.047       -1859.879
 109305028.882 8  85172790.64746  20800067.742          50.800          41.100
                  20800071.094        1422.590        1108.657
 109850244.476 8  85597627.57446  20903809.367          51.300          41.300
                  20903812.699        -894.957        -697.184
 118361632.969 7  92229916.10845  22523479.352          46.200          35.800
                  22523486.160       -2821.246       -2198.334
 107748211.082 8  83959703.04247  20503806.023          52.800          44.500
                  20503811.738         848.367         661.250
 122287519.431 7  95289025.15944  23270550.375          42.300          26.600
                  23270554.551        3053.719        2379.524
 18  2 20  9 39  0.0000000  0  6G02G05G07G09G30G13
 119804073.585 7  93353788.48745  22797953.734          44.300          31.400
                  22797954.277       -2399.016       -1869.138
 109262589.993 8  85139721.38546  20791991.828          50.500          41.400
                  20791995.227        1406.699        1096.342
 109877336.070 8  85618737.91646  20908964.922          50.500          41.300
                  20908968.262        -911.148        -709.768
 118446354.347 7  92295932.70146  22539601.867          47.100          36.900
                  22539608.488       -2826.898       -2202.655
 107723034.343 8  83940084.81447  20499014.586          51.900          44.600
                  20499020.902         830.156         647.086
 122195986.713 7  95217700.99844  23253132.117          42.200          27.900
                  23253136.117        3048.465        2375.535
 18  2 20  9 39 30.0000000  0  6G02G05G07G09G30G13
 119876216.958 7  93410004.05845  22811682.117          44.900          32.600
                  22811683.613       -2410.656       -1878.281
 109220624.888 8  85107021.30146  20784006.031          50.400          41.100
                  20784009.707        1390.910        1084.052
 109904909.783 8  85640223.92546  20914211.875          50.700          41.100
                  20914215.070        -927.129        -722.236
 118531239.999 7  92362077.32845  22555754.898          47.300          35.200
                  22555760.402       -2832.180       -2206.866
 107698401.041 8  83920890.03347  20494327.117          52.800          44.400
                  20494333.379         812.031         633.023
 122104607.108 7  95146496.16144  23235743.688          43.000          26.700
                  23235747.387        3043.418        2371.569
 18  2 20  9 40  0.0000000  0  6G02G05G07G09G30G13
 119948711.468 7  93466493.24645  22825476.945          44.200          30.500
                  22825478.148       -2422.348       -1887.412
 109179134.401 8  85074691.05046  20776110.594          51.000          41.100
                  20776114.574        1374.961        1071.637
 109932963.865 8  85662084.25946  20919550.414          51.000          41.400
                  20919553.551        -943.242        -734.755
 118616288.369 7  92428348.78145  22571938.406          46.900          34.500
                  22571944.031       -2837.746       -2211.125
 107674310.947 8  83902118.52647  20489743.336          52.700          44.400
                  20489749.156         793.945         618.858
 122013381.052 7  95075410.97944  23218383.867          42.900          27.200
                  23218387.797        3038.117        2367.541
 18  2 20  9 40 30.0000000  0  6G02G05G07G09G30G13
 120021554.245 7  93523253.82745  22839338.813          45.400          31.900
                  22839339.941       -2433.855       -1896.384
 109138120.503 8  85042732.16946  20768306.203          50.700          41.100
                  20768309.832        1359.203        1059.299
 109961497.040 8  85684317.89346  20924980.336          50.900          41.100
                  20924984.074        -959.082        -747.138
 118701498.682 7  92494746.37245  22588154.086          46.200          34.800
                  22588160.723       -2842.988       -2215.272
 107650764.356 8  83883770.53047  20485262.242          52.100          44.800
                  20485268.285         775.895         604.784
 121922309.403 7  95004446.05744  23201053.039          42.800          27.300
                  23201056.840        3033.297        2363.550
 18  2 20  9 41  0.0000000  0  6G02G05G07G09G30G13
 120094742.646 7  93580283.71245  22853265.398          43.600          31.600
                  22853267.254       -2445.402       -1905.336
 109097584.266 8  85011145.48846  20760592.477          50.500          40.900
                  20760595.953        1343.133        1046.858
 109990507.794 8  85706923.66647  20930501.063          50.900          42.000
                  20930504.473        -975.031        -759.527
 118786869.672 8  92561269.17145  22604399.648          48.100          35.900
                  22604406.855       -2848.414       -2219.445
 107627761.327 8  83865846.09747  20480884.617          52.800          44.100
                  20480890.711         757.730         590.652
 121831392.859 7  94933602.01344  23183752.555          43.700          26.100
                  23183756.371        3027.777        2359.498
 18  2 20  9 41 30.0000000  0  6G02G05G07G09G30G13
 120168274.722 7  93637581.37745  22867258.711          45.200          31.900
                  22867259.465       -2456.797       -1914.201
 109057527.988 8  84979932.80546  20752969.758          50.800          40.900
                  20752973.523        1327.129        1034.408
 110019995.315 8  85729900.94846  20936112.063          51.000          41.300
                  20936115.496        -990.902        -771.864
 118872400.710 7  92627916.70045  22620675.742          47.700          34.500
                  22620682.164       -2853.715       -2223.566
 107605302.494 8  83848345.70147  20476611.086          52.800          44.300
                  20476617.035         739.531         576.533
 121740632.571 7  94862879.71944  23166480.898          42.400          25.500
                  23166484.785        3022.688        2355.477
 18  2 20  9 42  0.0000000  0  6G02G05G07G09G30G13
 120242147.270 7  93695144.41045  22881315.672          43.600          30.900
                  22881317.148       -2468.000       -1922.997
 109017952.793 8  84949094.99246  20745438.563          51.100          41.100
                  20745442.512        1311.094        1021.869
 110049958.065 8  85753248.54946  20941813.813          51.000          40.800
                  20941816.918       -1006.629        -784.218
 118958090.771 7  92694688.15345  22636981.109          45.800          33.500
                  22636987.176       -2858.887       -2227.694
 107583387.829 8  83831269.34147  20472440.680          52.700          44.500
                  20472446.766         721.477         562.391
 121650029.143 7  94792279.64244  23149240.453          42.600          27.600
                  23149243.988        3017.648        2351.358
 18  2 20  9 42 30.0000000  0  6G02G05G07G09G30G13
 120316358.086 7  93752970.97645  22895438.758          44.500          32.000
                  22895440.121       -2479.262       -1931.771
 108978861.361 8  84918634.13446  20738000.078          51.200          40.800
                  20738003.504        1295.008        1009.286
 110080395.382 8  85776965.94146  20947605.484          51.000          40.300
                  20947608.996       -1022.465        -796.532
 119043939.294 7  92761583.05445  22653319.070          47.700          34.800
                  22653324.078       -2864.336       -2231.824
 107562017.984 8  83814617.51447  20468374.039          52.300          44.300
                  20468380.449         703.270         548.222
 121559583.720 7  94721802.66644  23132028.656          42.800          29.100
                  23132032.582        3012.273        2347.250
 18  2 20  9 43  0.0000000  0  7G02G05G07G28G09G30G13
 120390903.969 7  93811058.65545  22909623.203          43.500          30.400
                  22909625.031       -2490.414       -1940.449
 108940254.085 8  84888550.54346  20730653.211          51.400          40.500
                  20730656.789        1278.879         996.700
 110111305.238 8  85801051.54246  20953487.406          51.100          40.300
                  20953490.641       -1038.129        -808.761
 127655599.170 6  99471890.72643  24292047.055          37.700          20.900
                  24292051.090        3219.504        2508.737
 119129944.610 8  92828600.16545  22669684.758          48.800          35.100
                  22669690.891       -2869.512       -2235.883
 107541192.504 8  83798389.86547  20464411.633          52.500          44.600
                  20464417.719         685.125         534.092
 121469296.990 7  94651449.36244  23114847.906          43.000          28.300
                  23114851.949        3006.906        2343.119
 18  2 20  9 43 30.0000000  0  7G02G05G07G28G09G30G13
 120465782.267 7  93869405.35245  22923872.734          43.400          31.400
                  22923874.008       -2501.641       -1949.039
 108902132.667 8  84858845.53946  20723399.172          51.100          40.900
                  20723402.406        1262.508         984.047
 110142685.559 8  85825503.73446  20959459.172          50.800          40.300
                  20959462.773       -1053.875        -820.983
 127559049.442 5  99396657.34742  24273671.797          34.100          16.300
                  24273678.922        3217.090        2506.924
 119216105.697 7  92895738.62246  22686080.727          47.800          36.300
                  22686087.695       -2874.719       -2239.916
 107520911.353 8  83782586.36947  20460552.305          52.500          44.300
                  20460558.449         666.828         519.934
 121379169.156 7  94581219.89444  23097697.125          42.700          28.100
                  23097700.555        3001.508        2338.957
 18  2 20  9 44  0.0000000  0  7G02G05G07G28G09G30G13
 120540990.652 7  93928009.22745  22938183.820          43.600          31.200
                  22938186.426       -2512.402       -1957.574
 108864499.317 8  84829520.84646  20716237.602          50.900          41.000
                  20716241.207        1246.258         971.368
 110174536.075 8  85850322.30346  20965520.102          50.300          41.000
                  20965523.500       -1069.465        -833.140
 127462572.905 6  99321480.82843  24255314.758          37.900          19.600
                  24255318.750        3214.688        2504.976
 119302422.193 7  92962998.13045  22702506.102          46.400          34.700
                  22702513.066       -2879.762       -2243.911
 107501175.259 8  83767207.59747  20456796.320          52.800          44.700
                  20456802.516         648.852         505.811
 121289201.968 7  94511115.61744  23080576.352          43.800          28.700
                  23080581.012        2996.227        2334.797
 18  2 20  9 44 30.0000000  0  7G02G05G07G28G09G30G13
 120616526.855 6  93986868.58745  22952557.977          41.700          30.900
                  22952559.664       -2523.316       -1966.075
 108827355.698 8  84800577.76346  20709169.266          51.100          40.700
                  20709173.047        1229.816         958.597
 110206855.405 8  85875506.18746  20971670.383          50.700          40.800
                  20971673.535       -1085.207        -845.336
 127366171.713 5  99246363.16043  24236967.914          35.000          19.000
                  24236975.074        3212.008        2502.973
 119388893.282 7  93030378.16345  22718962.070          47.900          33.700
                  22718965.629       -2884.984       -2247.941
 107481984.522 8  83752253.78247  20453144.758          52.800          44.700
                  20453150.414         630.539         491.624
 121199396.516 7  94441137.35744  23063487.391          42.900          28.900
                  23063491.340        2990.770        2330.581
 18  2 20  9 45  0.0000000  0  7G02G05G07G28G09G30G13
 120692387.862 7  94045981.02745  22966993.766          44.100          31.800
                  22966995.980       -2534.086       -1974.462
 108790702.703 8  84772016.98946  20702194.484          50.200          40.900
                  20702198.469        1213.555         945.849
 110239641.741 8  85901053.97746  20977909.148          50.600          40.200
                  20977912.754       -1100.645        -857.445
 127269848.856 6  99171306.49143  24218640.258          38.400          18.600
                  24218645.023        3209.203        2500.860
 119475517.692 8  93097877.71445  22735445.430          48.300          34.600
                  22735450.719       -2890.051       -2251.885
 107463338.888 8  83737724.72347  20449596.219          52.900          44.500
                  20449602.387         612.422         477.467
 121109753.202 7  94371285.43245  23046429.289          43.000          30.200
                  23046432.414        2985.320        2326.354
 18  2 20  9 45 30.0000000  0  7G02G05G07G28G09G30G13
 120768571.138 6  94105344.56845  22981491.414          40.900          31.000
                  22981493.613       -2544.691       -1982.776
 108754542.415 8  84743840.13246  20695313.719          50.200          40.700
                  20695317.047        1197.242         933.060
 110272894.454 8  85926965.17346  20984237.133          50.700          39.700
                  20984240.059       -1116.090        -869.518
 127173607.722 5  99096313.44343  24200324.313          35.100          18.300
                  24200330.652        3206.648        2498.668
 119562294.731 7  93165496.11945  22751958.328          46.200          35.700
                  22751966.195       -2894.953       -2255.827
 107445238.644 8  83723620.64847  20446152.047          52.800          44.900
                  20446158.105         594.344         463.322
 121020273.131 7  94301560.69844  23029401.297          44.800          29.400
                  23029405.270        2980.117        2322.147
 18  2 20  9 46  0.0000000  0  7G02G05G07G28G09G30G13
 120845074.024 7  94164957.18945  22996048.938          43.800          30.800
                  22996051.168       -2555.441       -1991.083
 108718876.818 8  84716048.76046  20688526.547          50.700          41.000
                  20688529.801        1180.656         920.160
 110306611.710 8  85953238.34446  20990653.203          49.900          40.200
                  20990656.273       -1131.652        -881.591
 127077451.501 6  99021386.69143  24182028.641          38.600          20.900
                  24182032.656        3203.684        2496.425
 119649223.824 7  93233232.96445  22768500.711          47.300          35.600
                  22768507.715       -2900.137       -2259.790
 107427684.150 8  83709941.82147  20442811.617          53.500          45.300
                  20442817.578         576.086         449.111
 120930956.992 7  94231963.74444  23012405.313          44.100          29.400
                  23012409.406        2974.523        2317.849
 18  2 20  9 46 30.0000000  0  7G02G05G07G28G09G30G13
 120921893.896 6  94224816.80245  23010667.828          41.900          30.400
                  23010669.762       -2565.758       -1999.282
 108683707.053 8  84688643.74546  20681834.250          50.800          40.400
                  20681837.785        1164.156         907.248
 110340792.152 8  85979872.44546  20997157.898          50.500          40.500
                  20997160.777       -1146.934        -893.599
 126981382.278 6  98946527.53142  24163746.047          37.100          17.800
                  24163749.867        3201.148        2494.165
 119736303.667 8  93301087.34145  22785072.375          48.200          34.300
                  22785076.680       -2905.055       -2263.702
 107410675.242 8  83696688.12447  20439574.961          52.700          44.700
                  20439580.727         557.969         434.942
 120841805.664 7  94162495.19545  22995440.609          44.100          30.000
                  22995444.063        2969.020        2313.520
 18  2 20  9 47  0.0000000  0  7G02G05G07G28G09G30G13
 120999027.912 7  94284921.15945  23025345.836          43.800          31.000
                  23025348.012       -2576.508       -2007.420
 108649034.857 8  84661626.44446  20675236.023          50.500          40.600
                  20675239.754        1147.352         894.322
 110375434.270 8  86006866.29746  21003749.758          50.600          40.600
                  21003753.160       -1162.531        -905.587
 126885403.279 6  98871738.81843  24145481.852          37.000          22.200
                  24145487.070        3197.668        2491.786
 119823533.372 7  93369058.56445  22801670.641          47.000          32.500
                  22801675.508       -2910.324       -2267.599
 107394211.885 8  83683859.53647  20436441.938          53.400          44.900
                  20436448.129         539.578         420.771
 120752820.416 7  94093156.04244  22978507.102          45.100          29.700
                  22978510.211        2963.215        2309.213
 18  2 20  9 47 30.0000000  0  7G02G05G07G28G09G30G13
 121076473.123 6  94345268.06444  23040083.266          41.700          29.400
                  23040084.324       -2586.656       -2015.410
 108614860.951 8  84634997.42346  20668733.313          51.300          41.000
                  20668736.680        1130.820         881.412
 110410536.524 8  86034218.70146  21010429.766          50.800          40.200
                  21010433.336       -1177.758        -917.478
 126789516.992 5  98797022.37143  24127234.648          35.900          19.300
                  24127241.102        3194.465        2489.401
 119910911.821 7  93437145.60245  22818298.016          47.300          34.100
                  22818305.305       -2914.988       -2271.376
 107378293.852 8  83671455.87747  20433412.969          52.800          44.000
                  20433419.012         521.520         406.653
 120664001.693 7  94023946.65245  22961605.195          45.800          30.500
                  22961609.043        2957.797        2304.916
 18  2 20  9 48  0.0000000  0  7G02G05G07G28G09G30G13
 121154227.224 7  94405855.62345  23054879.789          42.300          30.200
                  23054881.113       -2596.766       -2023.394
 108581187.342 8  84608758.23846  20662325.500          51.000          41.300
                  20662328.355        1114.121         868.373
 110446097.761 8  86061928.74746  21017196.672          50.600          40.500
                  21017200.047       -1192.891        -929.384
 126693726.856 6  98722380.64843  24109008.570          39.000          20.900
                  24109012.145        3191.270        2486.839
 119998438.303 7  93505347.96245  22834954.453          47.300          35.900
                  22834961.609       -2919.879       -2275.216
 107362921.380 8  83659477.32547  20430487.672          52.300          45.200
                  20430493.402         503.477         392.474
 120575350.491 7  93954867.80245  22944735.281          45.600          31.000
                  22944738.918        2952.324        2300.547
 18  2 20  9 48 30.0000000  0  7G02G05G07G28G09G30G13
 121232287.171 7  94466681.55045  23069732.938          43.600          30.400
                  23069735.297       -2607.062       -2031.349
 108548015.503 8  84582910.05046  20656012.633          51.400          40.900
                  20656015.961        1097.422         855.293
 110482116.608 8  86089995.36746  21024050.945          50.500          40.700
                  21024054.031       -1208.234        -941.294
 126598035.668 5  98647816.21943  24090796.883          35.000          20.100
                  24090802.898        3188.152        2484.206
 120086111.916 7  93573664.99945  22851638.211          47.200          34.900
                  22851644.430       -2924.883       -2279.075
 107348094.486 8  83647923.90047  20427666.219          52.800          44.300
                  20427672.461         485.160         378.255
 120486867.558 7  93885920.08445  22927897.781          45.300          30.200
                  22927901.246        2946.609        2296.135
 18  2 20  9 49  0.0000000  0  7G02G05G07G28G09G30G13
 121310650.652 7  94527743.94445  23084645.938          42.100          30.000
                  23084647.066       -2617.219       -2039.237
 108515346.894 8  84557453.98346  20649796.305          51.300          40.800
                  20649799.613        1080.543         842.179
 110518591.634 8  86118417.46646  21030992.242          51.000          40.200
                  21030994.957       -1223.379        -953.127
 126502446.206 6  98573330.95943  24072608.688          37.700          19.900
                  24072612.160        3184.645        2481.519
 120173931.786 7  93642096.04345  22868349.039          47.000          31.600
                  22868354.637       -2929.750       -2282.862
 107333813.119 8  83636795.56647  20424948.625          53.000          44.600
                  20424954.809         466.898         364.067
 120398553.960 7  93817104.31644  22911092.383          46.000          29.600
                  22911095.344        2940.902        2291.696
 18  2 20  9 49 30.0000000  0  7G02G05G07G28G09G30G13
 121389314.627 7  94589040.53445  23099615.430          42.400          30.600
                  23099616.309       -2627.309       -2046.977
 108483183.190 8  84532391.35146  20643675.828          51.200          40.800
                  20643679.043        1063.699         829.081
 110555520.969 8  86147193.60146  21038019.039          51.600          40.500
                  21038022.215       -1238.637        -964.899
 126406961.510 6  98498927.33843  24054436.883          36.600          20.100
                  24054441.789        3181.027        2478.792
 120261897.000 7  93710640.34045  22885088.477          46.900          31.200
                  22885093.125       -2934.703       -2286.617
 107320077.167 8  83626092.22747  20422334.445          52.200          44.600
                  20422340.559         448.734         349.948
 120310410.374 7  93748421.00745  22894318.992          45.000          30.400
                  22894322.340        2935.227        2287.311
 18  2 20  9 50  0.0000000  0  7G02G05G07G28G09G30G13
 121468276.296 6  94650569.04944  23114641.070          40.800          29.000
                  23114642.262       -2636.941       -2054.621
 108451525.747 8  84507723.20746  20637651.711          51.700          40.800
                  20637654.590        1046.926         815.959
 110592903.475 8  86176322.81946  21045133.250          51.700          40.800
                  21045136.023       -1253.574        -976.619
 126311584.429 6  98424607.63043  24036287.664          38.700          21.300
                  24036293.676        3177.438        2475.956
 120350006.736 7  93779297.25245  22901855.844          47.900          34.700
                  22901862.461       -2939.375       -2290.340
 107306886.722 8  83615813.96747  20419824.266          51.600          44.700
                  20419830.504         430.656         335.799
 120222437.919 7  93679871.04944  22877578.383          45.700          29.400
                  22877581.805        2929.543        2282.870
 18  2 20  9 50 30.0000000  0  7G02G05G07G28G09G30G13
 121547532.985 7  94712327.47544  23129723.461          42.800          29.500
                  23129724.770       -2646.691       -2062.258
 108420375.779 8  84483450.50546  20631723.906          51.000          41.200
                  20631726.934        1029.938         802.732
 110630737.401 8  86205803.79046  21052332.500          51.300          40.200
                  21052335.695       -1268.562        -988.319
 126216317.898 6  98350373.98443  24018158.117          38.400          19.000
                  24018163.336        3173.852        2473.031
 120438259.782 7  93848065.76845  22918649.141          46.400          34.800
                  22918657.059       -2944.098       -2294.048
 107294241.351 8  83605960.42347  20417418.375          51.800          43.900
                  20417424.711         412.457         321.633
 120134637.134 7  93611454.87044  22860870.539          45.500          29.600
                  22860874.043        2923.938        2278.399
 18  2 20  9 51  0.0000000  0  7G02G05G07G28G09G30G13
 121627081.997 6  94774313.68844  23144861.016          39.900          29.900
                  23144862.098       -2656.355       -2069.824
 108389734.725 8  84459574.35146  20625893.344          51.600          41.300
                  20625896.602        1012.945         789.477
 110669021.207 8  86235635.31546  21059617.766          51.500          40.400
                  21059621.199       -1283.578       -1000.016
 126121164.908 6  98276228.89243  24000052.320          39.600          21.100
                  24000056.773        3169.879        2470.082
 120526655.444 7  93916945.39845  22935470.539          45.600          31.800
                  22935477.699       -2948.750       -2297.748
 107282141.102 8  83596531.65747  20415115.523          52.900          44.000
                  20415121.934         394.301         307.454
 120047009.055 7  93543173.26145  22844195.336          45.600          30.000
                  22844198.547        2918.125        2273.883
 18  2 20  9 51 30.0000000  0  7G02G05G07G28G09G30G13
 121706920.617 6  94836525.55344  23160053.578          41.900          28.600
                  23160054.992       -2666.062       -2077.328
 108359604.197 8  84436096.01546  20620159.555          51.200          41.500
                  20620162.531         995.773         776.196
 110707753.798 8  86265816.55846  21066988.344          52.100          40.000
                  21066991.516       -1298.645       -1011.644
 126026128.411 6  98202174.51143  23981967.047          39.200          18.600
                  23981969.527        3165.801        2466.975
 120615192.877 7  93985935.59445  22952319.648          45.300          30.600
                  22952322.883       -2953.594       -2301.433
 107270585.846 8  83587527.56047  20412916.461          52.500          44.500
                  20412922.902         376.066         293.294
 119959554.433 7  93475026.82345  22827553.328          45.200          30.700
                  22827557.117        2912.141        2269.359
 18  2 20  9 52  0.0000000  0  8G02G05G07G28G09G20G30G13
 121787046.357 6  94898961.17044  23175300.641          41.800          28.200
                  23175302.055       -2675.645       -2084.777
 108329985.888 8  84413016.81346  20614523.539          51.100          41.100
                  20614526.848         978.684         762.847
 110746933.851 8  86296346.47146  21074443.797          51.700          40.200
                  21074447.000       -1313.512       -1023.281
 125931211.593 6  98128213.42843  23963904.945          38.700          21.500
                  23963909.398        3161.852        2463.825
 120703871.433 7  94055035.77545  22969194.391          45.800          32.400
                  22969199.371       -2958.301       -2305.137
 128446876.290 6 100088517.67943  24442634.000          37.800          19.600
                  24442637.980        3572.453        2783.741
 107259575.762 8  83578948.27347  20410821.508          52.400          44.400
                  20410827.555         357.871         279.118
 119872274.788 7  93407016.73544  22810944.695          44.300          29.700
                  22810947.895        2906.305        2264.781
 18  2 20  9 52 30.0000000  0  8G02G05G07G28G09G20G30G13
 121867456.633 7  94961618.44044  23190603.164          42.900          27.000
                  23190604.262       -2684.957       -2092.136
 108300881.214 8  84390337.83946  20608984.969          50.500          41.400
                  20608988.016         961.531         749.510
 110786560.135 8  86327224.09146  21081984.820          51.200          40.300
                  21081987.652       -1328.328       -1034.842
 125836417.564 6  98054348.07043  23945865.898          38.000          20.100
                  23945870.836        3157.781        2460.632
 120792690.439 7  94124245.31745  22986095.055          43.100          33.300
                  22986102.824       -2962.996       -2308.743
 128339766.462 6 100005055.48143  24422252.930          38.100          20.400
                  24422255.449        3568.246        2780.490
 107249110.910 8  83570793.83647  20408830.109          52.900          44.700
                  20408836.285         339.781         264.983
 119785170.906 7  93339143.59245  22794369.242          43.800          30.600
                  22794372.664        2900.422        2260.199
 18  2 20  9 53  0.0000000  0  8G02G05G07G28G09G20G30G13
 121948147.715 7  95024494.61144  23205956.992          43.400          28.900
                  23205958.836       -2694.355       -2099.395
 108272290.546 8  84368059.39546  20603544.352          51.700          41.700
                  20603547.648         944.367         736.105
 110826629.829 8  86358447.21346  21089609.461          51.500          40.600
                  21089612.445       -1343.070       -1046.362
 125741748.355 6  97980579.92643  23927851.031          38.500          20.400
                  23927855.930        3153.625        2457.346
 120881648.123 7  94193562.88345  23003024.063          42.900          32.300
                  23003031.219       -2967.480       -2312.325
 128232784.348 6  99921692.79443  24401894.148          36.700          20.100
                  24401897.813        3564.137        2777.104
 107239190.157 8  83563063.37047  20406942.320          52.900          44.500
                  20406948.328         321.641         250.818
 119698243.113 7  93271407.65544  22777827.367          44.500          29.700
                  22777830.695        2894.645        2255.623
 18  2 20  9 53 30.0000000  0  8G02G05G07G28G09G20G30G13
 122029117.440 7  95087587.79044  23221366.984          42.100          28.500
                  23221368.008       -2703.613       -2106.561
 108244215.990 8  84346183.11446  20598202.008          51.100          40.900
                  20598205.371         927.223         722.730
 110867142.069 8  86390015.18546  21097319.344          52.000          40.400
                  21097322.316       -1357.770       -1057.814
 125647207.166 6  97906911.69143  23909860.172          38.100          19.900
                  23909865.625        3149.219        2453.978
 120970744.026 7  94262988.19145  23019978.758          44.900          31.600
                  23019983.766       -2972.082       -2315.897
 128125932.764 6  99838431.80843  24381561.047          37.100          20.400
                  24381564.496        3559.539        2773.715
 107229813.680 8  83555757.02347  20405158.305          53.000          44.900
                  20405164.059         303.531         236.721
 119611492.456 7  93203809.74944  22761319.406          45.000          29.400
                  22761322.367        2888.777        2251.036
 18  2 20  9 54  0.0000000  0  8G02G05G07G28G09G20G30G13
 122110362.512 7  95150895.62844  23236825.773          43.800          29.100
                  23236828.238       -2712.609       -2113.691
 108216658.457 8  84324709.71746  20592957.625          51.700          41.400
                  20592961.316         910.000         709.266
 110908095.014 8  86421926.56546  21105112.352          52.500          40.200
                  21105115.125       -1372.387       -1069.215
 125552796.651 6  97833344.99342  23891894.172          36.400          16.300
                  23891897.277        3144.793        2450.586
 121059976.868 7  94332520.32245  23036958.844          45.800          32.400
                  23036963.430       -2976.605       -2319.450
 128019213.699 5  99755274.09343  24361253.547          35.600          20.600
                  24361256.730        3555.121        2770.228
 107220980.950 8  83548874.37747  20403477.180          53.400          44.700
                  20403483.395         285.473         222.609
 119524919.468 7  93136350.28845  22744845.320          45.500          30.500
                  22744848.273        2882.848        2246.420
 18  2 20  9 54 30.0000000  0  8G02G05G07G28G09G20G30G13
 122191880.394 7  95214415.98244  23252339.313          42.400          28.900
                  23252340.574       -2721.750       -2120.803
 108189619.382 8  84303640.30146  20587812.680          51.400          41.200
                  20587815.988         892.652         695.775
 110949487.233 8  86454180.24946  21112988.547          52.500          40.700
                  21112991.551       -1387.000       -1080.651
 125458519.921 6  97759882.80043  23873953.898          37.000          21.100
                  23873958.238        3140.152        2447.004
 121149346.016 7  94402158.59545  23053963.773          43.600          30.900
                  23053971.703       -2981.199       -2323.017
 127912629.291 6  99672221.36443  24340970.383          38.700          21.700
                  24340974.699        3550.652        2766.721
 107212691.922 8  83542415.39047  20401900.008          53.000          45.300
                  20401905.891         267.277         208.447
 119438525.215 7  93069030.09945  22728404.859          45.100          30.600
                  22728408.254        2876.977        2241.740
 18  2 20  9 55  0.0000000  0  8G02G05G07G28G09G20G30G13
 122273668.046 7  95278146.60345  23267902.031          44.400          30.800
                  23267904.684       -2730.875       -2127.685
 108163100.035 8  84282975.87546  20582766.133          51.700          40.800
                  20582768.852         875.238         682.316
 110991316.871 8  86486774.75846  21120948.648          52.400          40.100
                  21120952.031       -1401.574       -1091.921
 125364379.809 6  97686526.88942  23856039.945          36.700          17.400
                  23856044.289        3135.844        2443.523
 121238850.527 7  94471902.26645  23070997.133          44.400          33.400
                  23071004.246       -2985.719       -2326.451
 127806182.418 6  99589275.70043  24320715.344          39.400          21.100
                  24320718.156        3545.820        2763.137
 107204946.186 8  83536379.75647  20400425.875          52.900          44.700
                  20400431.895         249.105         194.399
 119352310.574 7  93001849.87145  22711998.594          45.600          30.400
                  22712002.211        2870.848        2237.102
 18  2 20  9 55 30.0000000  0  8G02G05G07G28G09G20G30G13
 122355723.117 6  95342085.51744  23283518.305          40.500          28.900
                  23283518.398       -2739.676       -2134.633
 108137101.973 8  84262717.64047  20577818.852          51.900          42.000
                  20577821.703         857.824         668.706
 111033582.842 8  86519709.28046  21128991.758          52.400          40.900
                  21128994.801       -1416.141       -1103.293
 125270379.593 6  97613280.06343  23838152.445          38.200          20.400
                  23838156.520        3130.914        2439.784
 121328489.738 7  94541750.95445  23088055.797          46.400          34.400
                  23088062.438       -2990.230       -2329.981
 127699875.063 6  99506438.84043  24300485.805          38.800          21.500
                  24300488.727        3541.199        2759.474
 107197743.804 8  83530767.51047  20399055.547          53.200          44.200
                  20399061.176         230.984         180.254
 119266276.526 7  92934810.38345  22695626.742          45.600          30.400
                  22695630.301        2864.789        2232.369
 18  2 20  9 56  0.0000000  0  8G02G05G07G28G09G20G30G13
 122438042.236 7  95406230.29944  23299181.914          42.500          29.900
                  23299184.434       -2748.320       -2141.488
 108111626.020 8  84242866.24946  20572970.984          51.900          41.600
                  20572974.195         840.598         655.124
 111076282.939 8  86552982.08046  21137117.148          51.900          40.100
                  21137120.395       -1430.434       -1114.536
 125176521.710 6  97540144.13343  23820291.781          36.200          20.900
                  23820297.430        3126.164        2436.029
 121418262.420 7  94611703.65345  23105137.867          47.000          31.900
                  23105144.488       -2994.539       -2333.456
 127593709.311 6  99423712.27443  24280282.313          39.600          20.100
                  24280286.047        3536.516        2755.716
 107191084.102 8  83525578.13547  20397788.148          53.100          45.000
                  20397794.285         213.039         166.142
 119180424.015 7  92867912.32345  22679290.023          44.500          30.600
                  22679292.730        2858.805        2227.638
 18  2 20  9 56 30.0000000  0  8G02G05G07G28G09G20G30G13
 122520623.087 6  95470578.88944  23314896.984          39.900          28.900
                  23314898.613       -2756.820       -2148.259
 108086673.985 8  84223423.09846  20568222.430          51.900          41.400
                  20568225.863         822.965         641.521
 111119416.226 8  86586592.40446  21145325.047          52.400          40.900
                  21145328.164       -1445.020       -1125.771
 125082809.377 5  97467121.59243  23802458.063          35.900          19.600
                  23802463.156        3121.242        2432.232
 121508168.149 7  94681760.06345  23122245.883          43.400          30.700
                  23122251.570       -2999.105       -2336.883
 127487687.901 6  99341098.17143  24260107.188          40.100          21.300
                  24260110.801        3531.602        2751.966
 107184967.070 8  83520811.62347  20396623.844          52.500          44.900
                  20396629.688         194.957         152.070
 119094753.799 7  92801156.33545  22662987.266          45.200          30.200
                  22662990.777        2852.664        2222.908
 18  2 20  9 57  0.0000000  0  8G02G05G07G28G09G20G30G13
 122603462.592 6  95535129.17444  23330660.344          41.600          29.100
                  23330662.055       -2765.617       -2154.931
 108062246.784 8  84204388.91146  20563574.477          52.500          41.400
                  20563577.551         805.434         627.823
 111162980.983 8  86620538.97546  21153615.086          51.700          40.000
                  21153618.199       -1459.273       -1136.986
 124989245.519 6  97394214.74943  23784654.422          37.100          19.900
                  23784658.234        3116.270        2428.318
 121598205.820 7  94751919.22145  23139380.758          46.300          33.400
                  23139387.367       -3003.508       -2340.326
 127381812.821 6  99258598.12143  24239959.586          39.800          19.900
                  24239963.258        3526.719        2748.095
 107179392.240 8  83516467.60047  20395562.938          52.700          44.400
                  20395568.680         176.816         137.963
 119009266.720 7  92734543.04345  22646719.594          45.000          30.600
                  22646723.234        2846.531        2218.104
 18  2 20  9 57 30.0000000  0  8G02G05G07G28G09G20G30G13
 122686558.309 6  95599879.00044  23346473.531          40.800          27.900
                  23346475.324       -2773.949       -2161.470
 108038345.899 8  84185764.84246  20559026.227          51.400          41.700
                  20559029.023         787.879         614.184
 111206975.862 8  86654820.68946  21161986.906          51.900          40.400
                  21161990.539       -1473.648       -1148.094
 124895832.983 6  97321425.80143  23766877.391          37.000          19.300
                  23766881.145        3111.215        2424.353
 121688374.601 7  94822180.55045  23156539.555          47.200          34.700
                  23156546.516       -3007.785       -2343.677
 127276086.502 6  99176214.01443  24219841.438          40.800          21.300
                  24219843.949        3521.793        2744.268
 107174359.349 8  83512545.87547  20394605.383          52.700          44.700
                  20394611.566         158.770         123.951
 118923963.721 7  92668073.18145  22630486.742          45.400          30.200
                  22630490.527        2840.367        2213.360
 18  2 20  9 58  0.0000000  0  8G02G05G07G28G09G20G30G13
 122769906.699 6  95664825.76444  23362333.547          41.300          28.100
                  23362335.984       -2782.383       -2168.026
 108014972.315 8  84167551.66547  20554577.938          52.100          42.600
                  20554581.770         770.426         600.500
 111251398.412 8  86689435.65146  21170440.383          52.100          40.600
                  21170443.621       -1487.812       -1159.169
 124802574.802 6  97248757.09143  23749132.984          38.800          20.900
                  23749134.551        3105.934        2420.348
 121778673.521 7  94892543.27745  23173721.438          45.800          33.000
                  23173729.023       -3012.117       -2347.031
 127170511.189 6  99093947.54743  24199751.000          39.900          21.300
                  24199754.297        3516.727        2740.313
 107169867.842 8  83509046.01047  20393750.711          52.700          44.600
                  20393756.363         140.773         109.894
 118838845.648 7  92601747.41645  22614289.281          44.000          30.500
                  22614293.008        2834.234        2208.557
 18  2 20  9 58 30.0000000  0  8G02G05G07G28G09G20G30G13
 122853505.759 6  95729967.83044  23378241.625          39.600          26.200
                  23378243.574       -2790.937       -2174.576
 107992127.571 8  84149750.55846  20550231.188          51.700          41.600
                  20550234.129         752.492         586.684
 111296247.551 8  86724383.03646  21178974.992          51.600          40.900
                  21178978.199       -1502.215       -1170.296
 124709473.827 6  97176210.88843  23731414.836          38.300          20.900
                  23731418.754        3100.609        2416.206
 121869101.938 7  94963006.91945  23190930.242          44.700          31.100
                  23190935.539       -3016.469       -2350.430
 127065089.006 6  99011800.41243  24179689.742          39.500          21.100
                  24179693.059        3511.547        2736.304
 107165917.512 8  83505967.83347  20392999.273          51.700          44.400
                  20393004.695         122.590          95.772
 118753913.156 7  92535566.26444  22598127.406          44.300          29.600
                  22598131.000        2827.906        2203.655
 18  2 20  9 59  0.0000000  0  8G02G05G07G28G09G20G30G13
 122937351.803 6  95795302.38444  23394196.867          41.100          27.800
                  23394199.656       -2799.023       -2180.925
 107969812.359 8  84132362.07346  20545984.555          51.900          41.400
                  20545987.867         734.855         572.939
 111341521.592 8  86759661.52646  21187590.328          51.600          40.500
                  21187593.660       -1516.215       -1181.277
 124616532.838 6  97103789.38643  23713729.789          40.900          22.900
                  23713734.555        3095.070        2411.998
 121959658.643 7  95033570.57945  23208163.766          46.600          33.600
                  23208168.832       -3020.762       -2353.741
 126959822.486 6  98929774.56643  24159657.516          38.700          19.000
                  24159661.184        3506.164        2732.269
 107162507.599 8  83503310.77147  20392349.750          52.200          45.000
                  20392356.000         104.574          81.775
 118669167.582 7  92469530.76745  22582000.656          44.100          30.500
                  22582003.969        2821.656        2198.814
 18  2 20  9 59 30.0000000  0  8G02G05G07G28G09G20G30G13
 123021442.303 6  95860827.40444  23410199.047          40.100          26.700
                  23410201.004       -2806.797       -2187.206
 107948028.137 8  84115387.35547  20541839.250          51.400          42.200
                  20541842.500         717.426         559.152
 111387218.699 8  86795269.61346  21196286.094          52.400          40.500
                  21196289.477       -1530.074       -1192.217
 124523754.817 6  97031494.86443  23696074.422          39.000          22.500
                  23696079.332        3089.957        2407.745
 122050343.000 7  95104233.67445  23225419.805          46.600          35.400
                  23225427.625       -3024.766       -2357.034
 126854714.195 6  98847872.01543  24139656.844          39.600          21.300
                  24139659.574        3501.039        2728.111
 107159637.988 8  83501074.71947  20391803.930          52.200          44.700
                  20391809.738          86.793          67.764
 118584609.898 7  92403641.65745  22565910.156          43.600          30.800
                  22565912.996        2815.590        2193.943
                            4  1
RINEX FILE SPLICE; other post-header comments skipped       COMMENT
 18  2 20 10  0  0.0000000  0  8G02G05G07G28G09G20G30G13
 123105774.729 6  95926540.92744  23426247.242          40.900          26.800
                  23426249.398       -2815.160
 107926776.166 8  84098827.37347  20537795.055          51.300          42.500
                  20537798.480         699.426
 111433337.305 8  86831206.18846  21205062.055          52.400          40.400
                  21205065.652       -1544.395
 124431142.849 6  96959329.78143  23678451.086          40.700          23.800
                  23678456.586        3084.387
 122141154.090 7  95174995.46545  23242700.219          43.400          34.000
                  23242708.355       -3029.207
 126749766.034 6  98766094.24143  24119685.508          38.600          19.900
                  24119688.422        3495.539
 107157308.108 8  83499259.23647  20391360.391          51.300          44.100
                  20391366.609          68.574
 118500240.510 7  92337899.28344  22549854.633          44.400          29.700
                  22549858.301        2809.078
 18  2 20 10  0 30.0000000  0  8G02G05G07G28G09G20G30G13
 123190345.775 6  95992440.39744  23442340.805          40.800          26.100
                  23442342.031       -2822.922       -2199.624
 107906057.400 8  84082682.87447  20533852.578          51.700          42.900
                  20533855.730         681.785         531.459
 111479875.577 8  86867469.76246  21213918.453          52.100          40.300
                  21213921.730       -1558.207       -1214.039
 124338699.696 6  96887296.20143  23660858.641          40.200          20.400
                  23660862.883        3078.602        2398.955
 122232091.115 7  95245855.40645  23260004.898          44.500          31.600
                  23260010.836       -3033.375       -2363.567
 126644980.555 6  98684443.24043  24099746.172          38.400          21.500
                  24099749.012        3490.094        2719.631
 107155517.566 8  83497864.01847  20391019.688          51.700          44.600
                  20391025.676          50.715          39.736
 118416060.607 7  92272304.59544  22533835.758          43.900          29.600
                  22533839.605        2802.824        2184.078
 18  2 20 10  1  0.0000000  0  8G02G05G07G28G09G20G30G13
 123275152.827 6  96058523.76144  23458478.680          41.800          26.900
                  23458481.266       -2830.840       -2205.693
 107885872.891 8  84066954.68647  20530011.266          52.200          42.000
                  20530014.730         663.926         517.596
 111526832.225 8  86904059.33846  21222853.875          51.400          40.700
                  21222856.977       -1572.121       -1224.876
 124246428.217 6  96815396.38543  23643301.063          39.400          22.600
                  23643304.266        3072.719        2394.498
 122323153.184 7  95316812.87645  23277334.258          45.300          31.700
                  23277338.316       -3037.480       -2366.797
 126540360.019 6  98602920.78143  24079836.219          38.600          21.800
                  24079840.035        3484.473        2715.308
 107154265.788 8  83496888.61447  20390781.508          50.900          44.400
                  20390787.395          32.730          25.768
 118332071.110 7  92206858.20744  22517853.320          44.100          29.300
                  22517856.746        2796.484        2179.165
 18  2 20 10  1 30.0000000  0  8G02G05G07G28G09G20G30G13
 123360192.947 6  96124788.74644  23474661.117          41.200          26.300
                  23474663.328       -2838.465       -2211.749
 107866223.637 8  84051643.57147  20526272.086          51.900          42.300
                  20526275.516         646.035         503.629
 111574205.210 8  86940973.35446  21231868.625          52.400          40.200
                  21231871.691       -1586.066       -1235.699
 124154331.200 6  96743632.55943  23625774.867          38.000          20.400
                  23625777.523        3066.867        2389.907
 122414339.329 7  95387867.00145  23294686.148          46.300          34.100
                  23294694.227       -3041.594       -2370.025
 126435906.798 6  98521528.66243  24059960.141          39.000          20.600
                  24059963.109        3478.934        2710.926
 107153552.260 8  83496332.63047  20390646.180          51.600          44.800
                  20390651.715          14.863          11.780
 118248272.263 7  92141560.41845  22501906.758          44.900          30.500
                  22501910.586        2790.082        2174.193
 18  2 20 10  2  0.0000000  0  8G02G05G07G28G09G20G30G13
 123445463.273 7  96191233.11044  23490888.133          42.200          26.900
                  23490889.695       -2846.145       -2217.652
 107847111.168 8  84036750.74047  20522635.109          52.200          42.600
                  20522638.781         628.160         489.697
 111621993.221 8  86978210.75746  21240962.266          52.500          40.500
                  21240965.410       -1599.762       -1246.427
 124062411.836 6  96672007.05543  23608283.719          39.600          22.200
                  23608285.445        3060.988        2385.296
 122505648.929 7  95459017.22145  23312060.766          45.300          34.200
                  23312069.719       -3045.617       -2373.189
 126331623.433 6  98440268.93743  24040115.469          37.900          21.300
                  24040119.082        3473.238        2706.526
 107153376.619 8  83496195.77947  20390612.172          51.500          44.300
                  20390618.434          -3.031          -2.175
 118164665.771 7  92076412.51945  22485997.109          45.200          30.500
                  22486000.703        2783.727        2169.208
 18  2 20 10  2 30.0000000  0  8G02G05G07G28G09G20G30G13
 123530961.077 6  96257854.73144  23507157.117          41.100          26.800
                  23507159.758       -2853.535       -2223.575
 107828536.675 8  84022277.10547  20519100.961          51.900          42.700
                  20519104.367         610.176         475.672
 111670194.479 8  87015770.16846  21250134.594          52.200          40.500
                  21250137.797       -1613.547       -1257.174
 123970672.667 6  96600522.08643  23590825.672          36.500          22.600
                  23590830.387        3054.969        2380.540
 122597081.250 7  95530263.06745  23329461.367          46.300          32.700
                  23329467.863       -3049.781       -2376.422
 126227512.385 6  98359143.44943  24020304.258          38.100          22.000
                  24020307.180        3467.484        2701.974
 107153738.397 8  83496477.69047  20390681.125          52.000          44.800
                  20390687.035         -21.062         -16.163
 118081252.508 7  92011415.20044  22470123.773          45.000          29.100
                  22470127.762        2777.313        2164.124
 18  2 20 10  3  0.0000000  0  8G02G05G07G28G09G20G30G13
 123616683.567 6  96324651.40744  23523470.438          41.800          27.100
                  23523472.590       -2861.316       -2229.400
 107810500.984 8  84008223.31947  20515668.859          51.900          42.800
                  20515672.074         592.242         461.674
 111718807.221 8  87053650.21046  21259385.398          51.900          40.500
                  21259388.512       -1627.309       -1267.858
 123879117.167 6  96529180.18943  23573403.492          38.300          22.000
                  23573407.965        3048.668        2375.698
 122688635.158 7  95601603.77645  23346883.094          47.200          31.100
                  23346887.359       -3053.875       -2379.589
 126123575.779 6  98278153.89843  24000525.797          37.600          22.500
                  24000528.855        3461.441        2697.399
 107154636.842 8  83497177.78247  20390852.125          52.100          44.300
                  20390858.367         -38.910         -30.102
 117998033.108 7  91946568.91044  22454288.117          45.200          28.900
                  22454291.141        2770.746        2159.060
 18  2 20 10  3 30.0000000  0  8G02G05G07G28G09G20G30G13
 123702627.591 6  96391620.69544  23539824.164          40.600          25.000
                  23539826.691       -2868.441       -2235.079
 107793005.260 8  83994590.28947  20512339.172          51.400          42.500
                  20512342.656         574.250         447.636
 111767829.748 8  87091849.58246  21268714.148          52.600          40.500
                  21268717.188       -1640.762       -1278.454
 123787748.140 6  96457983.64444  23556016.102          37.600          24.600
                  23556021.938        3042.590        2370.850
 122780309.881 7  95673038.67645  23364327.859          47.700          33.000
                  23364334.586       -3057.840       -2382.693
 126019815.919 6  98197302.05043  23980780.945          37.500          22.600
                  23980783.809        3455.832        2692.849
 107156071.495 8  83498295.69547  20391125.203          52.200          44.100
                  20391131.285         -56.676         -43.992
 117915008.567 7  91881874.49345  22438489.008          45.100          30.000
                  22438492.148        2764.258        2154.031
 18  2 20 10  4  0.0000000  0  8G02G05G07G28G09G20G30G13
 123788790.413 6  96458760.51844  23556220.898          41.800          26.300
                  23556223.195       -2875.684       -2240.713
 107776050.304 8  83981378.62947  20509112.750          51.900          42.900
                  20509116.645         556.133         433.599
 111817260.107 8  87130366.73146  21278120.641          51.200          40.600
                  21278123.617       -1654.477       -1289.012
 123696568.202 6  96386934.41943  23538665.336          37.600          22.000
                  23538670.219        3036.113        2365.909
 122872104.651 7  95744566.95345  23381794.688          44.700          32.300
                  23381803.500       -3061.969       -2385.787
 125916235.453 6  98116589.98843  23961069.891          37.200          23.600
                  23961073.254        3449.629        2688.117
 107158041.712 8  83499830.94047  20391500.117          52.700          44.500
                  20391506.250         -74.562         -57.888
 117832179.674 7  91817332.50344  22422726.914          45.100          29.900
                  22422730.184        2757.738        2148.949
 18  2 20 10  4 30.0000000  0  8G02G05G07G28G09G20G30G13
 123875169.169 6  96526068.53944  23572658.375          41.400          26.600
                  23572661.211       -2882.793       -2246.283
 107759637.141 8  83968589.14947  20505989.609          52.000          43.500
                  20505993.289         538.145         419.519
 111867097.329 8  87169200.92246  21287604.023          51.600          39.900
                  21287607.402       -1667.922       -1299.573
 123605580.328 6  96316034.85543  23521350.875          39.200          22.800
                  23521354.883        3029.789        2360.903
 122964018.572 7  95816188.03545  23399288.086          46.800          33.900
                  23399294.168       -3065.680       -2388.827
 125812836.462 6  98036019.37643  23941393.797          37.700          21.500
                  23941396.699        3443.637        2683.400
 107160546.854 8  83501783.01247  20391976.867          52.200          45.000
                  20391982.961         -92.277         -71.757
 117749547.256 7  91752943.63844  22407002.273          44.600          29.700
                  22407006.375        2751.133        2143.833
 18  2 20 10  5  0.0000000  0  8G02G05G07G28G09G20G30G13
 123961760.842 7  96593542.56644  23589136.477          42.500          25.300
                  23589137.691       -2889.836       -2251.780
 107743766.788 8  83956222.64147  20502969.539          52.500          43.400
                  20502972.918         519.984         405.390
 111917339.660 8  87208350.78546  21297164.617          52.800          40.300
                  21297168.441       -1681.328       -1310.053
 123514787.504 6  96245287.27943  23504073.586          38.600          22.300
                  23504077.504        3023.133        2355.746
 123056050.738 7  95887901.39945  23416800.656          47.900          32.000
                  23416805.961       -3069.570       -2391.927
 125709621.790 6  97955592.37643  23921752.625          37.500          22.500
                  23921755.879        3437.480        2678.562
 107163586.409 8  83504151.49447  20392555.484          51.900          44.100
                  20392561.277        -110.117         -85.656
 117667112.329 7  91688708.65644  22391315.555          45.100          28.600
                  22391319.246        2744.570        2138.668
 18  2 20 10  5 30.0000000  0  8G02G05G07G28G09G20G30G13
 124048562.445 6  96661180.13344  23605654.469          41.400          24.700
                  23605656.348       -2896.887       -2257.183
 107728439.896 8  83944279.60847  20500052.969          52.200          43.500
                  20500056.742         501.855         391.285
 111967984.136 8  87247814.01046  21306802.102          51.400          40.200
                  21306805.777       -1694.867       -1320.461
 123424192.367 6  96174693.68143  23486833.328          40.200          21.500
                  23486836.195        3016.492        2350.646
 123148200.314 6  95959706.24844  23434334.531          41.600          27.400
                  23434340.512       -3073.559       -2394.920
 125606593.478 6  97875310.57443  23902147.016          37.900          22.300
                  23902149.781        3431.184        2673.736
 107167159.516 8  83506935.74047  20393235.297          52.100          45.200
                  20393240.895        -127.992         -99.484
 117584875.634 7  91624628.13144  22375666.000          44.800          28.800
                  22375669.883        2737.961        2133.540
 18  2 20 10  6  0.0000000  0  8G02G05G07G28G09G20G30G13
 124135571.749 6  96728979.49444  23622211.484          41.800          24.500
                  23622213.508       -2903.824       -2262.559
 107713658.308 8  83932761.48247  20497239.906          51.900          43.200
                  20497243.402         483.586         377.084
 112019030.074 8  87287590.06046  21316515.891          51.900          39.500
                  21316519.070       -1708.309       -1330.915
 123333798.340 6  96104256.82343  23469632.352          39.200          22.000
                  23469634.898        3009.758        2345.351
 123240466.907 7  96031602.18945  23451894.289          43.000          30.400
                  23451899.293       -3077.523       -2398.005
 125503753.926 6  97795175.86043  23882577.469          39.100          22.500
                  23882580.055        3424.770        2668.748
 107171265.967 8  83510135.57847  20394016.766          52.200          44.500
                  20394022.461        -145.809        -113.350
 117502838.253 7  91560702.92344  22360055.070          44.500          29.100
                  22360058.773        2731.094        2128.301
 18  2 20 10  6 30.0000000  0  8G02G05G07G28G09G20G30G13
 124222785.082 6  96796937.90243  23638806.938          39.600          22.500
                  23638808.988       -2910.602       -2267.841
 107699422.551 8  83921668.68047  20494531.188          52.500          43.200
                  20494534.688         465.445         362.913
 112070475.408 8  87327677.32346  21326305.711          51.500          39.800
                  21326309.031       -1721.512       -1341.234
 123243607.993 6  96033978.69943  23452469.383          40.300          22.200
                  23452472.152        3002.781        2340.032
 123332849.162 7  96103588.34645  23469473.617          45.100          31.700
                  23469480.230       -3081.363       -2400.975
 125401105.829 6  97715190.36443  23863044.000          38.800          22.200
                  23863046.902        3418.367        2663.763
 107175904.734 8  83513750.20047  20394899.555          52.400          45.000
                  20394905.086        -163.496        -127.164
 117421001.462 7  91496934.00144  22344482.609          45.000          29.800
                  22344485.551        2724.563        2123.120
 18  2 20 10  7  0.0000000  0  8G02G05G07G28G09G20G30G13
 124310199.944 6  96865053.28743  23655442.820          40.600          22.800
                  23655443.941       -2917.234       -2273.075
 107685733.563 8  83911001.93947  20491926.250          51.600          43.600
                  20491929.949         447.070         348.671
 112122318.427 8  87368074.49346  21336170.844          52.000          39.900
                  21336174.492       -1734.770       -1351.578
 123153624.214 6  95963861.48543  23435346.313          38.400          22.600
                  23435349.344        2995.980        2334.623
 123425346.516 7  96175664.09645  23487074.438          43.300          31.600
                  23487082.875       -3085.258       -2403.989
 125298651.515 6  97635355.83943  23843546.492          39.200          22.200
                  23843550.734        3411.656        2658.652
 107181075.279 8  83517779.19847  20395883.328          51.900          44.600
                  20395889.223        -181.207        -140.995
 117339365.785 7  91433321.79244  22328947.727          43.900          29.900
                  22328951.266        2717.828        2117.843
 18  2 20 10  7 30.0000000  0  8G02G05G07G28G09G20G30G13
 124397813.472 6  96933323.51843  23672114.609          39.500          21.800
                  23672116.316       -2923.695       -2278.196
 107672592.115 8  83900761.84947  20489425.633          51.800          44.200
                  20489429.219         428.953         334.430
 112174557.477 8  87408780.22846  21346111.492          51.700          39.700
                  21346115.223       -1747.824       -1361.851
 123063849.736 6  95893907.42644  23418262.508          40.600          24.800
                  23418268.074        2989.086        2329.088
 123517958.073 7  96247828.85044  23504697.813          42.800          26.000
                  23504704.359       -3088.898       -2406.958
 125196393.364 6  97555674.17443  23824088.688          39.900          22.200
                  23824091.957        3405.484        2653.494
 107186776.825 8  83522221.96547  20396968.719          52.800          45.000
                  20396974.398        -198.914        -154.790
 117257932.046 7  91369866.95345  22313450.820          43.900          30.700
                  22313454.941        2711.023        2112.565
 18  2 20 10  8  0.0000000  0  8G02G05G07G28G09G20G30G13
 124485622.697 6  97001746.22843  23688824.867          40.400          22.600
                  23688825.777       -2930.242       -2283.184
 107659999.414 8  83890949.36147  20487029.070          51.600          43.900
                  20487032.727         410.699         320.213
 112227191.001 8  87449793.36446  21356127.500          51.400          39.800
                  21356131.055       -1760.887       -1372.005
 122974287.685 6  95824118.87243  23401218.992          38.900          22.000
                  23401223.902        2981.891        2323.622
 123610683.131 7  96320082.15344  23522344.203          45.000          28.600
                  23522347.938       -3092.613       -2409.845
 125094333.724 6  97476147.16843  23804666.797          38.900          21.700
                  23804670.512        3398.820        2648.411
 107193008.779 8  83527078.03747  20398154.234          52.400          45.100
                  20398160.168        -216.461        -168.492
 117176701.319 7  91306570.30045  22297993.680          45.700          30.400
                  22297997.457        2704.449        2107.339
 18  2 20 10  8 30.0000000  0  8G02G05G07G28G09G20G30G13
 124573624.454 6  97070318.98143  23705570.531          40.200          23.200
                  23705572.117       -2936.559       -2288.132
 107647956.148 8  83881564.99447  20484737.625          51.600          43.400
                  20484740.945         392.242         305.917
 112280217.020 8  87491112.34246  21366218.156          51.600          39.600
                  21366221.621       -1774.102       -1382.203
 122884940.916 6  95754498.06044  23384217.359          40.400          24.700
                  23384222.727        2974.469        2317.987
 123703520.673 7  96392423.08845  23540009.992          45.700          31.800
                  23540016.824       -3096.391       -2412.757
 124992475.201 6  97396776.93643  23785283.906          39.800          22.000
                  23785287.109        3391.836        2643.145
 107199770.314 8  83532346.77047  20399441.039          52.800          44.700
                  20399446.848        -234.199        -182.260
 117095674.504 7  91243432.52445  22282574.922          45.200          31.700
                  22282578.457        2697.531        2102.033
 18  2 20 10  9  0.0000000  0  8G02G05G07G28G09G20G30G13
 124661816.161 6  97139039.71743  23722353.563          39.400          22.200
                  23722354.691       -2942.965       -2293.098
 107636463.089 8  83872609.36547  20482550.086          50.900          43.700
                  20482553.652         373.840         291.570
 112333633.953 8  87532735.92546  21376382.914          50.900          39.200
                  21376386.414       -1787.090       -1392.379
 122795812.241 6  95685047.22943  23367256.438          39.900          22.200
                  23367261.609        2967.211        2312.230
 123796469.853 7  96464850.91944  23557696.398          42.800          29.600
                  23557705.441       -3100.152       -2415.675
 124890819.947 6  97317565.06943  23765939.016          40.500          22.000
                  23765942.727        3385.039        2637.769
 107207060.501 8  83538027.43847  20400828.164          52.400          45.100
                  20400834.086        -251.836        -196.032
 117014852.422 7  91180454.29045  22267195.188          45.600          32.100
                  22267198.301        2690.566        2096.661
