     2.11           OBSERVATION DATA    G (GPS)             RINEX VERSION / TYPE
teqc  2016Nov7                          20180403 09:55:33UTCPGM / RUN BY / DATE
Linux 2.4.21-27.ELsmp|Opteron|gcc|Linux x86_64|=+           COMMENT
teqc  2016Nov7                          20180403 09:55:32UTCCOMMENT
     2.11           OBSERVATION DATA    M (MIXED)           COMMENT
teqc  2016Nov7                          20180403 09:55:30UTCCOMMENT
teqc  2016Nov7      IGN-RGP             20180220 09:11:04UTCCOMMENT
TPP 3.10.3                              20-FEB-18 07:59     COMMENT
                                                            COMMENT
                                                            COMMENT
                                                            COMMENT
CHE2                                                        MARKER NAME
19989M002                                                   MARKER NUMBER
Automatic           SAT-INFO                                OBSERVER / AGENCY
5502R50014          TRIMBLE NETR9       4.81                REC # / TYPE / VERS
60073464            TRM41249.00     TZGD                    ANT # / TYPE
  4215066.5540   212263.8100  4766322.2090                  APPROX POSITION XYZ
        0.0000        0.0000        0.0000                  ANTENNA: DELTA H/E/N
     1     1                                                WAVELENGTH FACT L1/2
     9    C1    L1    S1    P2    L2    S2    C5    L5    S5# / TYPES OF OBSERV
    30.0000                                                 INTERVAL
     0                                                      RCV CLOCK OFFS APPL
    18                                                      LEAP SECONDS
Forced Modulo Decimation to 30 seconds                      COMMENT
teqc_2016 edited: all GLONASS satellites excluded           COMMENT
teqc_2016 edited: all SBAS satellites excluded              COMMENT
teqc_2016 edited: all Galileo satellites excluded           COMMENT
  2018     2    20     8     0    0.0000000     GPS         TIME OF FIRST OBS
                                                            END OF HEADER
 18  2 20  8  0  0.0000000  0  8G02G05G06G07G09G16G23G30
  21960635.874   115403909.127 6        46.000    21960638.734    89925122.390 8
        36.000
  23827761.222   125215719.740 6        43.750    23827767.322    97570692.375 7
        27.250
  21112619.500   110947560.287 7        49.000    21112627.720    86452643.953 8
        40.750
  21691323.196   113988687.580 7        51.000    21691328.836    88822355.455 8
        37.500
  20212301.826   106216373.854 8        53.750    20212309.086    82766009.495 9
        45.250
  24265732.440   127517271.316 4        38.500    24265736.960    99364107.456 6
        19.750
  22473516.992   118099133.447 7        49.000    22473520.452    92025304.052 8
        33.250
  23082382.508   121298750.973 7        47.500    23082389.408    94518509.512 7
        32.000
 18  2 20  8  0 30.0000000  0  8G02G05G06G07G09G16G23G30
  21954976.854   115374169.331 6        46.500    21954979.434    89901948.521 8
        36.000
  23808918.702   125116705.418 5        41.500    23808923.562    97493538.420 6
        25.000
  21122717.640   111000626.084 7        49.750    21122725.760    86493993.907 8
        40.500
  21678051.756   113918945.873 7        51.000    21678056.596    88768011.270 8
        38.250
  20217831.766   106245433.375 8        54.250    20217838.926    82788653.277 9
        45.250
  24260255.100   127488485.265 5        39.500    24260259.380    99341676.696 6
        20.250
  22487745.570   118173904.036 7        48.250    22487748.790    92083566.834 7
        32.500
  23062470.188   121194106.939 7        47.500    23062479.528    94436968.768 8
        34.000
 18  2 20  8  1  0.0000000  0  8G02G05G06G07G09G16G23G30
  21949416.854   115344954.011 6        47.000    21949419.994    89879183.332 8
        36.500
  23790095.322   125017783.695 6        44.750    23790100.322    97416456.502 7
        27.750
  21132917.940   111054228.374 7        49.000    21132926.180    86535761.923 8
        40.750
  21664858.776   113849615.912 7        50.000    21664864.076    88713987.940 8
        38.250
  20223434.666   106274876.482 8        55.000    20223441.866    82811595.952 9
        45.750
  24254882.720   127460263.457 3        37.000    24254887.780    99319685.690 5
        17.750
  22502009.070   118248859.484 7        48.250    22502012.610    92141973.661 7
        33.000
  23042595.388   121089669.205 7        47.250    23042603.048    94355588.744 7
        32.250
 18  2 20  8  1 30.0000000  0  8G02G05G06G07G09G16G23G30
  21943957.714   115316264.620 7        47.250    21943960.994    89856827.953 8
        37.500
  23771288.522   124918955.827 6        42.500    23771293.902    97339447.792 6
        24.750
  21143220.080   111108365.723 7        48.750    21143228.060    86577946.854 8
        41.000
  21651744.356   113780700.105 7        51.250    21651749.736    88660287.319 8
        38.000
  20229110.066   106304702.290 8        54.500    20229117.686    82834836.835 9
        45.500
  24249619.560   127432607.879 3        35.750    24249624.760    99298135.870 5
        17.750
  22516307.530   118323998.743 7        48.500    22516310.570    92200523.718 7
        33.000
  23022761.408   120985440.477 7        47.500    23022770.308    94274371.559 8
        33.250
 18  2 20  8  2  0.0000000  0  8G02G05G06G07G09G16G23G30
  21938598.254   115288101.771 6        45.750    21938601.634    89834882.863 8
        36.000
  23752501.282   124820223.606 6        45.750    23752505.762    97262513.576 7
        29.000
  21153623.480   111163036.253 7        49.500    21153631.900    86620547.257 8
        40.750
  21638709.256   113712199.961 7        51.000    21638714.856    88606910.592 8
        38.000
  20234858.426   106334909.624 8        52.750    20234865.286    82858375.015 9
        45.750
  24244465.140   127405520.312 3        36.750    24244469.900    99277028.671 5
        16.750
  22530640.630   118399320.693 7        47.750    22530644.650    92259216.124 8
        33.250
  23002967.728   120881423.280 7        47.750    23002976.848    94193319.247 8
        33.250
 18  2 20  8  2 30.0000000  0  8G02G05G06G07G09G16G23G30
  21933339.954   115260466.323 6        46.000    21933342.374    89813348.747 8
        36.500
  23733730.202   124721588.587 6        43.000    23733735.302    97185655.089 6
        24.500
  21164127.900   111218237.537 7        50.000    21164136.060    86663561.236 8
        40.500
  21625753.336   113644116.822 7        51.500    21625758.936    88553858.814 8
        38.250
  20240678.986   106365496.626 8        53.000    20240685.986    82882209.031 9
        45.750
  24239419.180   127379001.540 3        36.250    24239423.820    99256364.751 6
        18.500
  22545008.570   118474823.340 7        47.500    22545011.810    92318049.339 7
        32.250
  22983214.068   120777619.411 7        47.750    22983221.648    94112433.164 7
        32.250
 18  2 20  8  3  0.0000000  0  8G02G05G06G07G09G16G23G30
  21928181.574   115233360.117 6        46.500    21928184.594    89792227.024 8
        37.000
  23714981.202   124623052.473 6        45.250    23714986.482    97108873.744 7
        28.000
  21174733.420   111273968.331 7        49.750    21174741.260    86706987.804 8
        40.500
  21612877.436   113576453.227 7        51.000    21612883.156    88501133.947 8
        38.500
  20246571.746   106396462.766 8        54.500    20246579.186    82906338.482 9
        45.500
  24234482.360   127353053.765 4        38.000    24234486.920    99236145.672 6
        20.750
  22559410.450   118550506.193 7        47.250    22559413.990    92377022.968 7
        31.250
  22963502.348   120674032.081 7        47.250    22963511.328    94031715.771 7
        33.000
 18  2 20  8  3 30.0000000  0  8G02G05G06G07G09G16G23G30
  21923124.354   115206783.776 6        46.000    21923126.894    89771518.175 8
        36.500
  23696247.442   124524616.831 5        41.250    23696252.542    97032170.623 6
        25.500
  21185438.840   111330226.906 7        50.000    21185446.760    86750825.631 8
        40.000
  21600081.496   113509210.899 7        52.000    21600087.296    88448737.353 8
        38.500
  20252536.466   106427807.008 8        54.250    20252543.626    82930762.563 9
        45.250
  24229653.160   127327678.210 4        38.750    24229659.240    99216372.543 6
        21.500
  22573846.450   118626368.076 7        48.250    22573850.370    92436136.112 7
        32.250
  22943831.688   120570663.670 7        47.500    22943841.188    93951169.027 8
        33.500
 18  2 20  8  4  0.0000000  0  8G02G05G06G07G09G16G23G30
  21918167.554   115180738.441 6        46.000    21918170.714    89751223.101 8
        36.000
  23677536.384   124426282.447 6        45.000    23677541.964    96955546.422 7
        27.500
  21196244.740   111387011.354 7        50.250    21196252.540    86795073.231 8
        40.000
  21587366.476   113442391.563 7        51.500    21587371.776    88396670.351 8
        38.250
  20258572.646   106459528.074 8        54.500    20258579.866    82955480.278 9
        45.250
  24224933.340   127302876.290 4        38.500    24224939.340    99197046.359 6
        21.000
  22588316.410   118702407.594 7        48.250    22588320.030    92495387.659 7
        31.500
  22924203.608   120467516.720 7        47.500    22924210.828    93870794.776 7
        33.000
 18  2 20  8  4 30.0000000  0  8G02G05G06G07G09G16G23G30
  21913312.854   115155225.233 6        46.750    21913315.974    89731342.673 8
        36.000
  23658841.824   124328051.202 6        43.500    23658847.924    96879002.597 6
        24.750
  21207150.260   111444319.888 7        49.750    21207158.280    86839729.208 8
        40.000
  21574732.098   113375997.193 7        51.750    21574737.178    88344934.499 8
        38.500
  20264680.286   106491624.924 8        54.500    20264687.566    82980490.803 9
        45.250
  24220322.900   127278649.917 4        38.250    24220328.660    99178168.697 6
        19.000
  22602819.750   118778623.754 7        48.250    22602823.070    92554776.858 7
        32.750
  22904617.728   120364593.823 6        46.500    22904628.148    93790595.161 8
        34.750
 18  2 20  8  5  0.0000000  0  8G02G05G06G07G09G16G23G30
  21908559.234   115130245.185 6        46.750    21908562.214    89711877.686 8
        36.250
  23640170.944   124229924.870 6        45.000    23640175.844    96802540.535 7
        27.250
  21218155.260   111502150.502 7        49.750    21218163.060    86884792.003 8
        40.000
  21562178.718   113310029.427 7        51.500    21562183.938    88293531.059 8
        38.500
  20270859.666   106524096.298 8        53.750    20270866.926    83005793.168 9
        45.500
  24215822.000   127255000.447 3        36.000    24215828.180    99159740.491 5
        17.250
  22617356.470   118855015.085 7        47.500    22617360.130    92614302.550 7
        32.000
  22885075.488   120261897.350 7        47.500    22885084.108    93710571.954 8
        33.500
 18  2 20  8  5 30.0000000  0  8G02G05G06G07G09G16G23G30
  21903907.674   115105799.239 7        48.750    21903910.074    89692828.884 8
        36.250
  23621516.764   124131905.008 6        43.000    23621522.624    96726161.354 6
        25.750
  21229258.740   111560501.376 7        50.000    21229266.660    86930260.194 8
        40.500
  21549706.618   113244490.106 7        51.250    21549712.098    88242461.473 8
        38.500
  20277109.846   106556941.065 8        54.250    20277116.926    83031386.479 9
        45.500
  24211432.300   127231929.047 4        38.000    24211435.700    99141762.826 5
        16.750
  22631926.650   118931580.670 7        47.500    22631929.770    92673964.015 7
        32.250
  22865576.488   120159429.850 6        47.000    22865584.988    93630727.173 7
        33.000
 18  2 20  8  6  0.0000000  0  8G02G05G06G07G09G16G23G30
  21899357.394   115081888.790 7        47.500    21899360.334    89674197.360 8
        36.500
  23602886.344   124033992.701 6        44.000    23602890.604    96649866.128 6
        25.250
  21240461.020   111619370.800 7        50.500    21240469.000    86976132.452 8
        40.500
  21537317.098   113179381.073 7        51.500    21537322.778    88191727.174 8
        38.250
  20283430.826   106590158.308 8        55.000    20283437.926    83057270.046 9
        45.000
  24207152.420   127209437.432 5        39.250    24207156.640    99124236.853 6
        18.500
  22646529.710   119008319.612 7        48.750    22646533.430    92733760.574 7
        31.750
  22846121.548   120057194.049 7        47.750    22846130.928    93551062.943 8
        34.000
 18  2 20  8  6 30.0000000  0  8G02G05G06G07G09G16G23G30
  21894909.334   115058514.035 7        48.250    21894912.194    89655983.251 8
        37.000
  23584274.624   123936190.217 6        45.250    23584280.124    96573656.358 7
        27.000
  21251761.940   111678756.516 7        51.000    21251769.680    87022406.995 8
        39.500
  21525009.198   113114703.886 7        51.500    21525014.838    88141329.378 8
        38.250
  20289822.266   106623746.524 8        54.500    20289829.306    83083442.676 9
        45.000
  24202983.340   127187526.727 5        41.000    24202986.820    99107163.601 6
        19.750
  22661165.210   119085230.385 7        47.750    22661168.530    92793691.012 7
        32.500
  22826711.288   119955192.092 7        47.500    22826719.488    93471580.928 8
        33.500
 18  2 20  8  7  0.0000000  0  8G02G05G06G07G09G16G23G30
  21890563.754   115035676.363 7        48.000    21890566.534    89638187.656 8
        36.750
  23565684.464   123838498.642 6        44.750    23565690.384    96497533.093 7
        28.750
  21263160.540   111738656.802 7        49.000    21263168.880    87069082.529 8
        40.250
  21512783.958   113050460.203 7        52.000    21512789.738    88091269.371 8
        39.000
  20296284.186   106657704.805 8        53.250    20296291.586    83109903.670 9
        45.000
  24198924.500   127166198.406 5        40.500    24198929.660    99090544.108 6
        19.750
  22675833.230   119162311.813 6        47.000    22675837.330    92853754.436 7
        31.000
  22807346.288   119853426.707 7        49.000    22807354.968    93392283.237 8
        34.750
 18  2 20  8  7 30.0000000  0  8G02G05G06G07G09G16G23G30
  21886320.334   115013376.512 7        47.500    21886322.594    89620811.139 8
        36.500
  23547116.124   123740919.925 6        46.000    23547120.164    96421497.704 7
        26.500
  21274656.740   111799069.605 7        50.500    21274665.020    87116157.409 8
        40.500
  21500641.738   112986651.988 8        52.500    21500647.638    88041548.689 8
        38.250
  20302816.406   106692031.860 8        54.500    20302823.926    83136652.019 9
        45.000
  24194976.880   127145453.807 5        40.250    24194982.200    99074379.485 6
        20.750
  22690533.350   119239562.550 7        47.500    22690536.850    92913949.795 7
        31.500
  22788025.928   119751900.310 7        48.000    22788035.608    93313171.800 8
        33.750
 18  2 20  8  8  0.0000000  0  8G02G05G06G07G09G16G23G30
  21882179.096   114991615.461 7        47.250    21882181.956    89603854.459 8
        36.500
  23528568.464   123643455.324 6        45.250    23528574.624    96345551.278 7
        27.750
  21286249.858   111859992.965 7        49.500    21286258.218    87163630.147 8
        40.000
  21488582.438   112923281.211 7        51.000    21488588.318    87992168.866 8
        38.750
  20309418.926   106726726.516 8        53.000    20309425.986    83163686.800 9
        45.500
  24191140.040   127125294.048 3        37.000    24191146.880    99058670.585 6
        20.000
  22705266.290   119316981.785 7        47.750    22705270.150    92974276.449 7
        32.000
  22768752.710   119650615.352 7        48.750    22768760.130    93234248.465 8
        34.750
 18  2 20  8  8 30.0000000  0  8G02G05G06G07G09G16G23G30
  21878140.876   114970394.786 7        47.750    21878143.556    89587318.862 8
        36.750
  23510044.264   123546106.028 6        46.000    23510050.444    96269694.677 7
        29.000
  21297940.298   111921425.310 7        50.000    21297948.818    87211499.510 8
        39.500
  21476607.538   112860349.491 7        51.250    21476613.038    87943131.173 8
        38.750
  20316090.866   106761788.073 8        53.750    20316097.746    83191007.489 9
        45.000
  24187415.240   127105720.836 4        39.000    24187421.680    99043418.772 6
        18.250
  22720030.470   119394569.112 7        47.500    22720034.030    93034734.080 7
        32.000
  22749524.590   119549574.812 7        47.500    22749533.770    93155515.597 8
        33.750
 18  2 20  8  9  0.0000000  0  8G02G05G06G07G09G16G23G30
  21874205.696   114949714.682 7        47.750    21874208.276    89571204.485 8
        36.750
  23491541.424   123448874.201 6        43.250    23491545.784    96193929.613 7
        27.000
  21309727.118   111983364.174 7        50.500    21309735.538    87259763.542 8
        40.500
  21464715.458   112797858.396 8        52.250    21464721.118    87894436.803 8
        38.750
  20322832.446   106797214.890 8        54.000    20322839.066    83218612.797 9
        44.500
  24183802.660   127086735.068 3        36.000    24183808.740    99028624.702 6
        19.500
  22734826.410   119472322.407 7        47.250    22734830.450    93095321.032 7
        31.250
  22730344.450   119448780.644 6        47.000    22730352.110    93076974.719 8
        33.750
 18  2 20  8  9 30.0000000  0  8G02G05G06G07G09G16G23G30
  21870372.976   114929575.826 7        49.250    21870376.096    89555511.857 8
        36.250
  23473061.624   123351761.918 6        46.000    23473066.244    96118257.700 7
        28.250
  21321609.598   112045807.577 7        49.750    21321617.658    87308420.711 8
        40.000
  21452907.898   112735809.378 8        52.250    21452913.758    87846086.913 8
        38.500
  20329642.946   106833005.914 8        54.000    20329650.146    83246501.892 9
        44.500
  24180301.780   127068337.882 5        39.500    24180307.960    99014289.226 6
        19.500
  22749653.570   119550240.531 7        47.500    22749657.110    93156036.431 7
        31.000
  22711211.030   119348235.485 6        46.500    22711219.390    92998627.824 8
        33.250
 18  2 20  8 10  0.0000000  0  8G02G05G06G07G09G16G23G30
  21866644.416   114909979.289 7        48.000    21866646.876    89540241.824 8
        36.500
  23454604.184   123254769.946 6        44.000    23454610.724    96042679.573 7
        28.250
  21333587.798   112108753.545 7        49.750    21333595.958    87357469.488 8
        40.500
  21441185.078   112674204.453 8        52.250    21441190.758    87798083.079 8
        38.750
  20336523.106   106869160.041 8        54.500    20336530.426    83274673.929 9
        44.500
  24176914.020   127050530.948 5        41.000    24176918.380    99000413.705 6
        19.750
  22764512.630   119628322.638 7        47.250    22764516.050    93216879.607 7
        31.750
  22692126.050   119247941.814 7        47.250    22692134.530    92920476.936 8
        33.500
 18  2 20  8 10 30.0000000  0  8G02G05G06G07G09G16G23G30
  21863018.656   114890925.781 7        48.500    21863021.316    89525394.917 8
        36.000
  23436170.924   123157899.999 6        46.000    23436176.724    95967196.473 7
        28.750
  21345661.478   112172199.974 7        49.250    21345669.558    87406908.229 8
        40.000
  21429546.938   112613044.973 8        52.500    21429552.798    87750426.346 8
        38.750
  20343471.666   106905675.968 8        52.500    20343478.946    83303127.896 9
        44.750
  24173637.460   127033315.154 5        39.500    24173642.000    98986998.828 6
        19.250
  22779401.830   119706567.515 7        47.250    22779405.650    93277849.620 7
        31.500
  22673089.330   119147902.088 7        47.500    22673097.110    92842523.908 8
        33.750
 18  2 20  8 11  0.0000000  0  8G02G05G06G07G09G16G23G30
  21859496.376   114872416.671 7        48.500    21859499.276    89510972.223 8
        36.250
  23417760.064   123061153.535 6        44.000    23417765.664    95891809.614 7
        28.000
  21357830.038   112236145.295 7        50.000    21357837.538    87456735.711 8
        39.500
  21417993.838   112552333.181 8        52.750    21417999.338    87703118.457 8
        38.250
  20350489.286   106942553.098 8        54.500    20350496.906    83331863.314 9
        44.750
  24170473.980   127016692.148 4        38.000    24170478.720    98974045.786 6
        19.250
  22794322.108   119784974.531 7        47.500    22794325.968    93338945.971 7
        31.000
  22654101.010   119048119.290 6        46.250    22654110.270    92764771.091 8
        35.000
 18  2 20  8 11 30.0000000  0  8G02G05G06G07G09G16G23G30
  21856077.656   114854451.835 7        48.750    21856080.376    89496973.642 8
        36.500
  23399374.384   122964532.866 6        45.750    23399379.204    95816520.799 7
        28.000
  21370092.438   112300586.781 7        49.750    21370100.558    87506949.850 8
        40.250
  21406526.078   112492070.068 7        52.000    21406531.938    87656160.202 8
        38.750
  20357575.086   106979789.578 8        53.750    20357582.686    83360878.743 9
        45.000
  24167423.880   127000662.264 5        41.000    24167428.020    98961554.958 6
        19.250
  22809273.328   119863541.930 7        47.500    22809276.448    93400167.281 7
        30.750
  22635161.690   118948595.272 7        48.000    22635171.050    92687219.916 8
        34.750
 18  2 20  8 12  0.0000000  0  8G02G05G06G07G09G16G23G30
  21852763.276   114837032.465 7        49.250    21852765.836    89483400.094 8
        36.250
  23381012.186   122868039.395 6        45.750    23381017.546    95741331.088 7
        27.000
  21382449.538   112365522.429 7        50.000    21382457.978    87557549.044 8
        39.500
  21395144.098   112432257.441 8        52.250    21395150.018    87609552.965 8
        39.000
  20364729.126   107017384.338 8        54.000    20364736.426    83390173.355 9
        45.250
  24164486.320   126985226.719 4        38.500    24164491.600    98949527.287 6
        19.250
  22824254.368   119942268.673 7        47.500    22824258.548    93461512.776 7
        31.250
  22616273.350   118849332.536 7        47.750    22616281.310    92609872.336 8
        34.000
 18  2 20  8 12 30.0000000  0  8G02G05G06G07G09G16G23G30
  21849552.256   114820159.205 7        49.000    21849554.596    89470252.090 8
        36.750
  23362675.126   122771674.641 6        46.500    23362680.786    95666241.675 7
        28.500
  21394899.718   112430950.070 7        50.250    21394908.218    87608531.590 8
        39.750
  21383848.158   112372896.836 8        52.250    21383853.958    87563297.950 8
        38.750
  20371951.026   107055336.231 8        54.500    20371958.486    83419746.252 9
        44.500
  24161663.040   126970386.785 5        41.250    24161667.240    98937963.694 6
        20.500
  22839265.808   120021153.849 7        47.750    22839269.448    93522981.704 7
        31.000
  22597434.010   118750333.633 6        47.000    22597443.690    92532730.336 8
        34.500
 18  2 20  8 13  0.0000000  0  8G02G05G06G07G09G16G23G30
  21846445.696   114803833.108 7        49.500    21846448.316    89457530.445 8
        36.250
  23344361.386   122675440.183 6        46.500    23344367.426    95591253.786 7
        29.250
  21407443.638   112496867.966 7        48.750    21407452.018    87659896.139 8
        39.500
  21372638.298   112313989.993 8        52.500    21372643.878    87517396.524 8
        39.000
  20379241.126   107093644.438 8        54.500    20379248.126    83449596.797 9
        45.000
  24158953.040   126956143.684 5        41.000    24158957.160    98926865.198 6
        20.750
  22854307.208   120100196.541 6        46.500    22854310.868    93584573.389 7
        30.500
  22578646.370   118651601.333 7        48.250    22578654.450    92455796.104 8
        34.500
 18  2 20  8 13 30.0000000  0  8G02G05G06G07G09G16G23G30
  21843442.656   114788054.446 7        49.500    21843445.496    89445235.372 8
        36.250
  23326073.886   122579337.747 6        46.500    23326079.606    95516368.775 7
        29.500
  21420080.138   112563273.495 7        49.500    21420088.718    87711640.671 8
        40.250
  21361515.518   112255538.200 7        51.750    21361521.238    87471849.692 8
        39.000
  20386598.264   107132307.266 8        53.750    20386605.084    83479723.674 9
        44.750
  24156355.440   126942498.099 5        41.250    24156360.620    98916232.279 6
        21.000
  22869378.028   120179395.106 6        45.750    22869381.548    93646286.530 7
        29.750
  22559909.290   118553137.636 7        47.750    22559917.430    92379071.127 8
        34.500
 18  2 20  8 14  0.0000000  0  8G02G05G06G07G09G16G23G30
  21840544.456   114772824.192 7        49.000    21840547.596    89433367.629 8
        36.250
  23307811.006   122483368.668 6        46.750    23307816.726    95441587.672 7
        28.000
  21432809.238   112630164.959 7        50.250    21432817.398    87763763.853 8
        39.750
  21350479.178   112197543.555 7        51.500    21350484.798    87426659.070 8
        39.250
  20394023.264   107171324.039 8        54.500    20394030.304    83510126.346 9
        44.750
  24153872.200   126929451.473 5        39.250    24153878.080    98906066.076 6
        19.750
  22884478.488   120258749.056 6        46.500    22884482.348    93708120.758 7
        31.000
  22541223.970   118454945.464 7        48.250    22541232.670    92302557.776 8
        35.250
 18  2 20  8 14 30.0000000  0  8G02G05G06G07G09G16G23G30
  21837750.736   114758143.208 7        49.250    21837754.196    89421927.901 8
        36.250
  23289574.926   122387534.832 6        46.750    23289579.666    95366911.960 7
        28.750
  21445630.298   112697540.042 7        49.500    21445638.458    87816263.879 8
        39.750
  21339530.558   112140007.533 8        52.250    21339536.538    87381825.826 8
        39.000
  20401514.604   107210693.417 8        53.500    20401521.944    83540803.781 9
        44.750
  24151504.060   126917004.580 5        39.750    24151508.700    98896367.209 6
        20.250
  22899608.788   120338257.157 6        46.500    22899612.708    93770075.094 7
        31.000
  22522590.450   118357027.159 7        48.250    22522598.730    92226257.789 8
        35.000
 18  2 20  8 15  0.0000000  0  8G02G05G06G07G09G16G23G30
  21835061.496   114744011.164 7        49.000    21835064.976    89410915.906 8
        36.000
  23271364.126   122291838.416 6        46.250    23271369.706    95292343.322 7
        27.500
  21458542.838   112765396.224 7        50.000    21458551.598    87869138.793 8
        39.750
  21328669.498   112082931.187 7        51.750    21328675.258    87337350.770 8
        39.500
  20409073.444   107250413.933 8        53.750    20409080.604    83571754.821 9
        45.000
  24149249.980   126905158.137 4        38.750    24149255.160    98887136.227 6
        18.500
  22914767.388   120417917.940 6        45.750    22914771.648    93832148.407 7
        30.750
  22504009.770   118259384.811 7        47.750    22504018.730    92150172.851 8
        35.000
 18  2 20  8 15 30.0000000  0  8G02G05G06G07G09G16G23G30
  21832477.196   114730429.512 7        48.750    21832479.956    89400332.788 8
        36.250
  23253180.366   122196280.483 6        46.000    23253185.986    95217882.577 7
        28.000
  21471546.858   112833731.793 7        50.250    21471555.218    87922387.264 8
        39.250
  21317895.958   112026316.598 7        52.000    21317901.538    87293235.525 8
        39.000
  20416698.804   107290484.953 8        54.500    20416706.004    83602978.986 9
        44.500
  24147110.020   126893913.520 4        38.500    24147115.700    98878374.210 6
        20.000
  22929955.828   120497730.717 6        45.750    22929959.068    93894340.155 7
        30.750
  22485482.050   118162021.421 7        49.000    22485491.070    92074305.283 8
        36.000
 18  2 20  8 16  0.0000000  0  8G02G05G06G07G09G16G23G30
  21829997.656   114717398.490 7        47.750    21830000.316    89390178.739 8
        35.750
  23235022.626   122100862.855 6        46.000    23235029.146    95143531.197 7
        28.000
  21484641.778   112902543.929 7        48.500    21484650.178    87976007.067 8
        39.250
  21307210.578   111970164.424 8        52.250    21307216.718    87249480.606 8
        39.000
  20424390.084   107330904.599 8        53.500    20424397.304    83634474.808 9
        44.750
  24145085.420   126883271.043 4        38.500    24145090.760    98870081.398 6
        20.000
  22945172.168   120577694.080 6        45.500    22945175.988    93956649.248 7
        29.500
  22467008.172   118064938.800 7        48.750    22467016.592    91998656.499 8
        35.000
 18  2 20  8 16 30.0000000  0  8G02G05G06G07G09G16G23G30
  21827622.736   114704918.627 7        48.500    21827625.276    89380454.162 8
        35.500
  23216892.126   122005587.611 6        45.250    23216899.046    95069290.751 7
        28.000
  21497826.378   112971830.754 7        49.000    21497834.678    88029996.772 8
        39.500
  21296613.638   111914476.687 7        52.000    21296618.918    87206087.597 8
        39.500
  20432147.944   107371672.148 8        53.250    20432155.164    83666241.723 9
        44.500
  24143174.940   126873231.884 5        39.250    24143179.880    98862258.670 6
        20.250
  22960417.348   120657807.151 6        46.000    22960420.968    94019074.979 7
        29.500
  22448587.772   117968139.770 7        48.250    22448597.572    91923228.692 8
        36.000
 18  2 20  8 17  0.0000000  0  8G02G05G06G07G09G16G23G30
  21825352.556   114692990.716 7        48.000    21825355.456    89371159.670 8
        36.250
  23198789.526   121910455.463 6        45.250    23198795.166    94995161.823 7
        28.750
  21511101.078   113041590.018 7        49.500    21511109.898    88084354.620 8
        39.500
  21286105.218   111859254.661 7        52.000    21286110.658    87163057.476 8
        39.750
  20439971.844   107412786.326 8        54.500    20439978.964    83698278.741 9
        44.500
  24141379.900   126863797.035 5        41.250    24141384.480    98854906.844 6
        21.000
  22975690.888   120738069.055 6        46.250    22975694.188    94081616.699 7
        29.750
  22430221.972   117871626.729 7        48.000    22430230.392    91848023.758 8
        35.000
 18  2 20  8 17 30.0000000  0  8G02G05G06G07G09G16G23G30
  21823187.836   114681615.361 7        48.750    21823190.736    89362295.763 8
        36.000
  23180714.846   121815468.852 6        45.250    23180718.746    94921146.292 7
        28.000
  21524465.118   113111819.345 7        49.250    21524473.258    88139078.750 8
        40.000
  21275685.580   111804499.969 8        52.500    21275690.720    87120391.503 8
        39.000
  20447861.124   107454245.907 8        54.750    20447868.044    83730584.898 9
        44.500
  24139698.860   126854966.994 5        39.750    24139703.620    98848026.280 6
        20.000
  22990991.788   120818478.791 6        45.250    22990995.388    94144273.592 7
        30.000
  22411911.312   117775402.030 7        49.000    22411919.352    91773043.487 8
        36.500
 18  2 20  8 18  0.0000000  0  8G02G05G06G07G09G16G23G30
  21821128.416   114670792.639 7        48.500    21821131.756    89353862.457 8
        36.500
  23162667.986   121720629.790 6        44.250    23162671.466    94847245.730 7
        28.500
  21537918.418   113182516.396 7        50.250    21537926.698    88194167.330 8
        39.750
  21265355.120   111750214.142 8        52.250    21265360.820    87078090.876 8
        39.500
  20455816.284   107496049.659 8        54.750    20455823.164    83763159.246 9
        44.500
  24138133.480   126846742.601 5        39.500    24138138.920    98841617.683 6
        20.000
  23006321.068   120899034.625 6        46.000    23006324.548    94207044.373 7
        30.500
  22393655.452   117679468.057 7        48.000    22393664.252    91698289.756 8
        36.500
 18  2 20  8 18 30.0000000  0  8G02G05G06G07G09G16G23G30
  21819174.256   114660523.393 7        48.500    21819177.856    89345860.450 8
        37.000
  23144649.066   121625939.644 7        47.500    23144654.086    94773461.220 7
        29.500
  21551460.158   113253678.912 7        48.750    21551468.718    88249618.621 8
        39.500
  21255114.800   111696398.261 8        52.750    21255119.980    87036156.447 8
        39.500
  20463836.804   107538196.392 8        54.500    20463843.924    83796000.845 9
        44.500
  24136684.040   126839124.494 4        39.000    24136689.160    98835681.459 6
        19.750
  23021677.888   120979735.842 6        45.500    23021682.148    94269928.379 7
        29.750
  22375455.752   117583827.215 7        50.250    22375463.812    91623764.435 8
        36.000
 18  2 20  8 19  0.0000000  0  8G02G05G06G07G09G16G23G30
  21817325.776   114650807.755 7        48.250    21817328.496    89338289.816 8
        36.000
  23126658.866   121531400.253 7        48.250    23126664.566    94699794.162 7
        30.250
  21565090.158   113325304.527 7        50.500    21565098.398    88305430.766 8
        40.000
  21244963.320   111643053.918 8        52.750    21244968.840    86994589.448 8
        39.250
  20471922.044   107580684.935 8        54.500    20471929.144    83829108.803 9
        44.250
  24135349.140   126832113.483 4        39.000    24135355.020    98830218.329 6
        19.250
  23037062.808   121060581.491 6        45.750    23037066.788    94332924.962 7
        29.500
  22357311.852   117488481.964 7        49.500    22357319.972    91549469.447 8
        36.000
 18  2 20  8 19 30.0000000  0  8G02G05G06G07G09G16G23G30
  21815582.356   114641646.313 7        47.500    21815585.176    89331151.020 8
        37.000
  23108697.846   121437012.908 7        49.250    23108703.686    94626245.563 7
        31.250
  21578807.478   113397391.099 7        50.000    21578816.378    88361602.105 8
        40.000
  21234902.540   111590182.641 8        52.750    21234907.720    86953391.069 8
        40.000
  20480072.004   107623514.179 8        54.500    20480079.364    83862482.233 9
        44.250
  24134131.000   126825710.477 4        38.000    24134136.660    98825228.972 6
        20.000
  23052474.448   121141570.560 6        45.000    23052478.248    94396033.273 7
        29.250
  22339225.392   117393434.766 7        49.000    22339234.172    91475406.727 8
        36.000
 18  2 20  8 20  0.0000000  0  8G02G05G06G07G09G16G23G30
  21813944.596   114633040.005 7        47.500    21813947.236    89324444.799 8
        36.250
  23090764.626   121342779.239 7        48.250    23090771.366    94552816.699 7
        30.750
  21592612.796   113469936.420 7        49.500    21592621.016    88418130.901 8
        38.750
  21224931.480   111537786.096 8        52.500    21224936.900    86912562.607 8
        39.500
  20488286.784   107666683.152 8        55.000    20488293.824    83896120.384 9
        44.500
  24133030.140   126819916.241 5        40.250    24133034.280    98820713.950 6
        20.000
  23067913.068   121222702.399 6        45.750    23067916.468    94459252.879 7
        28.750
  22321195.432   117298688.224 7        50.000    22321203.032    91401578.271 8
        35.500
 18  2 20  8 20 30.0000000  0  8G02G05G06G07G09G16G23G30
  21812412.496   114624988.951 6        47.000    21812415.596    89318171.233 8
        36.000
  23072861.008   121248701.345 6        46.250    23072867.508    94479509.243 7
        29.250
  21606504.556   113542938.048 7        50.250    21606512.976    88475015.267 8
        39.000
  21215051.160   111485865.326 8        52.250    21215056.800    86872104.887 8
        40.000
  20496565.804   107710190.550 8        55.000    20496572.944    83930022.248 9
        44.000
  24132042.520   126814731.316 4        38.500    24132047.940    98816673.773 6
        20.250
  23083378.648   121303975.755 6        45.500    23083383.128    94522582.724 7
        29.750
  22303223.172   117204244.650 7        49.000    22303231.792    91327985.876 8
        37.000
 18  2 20  8 21  0.0000000  0  8G02G05G06G07G09G16G23G30
  21810985.836   114617492.782 6        47.000    21810989.016    89312330.060 8
        36.000
  23054989.228   121154781.273 6        44.500    23054994.728    94406324.788 7
        28.750
  21620482.596   113616392.981 7        49.000    21620490.956    88532252.860 8
        39.250
  21205262.000   111434421.051 8        52.500    21205267.480    86832018.451 8
        40.000
  20504909.144   107754034.538 8        54.250    20504916.724    83964186.391 9
        44.000
  24131172.220   126810155.877 5        39.750    24131176.640    98813108.457 6
        19.000
  23098871.286   121385388.769 6        45.250    23098875.066    94586021.402 7
        29.000
  22285309.512   117110105.784 7        50.000    22285317.672    91254630.939 8
        36.250
 18  2 20  8 21 30.0000000  0  8G02G05G06G07G09G16G23G30
  21809665.176   114610552.418 7        47.250    21809668.636    89306921.976 8
        36.750
  23037148.088   121061020.762 6        44.500    23037151.228    94333264.678 7
        28.750
  21634546.276   113690299.280 7        49.250    21634554.496    88589842.153 8
        38.500
  21195563.420   111383455.061 8        53.000    21195568.640    86792304.707 8
        39.250
  20513316.364   107798214.406 8        54.250    20513323.764    83998612.256 9
        43.750
  24130416.720   126806190.935 5        39.250    24130422.960    98810018.873 6
        19.250
  23114390.466   121466940.900 6        45.000    23114393.786    94649568.490 7
        29.250
  22267453.272   117016274.488 7        48.500    22267461.532    91181515.645 8
        37.000
 18  2 20  8 22  0.0000000  0  8G02G05G06G07G09G16G23G30
  21808450.376   114604168.107 7        47.250    21808453.596    89301947.180 8
        36.750
  23019337.328   120967421.446 6        46.500    23019339.648    94260330.165 7
        30.000
  21648695.836   113764654.506 7        50.250    21648704.316    88647781.274 8
        39.000
  21185956.000   111332968.742 7        52.000    21185961.640    86752964.728 8
        39.500
  20521786.804   107842728.887 8        54.500    20521794.244    84033298.850 9
        43.750
  24129778.260   126802837.011 4        38.750    24129783.060    98807405.424 6
        19.000
  23129935.126   121548631.147 6        46.250    23129939.426    94713223.180 7
        29.500
  22249657.352   116922753.055 7        48.750    22249665.772    91108641.813 8
        36.500
 18  2 20  8 22 30.0000000  0  8G02G05G06G07G09G16G23G30
  21807341.076   114598340.545 6        47.000    21807344.116    89297406.209 8
        36.500
  23001556.688   120873984.856 7        47.750    23001559.988    94187522.438 7
        30.250
  21662930.416   113839456.782 7        49.500    21662938.596    88706068.734 8
        38.250
  21176440.400   111282963.738 7        52.000    21176446.000    86713999.808 8
        39.750
  20530321.464   107887577.354 8        54.000    20530328.784    84068245.695 9
        43.500
  24129256.300   126800094.852 3        36.000    24129261.760    98805268.658 6
        18.500
  23145506.986   121630459.080 6        46.250    23145509.986    94776985.170 7
        29.000
  22231919.992   116829544.412 7        49.000    22231928.372    91036011.720 8
        36.000
 18  2 20  8 23  0.0000000  0  8G02G05G06G07G09G16G23G30
  21806338.516   114593069.616 6        47.000    21806341.116    89293298.987 8
        37.000
  22983806.868   120780712.459 7        48.000    22983811.948    94114842.640 7
        29.750
  21677249.316   113914702.978 7        49.000    21677257.076    88764702.107 8
        38.500
  21167016.600   111233440.748 8        52.250    21167022.220    86675410.478 8
        39.750
  20538918.724   107932757.887 8        53.500    20538925.764    84103451.297 9
        43.500
  24128851.540   126797964.831 4        38.500    24128856.680    98803608.928 6
        19.000
  23161104.226   121712423.124 6        45.500    23161108.646    94840853.223 7
        30.000
  22214242.792   116736650.222 7        49.000    22214251.272    90963626.654 8
        36.250
 18  2 20  8 23 30.0000000  0  8G02G05G06G07G09G16G23G30
  21805441.216   114588355.411 6        46.250    21805443.696    89289625.578 8
        36.250
  22966088.188   120687606.967 6        43.750    22966095.848    94042292.916 7
        29.500
  21691652.156   113990390.676 7        49.000    21691660.596    88823679.515 8
        38.000
  21157684.560   111184401.017 7        52.000    21157690.520    86637197.717 8
        39.750
  20547579.684   107978269.295 8        53.250    20547587.004    84138914.728 9
        44.000
  24128562.340   126796446.908 4        37.500    24128567.960    98802426.119 6
        19.500
  23176727.066   121794522.107 6        46.000    23176730.366    94904826.420 7
        28.750
  22196625.632   116644072.870 7        49.250    22196635.012    90891488.465 8
        37.250
 18  2 20  8 24  0.0000000  0  8G02G05G06G07G09G16G23G30
  21804650.716   114584198.953 6        46.750    21804653.116    89286386.774 8
        36.500
  22948403.848   120594669.752 6        44.000    22948410.768    93969874.348 7
        28.500
  21706138.676   114066517.945 7        49.250    21706146.856    88882999.444 8
        38.250
  21148444.780   111135846.418 8        52.250    21148450.820    86599362.975 8
        40.000
  20556302.704   108024110.885 8        53.250    20556310.004    84174635.441 9
        43.750
  24128391.140   126795542.049 4        39.000    24128396.000    98801721.022 6
        19.250
  23192375.366   121876755.385 6        46.500    23192379.846    94968904.256 7
        30.500
  22179070.154   116551815.149 7        49.250    22179077.774    90819599.348 8
        36.000
 18  2 20  8 24 30.0000000  0  8G02G05G06G07G09G16G23G30
  21803965.596   114580599.409 7        47.500    21803968.276    89283581.926 8
        36.750
  22930751.528   120501902.133 6        45.750    22930758.268    93897587.926 7
        29.250
  21720708.076   114143081.825 7        49.000    21720716.396    88942659.592 8
        37.750
  21139297.520   111087777.847 7        51.250    21139303.240    86561906.964 8
        39.750
  20565088.764   108070280.993 8        53.000    20565095.984    84210612.137 9
        44.000
  24128334.900   126795250.508 5        39.250    24128340.060    98801493.865 6
        19.250
  23208049.146   121959121.786 6        46.000    23208052.346    95033085.828 7
        28.750
  22161575.114   116459879.021 7        49.750    22161584.014    90747960.821 8
        37.500
 18  2 20  8 25  0.0000000  0  8G02G05G06G07G09G16G23G30
  21803387.036   114577557.818 7        47.750    21803389.816    89281211.841 8
        36.750
  22913131.168   120409305.793 6        46.750    22913138.328    93825434.906 7
        31.250
  21735360.556   114220080.276 7        48.750    21735368.756    89002658.354 8
        37.750
  21130243.400   111040196.262 7        51.750    21130248.920    86524830.418 8
        40.000
  20573937.304   108116778.863 8        54.000    20573944.604    84246844.235 9
        43.750
  24128397.200   126795573.403 4        39.000    24128401.880    98801745.450 6
        21.250
  23223748.466   122041620.759 6        46.500    23223752.666    95097370.707 7
        29.500
  22144141.994   116368267.170 6        46.750    22144150.934    90676574.996 8
        36.750
 18  2 20  8 25 30.0000000  0  8G02G05G06G07G09G16G23G30
  21802914.396   114575073.340 7        48.250    21802917.376    89279275.880 8
        36.250
  22895543.488   120316883.446 7        47.250    22895551.228    93753417.480 7
        31.750
  21750094.916   114297509.997 7        48.500    21750103.096    89062993.189 8
        38.000
  21121281.620   110993102.647 7        51.750    21121287.180    86488134.117 8
        40.750
  20582847.364   108163602.496 8        54.250    20582854.604    84283330.170 9
        44.000
  24128574.320   126796509.979 3        37.000    24128580.260    98802475.243 5
        17.750
  23239472.086   122124250.222 6        45.500    23239475.606    95161757.242 7
        27.500
  22126770.674   116276981.208 7        49.750    22126778.794    90605443.096 8
        37.500
 18  2 20  8 26  0.0000000  0  8G02G05G06G07G09G16G23G30
  21802547.656   114573147.214 6        47.000    21802550.536    89277775.009 8
        36.750
  22877988.288   120224635.933 6        46.250    22877996.048    93681536.299 7
        31.500
  21764911.196   114375369.217 7        47.500    21764918.956    89123662.687 8
        38.000
  21112413.280   110946498.733 7        50.750    21112418.980    86451819.391 8
        39.750
  20591819.344   108210751.365 8        53.000    20591826.644    84320069.541 9
        44.250
  24128869.700   126798061.045 4        37.750    24128875.880    98803683.888 6
        20.250
  23255220.906   122207010.026 6        45.500    23255225.066    95226245.360 7
        28.250
  22109462.174   116186024.033 7        50.000    22109470.254    90534567.398 8
        36.750
 18  2 20  8 26 30.0000000  0  8G02G05G06G07G09G16G23G30
  21802287.576   114571779.363 7        48.500    21802290.036    89276709.151 8
        37.000
  22860468.568   120132566.245 6        45.750    22860475.348    93609793.704 7
        31.000
  21779808.196   114453655.275 7        47.500    21779816.496    89184664.792 8
        37.500
  21103638.040   110900385.734 7        51.750    21103643.940    86415887.200 8
        40.250
  20600853.464   108258224.170 8        53.500    20600860.244    84357061.329 9
        44.000
  24129281.820   126800226.853 4        38.500    24129288.140    98805371.522 6
        20.750
  23270993.886   122289899.135 6        44.500    23270998.606    95290834.207 7
        28.000
  22092216.294   116095397.982 7        50.000    22092224.894    90463949.721 8
        37.250
 18  2 20  8 27  0.0000000  0  8G02G05G06G07G09G16G23G30
  21802132.896   114570969.720 7        48.000    21802136.136    89276078.251 8
        36.750
  22842983.168   120040675.639 7        47.250    22842989.368    93538190.648 7
        32.000
  21794786.016   114532365.593 6        46.500    21794794.536    89245997.485 8
        38.000
  21094956.780   110854764.543 7        50.750    21094962.640    86380338.231 8
        40.500
  20609948.744   108306019.651 8        52.750    20609955.684    84394304.550 9
        44.250
  24129811.000   126803008.112 5        40.250    24129816.100    98807538.715 6
        19.500
  23286791.986   122372916.296 6        44.000    23286796.166    95355522.850 7
        27.500
  22075034.114   116005105.182 7        49.750    22075042.514    90393591.717 8
        37.500
 18  2 20  8 27 30.0000000  0  8G02G05G06G07G09G16G23G30
  21802085.416   114570718.461 7        48.000    21802088.216    89275882.453 8
        36.500
  22825531.188   119948965.561 7        47.750    22825537.248    93466728.231 7
        31.750
  21809844.796   114611497.835 7        48.000    21809852.996    89307658.945 8
        37.000
  21086369.480   110809636.384 7        51.250    21086374.700    86345173.444 8
        40.250
  20619104.924   108354136.792 8        53.250    20619112.304    84431798.418 9
        44.250
  24130458.260   126806404.788 5        39.750    24130462.580    98810185.506 6
        19.750
  23302613.426   122456060.939 6        45.750    23302617.826    95420310.835 7
        28.500
  22057916.014   115915148.195 7        50.000    22057924.814    90323495.394 8
        37.750
 18  2 20  8 28  0.0000000  0  8G02G05G06G07G09G16G23G30
  21802143.636   114571025.560 7        47.750    21802146.756    89276121.753 8
        36.750
  22808113.208   119857438.241 6        46.750    22808119.728    93395408.231 7
        32.250
  21824982.776   114691049.251 6        46.500    21824991.516    89369647.016 8
        37.000
  21077875.820   110765002.294 7        50.500    21077881.340    86310393.642 8
        40.000
  20628322.284   108402574.183 7        52.000    20628329.584    84469541.831 9
        44.000
  24131221.340   126810416.808 4        38.250    24131226.920    98813311.749 6
        20.000
  23318459.826   122539331.763 6        44.000    23318464.086    95485197.140 7
        28.500
  22040861.774   115825529.122 7        49.750    22040870.334    90253662.377 8
        37.750
 18  2 20  8 28 30.0000000  0  8G02G05G06G07G09G16G23G30
  21802308.196   114571891.164 7        48.500    21802311.776    89276796.244 8
        37.500
  22790731.608   119766095.687 6        46.000    22790737.408    93324232.244 7
        31.500
  21840200.236   114771017.290 7        48.000    21840208.536    89431959.752 8
        37.500
  21069476.300   110720863.653 7        50.500    21069481.680    86275999.908 8
        40.000
  20637600.504   108451330.683 8        53.250    20637607.584    84507533.895 9
        43.750
  24132101.920   126815044.731 3        36.500    24132108.020    98816917.911 6
        19.500
  23334329.846   122622727.962 6        45.500    23334333.726    95550181.146 7
        28.500
  22023872.574   115736250.226 7        50.750    22023881.374    90184094.429 8
        37.500
 18  2 20  8 29  0.0000000  0  8G02G05G06G07G09G16G23G30
  21802579.716   114573315.502 7        47.500    21802582.476    89277906.107 8
        37.500
  22773385.470   119674939.130 7        47.250    22773390.890    93253201.153 7
        31.750
  21855496.456   114851399.556 7        47.500    21855504.896    89494595.269 8
        38.000
  21061171.540   110677221.159 7        50.000    21061176.960    86241992.778 8
        40.500
  20646938.784   108500405.218 7        51.500    20646946.124    84545773.786 9
        43.500
  24133100.020   126820288.697 4        38.500    24133106.180    98821004.106 6
        19.250
  23350223.386   122706248.671 6        45.750    23350227.366    95615262.177 7
        27.750
  22006948.554   115647313.954 7        50.250    22006957.574    90114793.476 8
        38.500
 18  2 20  8 29 30.0000000  0  8G02G05G06G07G09G16G23G30
  21802956.876   114575298.300 7        48.000    21802960.016    89279451.153 8
        37.000
  22756074.430   119583971.211 7        47.500    22756079.890    93182317.049 7
        31.500
  21870871.096   114932193.503 7        48.000    21870879.756    89557551.575 8
        37.500
  21052961.000   110634076.133 7        50.250    21052966.640    86208373.291 8
        40.000
  20656337.624   108549796.671 7        51.500    20656345.004    84584260.618 9
        43.250
  24134215.020   126826149.178 5        40.500    24134221.240    98825570.717 6
        20.000
  23366140.246   122789892.750 6        43.750    23366144.786    95680439.304 7
        28.000
  21990090.694   115558722.661 7        50.000    21990099.214    90045761.331 8
        38.250
 18  2 20  8 30  0.0000000  0  8G02G05G06G07G09G16G23G30
  21803440.816   114577839.496 7        48.750    21803443.296    89281431.295 8
        36.750
  22738799.910   119493193.500 6        46.500    22738805.390    93111581.191 7
        31.250
  21886323.854   115013396.279 7        47.500    21886331.974    89620826.445 8
        37.500
  21044845.900   110591429.450 7        50.500    21044851.300    86175142.120 8
        40.500
  20665796.584   108599503.647 7        51.000    20665804.104    84622993.315 9
        43.750
  24135447.700   126832625.952 5        40.750    24135453.800    98830617.518 6
        20.500
  23382080.706   122873659.500 6        44.500    23382084.486    95745712.084 7
        28.500
  21973298.294   115470478.387 7        50.500    21973307.014    89976999.583 8
        38.250
 18  2 20  8 30 30.0000000  0  8G02G05G06G07G09G16G23G30
  21804030.476   114580939.024 7        47.500    21804032.736    89283846.516 8
        37.250
  22721562.050   119402607.459 6        46.500    22721567.970    93040994.666 7
        31.250
  21901853.654   115095005.362 6        47.000    21901861.214    89684417.909 8
        37.250
  21036825.260   110549281.929 7        50.000    21036830.640    86142299.912 8
        40.000
  20675315.584   108649524.834 7        51.250    20675322.944    84661970.845 9
        43.750
  24136797.280   126839718.867 5        40.500    24136803.140    98836144.502 6
        19.500
  23398044.184   122957547.565 6        43.250    23398048.164    95811079.340 7
        27.750
  21956572.174   115382583.276 7        49.000    21956580.614    89908509.923 8
        38.250
 18  2 20  8 31  0.0000000  0  8G02G05G06G07G09G16G23G30
  21804726.096   114584596.991 6        47.000    21804729.016    89286696.859 8
        35.750
  22704360.990   119312215.163 7        47.750    22704367.050    92970559.120 7
        31.750
  21917460.294   115177018.362 7        47.750    21917468.414    89748324.125 8
        36.750
  21028899.880   110507635.305 7        51.000    21028905.420    86109848.004 8
        40.000
  20684893.644   108699859.340 7        52.000    20684900.884    84701192.524 9
        43.500
  24138265.380   126847428.830 5        40.750    24138269.620    98842152.245 6
        18.500
  23414030.184   123041556.412 6        44.500    23414033.644    95876540.746 7
        27.000
  21939913.154   115295039.947 7        50.000    21939921.594    89840294.371 8
        38.750
 18  2 20  8 31 30.0000000  0  8G02G05G06G07G09G16G23G30
  21805528.636   114588812.930 7        47.250    21805531.216    89289982.000 8
        37.000
  22687197.030   119222018.738 6        45.500    22687203.330    92900276.194 7
        32.250
  21933142.374   115259432.169 6        46.500    21933150.514    89812542.645 8
        36.750
  21021070.540   110466489.746 7        50.500    21021076.340    86077786.544 8
        39.750
  20694531.042   108750505.520 7        51.750    20694538.882    84740657.061 9
        43.750
  24139848.320   126855755.044 5        39.500    24139853.900    98848640.233 6
        18.250
  23430039.804   123125684.401 6        45.000    23430044.184    95942094.962 7
        27.500
  21923321.794   115207850.080 7        48.250    21923329.934    89772354.248 8
        39.000
 18  2 20  8 32  0.0000000  0  8G02G05G06G07G09G16G23G30
  21806436.956   114593587.122 6        47.000    21806439.896    89293702.142 8
        36.500
  22670070.950   119132019.881 7        47.750    22670076.870    92830147.231 7
        31.500
  21948901.614   115342244.462 7        48.250    21948910.034    89877071.707 8
        36.750
  21013336.340   110425846.640 7        49.750    21013342.160    86046116.605 8
        40.500
  20704228.022   108801462.450 7        51.500    20704235.342    84780363.754 9
        43.250
  24141550.220   126864697.588 5        40.250    24141556.080    98855608.418 6
        20.250
  23446070.784   123209931.009 6        43.750    23446074.764    96007741.645 7
        26.500
  21906797.594   115121016.295 7        50.000    21906806.154    89704691.580 8
        38.250
 18  2 20  8 32 30.0000000  0  8G02G05G06G07G09G16G23G30
  21807451.256   114598919.364 7        47.750    21807454.696    89297857.126 8
        36.500
  22652982.910   119042220.445 6        45.250    22652988.510    92760173.657 7
        31.500
  21964735.694   115425452.547 7        47.250    21964744.694    89941909.153 8
        37.000
  21005698.160   110385707.279 7        50.750    21005703.980    86014839.185 8
        40.250
  20713983.982   108852729.050 8        52.750    20713991.382    84820311.743 9
        43.250
  24143369.520   126874256.676 5        39.750    24143375.040    98863057.007 6
        20.250
  23462125.544   123294295.485 6        44.500    23462129.344    96073480.161 7
        27.500
  21890341.794   115034540.847 7        48.500    21890350.674    89637308.145 8
        38.750
 18  2 20  8 33  0.0000000  0  8G02G05G06G07G09G16G23G30
  21808572.676   114604809.394 6        47.000    21808576.036    89302446.741 8
        36.750
  22635933.130   118952622.177 6        47.000    22635938.150    92690356.829 7
        32.500
  21980644.614   115509053.842 6        47.000    21980653.014    90007052.978 8
        37.250
  20998155.720   110346072.269 7        50.500    20998161.320    85983954.778 8
        40.500
  20723798.442   108904303.891 7        52.000    20723805.882    84860499.921 9
        43.750
  24145304.800   126884432.309 4        39.000    24145311.340    98870986.020 5
        17.750
  23478201.804   123378776.862 6        43.500    23478205.024    96139309.748 7
        27.500
  21873954.396   114948425.740 7        48.500    21873962.736    89570205.483 8
        38.250
 18  2 20  8 33 30.0000000  0  8G02G05G06G07G09G16G23G30
  21809799.536   114611256.897 6        47.000    21809802.656    89307470.755 8
        36.500
  22618921.610   118863227.074 6        46.500    22618926.890    92620698.294 7
        32.750
  21996627.474   115593045.418 6        46.000    21996636.174    90072500.947 8
        36.750
  20990709.320   110306942.046 7        51.500    20990715.240    85953463.709 8
        40.750
  20733671.042   108956185.669 8        52.500    20733678.822    84900927.276 9
        43.500
  24147358.800   126895224.289 4        38.500    24147365.560    98879395.349 6
        19.250
  23494299.884   123463373.889 6        43.500    23494303.324    96205229.470 7
        26.500
  21857636.596   114862673.094 7        48.500    21857644.876    89503385.256 8
        38.250
 18  2 20  8 34  0.0000000  0  8G02G05G06G07G09G16G23G30
  21811132.516   114618261.838 6        47.000    21811135.496    89312929.139 8
        36.250
  22601949.410   118774037.153 7        47.500    22601954.870    92551199.651 7
        31.750
  22012684.434   115677424.936 6        46.500    22012694.074    90138251.176 8
        37.250
  20983359.482   110268317.916 7        50.000    20983365.182    85923366.993 8
        40.250
  20743602.262   109008373.526 7        52.000    20743609.022    84941593.128 9
        43.750
  24149530.500   126906632.340 5        40.250    24149536.180    98888284.697 6
        20.250
  23510420.544   123548085.928 6        43.500    23510423.724    96271238.810 7
        26.250
  21841387.836   114777285.386 7        49.500    21841396.176    89436849.416 8
        38.750
 18  2 20  8 34 30.0000000  0  8G02G05G06G07G09G16G23G30
  21812571.596   114625823.882 7        48.250    21812574.576    89318821.628 8
        36.500
  22585016.630   118685053.882 7        49.000    22585021.910    92481862.056 7
        32.750
  22028814.314   115762189.528 6        46.250    22028822.814    90204301.504 8
        36.000
  20976106.042   110230200.571 7        51.500    20976111.722    85893665.172 8
        40.500
  20753591.242   109060866.096 8        52.750    20753598.642    84982496.416 9
        43.750
  24151818.820   126918656.489 4        39.000    24151824.560    98897654.158 6
        18.250
  23526562.224   123632912.128 6        42.500    23526565.624    96337337.139 7
        27.000
  21825208.476   114692264.685 7        50.000    21825216.916    89370599.534 8
        38.500
 18  2 20  8 35  0.0000000  0  8G02G05G06G07G09G16G23G30
  21814116.396   114633942.969 6        47.000    21814119.516    89325148.177 8
        36.000
  22568122.910   118596279.357 7        49.250    22568128.410    92412687.095 7
        31.750
  22045017.714   115847336.560 6        47.000    22045026.994    90270649.797 8
        37.000
  20968949.202   110192590.984 8        52.250    20968954.822    85864359.010 8
        40.000
  20763638.102   109113662.182 8        53.000    20763645.142    85023636.212 9
        43.250
  24154224.980   126931296.873 5        41.000    24154228.960    98907503.795 6
        19.500
  23542725.264   123717851.158 6        43.250    23542728.924    96403523.327 6
        26.000
  21809100.076   114607613.127 7        49.500    21809108.456    89304637.290 8
        38.250
 18  2 20  8 35 30.0000000  0  8G02G05G06G07G09G16G23G30
  21815767.816   114642618.775 7        47.750    21815770.456    89331908.533 8
        36.500
  22551270.390   118507716.194 7        48.000    22551275.710    92343676.858 7
        32.500
  22061293.054   115932863.287 6        46.500    22061301.814    90337293.990 8
        37.250
  20961889.002   110155490.313 7        51.750    20961894.782    85835449.396 8
        41.000
  20773742.282   109166760.639 8        52.250    20773749.482    85065011.627 9
        43.250
  24156746.760   126944553.336 5        40.250    24156752.200    98917833.504 6
        20.000
  23558909.624   123802902.349 6        42.250    23558913.804    96469796.962 6
        25.500
  21793061.996   114523332.960 7        50.000    21793069.876    89238964.443 8
        38.500
 18  2 20  8 36  0.0000000  0  8G02G05G06G07G09G16G23G30
  21817524.636   114651851.174 7        47.500    21817527.616    89339102.591 8
        36.250
  22534457.530   118419365.448 7        48.500    22534462.610    92274832.111 7
        32.250
  22077639.494   116018767.202 6        46.000    22077647.514    90404232.059 8
        36.000
  20954925.762   110118899.319 7        51.500    20954931.222    85806936.946 8
        40.500
  20783904.122   109220160.407 8        52.750    20783911.522    85106621.818 9
        43.000
  24159386.640   126958425.310 5        40.500    24159392.180    98928642.816 6
        20.750
  23575115.804   123888064.978 6        42.500    23575120.084    96536157.399 7
        27.000
  21777095.116   114439426.400 7        50.000    21777103.656    89173582.716 8
        39.000
 18  2 20  8 36 30.0000000  0  8G02G05G06G07G09G16G23G30
  21819387.256   114661639.450 7        47.750    21819390.116    89346729.807 8
        36.000
  22517685.970   118331229.359 7        48.750    22517690.930    92206154.643 8
        33.250
  22094057.874   116105045.279 6        46.750    22094067.074    90471461.732 8
        37.000
  20948060.022   110082818.485 8        52.250    20948065.582    85778822.015 8
        40.750
  20794122.422   109273860.049 8        52.500    20794129.882    85148465.682 9
        43.250
  24162143.020   126972912.516 5        40.000    24162149.160    98939931.583 6
        20.250
  23591342.504   123973337.942 5        41.500    23591346.204    96602603.811 7
        26.250
  21761199.816   114355895.464 7        50.250    21761208.296    89108493.688 8
        39.000
 18  2 20  8 37  0.0000000  0  8G02G05G06G07G09G16G23G30
  21821355.616   114671983.493 7        47.750    21821358.476    89354790.090 8
        36.000
  22500955.230   118243310.064 7        49.000    22500960.730    92137646.114 8
        33.250
  22110546.694   116191694.694 6        46.500    22110554.954    90538980.704 8
        35.750
  20941291.262   110047248.390 8        52.750    20941296.702    85751105.064 9
        41.250
  20804397.922   109327858.205 8        53.750    20804405.422    85190542.157 9
        43.000
  24165017.120   126988014.862 5        39.500    24165022.040    98951699.610 6
        19.750
  23607590.344   124058720.116 6        43.000    23607594.824    96669135.352 7
        26.750
  21745376.476   114272742.050 7        50.000    21745384.356    89043698.816 8
        38.500
 18  2 20  8 37 30.0000000  0  8G02G05G06G07G09G16G23G30
  21823429.516   114682882.926 7        48.000    21823432.476    89363283.144 8
        36.250
  22484266.272   118155609.432 7        49.000    22484271.932    92069307.951 8
        33.500
  22127106.134   116278713.102 6        47.000    22127113.614    90606787.254 8
        36.250
  20934620.122   110012190.493 7        51.500    20934625.082    85723787.234 8
        40.750
  20814730.082   109382154.133 8        52.250    20814737.622    85232850.660 9
        42.750
  24168008.240   127003732.153 5        40.000    24168013.400    98963946.846 6
        20.000
  23623858.764   124144211.069 6        44.000    23623862.104    96735751.616 6
        24.250
  21729624.976   114189968.794 7        50.500    21729633.296    88979200.177 8
        38.750
 18  2 20  8 38  0.0000000  0  8G02G05G06G07G09G16G23G30
  21825609.256   114694337.121 7        48.000    21825612.256    89372208.477 8
        36.750
  22467619.652   118068129.156 7        47.750    22467624.952    92001141.510 7
        33.000
  22143733.754   116366097.658 6        46.250    22143743.494    90674879.081 8
        35.750
  20928046.582   109977645.553 7        51.000    20928051.882    85696869.107 8
        40.500
  20825118.802   109436746.523 7        52.000    20825125.922    85275390.173 9
        43.250
  24171116.440   127020063.781 5        40.000    24171121.680    98976672.785 6
        19.250
  23640147.304   124229809.433 6        42.250    23640151.504    96802451.615 6
        25.000
  21713946.676   114107577.628 7        51.000    21713954.516    88914999.291 8
        39.250
 18  2 20  8 38 30.0000000  0  8G02G05G06G07G09G16G23G30
  21827894.636   114706346.270 7        48.000    21827897.776    89381566.247 8
        36.750
  22451014.572   117980870.979 7        48.750    22451020.152    91933148.125 8
        33.500
  22160432.914   116453845.749 6        46.750    22160440.794    90743254.202 8
        36.000
  20921570.602   109943614.474 7        51.000    20921576.042    85670351.385 8
        40.500
  20835563.842   109491634.291 7        52.000    20835571.262    85318159.856 9
        43.000
  24174340.260   127037010.057 5        39.500    24174346.300    98989877.659 6
        19.000
  23656457.004   124315515.023 6        45.000    23656461.384    96869235.124 6
        26.000
  21698341.316   114025570.905 8        52.250    21698349.496    88851097.961 8
        39.500
 18  2 20  8 39  0.0000000  0  8G02G05G06G07G09G16G23G30
  21830285.216   114718909.210 7        48.500    21830288.576    89391355.543 8
        37.000
  22434452.792   117893837.205 7        49.750    22434458.192    91865329.617 8
        33.750
  22177198.934   116541954.219 6        45.500    22177207.254    90811910.137 8
        35.000
  20915192.622   109910096.986 7        51.000    20915198.002    85644233.874 9
        41.250
  20846064.142   109546815.900 7        52.000    20846071.562    85361158.496 9
        42.500
  24177682.280   127054569.663 5        39.250    24177686.520    99003560.486 5
        17.750
  23672785.844   124401326.234 5        42.000    23672789.704    96936100.970 6
        25.750
  21682809.016   113943950.202 7        51.750    21682817.776    88787497.443 8
        39.500
 18  2 20  8 39 30.0000000  0  8G02G05G06G07G09G16G23G30
  21832781.236   114732025.999 7        48.500    21832784.436    89401576.412 8
        36.250
  22417933.752   117807028.793 7        50.250    22417939.212    91797686.694 8
        34.750
  22194033.852   116630420.639 6        47.000    22194042.952    90880844.971 8
        36.500
  20908912.222   109877094.517 7        50.500    20908917.642    85618517.665 8
        40.750
  20856620.782   109602290.495 7        50.500    20856628.222    85404385.441 9
        42.500
  24181140.480   127072742.882 5        39.250    24181145.340    99017721.456 6
        18.500
  23689137.022   124487242.811 6        44.000    23689139.942    97003048.911 7
        27.000
  21667351.276   113862718.042 7        51.750    21667359.596    88724199.656 8
        39.750
 18  2 20  8 40  0.0000000  0  8G02G05G06G07G09G16G23G30
  21835382.376   114745695.760 7        48.000    21835385.716    89412228.159 8
        36.750
  22401458.232   117720449.159 7        49.750    22401463.592    91730222.057 8
        34.000
  22210935.992   116719241.777 6        46.000    22210943.652    90950056.230 8
        35.000
  20902730.302   109844607.199 7        51.750    20902735.562    85593202.884 8
        40.750
  20867232.782   109658056.443 8        52.750    20867240.002    85447839.412 9
        42.250
  24184715.580   127091529.145 4        39.000    24184720.920    99032360.096 6
        19.000
  23705504.342   124573263.246 5        42.000    23705508.622    97070077.758 6
        25.000
  21651967.856   113781876.032 7        51.500    21651976.196    88661205.895 8
        40.000
 18  2 20  8 40 30.0000000  0  8G02G05G06G07G09G16G23G30
  21838089.256   114759918.261 7        48.750    21838091.876    89423310.624 8
        36.000
  22385026.512   117634099.704 7        50.250    22385031.732    91662936.759 8
        34.000
  22227904.712   116808414.986 6        46.500    22227912.992    91019541.830 8
        35.500
  20896646.142   109812635.868 7        50.000    20896651.662    85568290.157 8
        40.500
  20877899.942   109714112.655 7        51.000    20877907.362    85491519.569 9
        42.250
  24188407.240   127110927.572 5        39.500    24188411.560    99047475.721 6
        18.250
  23721893.982   124659386.600 6        43.750    23721898.082    97137186.845 7
        27.500
  21636658.556   113701426.323 7        52.000    21636666.936    88598517.822 8
        40.000
 18  2 20  8 41  0.0000000  0  8G02G05G06G07G09G16G23G30
  21840900.616   114774693.054 7        49.000    21840903.276    89434823.430 8
        36.000
  22368638.792   117547982.411 7        49.250    22368644.172    91595832.383 8
        33.750
  22244940.132   116897937.737 6        44.750    22244948.672    91089299.797 8
        34.250
  20890660.162   109781181.288 7        50.000    20890665.582    85543780.101 8
        40.500
  20888622.202   109770458.323 7        50.500    20888629.782    85535425.280 9
        42.250
  24192215.040   127130938.235 5        40.000    24192219.360    99063068.474 6
        18.500
  23738301.802   124745612.607 5        41.500    23738306.022    97204375.888 6
        24.250
  21621424.776   113621371.326 7        52.000    21621433.316    88536137.315 8
        39.750
 18  2 20  8 41 30.0000000  0  8G02G05G06G07G09G16G23G30
  21843817.016   114790019.803 7        48.250    21843820.036    89446766.344 8
        36.250
  22352295.692   117462099.040 7        50.000    22352301.012    91528910.278 8
        34.250
  22262041.832   116987807.388 6        46.250    22262049.552    91159328.076 8
        35.500
  20884773.182   109750244.500 7        51.000    20884778.522    85519673.523 8
        40.500
  20899398.942   109827092.295 7        50.750    20899406.442    85579555.629 9
        42.500
  24196138.460   127151560.481 5        39.500    24196144.020    99079137.785 6
        18.500
  23754730.082   124831940.296 6        43.000    23754733.942    97271644.213 7
        26.500
  21606266.056   113541713.162 8        52.500    21606274.456    88474066.027 8
        39.750
 18  2 20  8 42  0.0000000  0  8G02G05G06G07G09G16G23G30
  21846838.876   114805897.772 7        48.750    21846841.696    89459138.777 8
        36.500
  22335997.472   117376451.605 7        48.750    22336003.472    91462172.023 8
        34.000
  22279209.412   117078020.868 6        46.000    22279218.532    91229624.288 8
        35.500
  20878984.982   109719825.898 7        50.500    20878990.322    85495970.732 8
        40.500
  20910230.902   109884013.207 7        50.500    20910237.882    85623909.573 9
        42.500
  24200178.160   127172793.505 4        38.750    24200185.460    99095682.947 6
        18.250
  23771176.702   124918368.535 5        41.500    23771181.082    97338990.803 6
        25.250
  21591183.456   113462453.704 7        51.750    21591191.616    88412305.426 8
        40.250
 18  2 20  8 42 30.0000000  0  8G02G05G06G07G09G16G23G30
  21849964.956   114822326.009 7        48.750    21849968.056    89471939.988 8
        36.500
  22319745.052   117291042.814 7        50.000    22319750.432    91395619.731 8
        34.500
  22296441.092   117168575.369 6        45.500    22296449.812    91300186.183 8
        34.750
  20873295.002   109689925.863 7        51.000    20873300.542    85472672.012 8
        40.250
  20921116.922   109941219.804 7        51.750    20921124.422    85668486.136 9
        42.000
  24204335.680   127194637.239 5        40.500    24204342.000    99112704.002 6
        19.000
  23787642.682   125004896.583 6        43.500    23787646.182    97406415.247 6
        26.000
  21576177.498   113383594.915 8        53.000    21576185.678    88350857.028 8
        40.000
 18  2 20  8 43  0.0000000  0  8G02G05G06G07G09G16G23G30
  21853195.176   114839304.322 7        48.250    21853198.776    89485169.840 8
        36.250
  22303537.472   117205873.976 7        49.000    22303543.172    91329254.390 8
        34.500
  22313737.532   117259468.228 6        45.500    22313745.432    91371011.786 8
        35.250
  20867704.042   109660545.244 7        50.500    20867709.582    85449778.039 8
        40.500
  20932057.262   109998711.169 7        51.250    20932064.462    85713284.586 9
        42.750
  24208608.040   127217090.821 4        39.000    24208614.600    99130200.330 6
        19.000
  23804126.942   125091523.869 6        43.000    23804131.462    97473916.972 6
        26.000
  21561247.698   113305139.007 8        52.250    21561255.518    88289722.572 8
        40.000
 18  2 20  8 43 30.0000000  0  8G02G05G06G07G09G16G23G30
  21856530.916   114856831.820 7        48.500    21856534.276    89498827.625 8
        36.250
  22287376.952   117120946.983 7        49.500    22287381.972    91263077.533 8
        34.750
  22331097.732   117350696.217 6        45.500    22331106.732    91442098.497 8
        35.500
  20862212.042   109631684.184 7        50.750    20862217.402    85427288.908 8
        41.000
  20943051.462   110056485.684 7        52.000    20943058.202    85758303.692 9
        42.500
  24212997.000   127240153.532 4        38.750    24213002.800    99148171.264 6
        19.000
  23820630.322   125178249.259 6        43.500    23820633.822    97541495.163 6
        25.750
  21546394.998   113227087.586 8        52.500    21546403.238    88228903.304 8
        39.750
 18  2 20  8 44  0.0000000  0  8G02G05G06G07G09G16G23G30
  21859970.596   114874907.881 7        48.500    21859974.256    89512912.861 8
        36.250
  22271262.092   117036264.191 7        49.250    22271267.632    91197090.933 8
        35.000
  22348521.092   117442256.938 6        45.750    22348529.432    91513444.481 8
        35.000
  20856818.982   109603343.715 7        51.750    20856824.322    85405205.434 8
        40.750
  20954099.322   110114542.559 8        52.250    20954106.542    85803542.807 9
        42.500
  24217501.700   127263824.944 4        38.750    24217507.700    99166616.490 6
        19.250
  23837152.342   125265071.941 6        42.250    23837156.402    97609149.129 6
        24.500
  21531619.418   113149443.021 8        52.500    21531628.098    88168401.061 8
        40.000
 18  2 20  8 44 30.0000000  0  8G02G05G06G07G09G16G23G30
  21863514.776   114893532.402 7        48.000    21863518.156    89527425.458 8
        36.000
  22255194.092   116951826.772 7        49.250    22255199.452    91131295.550 8
        35.000
  22366007.332   117534147.918 6        44.500    22366015.732    91585047.832 8
        34.250
  20851525.322   109575524.900 7        51.250    20851530.262    85383528.445 8
        41.000
  20965200.522   110172881.022 8        52.750    20965207.802    85849001.338 9
        42.250
  24222123.060   127288105.068 4        39.000    24222127.840    99185536.020 6
        20.500
  23853692.122   125351991.237 6        42.500    23853695.762    97676878.411 6
        24.750
  21516922.098   113072207.697 8        52.500    21516930.118    88108217.704 8
        40.000
 18  2 20  8 45  0.0000000  0  8G02G05G06G07G09G16G23G30
  21867163.216   114912704.019 7        48.250    21867166.216    89542364.369 8
        36.000
  22239173.092   116867637.759 7        48.750    22239178.492    91065693.714 8
        34.250
  22383555.552   117626365.493 6        46.500    22383565.332    91656905.652 8
        35.500
  20846330.682   109548226.953 7        50.750    20846336.242    85362257.328 8
        40.750
  20976355.582   110231499.130 8        52.750    20976362.382    85894677.783 9
        42.000
  24226858.780   127312992.036 4        38.500    24226863.800    99204928.462 6
        20.000
  23870250.742   125439005.969 5        42.000    23870254.962    97744682.052 6
        24.750
  21502302.878   112995382.799 8        52.250    21502311.338    88048354.153 8
        40.000
 18  2 20  8 45 30.0000000  0  8G02G05G06G07G09G16G23G30
  21870915.376   114932421.898 7        48.500    21870918.256    89557728.931 8
        35.750
  22223200.512   116783699.251 7        47.750    22223205.772    91000287.094 8
        35.250
  22401165.852   117718906.988 6        46.000    22401173.732    91729015.891 8
        34.000
  20841235.382   109521450.682 7        50.750    20841240.602    85341392.709 8
        40.250
  20987563.340   110290395.854 8        53.000    20987570.360    85940571.327 9
        42.500
  24231709.680   127338485.230 4        38.250    24231715.720    99224793.254 6
        19.500
  23886827.262   125526115.510 6        42.250    23886831.022    97812559.575 6
        25.000
  21487762.138   112918970.434 8        52.750    21487770.198    87988812.068 8
        40.250
 18  2 20  8 46  0.0000000  0  8G02G05G06G07G09G16G23G30
  21874771.076   114952685.672 7        47.750    21874774.696    89573518.876 8
        36.250
  22207275.832   116700012.651 7        48.500    22207281.492    90935076.759 8
        35.000
  22418836.872   117811769.865 6        45.250    22418845.112    91801376.573 8
        34.500
  20836239.422   109495196.943 8        52.750    20836244.362    85320935.262 8
        40.500
  20998823.260   110349570.315 8        53.000    20998831.240    85986681.294 9
        42.250
  24236676.020   127364584.406 4        38.000    24236681.340    99245130.278 6
        20.500
  23903421.762   125613319.332 5        41.750    23903425.602    97880510.577 6
        24.500
  21473299.998   112842972.844 7        52.000    21473307.858    87929593.185 8
        39.750
 18  2 20  8 46 30.0000000  0  8G02G05G06G07G09G16G23G30
  21878730.936   114973494.417 7        48.000    21878733.976    89589733.471 8
        36.000
  22191398.752   116616579.851 7        48.750    22191403.772    90870064.185 8
        35.000
  22436568.792   117904950.956 6        45.000    22436577.812    91873985.194 8
        33.750
  20831343.002   109469465.977 7        51.500    20831348.202    85300885.175 8
        41.000
  21010136.500   110409021.112 8        53.000    21010144.060    86033006.586 9
        42.250
  24241758.400   127391288.557 4        39.000    24241762.240    99265938.750 6
        18.500
  23920032.522   125700616.154 5        40.750    23920037.682    97948533.980 6
        23.750
  21458917.278   112767391.782 8        52.250    21458925.998    87870698.865 8
        40.000
 18  2 20  8 47  0.0000000  0  8G02G05G06G07G09G16G23G30
  21882794.276   114994847.454 7        48.500    21882797.936    89606372.187 8
        36.500
  22175570.394   116533402.629 7        48.500    22175576.054    90805250.770 8
        34.750
  22454360.732   117998447.669 6        45.250    22454368.632    91946839.748 8
        33.750
  20826546.202   109444258.223 7        51.000    20826551.502    85281242.778 9
        41.250
  21021502.300   110468747.252 8        53.000    21021509.340    86079546.429 9
        42.000
  24246954.440   127418597.142 3        36.750    24246958.760    99287218.163 6
        18.250
  23936662.922   125788005.132 5        40.500    23936666.922    98016629.284 6
        24.750
  21444614.558   112692229.296 8        52.250    21444622.538    87812130.710 8
        39.750
 18  2 20  8 47 30.0000000  0  8G02G05G06G07G09G16G23G30
  21886961.394   115016744.047 7        47.750    21886964.534    89623434.453 8
        35.500
  22159791.614   116450483.130 7        47.500    22159797.554    90740638.167 8
        35.500
  22472212.092   118092256.923 6        45.000    22472220.632    92019937.860 8
        35.000
  20821848.802   109419574.092 7        50.250    20821854.302    85262008.403 8
        40.500
  21032919.880   110528747.550 8        52.750    21032927.380    86126299.904 9
        42.000
  24252265.120   127446508.911 3        36.750    24252270.220    99308967.557 6
        18.250
  23953310.002   125875485.744 5        42.000    23953314.882    98084795.902 6
        24.750
  21430391.718   112617487.276 7        52.000    21430400.038    87753890.191 8
        40.250
 18  2 20  8 48  0.0000000  0  8G02G05G06G07G09G16G23G30
  21891231.534   115039183.303 7        48.500    21891234.634    89640919.585 8
        36.500
  22144062.114   116367824.473 7        48.750    22144067.774    90676228.825 8
        36.000
  22490122.270   118186375.836 6        44.500    22490130.710    92093277.235 8
        35.000
  20817251.422   109395414.080 7        52.000    20817256.242    85243182.429 9
        41.250
  21044389.600   110589020.670 8        53.500    21044396.800    86173265.951 9
        42.000
  24257692.040   127475023.495 4        38.000    24257696.900    99331186.695 6
        20.250
  23969974.742   125963056.929 5        40.000    23969978.582    98153033.159 6
        22.750
  21416249.178   112543167.445 8        52.500    21416257.218    87695978.660 8
        40.500
 18  2 20  8 48 30.0000000  0  8G02G05G06G07G09G16G23G30
  21895604.374   115062164.391 7        47.750    21895607.834    89658826.903 8
        36.000
  22128382.434   116285427.642 7        48.250    22128388.134    90612023.509 8
        35.500
  22508091.330   118280801.353 6        45.750    22508099.350    92166855.552 8
        34.000
  20812753.462   109371778.223 7        51.750    20812758.662    85224764.880 8
        41.000
  21055910.520   110649565.395 8        52.500    21055917.740    86220443.659 9
        42.000
  24263232.880   127504139.850 4        38.750    24263237.280    99353874.747 6
        19.000
  23986655.720   126050718.002 6        43.000    23986659.840    98221340.429 6
        24.000
  21402187.158   112469271.688 8        52.250    21402195.258    87638397.567 8
        40.500
 18  2 20  8 49  0.0000000  0  8G02G05G06G07G09G16G23G30
  21900080.814   115085686.447 7        48.000    21900084.034    89677155.777 8
        36.250
  22112753.214   116203295.282 7        49.500    22112758.814    90548024.267 8
        35.750
  22526117.390   118375531.105 6        44.250    22526125.850    92240670.911 8
        34.250
  20808355.482   109348667.594 8        52.250    20808360.702    85206756.608 8
        40.750
  21067483.340   110710381.043 8        52.500    21067490.720    86267832.467 9
        41.750
  24268888.320   127533857.078 4        38.250    24268892.740    99377031.055 6
        18.500
  24003354.620   126138468.022 5        41.000    24003358.580    98289717.014 6
        23.000
  21388206.138   112395802.298 8        52.250    21388214.398    87581148.723 8
        40.500
 18  2 20  8 49 30.0000000  0  8G02G05G06G07G09G16G23G30
  21904659.334   115109748.435 7        48.000    21904662.874    89695905.363 8
        36.000
  22097174.514   116121428.561 7        48.250    22097180.334    90484232.025 8
        35.250
  22544201.150   118470561.961 6        45.750    22544209.550    92314720.887 8
        34.500
  20804057.922   109326081.895 7        51.750    20804063.162    85189157.375 8
        40.750
  21079107.500   110771466.203 8        52.750    21079115.080    86315431.279 9
        42.000
  24274657.140   127564174.184 5        39.250    24274662.480    99400654.774 6
        19.000
  24020069.820   126226306.273 5        41.000    24020073.460    98358162.372 6
        23.750
  21374306.798   112322760.924 8        53.000    21374314.538    87524233.390 8
        40.500
 18  2 20  8 50  0.0000000  0  8G02G05G06G07G09G16G23G30
  21909340.734   115134349.310 7        47.750    21909343.834    89715074.868 8
        34.500
  22081646.154   116039829.942 7        48.250    22081652.734    90420648.690 8
        35.000
  22562341.570   118565890.992 6        45.000    22562351.130    92389003.226 8
        35.000
  20799859.822   109304021.679 8        52.500    20799865.162    85171967.609 8
        40.500
  21090782.960   110832819.730 8        53.000    21090790.440    86363239.224 9
        42.000
  24280540.380   127595090.320 5        39.500    24280545.400    99424745.264 6
        19.750
  24036801.640   126314232.284 5        41.500    24036805.940    98426676.055 6
        23.000
  21360489.398   112250149.382 7        52.000    21360497.678    87467652.988 8
        40.500
 18  2 20  8 50 30.0000000  0  8G02G05G06G07G09G16G23G30
  21914124.534   115159488.423 7        49.000    21914127.494    89734663.783 8
        34.750
  22066170.574   115958500.990 7        48.500    22066176.354    90357275.488 8
        35.000
  22580538.670   118661515.264 6        45.500    22580547.210    92463515.608 8
        34.000
  20795762.162   109282487.183 8        52.500    20795766.922    85155187.481 8
        40.750
  21102508.940   110894440.389 8        53.500    21102516.300    86411255.318 9
        42.000
  24286536.858   127626604.071 5        40.000    24286541.458    99449301.436 6
        18.500
  24053548.560   126402244.876 6        42.250    24053553.000    98495257.240 6
        22.500
  21346753.938   112177969.478 7        52.000    21346762.158    87411408.934 8
        40.750
 18  2 20  8 51  0.0000000  0  8G02G05G06G07G09G16G23G30
  21919010.754   115185164.607 7        48.000    21919013.594    89754671.181 8
        35.500
  22050746.294   115877444.840 7        48.750    22050751.574    90294114.866 8
        35.750
  22598790.490   118757431.764 6        45.500    22598800.130    92538255.723 8
        35.000
  20791764.302   109261478.507 8        53.000    20791769.222    85138817.091 8
        41.000
  21114285.760   110956327.005 8        53.000    21114292.980    86459478.653 9
        41.500
  24292647.878   127658714.926 5        39.250    24292652.698    99474322.901 6
        18.250
  24070313.920   126490343.342 5        40.750    24070317.580    98563905.362 6
        22.000
  21333101.078   112106222.965 8        52.500    21333109.238    87355502.578 8
        40.500
 18  2 20  8 51 30.0000000  0  8G02G05G06G07G09G16G23G30
  21923998.674   115211376.890 7        48.000    21924001.334    89775096.330 8
        35.250
  22035373.854   115796663.149 7        50.000    22035379.114    90231168.099 8
        36.000
  22617097.870   118853637.751 6        46.000    22617107.110    92613221.383 8
        34.500
  20787866.722   109240996.137 8        52.750    20787871.942    85122856.804 9
        41.250
  21126112.700   111018478.549 8        52.500    21126120.440    86507908.409 9
        42.000
  24298871.058   127691421.576 4        39.000    24298875.738    99499808.631 6
        19.000
  24087095.400   126578526.820 6        43.000    24087099.180    98632619.692 6
        22.250
  21319531.198   112034911.831 8        53.500    21319539.278    87299935.478 8
        41.000
 18  2 20  8 52  0.0000000  0  8G02G05G06G07G09G16G23G30
  21929088.874   115238124.463 7        47.750    21929091.674    89795938.583 8
        35.250
  22020054.314   115716157.451 7        49.500    22020059.334    90168436.382 8
        35.500
  22635460.310   118950130.160 6        44.500    22635468.790    92688410.258 8
        33.750
  20784069.082   109221040.239 8        52.750    20784074.202    85107306.754 9
        41.250
  21137990.140   111080893.771 8        53.000    21137997.180    86556543.646 9
        42.000
  24305208.558   127724723.385 3        37.000    24305213.338    99525758.107 6
        19.000
  24103891.240   126666794.637 6        42.250    24103895.040    98701399.774 6
        22.500
  21306044.178   111964037.767 7        51.750    21306052.258    87244708.959 8
        41.000
 18  2 20  8 52 30.0000000  0  8G02G05G06G07G09G16G23G30
  21934280.354   115265406.492 7        47.500    21934283.274    89817197.286 8
        34.750
  22004787.514   115635930.354 7        49.750    22004792.754    90105921.740 8
        36.500
  22653876.010   119046906.268 6        45.000    22653884.850    92763820.173 8
        34.250
  20780371.542   109201611.275 7        51.500    20780377.122    85092167.312 8
        40.500
  21149917.040   111143571.657 8        52.750    21149924.560    86605383.552 9
        41.250
  24311657.778   127758621.469 3        36.000    24311663.218    99552171.834 5
        17.750
  24120704.560   126755146.184 6        42.250    24120708.940    98770245.062 6
        22.250
  21292640.778   111893602.666 8        52.500    21292648.618    87189824.496 9
        41.500
 18  2 20  8 53  0.0000000  0  8G02G05G06G07G09G16G23G30
  21939573.714   115293221.505 7        47.500    21939576.614    89838871.308 8
        35.500
  21989573.814   115555983.248 7        50.000    21989579.894    90043625.292 8
        36.500
  22672345.290   119143963.126 6        45.250    22672354.430    92839448.848 7
        32.750
  20776774.962   109182709.225 8        52.500    20776780.162    85077438.452 8
        40.500
  21161894.100   111206511.133 8        52.500    21161901.940    86654427.289 9
        41.500
  24318221.738   127793109.518 4        38.500    24318226.738    99579045.602 6
        19.250
  24137533.360   126843580.302 6        43.000    24137536.960    98839154.712 6
        22.000
  21279321.420   111823608.371 8        53.000    21279329.640    87135283.517 8
        40.750
 18  2 20  8 53 30.0000000  0  8G02G05G06G07G09G16G23G30
  21944967.514   115321568.649 7        47.500    21944970.654    89860959.977 8
        35.000
  21974413.714   115476318.563 7        48.750    21974420.074    89981548.924 8
        36.000
  22690867.290   119241297.794 6        44.500    22690876.030    92915294.026 7
        32.250
  20773278.322   109164334.376 7        51.500    20773283.602    85063120.386 8
        40.750
  21173920.500   111269710.990 8        52.250    21173928.300    86703673.915 9
        41.750
  24324897.458   127828189.386 5        39.500    24324902.218    99606380.591 6
        19.750
  24154376.900   126932096.458 6        42.250    24154380.640    98908128.287 6
        22.750
  21266086.140   111754056.639 8        53.500    21266094.220    87081087.389 9
        41.250
 18  2 20  8 54  0.0000000  0  8G02G05G06G07G09G16G23G30
  21950463.014   115350446.524 7        47.750    21950466.054    89883462.203 8
        35.500
  21959308.054   115396938.330 7        47.250    21959314.234    89919694.199 8
        35.500
  22709441.930   119338907.096 6        45.250    22709451.210    92991353.177 8
        33.250
  20769881.802   109146486.602 7        51.500    20769887.362    85049213.044 8
        41.000
  21185996.320   111333169.887 8        52.500    21186004.060    86753122.398 9
        41.250
  24331685.098   127863859.726 4        38.500    24331689.758    99634175.677 6
        19.000
  24171236.320   127020693.744 6        43.750    24171241.000    98977165.066 6
        22.500
  21252935.120   111684948.937 8        52.750    21252943.420    87027237.250 8
        41.000
 18  2 20  8 54 30.0000000  0  8G02G05G06G07G09G16G23G30
  21956059.134   115379854.596 7        47.750    21956062.274    89906377.570 8
        35.250
  21944257.334   115317844.565 7        49.000    21944262.994    89858062.713 8
        35.750
  22728067.670   119436788.514 6        44.500    22728076.710    93067624.365 7
        32.500
  20766585.782   109129166.389 8        52.250    20766591.202    85035716.776 8
        40.750
  21198121.220   111396887.034 7        51.000    21198128.900    86802772.111 9
        42.000
  24338584.818   127900119.009 3        37.000    24338590.018    99662429.674 6
        20.250
  24188111.040   127109371.580 6        42.750    24188116.200    99046264.629 6
        22.250
  21239869.300   111616287.374 8        52.250    21239877.380    86973734.760 8
        41.000
 18  2 20  8 55  0.0000000  0  8G02G05G06G07G09G16G23G30
  21961756.314   115409791.259 7        48.000    21961759.314    89929704.845 8
        35.250
  21929261.454   115239039.459 7        48.500    21929267.014    89796656.145 8
        36.000
  22746745.550   119534938.753 6        45.750    22746754.310    93144105.044 8
        33.250
  20763390.402   109112373.655 8        52.250    20763395.842    85022631.535 8
        40.750
  21210294.900   111460861.019 7        52.000    21210302.820    86852621.957 9
        41.500
  24345595.598   127936966.534 3        35.500    24345601.978    99691142.023 6
        19.000
  24205000.580   127198128.787 5        42.000    24205005.800    99115426.008 6
        22.750
  21226888.360   111548073.388 8        52.750    21226896.400    86920581.031 8
        41.000
 18  2 20  8 55 30.0000000  0  8G02G05G06G07G09G16G23G30
  21967552.934   115440255.440 6        47.000    21967556.194    89953443.156 8
        34.750
  21914320.454   115160524.550 7        49.000    21914326.334    89735475.702 8
        35.750
  22765473.470   119633354.994 6        45.000    22765482.830    93220792.975 7
        33.000
  20760295.042   109096108.705 8        52.500    20760300.662    85009957.554 8
        41.000
  21222517.780   111525090.805 7        51.750    21222525.140    86902671.131 9
        41.500
  24352719.498   127974400.614 4        37.500    24352725.258    99720311.401 6
        19.000
  24221906.120   127286965.099 5        41.500    24221910.940    99184649.022 6
        22.500
  21213993.340   111480308.820 8        52.250    21214001.860    86867777.480 9
        41.500
 18  2 20  8 56  0.0000000  0  8G02G05G06G07G09G16G23G30
  21973450.314   115471245.819 6        46.000    21973453.274    89977591.497 8
        35.250
  21899435.114   115082302.490 7        48.000    21899440.494    89674523.444 8
        36.750
  22784251.828   119732034.442 6        45.250    22784259.588    93297685.991 7
        32.250
  20757300.662   109080371.997 7        51.250    20757306.082    84997695.188 8
        41.000
  21234788.700   111589575.440 7        51.500    21234796.460    86952918.878 9
        41.250
  24359955.338   128012420.472 4        38.250    24359960.478    99749937.275 5
        17.750
  24238826.320   127375879.687 6        42.250    24238830.880    99253933.022 6
        22.750
  21201184.300   111412995.483 8        52.750    21201192.420    86815325.554 8
        41.000
 18  2 20  8 56 30.0000000  0  8G02G05G06G07G09G16G23G30
  21979447.574   115502761.176 7        47.500    21979450.534    90002148.894 8
        33.750
  21884606.356   115004375.041 7        49.500    21884611.356    89613800.750 8
        37.000
  22803078.968   119830973.911 6        44.250    22803088.448    93374781.663 7
        33.000
  20754406.382   109065162.689 8        52.250    20754411.382    84985843.790 8
        40.750
  21247108.040   111654313.478 8        52.250    21247115.740    87003364.086 8
        40.750
  24367300.658   128051024.741 4        38.000    24367306.498    99780018.466 6
        19.000
  24255761.680   127464871.497 6        42.500    24255765.660    99323277.196 6
        24.500
  21188460.880   111346134.797 8        52.750    21188469.180    86763226.328 9
        41.250
 18  2 20  8 57  0.0000000  0  8G02G05G06G07G09G16G23G30
  21985544.894   115534801.109 6        46.500    21985547.714    90027115.071 8
        35.500
  21869833.356   114926744.468 7        48.000    21869839.376    89553309.392 8
        37.000
  22821956.048   119930170.619 6        46.250    22821965.428    93452077.704 8
        33.750
  20751612.722   109050481.518 7        51.500    20751617.622    84974403.926 9
        41.250
  21259474.920   111719304.133 7        51.750    21259483.120    87054006.142 9
        41.250
  24374758.538   128090212.055 4        38.250    24374763.178    99810554.037 6
        19.000
  24272710.100   127553939.855 5        41.500    24272714.940    99392681.013 6
        22.750
  21175824.060   111279728.704 8        53.000    21175832.520    86711481.332 9
        41.250
 18  2 20  8 57 30.0000000  0  8G02G05G06G07G09G16G23G30
  21991741.074   115567363.600 6        46.000    21991743.854    90052488.426 8
        35.250
  21855118.036   114849413.010 7        47.750    21855123.456    89493051.120 8
        36.500
  22840880.168   120029621.482 6        45.500    22840888.748    93529571.868 7
        32.000
  20748919.422   109036328.331 7        52.000    20748924.842    84963375.467 8
        41.000
  21271890.300   111784546.053 7        51.250    21271897.760    87104843.987 8
        41.000
  24382325.158   128129980.737 4        37.250    24382331.518    99841542.602 6
        18.500
  24289674.338   127643084.173 6        42.250    24289678.758    99462144.035 6
        23.500
  21163274.220   111213778.692 8        53.000    21163282.740    86660091.721 9
        41.500
 18  2 20  8 58  0.0000000  0  8G02G05G06G07G09G16G23G30
  21998036.774   115600447.479 7        47.500    21998039.934    90078268.073 8
        35.750
  21840458.956   114772382.349 7        50.000    21840464.956    89433027.240 8
        36.500
  22859853.568   120129323.670 6        45.500    22859863.108    93607261.826 8
        33.500
  20746326.522   109022703.051 8        52.500    20746331.922    84952758.378 8
        40.750
  21284353.420   111850038.244 7        52.000    21284360.820    87155876.851 9
        41.250
  24390004.178   128170329.832 3        37.000    24390008.758    99872983.435 6
        18.250
  24306651.798   127732303.834 5        41.500    24306656.938    99531665.765 6
        24.750
  21150811.600   111148286.483 8        53.000    21150819.980    86609058.847 9
        41.500
 18  2 20  8 58 30.0000000  0  8G02G05G06G07G09G16G23G30
  22004431.434   115634051.479 6        46.500    22004434.634    90104452.973 8
        35.000
  21825858.616   114695654.861 7        49.250    21825864.516    89373239.599 8
        36.500
  22878874.408   120229274.093 6        46.750    22878882.488    93685145.229 7
        32.750
  20743834.162   109009605.650 7        52.000    20743839.202    84942552.619 9
        41.250
  21296863.378   111915779.497 7        51.750    21296870.898    87207103.785 8
        40.500
  24397791.838   128211258.058 4        38.250    24397796.738    99904875.514 6
        18.250
  24323644.138   127821597.748 5        42.000    24323648.518    99601245.330 6
        22.000
  21138436.440   111083253.619 8        53.000    21138444.500    86558383.902 9
        42.000
 18  2 20  8 59  0.0000000  0  8G02G05G06G07G09G16G23G30
  22010924.674   115668174.314 6        47.000    22010927.894    90131042.164 8
        35.250
  21811315.596   114619232.218 7        50.000    21811321.076    89313689.490 8
        36.500
  22897940.488   120329469.778 6        45.000    22897948.168    93763219.752 7
        32.000
  20741442.122   108997036.184 7        52.000    20741447.682    84932758.230 8
        41.000
  21309420.378   111981768.619 8        52.500    21309427.878    87258523.877 8
        40.000
  24405690.378   128252763.445 4        37.250    24405695.938    99937217.348 6
        19.250
  24340650.798   127910965.218 5        41.250    24340654.438    99670882.273 6
        22.750
  21126148.580   111018681.677 8        53.500    21126156.760    86508068.116 9
        42.000
 18  2 20  8 59 30.0000000  0  8G02G05G06G07G09G16G23G30
  22017516.854   115702814.822 6        46.000    22017519.874    90158034.727 8
        34.750
  21796831.536   114543116.626 7        50.500    21796836.956    89254378.645 8
        36.750
  22917053.228   120429907.887 6        45.000    22917062.748    93841483.186 8
        33.750
  20739150.742   108984994.777 8        52.750    20739156.302    84923375.315 9
        41.250
  21322025.158   112048004.744 7        51.500    21322032.258    87310136.431 8
        40.250
  24413698.058   128294845.223 4        37.500    24413703.978    99970008.294 6
        19.250
  24357669.938   128000405.588 5        41.250    24357675.078    99740575.938 6
        23.000
  21113949.320   110954572.449 8        53.500    21113957.480    86458112.879 9
        41.500
                            4  1
RINEX FILE SPLICE; other post-header comments skipped       COMMENT
 18  2 20  9  0  0.0000000  0  8G02G05G06G07G09G16G23G30
  22024206.474   115737971.671 6        47.000    22024210.134    90185429.650 8
        35.000
  21782406.236   114467310.282 7        51.000    21782411.756    89195308.775 8
        37.000
  22936211.568   120530585.548 6        45.000    22936219.208    93919933.249 7
        31.500
  20736959.962   108973481.472 8        52.500    20736965.142    84914403.922 8
        41.000
  21334676.198   112114486.742 7        52.000    21334683.378    87361940.575 8
        40.500
  24421815.938   128337501.906 4        38.500    24421821.178   100003247.264 6
        19.000
  24374703.818   128089918.278 5        39.500    24374708.158    99810326.011 6
        21.500
  21101837.640   110890927.511 8        53.000    21101846.100    86408519.431 9
        41.500
 18  2 20  9  0 30.0000000  0  8G02G05G06G07G09G16G23G30
  22030994.714   115773643.354 6        46.250    22030998.034    90213225.768 8
        35.000
  21768039.916   114391814.901 7        50.500    21768045.276    89136481.213 8
        37.000
  22955414.968   120631499.594 6        46.500    22955423.088    93998567.573 7
        33.000
  20734869.422   108962495.905 8        53.000    20734874.642    84905843.739 9
        41.250
  21347373.918   112181213.372 7        52.000    21347380.878    87413935.352 8
        40.000
  24430042.098   128380732.232 4        38.500    24430047.738   100036933.232 6
        18.250
  24391751.838   128179502.265 5        39.750    24391755.858    99880131.643 6
        20.750
  21089815.260   110827748.337 8        52.500    21089823.660    86359288.914 9
        42.000
 18  2 20  9  1  0.0000000  0  8G02G05G06G07G09G16G23G30
  22037880.454   115809828.734 7        47.250    22037883.914    90241422.177 8
        35.000
  21753733.416   114316633.173 7        51.250    21753738.396    89077898.064 8
        37.250
  22974662.428   120732647.224 6        44.500    22974672.308    94077383.828 7
        33.000
  20732879.582   108952038.035 8        52.750    20732885.082    84897694.751 9
        41.250
  21360118.298   112248183.649 8        53.000    21360125.038    87466119.977 8
        39.750
  24438377.898   128424533.988 5        39.500    24438382.238   100071064.438 6
        19.250
  24408812.238   128269157.140 5        39.750    24408817.538    99949992.444 6
        22.000
  21077881.220   110765036.549 8        53.000    21077889.960    86310422.594 9
        42.000
 18  2 20  9  1 30.0000000  0  8G02G05G06G07G09G16G23G30
  22044863.894   115846525.963 7        48.000    22044867.414    90270017.424 8
        34.750
  21739486.896   114241766.993 8        52.250    21739491.636    89019560.778 8
        37.250
  22993953.888   120834025.309 6        45.000    22993961.528    94156379.713 7
        30.500
  20730989.702   108942107.626 8        53.000    20730995.342    84889956.768 8
        41.000
  21372908.038   112315396.393 8        52.750    21372915.158    87518493.526 8
        40.500
  24446821.358   128468905.973 4        38.250    24446826.338   100105640.031 6
        20.000
  24425886.618   128358882.094 5        40.250    24425890.298   100019907.878 6
        21.500
  21066037.140   110702793.615 8        52.750    21066045.480    86261921.623 9
        42.000
 18  2 20  9  2  0.0000000  0  8G02G05G06G07G09G16G23G30
  22051944.574   115883733.887 7        48.000    22051947.394    90299010.608 8
        35.500
  21725300.576   114167217.877 7        50.500    21725305.936    88961470.556 8
        36.750
  23013288.568   120935630.933 6        43.500    23013298.228    94235552.876 7
        30.750
  20729200.302   108932704.812 8        52.750    20729205.742    84882629.902 9
        41.500
  21385744.298   112382850.488 8        53.000    21385751.438    87571055.152 8
        40.500
  24455373.998   128513846.847 5        39.250    24455378.778   100140658.829 6
        18.500
  24442972.998   128448676.299 5        40.250    24442977.918   100089877.320 6
        21.250
  21054282.300   110641021.085 8        53.500    21054290.040    86213787.207 9
        42.000
 18  2 20  9  2 30.0000000  0  9G02G05G06G07G09G13G16G23G30
  22059121.834   115921451.405 7        47.500    22059125.014    90328400.885 8
        35.000
  21711174.496   114092988.670 7        52.000    21711179.876    88903629.617 8
        36.750
  23032667.268   121037461.481 6        45.500    23032676.568    94314901.298 7
        32.000
  20727511.522   108923830.103 8        53.250    20727516.922    84875714.543 8
        41.000
  21398626.478   112450545.259 7        52.000    21398633.198    87623804.310 8
        40.750
  24680664.156   129697773.061 5        41.000

  24464032.958   128559355.525 5        39.250    24464038.618   100176120.155 6
        19.000
  24460074.078   128538539.528 5        40.750    24460079.518   100159900.505 6
        22.250
  21042617.240   110579720.871 8        53.000    21042625.240    86166020.825 9
        42.250
 18  2 20  9  3  0.0000000  0  9G02G05G06G07G09G13G16G23G30
  22066396.134   115959677.119 7        48.000    22066399.054    90358187.146 8
        35.500
  21697110.436   114019081.231 7        51.500    21697115.876    88846039.419 8
        36.250
  23052086.148   121139513.968 6        43.500    23052093.828    94394422.669 7
        30.000
  20725923.182   108915482.545 8        53.000    20725928.782    84869209.958 8
        40.750
  21411553.578   112518479.543 8        52.250    21411561.338    87676740.114 8
        40.750
  24661823.156   129598756.871 5        40.250

  24472800.078   128605430.042 4        38.750    24472806.898   100212022.314 5
        17.250
  24477187.558   128628470.784 5        41.000    24477192.898   100229976.719 6
        22.000
  21031042.320   110518894.376 8        53.000    21031050.580    86118623.566 9
        42.250
 18  2 20  9  3 30.0000000  0  9G02G05G06G07G09G13G16G23G30
  22073766.274   115998409.024 6        47.000    22073769.654    90388367.853 8
        35.250
  21683108.516   113945497.486 7        50.500    21683113.676    88788701.449 8
        37.000
  23071548.128   121241784.901 6        44.250    23071558.348    94474114.299 7
        31.500
  20724434.902   108907661.817 8        52.750    20724440.542    84863115.880 9
        41.250
  21424526.338   112586651.842 7        52.000    21424533.698    87729861.366 8
        40.750
  24642996.896   129499824.934 5        40.500

  24481675.078   128652068.419 4        38.500    24481681.938   100248363.892 5
        17.750
  24494312.738   128718469.373 5        40.500    24494317.638   100300105.422 6
        18.500
  21019558.000   110458542.656 8        53.000    21019565.960    86071596.270 9
        42.250
 18  2 20  9  4  0.0000000  0  9G02G05G06G07G09G13G16G23G30
  22081232.694   116037646.033 6        46.500    22081235.754    90418942.142 8
        35.000
  21669167.896   113872239.788 7        51.750    21669173.156    88731617.542 8
        37.250
  23091050.246   121344271.743 6        44.000    23091059.586    94553974.089 7
        29.500
  20723047.042   108900368.290 8        52.750    20723052.442    84857432.611 8
        40.750
  21437544.478   112655061.426 7        52.000    21437551.998    87783167.517 8
        40.250
  24624185.496   129400978.132 3        36.500

  24490657.498   128699269.281 4        38.500    24490662.998   100285143.762 5
        16.750
  24511452.878   128808534.530 5        42.000    24511457.838   100370286.000 6
        24.250
  21008163.920   110398667.583 8        53.500    21008172.080    86024940.384 9
        42.000
 18  2 20  9  4 30.0000000  0  9G02G05G06G07G09G13G16G23G30
  22088795.034   116077385.854 6        46.250    22088797.794    90449908.242 8
        34.750
  21655290.136   113799309.872 8        52.250    21655294.796    88674789.035 8
        37.250
  23110593.866   121446970.943 6        44.500    23110601.746    94633999.424 7
        30.000
  20721759.202   108893601.121 8        53.500    20721764.562    84852159.494 8
        40.750
  21450607.258   112723706.635 8        52.250    21450614.458    87836657.270 8
        40.250
  24605393.736   129302217.468 5        40.750

  24499747.258   128747031.040 4        38.500    24499752.318   100322360.695 5
        17.750
  24528604.438   128898665.057 6        42.250    24528609.798   100440517.497 6
        22.500
  20996860.840   110339270.025 8        53.250    20996868.860    85978656.585 9
        42.000
 18  2 20  9  5  0.0000000  0  9G02G05G06G07G09G13G16G23G30
  22096452.934   116117627.276 6        46.000    22096456.074    90481265.198 8
        35.000
  21641474.936   113726709.447 7        52.000    21641479.356    88618217.273 8
        37.750
  23130176.546   121549879.754 6        44.000    23130186.126    94714188.046 7
        30.500
  20720571.902   108887360.157 8        53.000    20720577.282    84847296.409 8
        41.000
  21463714.258   112792586.610 7        51.250    21463721.678    87890329.964 8
        40.000
  24586615.236   129203543.738 3        36.750

  24508941.698   128795352.008 3        37.000    24508947.498   100360013.377 5
        16.750
  24545767.378   128988860.644 4        39.000    24545771.818   100510799.675 6
        18.500
  20985649.080   110280351.642 8        53.500    20985656.940    85932746.179 9
        42.000
 18  2 20  9  5 30.0000000  0  9G02G05G06G07G09G13G16G23G30
  22104205.534   116158368.975 6        46.250    22104209.074    90513011.952 8
        35.000
  21627722.116   113654441.264 7        51.000    21627727.496    88561904.399 8
        37.000
  23149798.806   121652995.302 6        45.750    23149806.906    94794537.769 7
        29.750
  20719484.222   108881645.284 8        52.500    20719489.602    84842843.260 9
        41.250
  21476866.498   112861700.453 8        52.250    21476873.538    87944184.900 8
        40.000
  24567855.498   129104957.723 5        39.500

  24518243.338   128844230.165 4        38.250    24518247.358   100398100.207 5
        17.250
  24562945.118   129079120.794 5        41.500    24562948.778   100581132.290 6
        22.250
  20974528.762   110221914.050 8        53.750    20974536.502    85887210.413 9
        42.500
 18  2 20  9  6  0.0000000  0  9G02G05G06G07G09G13G16G23G30
  22112053.434   116199609.024 6        45.250    22112056.694    90545147.027 8
        34.750
  21614033.256   113582506.818 7        50.750    21614038.876    88505851.602 8
        37.000
  23169459.626   121756314.539 6        43.000    23169468.606    94875046.220 7
        28.500
  20718496.522   108876456.226 8        52.750    20718501.882    84838799.846 8
        41.000
  21490062.698   112931047.000 7        50.750    21490070.138    87998221.148 8
        40.250
  24549111.318   129006459.976 4        37.250

  24527649.578   128893664.260 3        37.000    24527654.978   100436620.281 5
        17.750
  24580131.838   129169444.286 5        40.000    24580137.678   100651514.144 6
        22.250
  20963500.622   110163958.469 8        53.250    20963508.102    85842050.246 9
        42.000
 18  2 20  9  6 30.0000000  0  9G02G05G06G07G09G13G16G23G30
  22119995.434   116241346.416 6        46.000    22119998.814    90577669.667 8
        34.500
  21600409.136   113510908.809 7        51.500    21600413.896    88450060.958 8
        38.500
  23189160.586   121859834.707 6        45.750    23189168.546    94955711.247 7
        31.000
  20717609.622   108871793.357 8        52.500    20717614.562    84835166.443 8
        40.500
  21503302.898   113000625.361 7        50.250    21503310.438    88052438.045 8
        40.250
  24530385.318   128908051.819 4        38.000

  24537162.518   128943652.412 4        38.750    24537168.378   100475572.032 6
        18.250
  24597331.196   129259831.059 5        39.750    24597336.876   100721945.178 6
        18.250
  20952563.742   110106486.558 8        53.250    20952571.062    85797266.958 9
        42.250
 18  2 20  9  7  0.0000000  0  9G02G05G06G07G09G13G16G23G30
  22128032.294   116283579.105 6        46.000    22128035.194    90610578.236 8
        35.000
  21586849.096   113439649.078 7        51.750    21586854.136    88394533.897 8
        38.250
  23208895.606   121963552.567 6        43.750    23208904.706    95036530.297 7
        29.750
  20716822.042   108867655.468 8        52.500    20716827.262    84831942.119 8
        41.000
  21516587.098   113070434.219 7        51.500    21516594.818    88106834.556 8
        39.500
  24511676.238   128809733.545 5        39.250

  24546780.398   128994192.687 4        37.500    24546786.178   100514954.032 6
        19.250
  24614545.136   129350279.841 5        42.000    24614548.156   100792424.886 6
        20.500
  20941719.302   110049499.419 8        53.250    20941726.842    85752861.401 9
        42.500
 18  2 20  9  7 30.0000000  0  8G02G05G06G07G09G13G23G30
  22136163.154   116326305.468 6        46.500    22136166.074    90643871.504 8
        34.750
  21573353.218   113368729.437 7        52.000    21573358.618    88339271.839 8
        37.750
  23228670.406   122067465.066 6        45.250    23228679.106    95117501.061 7
        30.250
  20716134.482   108864042.206 8        53.000    20716139.462    84829126.589 9
        41.250
  21529915.158   113140472.489 7        51.500    21529922.558    88161409.800 8
        39.750
  24492983.938   128711505.881 4        37.500

  24631765.996   129440790.081 3        35.750    24631773.696   100862952.264 6
        21.750
  20930967.422   109992998.420 8        53.500    20930975.562    85708834.661 9
        42.500
 18  2 20  9  8  0.0000000  0  8G02G05G06G07G09G13G23G30
  22144387.254   116369523.888 6        46.250    22144389.854    90677548.195 8
        34.500
  21559922.478   113298151.833 7        51.750    21559928.338    88284276.313 8
        38.000
  23248481.086   122171569.291 6        44.000    23248489.226    95198621.196 7
        30.250
  20715546.702   108860953.519 8        53.500    20715551.862    84826719.827 8
        41.000
  21543285.918   113210739.097 7        51.250    21543294.218    88216162.995 8
        39.750
  24474309.718   128613369.946 5        40.250

  24649002.676   129531361.332 5        40.250    24649008.556   100933527.029 6
        22.500
  20920308.682   109936984.853 8        53.250    20920316.582    85665187.744 9
        42.500
 18  2 20  9  8 30.0000000  0  8G02G05G06G07G09G13G23G30
  22152705.154   116413232.890 7        47.750    22152707.554    90711607.145 8
        35.000
  21546557.898   113227918.596 7        51.750    21546563.158    88229549.112 8
        38.500
  23268327.026   122275862.462 6        45.000    23268336.006    95279888.565 7
        30.000
  20715058.842   108858389.264 8        53.000    20715064.102    84824721.710 8
        41.000
  21556700.998   113281233.225 7        50.750    21556708.258    88271093.474 8
        39.750
  24455652.458   128515326.192 4        38.250    24455658.458   100141806.025 6
        19.500
  24666250.196   129621992.774 6        42.500    24666252.556   101004149.045 5
        16.250
  20909742.462   109881460.342 8        53.000    20909750.402    85621921.904 9
        42.250
 18  2 20  9  9  0.0000000  0  7G02G05G06G07G09G13G30
  22161115.514   116457430.581 6        46.750    22161119.034    90746046.886 8
        35.250
  21533258.758   113158032.216 7        50.750    21533264.278    88175092.190 8
        38.000
  23288208.526   122380341.598 6        45.250    23288217.586    95361300.848 7
        29.750
  20714670.542   108856349.083 8        52.750    20714675.442    84823131.965 8
        41.000
  21570158.918   113351953.821 7        52.000    21570166.478    88326200.410 8
        39.250
  24437012.758   128417375.968 5        40.250    24437019.018   100065481.160 6
        20.750
  20899269.782   109826426.148 8        53.750    20899277.962    85579038.126 9
        42.500
 18  2 20  9  9 30.0000000  0  7G02G05G06G07G09G13G30
  22169618.914   116502115.509 7        47.750    22169621.594    90780866.298 8
        34.750
  21520026.018   113088494.864 7        51.000    21520031.778    88120907.245 8
        37.500
  23308124.866   122485003.835 6        44.500    23308133.426    95442855.778 7
        29.500
  20714381.842   108854832.583 8        52.250    20714387.382    84821950.284 8
        41.000
  21583659.098   113422899.932 7        50.750    21583666.378    88381483.065 8
        40.000
  24418391.118   128319519.519 5        39.750    24418397.738    99989229.429 6
        20.000
  20888890.602   109771883.735 8        53.250    20888898.742    85536537.562 9
        42.500
 18  2 20  9 10  0.0000000  0  7G02G05G06G07G09G13G30
  22178214.534   116547285.358 7        47.500    22178217.054    90816063.571 8
        34.250
  21506860.418   113019308.140 7        51.250    21506865.858    88066995.513 8
        37.250
  23328076.386   122589845.842 6        43.500    23328085.566    95524550.832 7
        29.500
  20714192.922   108853838.913 8        53.250    20714198.142    84821176.009 8
        41.000
  21597202.456   113494070.196 7        51.250    21597210.376    88436940.397 8
        39.250
  24399788.458   128221758.105 5        39.250    24399794.598    99913051.720 6
        20.000
  20878605.082   109717834.011 8        53.000    20878613.542    85494420.902 9
        43.000
 18  2 20  9 10 30.0000000  0  7G02G05G06G07G09G13G30
  22186902.132   116592938.776 6        46.750    22186905.112    90851637.611 8
        35.000
  21493761.898   112950474.177 7        50.750    21493767.098    88013358.672 8
        37.750
  23348061.146   122694865.043 6        44.500    23348069.466    95606383.906 7
        30.000
  20714103.142   108853368.109 8        53.500    20714108.482    84820809.155 9
        41.500
  21610788.276   113565463.860 7        51.000    21610795.956    88492571.799 8
        39.250
  24381202.898   128124092.018 5        39.500    24381208.338    99836948.308 6
        20.000
  20868413.842   109664278.542 8        53.000    20868422.082    85452689.379 9
        42.500
 18  2 20  9 11  0.0000000  0  7G02G05G06G07G09G13G30
  22195681.432   116639074.388 7        47.750    22195684.392    90887587.408 8
        34.500
  21480730.858   112881994.312 7        51.250    21480735.818    87959997.738 8
        38.250
  23368078.226   122800057.771 6        43.250    23368086.666    95688352.261 7
        29.000
  20714113.022   108853419.123 7        52.000    20714118.162    84820848.909 8
        40.750
  21624416.276   113637079.392 7        50.000    21624423.936    88548376.087 8
        39.000
  24362635.098   128026522.050 4        38.750    24362641.538    99760919.766 6
        20.000
  20858317.142   109611218.102 8        53.250    20858325.502    85411343.590 9
        42.500
 18  2 20  9 11 30.0000000  0  7G02G05G06G07G09G13G30
  22204551.852   116685690.231 7        47.250    22204555.312    90923911.392 8
        34.250
  21467767.278   112813871.359 7        51.500    21467772.698    87906914.913 8
        38.750
  23388129.464   122905421.720 6        45.500    23388137.324    95770453.934 7
        30.250
  20714221.702   108853992.098 8        53.000    20714227.222    84821295.385 8
        41.000
  21638086.596   113708916.191 7        50.500    21638094.396    88604352.799 8
        39.250
  24344088.198   127929049.469 5        41.250    24344094.398    99684967.169 6
        20.000
  20848314.442   109558654.370 8        53.250    20848322.502    85370384.844 9
        43.000
 18  2 20  9 12  0.0000000  0  7G02G05G06G07G09G13G30
  22213513.612   116732784.030 7        47.500    22213516.412    90960607.855 8
        34.250
  21454872.358   112746107.708 8        52.250    21454877.418    87854112.071 8
        38.500
  23408209.304   123010953.500 5        41.500    23408217.904    95852686.496 7
        27.000
  20714430.082   108855086.477 8        53.000    20714435.622    84822148.157 9
        41.500
  21651798.456   113780972.970 7        50.500    21651805.816    88660500.918 8
        39.500
  24325556.998   127831674.444 5        40.500    24325563.278    99609090.447 6
        18.500
  20838406.602   109506588.322 8        53.000    20838415.042    85329813.904 9
        42.500
 18  2 20  9 12 30.0000000  0  7G02G05G06G07G09G13G30
  22222565.712   116780354.279 7        47.500    22222569.312    90997675.549 8
        34.500
  21442046.158   112678705.173 8        52.500    21442051.378    87801590.619 8
        38.250
  23428324.844   123116650.451 6        45.000    23428332.984    95935047.666 7
        30.750
  20714737.522   108856701.930 8        52.250    20714742.742    84823406.964 8
        41.000
  21665551.856   113853248.933 7        50.000    21665558.956    88716819.830 8
        39.000
  24307046.338   127734398.212 5        41.500    24307052.618    99533290.843 6
        21.000
  20828593.602   109455021.377 8        53.000    20828602.002    85289631.883 9
        43.000
 18  2 20  9 13  0.0000000  0  7G02G05G06G07G09G13G30
  22231708.532   116828399.127 7        47.250    22231711.912    91035113.060 8
        34.750
  21429289.018   112611665.127 8        53.000    21429293.958    87749351.614 8
        38.750
  23448467.664   123222509.144 5        41.250    23448476.224    96017534.902 7
        27.000
  20715144.242   108858837.411 7        51.750    20715149.142    84825070.985 8
        41.000
  21679346.936   113925742.615 7        49.000    21679354.436    88773308.395 8
        39.000
  24288554.578   127637221.203 5        41.500    24288559.518    99457568.467 6
        18.500
  20818876.162   109403954.311 8        53.500    20818884.242    85249839.372 9
        43.250
 18  2 20  9 13 30.0000000  0  7G02G05G06G07G09G13G30
  22240941.252   116876916.620 7        48.000    22240944.432    91072918.860 8
        33.500
  21416601.218   112544990.519 8        52.750    21416606.058    87697397.380 8
        38.750
  23468643.484   123328527.028 6        45.500    23468652.824    96100146.210 7
        31.000
  20715648.942   108861492.652 8        53.000    20715654.402    84827140.018 9
        41.250
  21693183.596   113998453.427 7        50.500    21693191.196    88829966.144 8
        39.000
  24270081.280   127540144.557 5        40.500    24270086.980    99381924.342 6
        21.000
  20809253.882   109353388.641 8        53.000    20809261.602    85210437.562 9
        43.250
 18  2 20  9 14  0.0000000  0  7G02G05G06G07G09G13G30
  22250263.492   116925904.949 6        47.000    22250266.132    91111091.549 8
        33.750
  21403983.638   112478683.018 8        52.750    21403988.758    87645729.201 8
        38.500
  23488846.024   123434700.892 5        41.250    23488856.444    96182878.974 7
        26.500
  20716253.062   108864667.040 8        52.500    20716258.782    84829613.573 8
        40.750
  21707060.956   114071380.069 7        50.250    21707068.656    88886792.086 8
        38.750
  24251627.460   127443168.797 5        40.750    24251633.040    99306358.829 6
        20.750
  20799726.762   109303325.350 8        53.500    20799735.242    85171427.220 9
        43.250
 18  2 20  9 14 30.0000000  0  7G02G05G06G07G09G13G30
  22259674.392   116975362.205 6        46.000    22259677.632    91149629.618 8
        33.500
  21391435.058   112412743.902 7        52.000    21391440.738    87594348.072 8
        39.000
  23509080.944   123541027.769 6        45.500    23509088.784    96265731.100 7
        29.750
  20716956.062   108868359.877 8        52.750    20716961.102    84832491.109 8
        41.000
  21720979.676   114144521.539 7        49.750    21720986.816    88943785.419 8
        38.750
  24233192.220   127346294.665 4        39.000    24233198.940    99230872.514 6
        20.500
  20790295.862   109253765.600 8        52.500    20790303.862    85132809.244 9
        43.250
 18  2 20  9 15  0.0000000  0  7G02G05G06G07G09G13G30
  22269174.732   117025286.834 6        46.250    22269178.172    91188531.885 8
        33.750
  21378958.138   112347177.093 7        51.250    21378963.698    87543257.056 8
        38.000
  23529342.124   123647505.109 6        43.750    23529352.464    96348700.362 7
        28.250
  20717757.102   108872571.131 8        53.000    20717762.922    84835772.616 9
        41.250
  21734938.416   114217877.231 7        49.000    21734946.396    89000945.678 8
        38.500
  24214777.800   127249522.406 5        39.750    24214784.020    99155465.603 6
        22.000
  20780961.162   109204710.847 8        53.250    20780969.402    85094584.778 9
        43.000
 18  2 20  9 15 30.0000000  0  7G02G05G06G07G09G13G30
  22278763.852   117075676.571 6        46.500    22278767.252    91227796.621 8
        34.250
  21366552.138   112281983.270 7        52.000    21366558.018    87492456.674 8
        38.500
  23549632.904   123754129.390 6        43.000    23549640.124    96431784.209 7
        27.500
  20718657.382   108877299.454 8        53.000    20718662.642    84839457.025 9
        41.250
  21748938.096   114291445.591 7        49.000    21748945.656    89058271.655 8
        38.500
  24196382.000   127152854.297 5        39.250    24196388.740    99080139.836 6
        22.250
  20771722.682   109156161.698 8        53.250    20771730.902    85056754.282 9
        43.000
 18  2 20  9 16  0.0000000  0  7G02G05G06G07G09G13G30
  22288440.412   117126529.202 6        45.250    22288444.092    91267422.029 8
        33.750
  21354217.258   112217164.675 7        51.500    21354222.558    87441948.676 8
        38.000
  23569948.964   123860897.653 5        41.000    23569959.784    96514980.195 7
        28.500
  20719655.242   108882544.347 7        52.000    20719660.782    84843543.965 8
        41.000
  21762978.136   114365225.561 7        49.500    21762985.496    89115762.512 8
        38.250
  24178006.500   127056290.080 4        38.750    24178013.260    99004895.072 6
        20.250
  20762580.342   109108119.173 8        53.500    20762587.942    85019318.555 9
        43.000
 18  2 20  9 16 30.0000000  0  7G02G05G06G07G09G13G30
  22298205.612   117177843.023 6        46.750    22298208.772    91307406.790 8
        33.750
  21341954.758   112152723.544 7        51.250    21341960.418    87391734.814 8
        38.250
  23590294.384   123967807.072 5        41.500    23590303.244    96598286.170 7
        28.250
  20720751.542   108888305.519 8        53.000    20720756.862    84848033.194 8
        41.000
  21777058.136   114439216.356 7        49.000    21777065.376    89173417.650 8
        38.750
  24159650.000   126959830.457 4        38.250    24159656.980    98929731.739 6
        20.250
  20753534.722   109060584.594 8        53.000    20753542.542    84982278.642 9
        43.250
 18  2 20  9 17  0.0000000  0  7G02G05G06G07G09G13G30
  22308057.932   117229615.945 6        45.750    22308060.932    91347749.298 8
        34.000
  21329764.238   112088661.737 7        51.750    21329769.718    87341816.527 8
        38.250
  23610663.564   124074854.664 5        41.250    23610673.364    96681699.839 6
        26.000
  20721945.962   108894582.449 8        53.250    20721951.302    84852924.310 8
        41.000
  21791178.016   114513416.865 7        50.500    21791185.256    89231236.204 8
        38.500
  24141314.740   126863476.294 5        39.500    24141321.180    98854650.610 6
        21.000
  20744586.002   109013558.864 8        54.000    20744594.042    84945635.222 9
        43.000
 18  2 20  9 17 30.0000000  0  7G02G05G06G07G09G13G30
  22317997.052   117281846.129 6        46.500    22317999.612    91388448.124 8
        34.250
  21317646.178   112024981.141 7        51.500    21317651.558    87292195.294 8
        39.000
  23631060.604   124182037.453 5        41.750    23631071.644    96765218.820 7
        29.500
  20723238.582   108901374.041 8        53.250    20723243.662    84858216.468 8
        40.750
  21805337.556   114587826.105 7        50.000    21805345.036    89289217.409 8
        38.000
  24123000.320   126767228.425 5        39.500    24123007.240    98779652.330 6
        21.500
  20735734.302   108967043.087 8        53.000    20735742.722    84909389.170 9
        42.750
 18  2 20  9 18  0.0000000  0  7G02G05G06G07G09G13G30
  22328022.232   117334531.898 6        47.000    22328025.772    91429501.948 8
        33.250
  21305601.258   111961684.425 7        52.000    21305606.578    87242873.172 8
        39.000
  23651481.564   124289352.787 5        40.000    23651490.464    96848841.078 6
        26.000
  20724628.402   108908679.962 8        53.500    20724633.782    84863909.391 8
        41.000
  21819536.656   114662443.321 7        49.500    21819544.016    89347360.665 8
        38.000
  24104705.240   126671087.738 4        39.000    24104710.520    98704737.521 6
        20.750
  20726979.802   108921038.420 8        54.000    20726988.182    84873541.396 9
        43.250
 18  2 20  9 18 30.0000000  0  7G02G05G06G07G09G13G30
  22338134.652   117387670.919 6        46.250    22338137.612    91470908.961 7
        33.000
  21293629.978   111898773.017 7        52.000    21293634.738    87193851.299 8
        38.500
  23671929.104   124396797.378 6        42.500    23671938.984    96932564.132 7
        29.750
  20726117.002   108916499.446 8        53.250    20726122.262    84870002.501 8
        41.000
  21833775.056   114737267.293 7        49.750    21833783.156    89405665.045 8
        38.500
  24086430.440   126575055.220 5        40.750    24086437.160    98629907.025 6
        23.250
  20718323.282   108875545.786 8        53.500    20718331.202    84838092.600 9
        43.000
 18  2 20  9 19  0.0000000  0  7G02G05G06G07G09G13G30
  22348332.452   117441261.156 6        45.250    22348335.192    91512667.565 7
        33.000
  21281732.020   111836249.115 8        52.500    21281737.000    87145131.377 8
        38.750
  23692398.482   124504368.367 5        40.750    23692407.482    97016385.579 7
        26.500
  20727702.282   108924831.728 8        53.500    20727707.662    84876495.190 9
        41.500
  21848052.916   114812297.055 7        50.500    21848060.636    89464129.754 8
        38.000
  24068177.100   126479131.419 5        40.250    24068183.080    98555161.252 6
        21.750
  20709763.622   108830566.093 8        53.500    20709771.862    84803043.501 9
        43.000
 18  2 20  9 19 30.0000000  0  7G02G05G06G07G09G13G30
  22358615.592   117495300.833 6        45.500    22358619.452    91554776.377 8
        33.250
  21269908.440   111774115.241 8        52.250    21269913.280    87096715.380 8
        39.000
  23712892.722   124612063.051 6        42.750    23712900.682    97100303.509 7
        26.750
  20729385.282   108933676.339 8        52.750    20729390.402    84883387.094 8
        40.500
  21862370.036   114887531.876 7        49.500    21862378.136    89522754.278 8
        38.500
  24049944.540   126383316.875 5        40.750    24049950.380    98480500.571 6
        21.250
  20701302.122   108786100.610 8        53.500    20701310.202    84768395.084 9
        43.250
 18  2 20  9 20  0.0000000  0  7G02G05G06G07G09G13G30
  22368984.332   117549787.668 6        45.750    22368987.672    91597233.620 8
        33.250
  21258159.220   111712373.267 8        52.500    21258164.180    87048604.745 8
        39.250
  23733409.002   124719878.310 5        42.000    23733418.142    97184315.341 7
        28.000
  20731165.582   108943032.163 8        53.500    20731170.702    84890677.348 8
        40.750
  21876725.256   114962970.507 7        49.750    21876733.256    89581537.603 8
        37.750
  24031731.640   126287612.678 5        40.750    24031738.000    98405925.878 6
        20.750
  20692938.602   108742150.021 8        53.250    20692946.662    84734147.882 9
        43.000
 18  2 20  9 20 30.0000000  0  7G02G05G06G07G09G13G30
  22379437.632   117604719.536 6        46.500    22379440.652    91640037.647 8
        33.500
  21246484.580   111651024.682 8        52.750    21246489.800    87000800.653 8
        38.500
  23753947.342   124827810.889 5        41.250    23753956.142    97268418.628 6
        25.750
  20733043.162   108952898.436 8        53.250    20733048.422    84898365.346 9
        41.750
  21891119.334   115038611.831 7        49.750    21891127.434    89640478.863 8
        38.500
  24013541.300   126192019.455 5        41.750    24013546.660    98331437.704 6
        21.500
  20684673.424   108698715.040 8        54.000    20684681.404    84700302.456 9
        43.500
 18  2 20  9 21  0.0000000  0  7G02G05G06G07G09G13G30
  22389975.052   117660094.231 6        45.500    22389977.912    91683186.735 7
        33.000
  21234885.840   111590071.460 8        52.750    21234891.020    86953304.631 8
        39.000
  23774509.002   124935858.029 6        43.000    23774517.922    97352611.177 7
        28.250
  20735017.682   108963274.643 8        53.500    20735022.822    84906450.710 9
        41.250
  21905551.954   115114454.907 7        47.750    21905559.254    89699577.335 8
        37.750
  23995371.660   126096538.246 5        41.750    23995377.480    98257036.792 6
        22.250
  20676506.044   108655796.732 8        53.000    20676514.324    84666859.627 9
        43.750
 18  2 20  9 21 30.0000000  0  7G02G05G06G07G09G13G30
  22400596.232   117715910.038 6        44.750    22400599.632    91726679.549 7
        32.250
  21223362.580   111529516.105 8        52.250    21223367.860    86906118.638 8
        39.250
  23795090.142   125044017.008 6        42.500    23795099.182    97436890.850 7
        26.250
  20737088.782   108974160.050 8        53.750    20737093.742    84914932.839 8
        41.000
  21920022.374   115190499.044 7        49.500    21920030.294    89758832.483 8
        38.500
  23977222.522   126001169.623 5        40.500    23977229.702    98182723.610 6
        21.500
  20668437.824   108613396.239 8        53.500    20668445.404    84633820.302 9
        43.750
 18  2 20  9 22  0.0000000  0  7G02G05G06G07G09G13G30
  22411301.452   117772164.439 6        44.500    22411304.472    91770514.115 7
        32.000
  21211915.240   111469360.505 8        53.000    21211920.520    86859244.145 8
        39.250
  23815692.902   125152284.628 6        42.500    23815702.582    97521255.199 7
        26.250
  20739257.162   108985553.737 8        53.750    20739262.522    84923811.034 8
        40.750
  21934531.314   115266742.990 7        48.750    21934538.454    89818243.328 8
        37.750
  23959096.162   125905914.459 5        41.000    23959102.102    98108498.830 6
        22.000
  20660467.924   108571514.140 8        54.000    20660475.804    84601184.902 9
        43.500
 18  2 20  9 22 30.0000000  0  7G02G05G06G07G09G13G30
  22422089.132   117828855.575 6        44.500    22422092.392    91814689.009 7
        32.250
  21200544.040   111409606.579 7        51.750    21200549.420    86812682.644 8
        39.250
  23836316.422   125260658.079 5        41.000    23836325.322    97605701.980 7
        26.250
  20741521.762   108997454.842 8        53.000    20741526.822    84933084.616 9
        41.250
  21949078.194   115343185.865 7        49.000    21949085.474    89877809.180 8
        38.000
  23940991.682   125810773.280 5        40.750    23940997.762    98034362.844 6
        20.750
  20652596.804   108530151.449 8        53.750    20652604.544    84568954.248 9
        43.500
 18  2 20  9 23  0.0000000  0  7G02G05G06G07G09G13G30
  22432960.292   117885981.229 6        46.000    22432963.892    91859202.479 7
        32.750
  21189250.580   111350256.566 7        52.000    21189255.980    86766435.885 8
        39.000
  23856957.562   125369134.439 5        40.500    23856966.582    97690228.965 6
        25.000
  20743883.222   109009862.501 8        53.250    20743888.502    84942752.922 8
        40.750
  21963662.154   115419826.724 7        47.500    21963670.154    89937529.311 8
        37.000
  23922908.922   125715746.957 5        42.000    23922916.482    97960316.430 6
        22.000
  20644824.804   108489308.987 8        53.000    20644832.684    84537128.970 9
        43.750
 18  2 20  9 23 30.0000000  0  7G02G05G06G07G09G13G30
  22443913.092   117943539.307 6        45.250    22443916.092    91904052.887 7
        32.750
  21178033.780   111291312.168 7        51.750    21178039.260    86720505.187 8
        39.000
  23877619.962   125477710.740 5        41.000    23877629.322    97774833.842 7
        27.000
  20746340.722   109022776.206 8        53.000    20746345.922    84952815.540 8
        40.750
  21978284.114   115496664.649 7        48.250    21978291.834    89997402.991 8
        37.750
  23904847.882   125620836.557 5        40.750    23904854.182    97886360.281 6
        22.500
  20637151.904   108448987.610 8        53.750    20637159.284    84505709.719 9
        43.000
 18  2 20  9 24  0.0000000  0  7G02G05G06G07G09G13G30
  22454948.012   118001527.407 6        46.000    22454950.652    91949238.390 7
        33.000
  21166894.440   111232775.385 7        51.250    21166899.800    86674892.113 8
        38.500
  23898299.422   125586384.032 5        40.250    23898308.702    97859514.245 7
        26.500
  20748894.002   109036194.674 8        53.000    20748899.242    84963271.480 9
        41.250
  21992942.914   115573698.527 7        48.750    21992951.194    90057429.358 8
        37.500
  23886810.022   125526042.733 5        42.000    23886816.502    97812494.992 6
        23.500
  20629577.964   108409187.981 8        53.500    20629585.444    84474697.037 9
        43.250
 18  2 20  9 24 30.0000000  0  7G02G05G06G07G09G13G30
  22466064.372   118059943.713 6        45.500    22466067.832    91994757.563 7
        32.500
  21155833.480   111174648.799 7        52.000    21155839.180    86629598.668 8
        39.000
  23918997.802   125695151.537 5        41.500    23919005.422    97944268.133 6
        26.000
  20751543.322   109050117.236 8        52.250    20751548.682    84974120.230 9
        41.250
  22007639.574   115650927.589 7        48.000    22007647.174    90117607.822 8
        37.500
  23868793.442   125431366.293 5        41.500    23868799.762    97738721.169 6
        22.500
  20622103.904   108369911.126 8        53.750    20622111.544    84444091.702 9
        43.750
 18  2 20  9 25  0.0000000  0  7G02G05G06G07G09G13G30
  22477261.332   118118785.617 6        44.500    22477264.332    92040608.359 7
        32.500
  21144850.620   111116933.893 7        51.500    21144856.160    86584626.022 8
        38.500
  23939712.582   125804010.141 5        41.500    23939722.242    98029092.976 7
        26.750
  20754288.622   109064542.855 8        52.250    20754293.702    84985360.970 8
        41.000
  22022372.174   115728350.718 7        48.750    22022380.494    90177937.506 8
        37.500
  23850800.002   125336807.902 6        42.250    23850805.742    97665039.324 6
        22.500
  20614729.264   108331157.602 8        54.000    20614737.164    84413894.159 9
        43.500
 18  2 20  9 25 30.0000000  0  7G02G05G06G07G09G13G30
  22488539.030   118178050.906 6        45.500    22488542.390    92086789.101 7
        32.000
  21133946.540   111059632.353 7        51.250    21133952.140    86539975.467 8
        39.500
  23960444.142   125912956.845 5        41.500    23960453.742    98113986.440 7
        27.750
  20757129.162   109079470.506 7        52.000    20757134.202    84996992.894 8
        40.750
  22037142.354   115805966.819 7        48.250    22037149.834    90238417.560 8
        37.250
  23832828.442   125242368.180 5        41.000    23832834.502    97591449.953 6
        22.750
  20607454.464   108292928.044 8        53.500    20607462.224    84384104.907 9
        43.500
 18  2 20  9 26  0.0000000  0  7G02G05G06G07G09G13G30
  22499897.050   118237737.415 6        45.000    22499900.830    92133298.039 7
        32.000
  21123121.540   111002746.333 8        52.500    21123126.780    86495648.697 8
        39.250
  23981192.502   126021988.755 5        41.000    23981201.902    98198946.329 7
        27.250
  20760065.242   109094899.535 8        52.500    20760070.322    85009015.526 9
        41.500
  22051948.814   115883775.047 7        49.250    22051956.054    90299047.322 8
        37.500
  23814880.122   125148048.050 5        40.250    23814885.402    97517953.758 6
        23.000
  20600279.504   108255223.274 8        54.250    20600287.484    84354724.580 9
        43.000
 18  2 20  9 26 30.0000000  0  7G02G05G06G07G09G13G30
  22511334.510   118297842.776 6        45.000    22511337.950    92180133.330 7
        31.000
  21112375.600   110946277.885 7        51.750    21112381.140    86451647.300 8
        38.750
  24001956.160   126131103.000 5        39.500    24001965.080    98283970.381 7
        26.750
  20763096.282   109110828.845 8        53.000    20763101.262    85021427.977 8
        40.500
  22066791.794   115961774.425 7        50.000    22066799.274    90359826.039 8
        37.000
  23796954.562   125053848.234 5        41.000    23796960.022    97444551.322 6
        22.750
  20593204.824   108218043.985 8        54.750    20593212.464    84325753.707 9
        43.750
 18  2 20  9 27  0.0000000  0  7G02G05G06G07G09G13G30
  22522851.930   118358364.901 6        45.750    22522855.350    92227293.405 7
        31.750
  21101709.800   110890229.027 7        51.500    21101714.860    86407972.861 8
        38.250
  24022736.140   126240296.773 5        41.500    24022745.540    98369056.362 7
        27.500
  20766222.762   109127257.468 8        52.750    20766228.082    85034229.493 8
        40.250
  22081670.634   116039964.092 7        50.500    22081678.154    90420753.032 8
        37.250
  23779051.322   124959769.557 5        40.500    23779057.122    97371243.303 6
        22.750
  20586229.724   108181390.940 8        55.000    20586237.744    84297192.901 9
        43.500
 18  2 20  9 27 30.0000000  0  7G02G05G06G07G09G13G30
  22534447.690   118419301.102 6        45.750    22534450.690    92274776.126 7
        32.250
  21091124.560   110834601.568 7        51.250    21091129.780    86364626.783 8
        38.750
  24043528.660   126349566.756 5        40.750    24043537.700    98454201.746 6
        25.500
  20769443.682   109144184.415 7        51.250    20769448.782    85047419.317 8
        41.000
  22096585.354   116118342.702 7        48.500    22096593.174    90481827.235 8
        37.000
  23761172.182   124865812.620 5        41.000    23761178.282    97298030.151 6
        22.250
  20579354.984   108145264.463 8        54.000    20579362.804    84269042.404 9
        43.250
 18  2 20  9 28  0.0000000  0  7G02G05G06G07G09G13G30
  22546121.990   118480649.422 6        45.500    22546125.430    92322579.993 7
        31.250
  21080619.420   110779397.552 7        52.000    21080624.560    86321610.668 8
        39.000
  24064335.220   126458910.423 5        40.000    24064345.560    98539404.550 6
        25.500
  20772759.562   109161608.665 8        52.250    20772765.102    85060996.654 8
        40.750
  22111536.454   116196909.681 7        50.000    22111543.694    90543048.226 8
        37.000
  23743316.342   124771978.602 5        40.250    23743321.862    97224912.775 6
        22.750
  20572581.064   108109665.566 8        54.750    20572588.684    84241303.005 9
        43.750
 18  2 20  9 28 30.0000000  0  7G02G05G06G07G09G13G30
  22557874.430   118542407.739 6        45.750    22557877.090    92370703.324 7
        31.500
  21070195.480   110724618.991 8        52.750    21070201.060    86278926.074 8
        39.500
  24085157.420   126568324.889 6        42.750    24085166.700    98624662.541 7
        27.500
  20776169.562   109179529.647 8        52.500    20776175.142    85074961.054 8
        40.750
  22126522.654   116275664.167 7        48.750    22126530.634    90604415.330 8
        37.000
  23725482.562   124678267.749 5        40.750    23725489.602    97151891.349 6
        22.250
  20565907.204   108074594.983 8        54.250    20565915.084    84213975.288 9
        43.500
 18  2 20  9 29  0.0000000  0  7G02G05G06G07G09G13G30
  22569703.550   118604573.166 6        45.500    22569707.010    92419143.876 7
        32.000
  21059852.860   110670267.271 7        52.000    21059858.640    86236574.076 8
        39.000
  24105990.320   126677806.879 5        40.500    24106000.080    98709973.109 6
        25.250
  20779674.302   109197945.354 8        53.000    20779679.422    85089310.955 9
        41.250
  22141545.134   116354604.698 7        49.500    22141552.474    90665927.409 8
        37.250
  23707674.862   124584681.087 6        42.500    23707681.222    97078966.731 6
        22.750
  20559333.804   108040052.812 8        54.500    20559341.304    84187059.313 9
        43.750
 18  2 20  9 29 30.0000000  0  7G02G05G06G07G09G13G30
  22581610.550   118667143.662 6        46.000    22581614.350    92467900.082 7
        32.250
  21049591.820   110616344.753 7        51.500    21049596.980    86194556.533 8
        39.000
  24126837.560   126787353.724 6        43.750    24126846.040    98795334.246 6
        26.000
  20783272.342   109216855.589 8        53.250    20783277.982    85104046.191 8
        40.500
  22156602.314   116433730.731 7        50.000    22156609.854    90727584.022 8
        37.250
  23689889.182   124491219.209 6        42.500    23689895.362    97006139.276 6
        23.000
  20552861.264   108006040.005 8        54.000    20552869.284    84160555.833 9
        43.750
 18  2 20  9 30  0.0000000  0  7G02G05G06G07G09G13G30
  22593594.190   118730116.894 6        45.250    22593597.330    92516970.096 7
        31.500
  21039412.580   110562853.392 7        52.000    21039418.140    86152874.951 8
        39.000
  24147695.240   126896962.565 5        42.000    24147705.040    98880743.685 6
        23.750
  20786964.762   109236258.953 8        53.000    20786970.002    85119165.693 8
        41.000
  22171694.614   116513041.266 7        49.750    22171701.934    90789384.406 8
        37.000
  23672127.544   124397883.410 6        43.000    23672134.224    96933410.116 6
        24.250
  20546489.764   107972557.076 8        55.000    20546497.644    84134465.254 9
        44.000
 18  2 20  9 30 30.0000000  0  7G02G05G06G07G09G13G30
  22605653.850   118793490.517 6        44.750    22605657.010    92566352.121 7
        31.250
  21029315.980   110509795.001 7        51.500    21029321.020    86111530.753 8
        39.000
  24168563.980   127006630.481 6        42.250    24168573.880    98966199.096 6
        24.250
  20790751.002   109256154.767 7        51.500    20790756.322    85134668.925 9
        41.250
  22186821.532   116592535.344 7        48.000    22186828.692    90851327.817 8
        36.500
  23654390.604   124304674.355 6        43.500    23654396.744    96860779.743 6
        24.750
  20540219.244   107939604.604 8        54.000    20540227.564    84108788.007 9
        43.750
 18  2 20  9 31  0.0000000  0  7G02G05G06G07G09G13G30
  22617789.170   118857262.372 6        45.000    22617792.750    92616044.429 8
        33.250
  21019302.260   110457172.109 8        53.000    21019307.260    86070525.895 8
        39.500
  24189444.060   127116354.773 5        41.750    24189453.440    99051698.540 6
        25.250
  20794630.402   109276541.961 8        52.500    20794635.562    85150555.046 8
        40.500
  22201983.292   116672212.271 7        48.500    22201991.632    90913413.686 8
        37.000
  23636677.844   124211592.526 5        41.750    23636684.084    96788248.503 6
        23.000
  20534049.484   107907183.334 8        53.500    20534057.504    84083524.686 9
        44.250
 18  2 20  9 31 30.0000000  0  7G02G05G06G07G09G13G30
  22629999.270   118921429.776 6        44.750    22630003.250    92666044.969 7
        31.750
  21009371.440   110404985.731 8        52.250    21009376.060    86029861.177 8
        39.000
  24210333.180   127226132.480 4        39.000    24210344.100    99137239.481 6
        24.000
  20798603.502   109297419.227 8        52.750    20798608.782    85166823.039 8
        41.000
  22217179.712   116752070.924 7        49.000    22217187.932    90975641.176 8
        36.250
  23618989.444   124118638.671 5        41.500    23618994.824    96715816.952 6
        24.000
  20527981.284   107875293.622 8        53.500    20527989.364    84058675.567 9
        44.000
 18  2 20  9 32  0.0000000  0  7G02G05G06G07G09G13G30
  22642285.230   118985990.559 6        45.250    22642288.410    92716352.048 7
        31.750
  20999523.920   110353237.965 8        52.250    20999528.840    85989538.230 8
        39.500
  24231234.160   127335960.656 6        42.750    24231243.620    99222819.901 6
        25.750
  20802669.342   109318785.373 8        52.500    20802674.542    85183471.974 8
        40.750
  22232410.972   116832110.459 7        48.250    22232418.892    91038009.608 8
        35.500
  23601324.644   124025814.080 5        40.750    23601331.804    96643486.180 6
        24.500
  20522013.904   107843936.026 8        53.000    20522022.124    84034241.077 9
        43.750
 18  2 20  9 32 30.0000000  0  7G02G05G06G07G09G13G30
  22654645.070   119050941.964 6        45.250    22654648.510    92766963.494 7
        31.750
  20989760.300   110301930.965 7        52.000    20989765.780    85949558.748 8
        39.500
  24252141.580   127445836.466 4        38.750    24252152.860    99308437.223 6
        25.500
  20806827.942   109340639.458 8        52.500    20806833.202    85200501.129 9
        41.500
  22247676.632   116912329.779 7        47.750    22247684.272    91100518.127 8
        36.000
  23583686.184   123933119.095 5        41.000    23583692.424    96571256.365 6
        24.500
  20516148.284   107813110.892 8        53.750    20516155.924    84010221.501 9
        44.000
 18  2 20  9 33  0.0000000  0  7G02G05G06G07G09G13G30
  22667078.830   119116282.158 6        46.250    22667082.510    92817877.879 7
        32.000
  20980081.522   110251066.930 8        52.500    20980086.622    85909924.437 8
        40.000
  24273060.880   127555757.002 5        41.500    24273067.940    99394089.674 6
        25.000
  20811079.222   109362980.366 8        52.500    20811084.562    85217909.625 8
        41.000
  22262976.192   116992728.206 7        48.500    22262983.212    91163166.228 8
        36.000
  23566071.304   123840554.452 5        41.000    23566077.544    96499128.087 6
        24.000
  20510383.804   107782818.895 8        54.250    20510391.924    83986617.344 9
        44.250
 18  2 20  9 33 30.0000000  0  7G02G05G06G07G09G13G30
  22679585.930   119182008.209 6        45.000    22679589.430    92869092.965 7
        30.750
  20970487.102   110200647.158 8        52.500    20970492.642    85870636.309 8
        39.500
  24293984.978   127665719.405 5        40.500    24293995.978    99479774.496 7
        26.500
  20815422.942   109385806.719 7        51.250    20815428.142    85235696.397 9
        41.250
  22278308.932   117073304.482 6        46.750    22278316.952    91225952.898 8
        35.250
  23548481.784   123748121.024 5        41.000    23548487.744    96427102.076 6
        22.500
  20504721.024   107753060.201 8        54.250    20504728.744    83963428.755 9
        44.000
 18  2 20  9 34  0.0000000  0  7G02G05G06G07G09G13G30
  22692166.050   119248117.863 6        45.250    22692170.370    92920606.928 7
        32.000
  20960977.382   110150673.558 7        52.000    20960983.102    85831695.843 8
        39.750
  24314918.318   127775720.700 5        41.250    24314926.578    99565489.789 6
        24.750
  20819858.542   109409117.670 8        52.500    20819864.102    85253860.768 9
        41.500
  22293675.672   117154057.994 7        48.250    22293683.652    91288877.672 8
        35.500
  23530917.244   123655819.699 5        41.500    23530923.764    96355178.973 6
        25.500
  20499159.864   107723835.428 8        54.250    20499167.544    83940656.216 9
        44.000
 18  2 20  9 34 30.0000000  0  7G02G05G06G07G09G13G30
  22704819.370   119314608.416 6        45.750    22704822.690    92972417.706 7
        31.500
  20951552.982   110101147.768 8        52.500    20951558.542    85793104.319 8
        40.000
  24335856.918   127885758.318 5        40.500    24335866.338    99651233.318 6
        24.250
  20824386.582   109432912.037 8        52.250    20824391.922    85272401.827 9
        41.500
  22309076.312   117234987.687 7        48.750    22309084.332    91351939.725 8
        35.500
  23513379.284   123563651.152 5        42.000    23513384.044    96283359.350 6
        25.500
  20493700.104   107695144.960 8        53.750    20493708.104    83918300.009 9
        44.000
 18  2 20  9 35  0.0000000  0  7G02G05G06G07G09G13G30
  22717544.530   119381477.670 6        46.000    22717547.370    93024523.606 7
        31.250
  20942213.982   110052072.013 8        52.500    20942219.562    85754863.465 8
        39.250
  24356803.798   127995829.227 5        42.000    24356814.338    99737002.771 7
        28.500
  20829006.202   109457188.585 8        52.750    20829011.522    85291318.622 8
        40.500
  22324510.052   117316092.856 7        48.000    22324518.112    91415138.525 8
        35.000
  23495865.084   123471616.152 5        41.750    23495870.804    96211643.745 6
        25.250
  20488342.124   107666989.371 8        53.250    20488350.164    83896360.593 9
        43.750
 18  2 20  9 35 30.0000000  0  7G02G05G06G07G09G13G30
  22730341.010   119448722.515 6        45.000    22730344.090    93076922.153 7
        31.500
  20932961.062   110003447.478 8        52.500    20932966.462    85716974.223 8
        39.500
  24377753.738   128105930.489 5        41.250    24377763.238    99822795.839 6
        19.500
  20833717.662   109481945.843 8        53.000    20833723.102    85310609.978 8
        41.000
  22339977.412   117397372.146 7        48.500    22339985.092    91478473.002 8
        35.500
  23478377.164   123379715.504 6        42.750    23478382.924    96140032.879 7
        26.750
  20483085.964   107639368.568 8        54.500    20483094.344    83874837.892 9
        43.750
 18  2 20  9 36  0.0000000  0  7G02G05G06G07G09G13G30
  22743207.850   119516341.258 6        45.500    22743212.010    93129612.044 7
        30.000
  20923794.542   109955277.258 8        52.500    20923799.922    85679438.984 8
        39.500
  24398711.938   128216059.358 5        41.000    24398722.118    99908610.573 6
        25.750
  20838520.002   109507183.224 7        52.000    20838526.082    85330275.472 8
        40.750
  22355477.112   117478825.067 7        48.000    22355485.152    91541942.778 8
        35.000
  23460914.244   123287950.437 5        41.500    23460920.504    96068527.641 6
        26.000
  20477932.084   107612283.348 8        54.500    20477940.024    83853732.515 9
        44.000
 18  2 20  9 36 30.0000000  0  7G02G05G06G07G09G13G30
  22756145.810   119584331.286 6        44.500    22756148.890    93182591.247 7
        31.250
  20914714.762   109907562.863 8        52.500    20914720.382    85642258.934 8
        39.750
  24419672.798   128326213.415 5        41.500    24419683.518    99994444.692 6
        22.750
  20843413.522   109532899.247 8        52.750    20843419.262    85350313.925 8
        40.500
  22371010.392   117560450.855 7        48.000    22371018.152    91605547.255 8
        35.000
  23443478.244   123196321.316 5        42.000    23443483.644    95997128.332 6
        25.000
  20472879.784   107585734.134 8        54.500    20472887.884    83833044.830 9
        44.500
 18  2 20  9 37  0.0000000  0  7G02G05G06G07G09G13G30
  22769153.990   119652690.054 6        45.000    22769158.390    93235857.785 7
        31.500
  20905722.042   109860305.719 8        52.500    20905727.562    85605435.180 8
        39.500
  24440638.078   128436389.248 4        39.000    24440646.158   100080296.093 6
        20.500
  20848398.382   109559092.575 8        53.500    20848403.462    85370724.302 8
        40.750
  22386575.732   117642248.264 7        49.500    22386583.152    91669285.459 8
        34.750
  23426067.484   123104828.666 5        41.250    23426073.724    95925835.357 6
        25.000
  20467929.904   107559720.975 8        54.000    20467937.544    83812774.838 9
        43.750
 18  2 20  9 37 30.0000000  0  7G02G05G06G07G09G13G30
  22782231.870   119721414.740 6        44.000    22782235.470    93289409.456 7
        30.250
  20896817.042   109813507.450 7        51.750    20896822.022    85568968.998 8
        39.500
  24461609.018   128546584.226 5        41.250    24461618.098   100166162.129 6
        24.250
  20853473.122   109585761.733 8        53.000    20853478.602    85391505.460 8
        41.000
  22402173.432   117724216.408 7        49.500    22402181.292    91733156.703 8
        34.500
  23408683.384   123013473.936 6        42.500    23408688.804    95854649.862 6
        25.500
  20463081.564   107534244.101 8        54.250    20463089.444    83792922.731 9
        44.000
 18  2 20  9 38  0.0000000  0  7G02G05G06G07G09G13G30
  22795379.708   119790503.085 6        45.000    22795382.808    93343244.467 7
        30.000
  20887998.842   109767170.265 7        52.000    20888004.602    85532862.097 8
        39.750
  24482580.478   128656795.523 4        39.000    24482588.918   100252041.072 6
        18.500
  20858638.682   109612905.804 8        53.000    20858643.802    85412656.682 8
        40.750
  22417803.812   117806354.562 7        49.250    22417811.972    91797160.412 8
        35.000
  23391325.984   122922257.616 6        43.500    23391331.724    95783572.177 6
        25.500
  20458335.684   107509304.018 8        53.750    20458343.684    83773488.893 9
        44.000
 18  2 20  9 38 30.0000000  0  8G02G05G06G07G09G13G28G30
  22808595.428   119859952.549 6        44.500    22808598.468    93397360.928 7
        31.000
  20879269.682   109721295.627 8        52.750    20879274.822    85497115.617 8
        39.500
  24503555.738   128767020.399 5        40.500    24503565.458   100337930.475 6
        22.750
  20863894.102   109640523.498 8        53.250    20863899.562    85434176.957 8
        40.500
  22433466.692   117888661.670 7        49.500    22433474.272    91861295.776 8
        34.500
  23373993.746   122831180.256 6        42.500    23374000.166    95712602.805 6
        25.250
  24302096.058   127708370.232 5        40.750

  20453692.024   107484900.768 8        53.750    20453700.044    83754473.378 9
        44.500
 18  2 20  9 39  0.0000000  0  8G02G05G06G07G09G13G28G30
  22821878.968   119929760.385 6        44.250    22821883.208    93451756.589 7
        30.750
  20870628.242   109675885.323 8        52.750    20870633.422    85461730.969 8
        40.000
  24524532.278   128877255.735 5        40.000    24524542.218   100423828.079 6
        20.000
  20869239.502   109668613.289 8        53.250    20869244.942    85456065.100 9
        41.250
  22449161.172   117971136.811 7        49.500    22449169.492    91925562.079 8
        36.000
  23356689.286   122740242.639 6        43.750    23356695.406    95641742.343 6
        25.750
  24283634.958   127611365.241 4        38.250    24283642.758    99437429.575 5
        17.750
  20449150.324   107461034.633 8        53.750    20449158.304    83735876.390 9
        44.500
 18  2 20  9 39 30.0000000  0  8G02G05G06G07G09G13G28G30
  22835230.728   119999923.737 6        44.000    22835233.548    93506429.304 7
        29.750
  20862075.622   109630941.354 8        52.500    20862080.822    85426709.686 8
        40.000
  24545511.598   128987498.907 5        40.500    24545522.158   100509731.810 6
        22.750
  20874674.102   109697173.997 8        53.000    20874679.462    85478320.193 8
        40.750
  22464887.692   118053779.110 7        49.750    22464894.952    91989958.651 8
        34.750
  23339411.106   122649445.572 6        44.750    23339416.826    95570991.365 7
        26.250
  24265187.340   127514420.052 5        41.250    24265192.640    99361887.792 5
        16.750
  20444711.084   107437705.838 8        53.750    20444719.104    83717698.111 9
        44.500
 18  2 20  9 40  0.0000000  0  7G02G05G07G09G13G28G30
  22848649.408   120070440.685 6        42.250    22848653.548    93561377.539 7
        29.750
  20853612.242   109586465.445 8        53.000    20853617.582    85392053.123 8
        40.250
  20880198.862   109726204.634 8        53.000    20880203.902    85500941.464 8
        40.500
  22480646.032   118136587.930 7        50.000    22480652.992    92054484.973 8
        34.750
  23322159.826   122558790.219 6        43.500    23322165.946    95500350.827 7
        27.750
  24246750.440   127417537.680 4        37.750    24246757.320    99286395.190 5
        17.750
  20440374.084   107414914.831 8        54.250    20440382.204    83699938.886 9
        44.500
 18  2 20  9 40 30.0000000  0  7G02G05G07G09G13G28G30
  22862135.728   120141308.238 6        43.000    22862138.968    93616598.982 7
        30.250
  20845238.142   109542459.428 8        53.500    20845243.442    85357762.723 8
        40.250
  20885812.242   109755703.676 8        53.000    20885817.462    85523927.727 8
        40.500
  22496435.030   118219562.296 7        48.500    22496442.690    92119140.281 8
        34.500
  23304936.166   122468277.225 6        44.250    23304941.486    95429821.223 7
        26.250
  24228328.120   127320721.266 5        41.500    24228334.420    99210953.847 6
        19.250
  20436139.224   107392661.653 8        54.250    20436147.484    83682598.751 9
        44.500
 18  2 20  9 41  0.0000000  0  7G02G05G07G09G13G28G30
  22875687.188   120212523.930 6        43.500    22875690.588    93672091.686 7
        30.000
  20836953.622   109498924.681 8        52.500    20836958.982    85323839.537 8
        40.000
  20891514.562   109785669.772 8        52.250    20891519.842    85547277.927 8
        40.750
  22512256.010   118302701.327 7        49.000    22512263.290    92183923.904 8
        34.250
  23287739.406   122377907.500 6        43.000    23287744.826    95359403.270 6
        26.000
  24209915.880   127223973.041 4        37.500    24209922.580    99135565.698 5
        16.750
  20432007.124   107370946.485 8        54.000    20432015.204    83665677.848 9
        44.500
 18  2 20  9 41 30.0000000  0  7G02G05G07G09G13G28G30
  22889305.328   120284085.295 6        43.250    22889308.728    93727853.750 7
        31.000
  20828759.502   109455863.160 8        53.000    20828765.022    85290285.103 8
        40.500
  20897305.542   109816101.624 8        53.000    20897310.502    85570991.051 8
        40.750
  22528108.070   118386003.997 7        49.250    22528115.750    92248835.027 8
        34.500
  23270569.786   122287681.541 6        44.000    23270575.126    95289097.336 6
        25.500
  24191520.600   127127296.401 5        42.000    24191526.360    99060233.300 6
        21.250
  20427977.284   107349769.373 8        54.750    20427985.264    83649176.202 9
        44.000
 18  2 20  9 42  0.0000000  0  7G02G05G07G09G13G28G30
  22902988.068   120355989.365 6        43.000    22902991.868    93783882.876 7
        30.000
  20820655.442   109413276.163 8        52.500    20820660.882    85257100.434 8
        41.000
  20903184.582   109846997.786 8        52.500    20903189.862    85595065.976 8
        40.750
  22543990.670   118469469.352 7        49.000    22543999.150    92313872.929 8
        34.250
  23253428.386   122197600.028 6        43.500    23253433.846    95218903.937 7
        26.250
  24173135.200   127030694.150 3        36.500    24173142.360    98984958.841 5
        14.750
  20424049.844   107329130.379 8        53.750    20424057.604    83633093.867 9
        44.000
 18  2 20  9 42 30.0000000  0  7G02G05G07G09G13G28G30
  22916735.068   120428233.666 6        42.250    22916740.008    93840177.086 7
        30.000
  20812642.242   109371166.340 8        52.500    20812647.442    85224287.581 8
        40.500
  20909152.322   109878357.383 8        53.250    20909157.702    85619502.015 8
        40.500
  22559904.830   118553096.852 7        48.500    22559912.630    92379037.171 8
        34.250
  23236312.706   122107664.014 6        42.500    23236319.726    95148823.885 7
        26.500
  24154769.920   126934169.304 6        43.000    24154774.820    98909744.717 6
        21.750
  20420225.064   107309029.873 8        54.500    20420233.204    83617431.135 9
        44.500
 18  2 20  9 46 30.0000000  0  7G02G05G07G09G13G28G30
  23028987.788   121018118.684 6        45.500    23028991.728    94299827.467 7
        30.750
  20751839.462   109051646.418 8        52.500    20751844.522    84975311.012 8
        40.500
  20960032.762   110145735.735 8        52.750    20960038.342    85827848.680 8
        40.000
  22688304.350   119227842.875 6        46.750    22688312.790    92904812.955 8
        33.500
  23100414.306   121393508.178 6        44.000    23100419.606    94592338.938 6
        25.250
  24008419.580   126165098.116 5        40.250    24008425.960    98310468.841 6
        22.000
  20393314.024   107167613.151 8        54.250    20393322.244    83507236.274 9
        44.500
 18  2 20  9 47  0.0000000  0  7G02G05G07G09G13G28G30
  23043295.568   121093305.635 6        45.250    23043299.048    94358414.697 7
        29.750
  20744657.062   109013901.852 8        52.750    20744662.122    84945899.656 8
        41.000
  20966781.322   110181199.688 8        52.750    20966786.682    85855482.918 8
        40.000
  22704488.710   119312889.300 6        45.750    22704497.010    92971082.858 8
        33.500
  23083555.588   121304917.465 6        43.500    23083561.228    94523307.225 7
        27.000
  23990208.480   126069399.088 4        38.000    23990215.080    98235898.340 6
        19.500
  20390411.764   107152359.964 8        54.500    20390419.424    83495350.674 9
        44.500
 18  2 20  9 47 30.0000000  0  7G02G05G07G09G13G28G30
  23057662.628   121168806.001 6        45.500    23057664.828    94417246.100 7
        28.750
  20737568.122   108976649.907 7        52.000    20737573.162    84916872.170 8
        39.750
  20973615.242   110217112.351 8        52.500    20973620.362    85883466.803 8
        40.000
  22720701.770   119398088.880 6        46.250    22720710.010    93037472.090 8
        34.000
  23066726.908   121216480.069 6        44.000    23066732.568    94454394.974 7
        27.750
  23972016.362   125973806.215 4        38.250    23972023.762    98161410.343 6
        20.000
  20387611.244   107137644.989 8        54.500    20387619.444    83483884.448 9
        44.500
 18  2 20  9 48  0.0000000  0  7G02G05G07G09G13G28G30
  23072089.388   121244617.281 6        45.500    23072094.148    94476319.823 7
        31.250
  20730573.622   108939892.762 8        52.500    20730578.462    84888230.231 8
        40.250
  20980534.482   110253472.569 8        52.750    20980540.162    85911799.438 8
        40.000
  22736943.370   119483441.063 6        46.250    22736951.250    93103980.248 8
        34.000
  23049927.028   121128197.031 6        45.000    23049932.788    94385603.015 7
        27.000
  23953846.942   125878322.567 5        39.750    23953854.562    98087007.685 6
        19.500
  20384913.566   107123468.459 8        54.750    20384921.786    83472837.801 9
        44.250
 18  2 20  9 48 30.0000000  0  7G02G05G07G09G13G28G30
  23086573.006   121320736.659 5        42.000    23086577.206    94535633.546 7
        28.000
  20723673.402   108903632.095 7        52.000    20723678.502    84859975.160 8
        40.500
  20987538.400   110290279.001 8        52.750    20987544.080    85940479.760 8
        40.250
  22753214.630   119568945.088 6        47.000    22753222.470    93170606.714 8
        34.750
  23033156.648   121040069.085 6        44.500    23033162.748    94316931.913 7
        28.500
  23935699.002   125782951.459 6        42.250    23935703.782    98012692.479 6
        19.000
  20382318.406   107109830.352 8        55.000    20382326.066    83462210.706 9
        44.250
 18  2 20  9 49  0.0000000  0  7G02G05G07G09G13G28G30
  23101117.686   121397161.384 6        45.500    23101120.166    94595185.271 7
        30.000
  20716868.002   108867869.117 8        52.250    20716873.322    84832107.900 8
        41.000
  20994626.940   110327529.979 8        53.000    20994632.780    85969506.486 8
        40.000
  22769514.090   119654599.920 6        45.750    22769521.990    93237350.722 8
        34.000
  23016416.388   120952097.004 6        44.500    23016422.148    94248382.243 7
        27.000
  23917571.922   125687695.044 5        39.750    23917579.042    97938466.881 6
        21.500
  20379825.726   107096730.318 8        55.000    20379833.826    83452002.888 9
        44.500
 18  2 20  9 49 30.0000000  0  7G02G05G07G09G13G28G30
  23115717.126   121473888.806 5        42.000    23115722.406    94654972.828 7
        29.250
  20710157.602   108832605.882 8        52.500    20710162.622    84804630.050 8
        40.750
  21001800.200   110365223.757 8        53.250    21001805.400    85998878.278 8
        40.000
  22785842.588   119740404.793 6        46.750    22785850.648    93304211.607 8
        34.500
  22999705.528   120864281.591 6        45.000    22999711.028    94179954.659 7
        28.500
  23899466.602   125592556.936 5        41.000    23899473.202    97864333.344 6
        19.000
  20377435.266   107084168.364 8        54.500    20377443.086    83442214.348 9
        44.500
 18  2 20  9 50  0.0000000  0  7G02G05G07G09G13G28G30
  23130376.206   121550915.947 6        43.750    23130379.466    94714993.899 7
        29.250
  20703542.522   108797843.704 8        53.000    20703547.842    84777542.639 8
        40.500
  21009056.760   110403359.098 8        52.500    21009062.540    86028594.111 8
        39.750
  22802199.188   119826359.010 7        47.500    22802206.628    93371188.890 8
        33.750
  22983024.688   120776623.773 6        45.250    22983030.528    94111649.866 7
        29.000
  23881386.062   125497539.552 5        39.500    23881391.502    97790293.879 6
        20.500
  20375147.186   107072144.372 8        54.000    20375155.306    83432845.008 9
        44.500
 18  2 20  9 50 30.0000000  0  7G02G05G07G09G13G28G30
  23145089.806   121628240.236 5        41.500    23145092.566    94775246.616 7
        29.250
  20697023.122   108763584.015 8        52.750    20697028.762    84750846.772 9
        41.250
  21016397.560   110441934.343 8        53.250    21016403.460    86058652.737 8
        40.250
  22818583.828   119912461.510 7        48.250    22818591.788    93438281.698 8
        33.500
  22966374.368   120689124.298 6        45.250    22966379.788    94043468.487 7
        28.000
  23863329.342   125402646.231 5        41.500    23863336.482    97716351.148 6
        22.500
  20372961.166   107060657.997 8        54.250    20372969.206    83423894.582 9
        44.500
 18  2 20  9 51  0.0000000  0  7G02G05G07G09G13G28G30
  23159859.526   121705858.755 5        40.500    23159865.566    94835728.487 7
        28.500
  20690599.562   108729828.103 8        53.000    20690604.902    84724543.453 8
        40.500
  21023821.480   110480947.647 8        53.500    21023827.080    86089052.705 8
        40.000
  22834996.268   119998711.369 7        48.250    22835004.848    93505489.342 8
        33.500
  22949753.668   120601783.680 6        45.750    22949759.628    93975410.867 7
        26.750
  23845295.262   125307879.452 4        39.000    23845300.502    97642506.972 6
        19.000
  20370877.626   107049708.913 8        54.250    20370885.546    83415362.834 9
        44.500
 18  2 20  9 51 30.0000000  0  7G02G05G07G09G13G28G30
  23174685.906   121783769.193 5        42.000    23174689.066    94896437.891 7
        28.500
  20684272.124   108696578.141 7        51.500    20684277.824    84698634.387 8
        40.750
  21031328.680   110520398.389 8        53.500    21031334.680    86119793.538 8
        40.250
  22851437.248   120085108.264 7        47.750    22851444.968    93572811.559 8
        33.500
  22933164.088   120514603.217 6        45.500    22933169.568    93907478.059 7
        27.750
  23827287.122   125213242.903 5        40.500    23827292.142    97568764.225 6
        22.250
  20368896.346   107039297.405 8        55.000    20368904.606    83407249.979 9
        44.500
 18  2 20  9 52  0.0000000  0  7G02G05G07G09G13G28G30
  23189566.266   121861968.196 5        39.500    23189570.286    94957372.117 7
        26.500
  20678041.284   108663835.000 7        52.000    20678046.764    84673120.244 8
        40.750
  21038918.960   110560284.289 8        53.000    21038924.160    86150873.446 8
        40.250
  22867905.808   120171650.766 7        47.250    22867913.668    93640247.233 7
        33.000
  22916604.888   120427583.419 6        46.500    22916610.128    93839670.416 7
        26.750
  23809302.382   125118738.581 4        39.000    23809309.922    97495124.660 6
        23.000
  20367017.046   107029422.634 8        55.000    20367025.426    83399555.352 9
        44.500
 18  2 20  9 52 30.0000000  0  7G02G05G07G09G13G28G30
  23204501.786   121940453.273 5        41.750    23204506.546    95018529.267 7
        28.750
  20671907.204   108631600.329 7        50.500    20671912.884    84648002.320 8
        40.750
  21046591.680   110600604.216 8        53.500    21046596.900    86182291.573 8
        40.500
  22884402.168   120258338.401 6        46.250    22884410.168    93707795.993 8
        33.500
  22900075.848   120340725.168 6        46.000    22900081.648    93771988.671 7
        27.750
  23791345.502   125024369.999 5        39.750    23791350.922    97421590.788 6
        21.750
  20365240.426   107020084.754 8        54.000    20365248.046    83392279.094 9
        44.500
 18  2 20  9 53  0.0000000  0  7G02G05G07G09G13G28G30
  23219490.166   122019221.578 5        40.250    23219495.046    95079907.115 7
        26.750
  20665870.124   108599875.333 7        52.000    20665876.024    84623281.538 8
        41.000
  21054346.360   110641356.086 8        54.500    21054351.760    86214046.267 8
        40.500
  22900925.548   120345170.130 6        46.500    22900933.108    93775457.035 7
        32.500
  22883578.828   120254029.485 6        45.000    22883583.868    93704433.597 7
        28.000
  23773413.582   124930139.786 5        40.250    23773418.942    97348164.737 6
        22.000
  20363565.446   107011283.281 8        54.250    20363573.306    83385420.802 9
        45.000
 18  2 20  9 53 30.0000000  0  7G02G05G07G09G13G28G30
  23234533.286   122098270.428 5        41.500    23234536.946    95141503.573 7
        27.250
  20659930.524   108568661.977 7        52.000    20659936.224    84598959.447 8
        40.750
  21062183.180   110682538.782 8        53.000    21062188.280    86246136.669 8
        39.750
  22917476.588   120432145.341 6        46.000    22917484.528    93843229.886 7
        32.750
  22867111.768   120167497.039 6        45.000    22867117.528    93637005.733 7
        28.750
  23755508.722   124836051.021 5        39.750    23755514.702    97274848.842 6
        22.250
  20361992.686   107003018.046 8        53.750    20362000.726    83378980.357 9
        44.500
 18  2 20  9 54  0.0000000  0  7G02G05G07G09G13G28G30
  23249628.206   122177596.712 5        42.000    23249632.846    95203316.213 7
        27.500
  20654088.384   108537961.188 7        51.500    20654094.124    84575036.743 8
        41.000
  21070101.200   110724150.342 8        54.000    21070106.940    86278561.261 8
        39.500
  22934054.288   120519262.865 6        44.500    22934062.128    93911113.624 7
        32.000
  22850676.648   120081128.282 6        45.500    22850682.108    93569705.417 7
        28.500
  23737630.702   124742106.127 4        38.750    23737638.102    97201645.132 6
        22.000
  20360521.706   106995288.420 8        54.500    20360529.866    83372957.277 9
        44.500
 18  2 20  9 54 30.0000000  0  7G02G05G07G09G13G28G30
  23264775.866   122257198.061 5        40.500    23264780.466    95265343.197 7
        28.000
  20648344.584   108507774.853 7        52.000    20648350.004    84551514.932 9
        41.500
  21078101.440   110766189.638 8        53.000    21078106.700    86311319.150 8
        39.750
  22950659.288   120606522.314 6        44.000    22950666.968    93979107.969 7
        31.500
  22834272.508   119994924.583 6        44.250    22834278.168    93502533.712 7
        28.000
  23719783.222   124648308.702 5        39.250    23719788.042    97128556.310 6
        21.250
  20359152.726   106988094.557 8        54.250    20359160.986    83367351.674 9
        44.000
 18  2 20  9 55  0.0000000  0  7G02G05G07G09G13G28G30
  23279975.546   122337071.502 5        40.500    23279979.526    95327582.211 7
        27.500
  20642697.984   108478104.316 7        51.750    20642703.884    84528395.019 9
        41.250
  21086182.020   110808654.765 8        52.750    21086187.880    86344408.851 8
        39.500
  22967291.368   120693922.834 6        44.500    22967298.968    94047212.225 7
        32.000
  22817899.688   119908886.722 6        43.000    22817905.608    93435491.252 7
        29.250
  23701960.722   124554661.560 3        36.000    23701968.582    97055584.581 6
        20.250
  20357885.826   106981436.010 8        54.750    20357893.726    83362163.214 9
        44.500
 18  2 20  9 55 30.0000000  0  7G02G05G07G09G13G28G30
  23295226.126   122417214.248 5        41.250    23295231.186    95390031.059 7
        27.500
  20637150.464   108448950.906 8        52.250    20637155.964    84505678.074 8
        41.000
  21094343.720   110851544.375 8        53.000    21094349.240    86377829.323 8
        40.250
  22983949.788   120781463.540 6        44.000    22983957.488    94115425.746 7
        31.000
  22801558.968   119823015.344 6        44.750    22801565.048    93368578.493 7
        29.250
  23684170.642   124461167.653 4        38.500    23684177.542    96982732.280 6
        22.250
  20356720.526   106975312.435 8        54.500    20356728.366    83357391.599 9
        44.250
 18  2 20  9 56  0.0000000  0  8G02G05G07G09G13G20G28G30
  23310528.306   122497623.351 6        43.000    23310532.246    95452687.441 7
        28.250
  20631701.364   108420315.781 7        52.000    20631706.744    84483364.990 9
        41.500
  21102585.820   110894856.377 8        53.500    21102590.840    86411578.933 8
        39.750
  23000634.448   120869143.531 6        44.500    23000642.548    94183747.782 7
        31.250
  22785250.608   119737311.485 6        44.000    22785255.668    93301796.286 7
        28.750
  24441002.278   128438333.254 5        39.750    24441006.598   100081818.675 5
        16.750
  23666408.864   124367829.547 4        38.750    23666414.544    96910001.339 6
        21.250
  20355657.006   106969723.284 8        53.250    20355664.686    83353036.423 9
        44.500
 18  2 20  9 56 30.0000000  0  8G02G05G07G09G13G20G28G30
  23325879.306   122578297.331 6        42.250    23325883.966    95515550.240 7
        26.500
  20626351.724   108392201.959 8        52.500    20626357.044    84461458.107 8
        41.000
  21110908.220   110938590.992 8        53.250    21110913.560    86445657.825 8
        40.000
  23017346.268   120956963.442 6        44.000    23017354.188    94252178.833 7
        31.000
  22768973.530   119651777.086 6        44.000    22768978.890    93235146.117 7
        29.250
  24420720.258   128331747.075 4        38.500    24420725.438    99998763.567 5
        17.750
  23648677.964   124274651.830 4        39.000    23648684.204    96837395.422 6
        22.500
  20354695.386   106964669.643 8        53.250    20354703.006    83349098.521 9
        44.500
 18  2 20  9 57  0.0000000  0  8G02G05G07G09G13G20G28G30
  23341281.506   122659231.990 6        44.000    23341285.466    95578616.149 7
        28.250
  20621100.904   108364609.019 7        51.500    20621106.304    84439957.115 9
        41.250
  21119310.460   110982745.040 8        53.250    21119315.820    86480063.579 8
        39.750
  23034083.688   121044920.889 6        44.750    23034091.888    94320717.060 7
        30.500
  22752728.910   119566411.407 6        43.750    22752734.190    93168627.401 7
        28.250
  24400466.378   128225306.791 5        41.250    24400471.678    99915823.095 6
        20.750
  23630976.964   124181635.792 4        38.750    23630984.384    96764915.415 6
        21.750
  20353835.226   106960149.506 8        55.000    20353842.686    83345576.342 9
        44.500
 18  2 20  9 57 30.0000000  0  8G02G05G07G09G13G20G28G30
  23356731.906   122740424.490 6        43.000    23356735.646    95641883.001 7
        27.000
  20615949.384   108337538.528 8        52.500    20615955.084    84418863.226 9
        42.000
  21127792.100   111027317.116 8        53.500    21127797.260    86514795.068 8
        39.500
  23050848.068   121133015.089 6        45.000    23050855.628    94389361.852 7
        31.000
  22736516.330   119481215.351 6        43.500    22736522.370    93102240.873 7
        28.750
  24380235.438   128119005.514 3        35.250    24380241.838    99832990.927 5
        14.750
  23613306.784   124088784.376 4        38.000    23613313.424    96692563.744 6
        20.000
  20353076.566   106956162.508 8        55.000    20353084.246    83342469.607 9
        44.500
 18  2 20  9 58  0.0000000  0  8G02G05G07G09G13G20G28G30
  23372231.106   122821871.867 6        44.750    23372235.386    95705348.397 7
        28.250
  20610897.944   108310991.818 8        53.000    20610903.264    84398177.472 9
        41.250
  21136353.040   111072304.997 8        53.000    21136358.360    86549850.551 8
        39.750
  23067637.368   121221245.372 6        45.000    23067645.228    94458112.669 7
        31.250
  22720336.770   119396189.930 6        44.500    22720342.470    93035987.316 7
        29.500
  24360037.038   128012845.762 5        40.000    24360040.598    99750269.073 6
        19.250
  23595672.104   123996100.617 5        42.000    23595677.824    96620342.702 6
        22.750
  20352418.926   106952708.289 8        54.500    20352426.786    83339778.014 9
        44.500
 18  2 20  9 58 30.0000000  0  8G02G05G07G09G13G20G28G30
  23387778.264   122903571.606 6        43.750    23387781.364    95769010.518 7
        27.500
  20605946.064   108284970.304 8        52.250    20605951.544    84377900.965 9
        41.250
  21144993.020   111117707.434 8        53.500    21144998.400    86585229.088 8
        39.000
  23084452.706   121309610.879 6        43.750    23084460.566    94526968.870 7
        31.500
  22704189.570   119311335.596 6        45.000    22704194.990    92969867.065 7
        28.000
  24339860.738   127906829.710 4        37.500    24339867.438    99667659.121 6
        19.750
  23578065.724   123903587.520 5        40.500    23578072.764    96548254.661 6
        21.750
  20351863.246   106949786.350 8        55.000    20351871.266    83337501.176 9
        44.750
 18  2 20  9 59  0.0000000  0  8G02G05G07G09G13G20G28G30
  23403372.424   122985520.713 6        44.500    23403376.384    95832866.897 7
        26.500
  20601094.464   108259475.124 8        53.000    20601100.044    84358034.589 9
        41.500
  21153711.300   111163523.006 8        53.500    21153716.600    86620929.550 8
        39.250
  23101293.486   121398110.895 6        45.750    23101301.386    94595929.884 7
        30.500
  22688074.810   119226653.934 6        46.250    22688080.630    92903881.350 7
        30.000
  24319715.618   127800959.881 4        37.750    24319720.078    99585163.255 5
        17.750
  23560494.304   123811247.894 5        41.250    23560499.824    96476301.788 6
        21.250
  20351408.366   106947396.260 8        53.750    20351416.446    83335638.775 9
        44.750
 18  2 20  9 59 30.0000000  0  8G02G05G07G09G13G20G28G30
  23419014.104   123067716.044 6        45.500    23419016.604    95896915.148 7
        27.000
  20596343.304   108234507.562 8        53.000    20596348.564    84338579.350 8
        41.000
  21162508.280   111209749.598 8        53.500    21162513.420    86656950.249 8
        39.500
  23118160.266   121486744.528 6        46.250    23118167.866    94664995.023 7
        30.750
  22671993.870   119142145.604 6        45.500    22671999.490    92838030.726 7
        29.500
  24299597.718   127695238.742 4        39.000    24299601.898    99502783.064 6
        20.250
  23542955.204   123719084.706 5        40.500    23542962.124    96404486.294 6
        22.500
  20351054.426   106945537.433 8        55.000    20351062.746    83334190.340 9
        44.500
                            4  1
RINEX FILE SPLICE; other post-header comments skipped       COMMENT
 18  2 20 10  0  0.0000000  0  8G02G05G07G09G13G20G28G30
  23434700.484   123150155.233 6        43.500    23434704.904    95961153.442 7
        27.000
  20591692.544   108210069.033 8        52.500    20591698.364    84319536.346 9
        41.500
  21171382.620   111256385.673 8        53.250    21171387.780    86693290.048 8
        39.250
  23135052.906   121575511.008 6        46.500    23135059.966    94734163.662 7
        31.000
  22655945.450   119057811.010 6        46.750    22655950.730    92772315.471 7
        28.500
  24279507.120   127589668.206 3        37.000    24279513.580    99420520.379 6
        19.000
  23525453.004   123627100.854 5        40.750    23525459.324    96332810.766 6
        22.500
  20350802.006   106944209.380 8        53.750    20350809.306    83333155.506 9
        44.500
 18  2 20 10  0 30.0000000  0  8G02G05G07G09G13G20G28G30
  23450435.484   123232835.208 6        46.250    23450438.424    96025579.337 7
        28.750
  20587143.144   108186160.773 8        53.000    20587148.904    84300906.528 9
        41.500
  21180334.740   111303429.591 8        53.250    21180339.640    86729947.648 8
        39.250
  23151968.666   121664409.686 6        46.750    23151976.726    94803435.318 7
        31.500
  22639930.530   118973651.407 6        46.250    22639935.950    92706736.582 7
        29.750
  24259447.640   127484251.028 4        37.250    24259451.840    99338377.090 6
        20.000
  23507983.524   123535299.405 5        41.000    23507988.824    96261277.198 6
        22.500
  20350650.186   106943411.771 8        54.500    20350657.866    83332533.994 9
        44.500
 18  2 20 10  1  0.0000000  0  8G02G05G07G09G13G20G28G30
  23466213.844   123315752.922 6        44.000    23466216.984    96090190.533 7
        26.250
  20582694.524   108162783.561 8        53.000    20582700.364    84282690.523 8
        41.000
  21189364.220   111350879.627 8        53.000    21189369.260    86766921.706 8
        39.750
  23168911.206   121753439.428 6        46.000    23168918.866    94872809.123 7
        31.500
  22623948.330   118889667.356 6        45.250    22623953.810    92641294.468 7
        29.250
  24239417.220   127378989.152 4        38.000    24239421.720    99256354.868 6
        19.250
  23490548.364   123443682.772 4        39.000    23490554.464    96189887.684 6
        22.000
  20350598.906   106943143.651 8        54.500    20350606.606    83332325.070 9
        44.500
 18  2 20 10  1 30.0000000  0  8G02G05G07G09G13G20G28G30
  23482037.544   123398905.774 6        44.500    23482041.424    96154984.870 7
        27.000
  20578347.344   108139938.803 8        52.500    20578353.084    84264889.422 9
        41.500
  21198470.720   111398734.163 8        53.250    21198475.780    86804210.957 8
        39.250
  23185877.166   121842599.733 6        44.500    23185885.246    94942284.628 7
        30.750
  22608000.450   118805859.454 6        45.750    22608005.890    92575989.632 7
        30.000
  24219416.280   127273885.171 3        37.000    24219421.880    99174455.693 6
        19.500
  23473150.524   123352254.199 5        41.000    23473157.424    96118644.699 6
        24.500
  20350648.866   106943404.745 8        55.250    20350656.686    83332528.518 9
        44.750
 18  2 20 10  2  0.0000000  0  8G02G05G07G09G13G20G28G30
  23497904.984   123482290.761 6        43.000    23497907.284    96219960.142 6
        26.000
  20574101.664   108117628.080 8        52.500    20574107.004    84247504.437 9
        41.250
  21207653.660   111446991.687 8        52.750    21207658.900    86841814.221 8
        38.750
  23202868.526   121931889.809 6        44.500    23202876.986    95011861.263 7
        32.250
  22592086.230   118722229.138 6        45.000    22592092.110    92510823.166 7
        29.750
  24199446.680   127168941.713 5        40.250    24199450.860    99092681.531 6
        20.750
  23455787.744   123261016.652 4        39.000    23455794.544    96047550.553 6
        21.250
  20350799.086   106944194.490 8        53.750    20350806.866    83333143.912 9
        45.000
 18  2 20 10  2 30.0000000  0  8G02G05G07G09G13G20G28G30
  23513816.344   123565905.186 6        43.250    23513820.524    96285114.184 7
        27.000
  20569958.144   108095852.602 8        53.000    20569963.764    84230536.541 9
        41.750
  21216913.240   111495650.407 8        52.750    21216918.600    86879730.102 8
        38.500
  23219884.826   122021308.957 6        43.750    23219893.226    95081538.482 7
        31.000
  22576206.210   118638777.231 6        45.500    22576212.050    92445795.722 7
        29.250
  24179505.600   127064161.028 4        38.250    24179511.900    99011034.289 6
        20.000
  23438464.584   123169972.631 5        41.500    23438469.424    95976607.228 6
        22.750
  20351049.646   106945512.377 8        53.750    20351057.546    83334170.834 9
        45.000
 18  2 20 10  3  0.0000000  0  8G02G05G07G09G13G20G28G30
  23529770.204   123649746.250 5        41.000    23529774.364    96350444.810 6
        25.500
  20565916.484   108074613.407 8        53.000    20565921.504    84213986.520 9
        42.000
  21226248.600   111544708.609 8        53.500    21226253.840    86917957.269 8
        39.000
  23236925.366   122110856.272 6        44.750    23236933.466    95151315.586 7
        32.250
  22560359.810   118555504.386 6        45.250    22560365.570    92380907.799 7
        29.750
  24159600.000   126959545.369 5        40.500    24159604.820    98929515.593 6
        20.500
  23421175.384   123079125.704 4        38.250    23421184.104    95905817.501 6
        22.750
  20351401.006   106947357.641 8        53.000    20351408.706    83335608.706 9
        44.500
 18  2 20 10  3 30.0000000  0  8G02G05G07G09G13G20G28G30
  23545766.804   123733810.876 5        41.750    23545771.104    96415949.648 6
        26.000
  20561977.064   108053911.707 8        53.000    20561982.304    84197855.326 8
        41.000
  21235659.900   111594164.626 8        52.750    21235665.060    86956494.422 8
        38.750
  23253989.626   122200531.003 6        44.000    23253997.686    95221191.941 7
        31.000
  22544547.630   118472411.562 6        45.500    22544553.330    92316160.169 7
        29.750
  24139723.440   126855097.127 4        38.000    24139729.040    98848127.337 6
        20.000
  23403926.804   122988478.725 5        39.750    23403931.484    95835183.528 6
        20.500
  20351852.246   106949729.716 8        54.000    20351859.906    83337457.077 9
        44.500
 18  2 20 10  4  0.0000000  0  8G02G05G07G09G13G20G28G30
  23561806.104   123818096.193 5        42.000    23561810.124    96481626.473 6
        25.750
  20558140.004   108033748.446 8        53.000    20558145.224    84182143.690 9
        41.750
  21245146.440   111644016.428 8        53.000    21245151.280    86995339.986 8
        38.500
  23271078.026   122290332.368 6        44.000    23271086.326    95291167.002 7
        31.500
  22528770.110   118389499.473 6        44.750    22528775.450    92251553.367 7
        30.750
  24119880.480   126750818.783 5        39.500    24119886.000    98766871.542 6
        21.500
  23386714.184   122898034.244 5        39.750    23386720.944    95764707.295 6
        22.500
  20352403.746   106952627.937 8        54.000    20352411.546    83339715.428 9
        44.750
 18  2 20 10  4 30.0000000  0  8G02G05G07G09G13G20G28G30
  23577887.524   123902599.439 6        42.500    23577891.624    96547473.119 6
        26.000
  20554405.864   108014124.793 8        53.500    20554411.504    84166852.532 8
        41.000
  21254708.020   111694263.138 8        52.750    21254713.280    87034493.265 8
        38.250
  23288191.106   122380259.677 6        45.000    23288199.906    95361240.169 7
        31.000
  22513026.510   118306769.000 6        45.000    22513032.670    92187088.068 7
        29.500
  24100069.180   126646712.626 5        40.250    24100073.780    98685749.853 6
        18.500
  23369543.206   122807795.377 6        42.250    23369550.406    95694391.362 6
        25.000
  20353055.326   106956051.679 8        55.000    20353063.126    83342383.277 9
        45.000
 18  2 20 10  5  0.0000000  0  8G02G05G07G09G13G20G28G30
  23594007.864   123987317.566 5        41.000    23594013.024    96613487.172 6
        26.000
  20550774.004   107995041.810 8        53.500    20550779.704    84151982.666 9
        42.000
  21264344.340   111744902.930 7        52.000    21264349.240    87073952.837 8
        38.500
  23305327.626   122470312.030 6        45.250    23305335.706    95431410.807 7
        30.500
  22497317.970   118224221.027 6        44.250    22497323.970    92122764.990 7
        30.000
  24080292.480   126542781.409 5        41.250    24080298.200    98604764.511 6
        23.750
  23352411.406   122717764.890 6        42.500    23352414.886    95624237.746 6
        21.000
  20353806.926   106960000.255 8        54.000    20353814.226    83345460.084 9
        44.500
 18  2 20 10  5 30.0000000  0  8G02G05G07G09G13G20G28G30
  23610169.484   124072247.780 5        42.000    23610172.724    96679666.546 6
        25.000
  20547245.864   107976500.445 8        53.250    20547251.424    84137534.859 9
        41.250
  21274055.280   111795933.071 8        52.500    21274060.000    87113716.581 8
        38.250
  23322487.786   122560488.770 6        46.000    23322495.286    95501678.355 7
        30.500
  22481644.972   118141856.510 6        45.500    22481650.572    92058584.863 7
        29.000
  24060547.560   126439027.274 5        39.250    24060552.780    98523917.192 6
        19.250
  23335319.046   122627945.755 5        42.000    23335324.866    95554248.841 6
        22.500
  20354657.826   106964472.986 8        54.000    20354665.886    83348945.339 9
        44.500
 18  2 20 10  6  0.0000000  0  8G02G05G07G09G13G20G28G30
  23626372.084   124157387.440 5        41.750    23626377.584    96746009.080 7
        26.500
  20543821.384   107958502.287 8        53.500    20543826.664    84123510.315 9
        42.500
  21283840.080   111847352.421 8        52.750    21283844.960    87153783.603 8
        37.750
  23339670.926   122650789.161 6        45.500    23339679.026    95572042.245 7
        30.500
  22466006.452   118059676.024 6        44.750    22466012.372    91994548.135 7
        30.250
  24040838.840   126335452.485 5        41.000    24040843.220    98443209.514 6
        21.000
  23318267.806   122538341.005 6        42.500    23318274.426    95484426.962 6
        23.000
  20355608.706   106969469.214 8        53.500    20355616.466    83352838.497 9
        44.750
 18  2 20 10  6 30.0000000  0  8G02G05G07G09G13G20G28G30
  23642613.164   124242733.155 5        41.750    23642616.684    96812512.157 7
        26.500
  20540499.584   107941048.217 8        53.000    20540505.664    84109909.745 9
        41.500
  21293698.618   111899159.278 7        52.000    21293703.598    87194152.568 8
        37.750
  23356878.166   122741212.322 6        45.750    23356886.166    95642501.812 7
        30.500
  22450403.552   117977681.107 6        44.750    22450408.232    91930656.008 7
        30.500
  24021162.560   126232059.741 4        37.500    24021169.260    98362643.841 6
        19.500
  23301257.746   122448953.448 6        43.000    23301262.266    95414774.355 6
        21.750
  20356658.886   106974988.139 8        54.500    20356666.606    83357138.960 9
        44.750
 18  2 20 10  7  0.0000000  0  8G02G05G07G09G13G20G28G30
  23658891.584   124328282.113 5        40.500    23658894.424    96879173.648 6
        23.500
  20537282.184   107924138.951 8        53.250    20537287.244    84096733.697 9
        42.000
  21303630.278   111951351.546 8        52.500    21303635.358    87234821.868 8
        38.500
  23374108.386   122831757.366 6        45.000    23374117.026    95713056.331 7
        30.250
  22434835.732   117895871.934 6        45.750    22434840.732    91866908.615 7
        29.500
  24001523.980   126128851.296 5        40.750    24001528.440    98282221.613 6
        20.750
  23284290.286   122359785.660 6        43.000    23284296.626    95345292.938 6
        23.500
  20357808.406   106981028.831 8        54.000    20357816.406    83361845.997 9
        44.500
 18  2 20 10  7 30.0000000  0  8G02G05G07G09G13G20G28G30
  23675210.364   124414031.546 6        42.750    23675216.124    96945991.339 7
        28.500
  20534167.904   107907775.558 8        52.250    20534173.664    84083983.000 9
        42.000
  21313635.218   112003927.743 8        53.000    21313640.098    87275790.327 8
        38.250
  23391361.224   122922423.547 6        45.250    23391369.304    95783705.266 7
        29.000
  22419302.872   117814249.425 6        43.750    22419308.952    91803306.674 7
        30.500
  23981919.162   126025829.424 4        38.250    23981924.062    98201944.885 6
        19.500
  23267364.446   122270840.466 6        43.500    23267370.766    95275985.045 6
        23.500
  20359056.846   106987590.610 8        54.500    20359064.646    83366959.072 9
        45.000
 18  2 20 10  8  0.0000000  0  8G02G05G07G09G13G20G28G30
  23691563.642   124499978.702 4        39.000    23691568.082    97012963.028 6
        24.000
  20531158.424   107891959.515 7        52.000    20531163.784    84071658.812 9
        42.000
  21323712.838   112056886.548 8        52.500    21323717.898    87317056.914 8
        38.250
  23408637.704   123013210.483 6        45.500    23408646.244    95854448.296 7
        30.500
  22403806.512   117732814.836 6        44.750    22403812.872    91739851.161 7
        30.750
  23962350.822   125922997.056 5        39.500    23962356.102    98121815.720 6
        21.250
  23250480.746   122182121.340 6        43.250    23250486.286    95206853.288 6
        21.500
  20360404.526   106994673.087 8        54.750    20360412.626    83372477.879 9
        44.500
 18  2 20 10  8 30.0000000  0  8G02G05G07G09G13G20G28G30
  23707957.802   124586120.145 5        41.750    23707960.902    97080086.236 7
        28.000
  20528253.104   107876691.401 8        52.500    20528258.984    84059761.574 9
        42.000
  21333862.818   112110225.696 7        51.750    21333868.138    87358619.881 8
        38.000
  23425936.484   123104117.045 6        45.500    23425944.964    95925284.526 7
        30.000
  22388346.212   117651568.785 6        45.750    22388351.952    91676542.576 7
        31.250
  23942818.842   125820356.213 4        38.500    23942823.742    98041835.910 6
        21.000
  23233642.386   122093630.728 6        43.000    23233647.826    95137899.575 6
        24.500
  20361851.506   107002275.066 8        54.750    20361859.066    83378401.505 9
        44.750
 18  2 20 10  9  0.0000000  0  8G02G05G07G09G13G20G28G30
  23724384.702   124672453.336 5        40.000    23724390.682    97147358.760 6
        22.750
  20525451.864   107861972.075 8        52.500    20525457.084    84048291.966 9
        41.500
  21344085.118   112163943.641 8        52.750    21344090.598    87400478.009 8
        38.750
  23443258.184   123195142.317 6        45.500    23443267.184    95996213.282 7
        30.250
  22372921.472   117570512.038 6        46.500    22372927.612    91613381.495 7
        30.250
  23923322.762   125717909.249 4        37.750    23923328.462    97962007.070 6
        19.250
  23216845.766   122005371.645 6        42.250    23216852.726    95069126.284 6
        23.000
  20363396.606   107010395.588 8        54.500    20363404.866    83384729.195 9
        44.500
 18  2 20 10  9 30.0000000  0  8G02G05G07G09G13G20G28G30
  23740851.222   124758975.390 5        42.000    23740853.842    97214778.525 6
        25.500
  20522755.644   107847802.590 8        53.000    20522761.044    84037250.816 9
        41.250
  21354378.878   112218038.101 8        52.500    21354384.318    87442629.528 8
        38.500
  23460602.644   123286285.787 6        45.750    23460610.864    96067234.107 7
        30.000
  22357533.232   117489645.524 6        45.250    22357538.672    91550368.639 7
        30.750
  23903867.062   125615659.028 5        40.750    23903871.422    97882331.620 6
        22.500
  23200096.146   121917346.648 6        42.750    23200101.346    95000535.459 6
        22.250
  20365040.266   107019034.133 8        54.000    20365048.626    83391460.516 9
        44.500
 18  2 20 10 10  0.0000000  0  8G02G05G07G09G13G20G28G30
  23757349.022   124845683.197 3        37.000    23757354.782    97282342.992 6
        23.000
  20520164.164   107834183.845 8        52.250    20520169.724    84026638.811 9
        42.000
  21364744.358   112272507.603 8        52.500    21364749.698    87485073.277 8
        38.750
  23477968.544   123377546.722 6        45.000    23477977.784    96138346.483 7
        29.000
  22342181.432   117408969.909 6        46.250    22342186.892    91487504.520 7
        30.750
  23884444.462   125513607.643 2        34.500    23884451.842    97802811.074 6
        19.250
  23183391.226   121829558.918 6        43.750    23183398.866    94932129.430 7
        27.000
  20366782.806   107028189.845 8        55.250    20366790.786    83398594.845 9
        44.500
 18  2 20 10 10 30.0000000  0  8G02G05G07G09G13G20G28G30
  23773885.122   124932574.446 5        39.500    23773889.202    97350050.353 6
        25.000
  20517677.584   107821117.401 8        53.500    20517682.944    84016457.163 9
        41.750
  21375180.438   112327350.987 8        52.500    21375185.678    87527808.372 8
        38.250
  23495357.524   123468924.720 6        44.000    23495366.064    96209550.053 7
        29.750
  22326865.352   117328487.107 6        46.250    22326871.552    91424790.652 7
        31.000
  23865066.322   125411757.570 5        41.500    23865068.582    97723447.389 6
        21.000
  23166731.386   121742011.806 6        42.750    23166739.306    94863911.047 6
        23.000
  20368623.226   107037862.276 8        55.250    20368631.466    83406131.811 9
        44.500
 18  2 20 10 11  0.0000000  0  8G02G05G07G09G13G20G28G30
  23790453.522   125019645.872 4        38.500    23790458.362    97417898.195 6
        22.250
  20515296.084   107808603.627 8        53.000    20515301.744    84006706.179 9
        42.000
  21385687.498   112382566.273 8        53.000    21385692.818    87570833.261 8
        38.750
  23512768.024   123560418.664 6        44.000    23512776.964    96280843.990 7
        28.750
  22311587.072   117248197.304 6        46.000    22311593.072    91362227.192 7
        31.500
  23845719.942   125310111.373 3        37.000    23845728.782    97644242.541 6
        20.250
  23150119.106   121654707.527 6        45.250    23150122.746    94795881.740 6
        25.250
  20370561.826   107048050.113 8        54.500    20370569.766    83414070.388 9
        44.500
 18  2 20 10 11 30.0000000  0  8G02G05G07G09G13G20G28G30
  23807057.162   125106894.543 5        40.000    23807061.402    97485884.102 6
        22.750
  20513020.604   107796643.059 8        53.250    20513026.024    83997386.255 9
        42.500
  21396265.098   112438150.906 7        51.500    21396270.538    87614145.950 8
        38.750
  23530201.084   123652027.540 6        44.500    23530209.104    96352227.475 7
        28.000
  22296345.172   117168100.855 6        45.500    22296351.332    91299814.381 7
        31.500
  23826420.462   125208671.721 6        43.000    23826424.102    97565198.774 6
        21.250
  23133551.006   121567648.855 5        42.000    23133557.606    94728043.855 7
        26.250
  20372598.606   107058752.335 8        55.000    20372606.626    83422409.783 9
        44.750
 18  2 20 10 12  0.0000000  0  8G02G05G07G09G13G20G28G30
  23823693.582   125194317.292 5        39.250    23823697.582    97554005.696 6
        23.000
  20510849.644   107785237.165 8        53.250    20510854.984    83988498.539 9
        41.500
  21406912.318   112494103.623 7        51.500    21406918.018    87657745.458 8
        38.500
  23547655.624   123743750.792 6        44.750    23547663.324    96423700.102 7
        29.000
  22281140.552   117088199.236 6        46.250    22281146.392    91237553.397 7
        31.500
  23807154.742   125107441.125 5        41.250    23807159.982    97486317.694 6
        19.250
  23117031.666   121480838.654 6        42.750    23117037.826    94660399.646 6
        23.000
  20374732.666   107069968.094 8        53.750    20374740.306    83431149.340 9
        44.500
 18  2 20 10 12 30.0000000  0  8G02G05G07G09G13G20G28G30
  23840361.222   125281911.326 4        38.250    23840365.142    97622260.757 6
        22.750
  20508785.084   107774386.257 8        53.000    20508790.504    83980043.287 9
        41.500
  21417629.358   112550422.263 8        52.250    21417634.898    87701630.104 8
        38.750
  23565131.484   123835587.482 6        44.500    23565140.204    96495261.097 7
        29.500
  22265973.312   117008493.102 7        47.250    22265979.032    91175444.723 7
        32.000
  23787932.762   125006421.423 6        42.750    23787938.302    97407601.152 6
        22.500
  23100559.286   121394279.725 6        43.250    23100563.506    94592951.114 6
        22.000
  20376964.746   107081696.445 8        55.000    20376972.846    83440288.321 9
        44.250
 18  2 20 10 13  0.0000000  0  8G02G05G07G09G13G20G28G30
  23857062.482   125369673.863 5        39.500    23857067.262    97690647.109 6
        24.750
  20506825.864   107764091.667 7        52.000    20506831.604    83972021.528 9
        42.500
  21428416.018   112607105.685 7        52.000    21428421.858    87745798.990 8
        38.000
  23582628.904   123927537.310 6        45.250    23582636.604    96566910.275 7
        28.500
  22250842.532   116928983.580 6        45.000    22250848.572    91113489.264 7
        31.500
  23768749.362   124905615.843 5        42.000    23768754.242    97329051.290 6
        21.750
  23084136.826   121307975.597 6        43.750    23084141.506    94525701.246 6
        25.000
  20379294.006   107093936.776 8        54.250    20379301.726    83449826.241 9
        44.000
 18  2 20 10 13 30.0000000  0  8G02G05G07G09G13G20G28G30
  23873793.782   125457601.711 4        38.750    23873798.782    97759162.241 6
        22.250
  20504972.864   107754353.899 8        52.250    20504978.524    83964433.659 9
        42.000
  21439271.838   112664151.796 8        52.500    21439276.738    87790250.495 8
        38.250
  23600147.584   124019599.280 6        44.750    23600156.324    96638646.836 7
        29.000
  22235749.932   116849671.369 6        45.500    22235755.652    91051687.549 7
        32.000
  23749607.942   124805026.490 5        40.500    23749612.742    97250670.041 6
        22.000
  23067762.768   121221928.540 6        43.000    23067767.128    94458651.618 6
        22.500
  20381720.346   107106688.009 8        53.500    20381728.226    83459762.277 9
        44.000
 18  2 20 10 14  0.0000000  0  8G02G05G07G09G13G20G28G30
  23890558.222   125545692.535 5        41.000    23890561.802    97827804.380 6
        22.500
  20503225.964   107745174.214 8        53.000    20503231.744    83957280.664 9
        42.000
  21450196.098   112721559.120 8        52.750    21450201.398    87834983.467 8
        38.500
  23617687.124   124111773.091 6        43.750    23617695.384    96710470.536 7
        27.500
  22220695.112   116770557.895 6        46.000    22220700.892    90990040.705 7
        31.000
  23730508.522   124704656.132 5        41.500    23730514.542    97172459.365 6
        22.500
  23051437.748   121136141.583 6        43.500    23051442.548    94391804.691 6
        24.500
  20384244.046   107119949.582 8        54.250    20384251.526    83470095.970 9
        44.000
 18  2 20 10 14 30.0000000  0  8G02G05G07G09G13G20G28G30
  23907351.202   125633942.592 5        40.000    23907355.902    97896570.646 6
        22.750
  20501585.424   107736552.816 8        52.750    20501590.864    83950562.677 9
        42.500
  21461188.318   112779325.331 8        52.500    21461193.818    87879996.093 8
        38.000
  23635248.364   124204057.350 6        42.500    23635257.784    96782380.303 7
        27.500
  22205678.412   116691643.497 6        45.500    22205683.972    90928548.973 7
        31.500
  23711450.082   124604506.959 5        39.250    23711454.722    97094421.089 6
        20.750
  23035162.528   121050617.324 6        43.500    23035169.288    94325162.439 6
        24.250
  20386864.364   107133719.814 8        54.500    20386871.824    83480826.033 9
        43.750
 18  2 20 10 15  0.0000000  0  8G02G05G07G09G13G20G28G30
  23924174.602   125722349.462 5        41.250    23924178.742    97965459.036 6
        25.500
  20500051.384   107728490.480 8        53.000    20500056.904    83944280.346 9
        42.000
  21472248.998   112837449.014 8        52.750    21472254.118    87925287.272 8
        38.500
  23652830.524   124296451.491 6        42.750    23652839.284    96854375.680 7
        29.000
  22190699.472   116612929.162 6        46.250    22190705.032    90867213.147 7
        31.250
  23692435.422   124504581.758 5        40.500    23692440.702    97016557.251 6
        22.500
  23018937.748   120965358.656 6        43.250    23018944.588    94258727.181 6
        22.750
  20389581.464   107147998.079 8        54.000    20389589.544    83491951.956 9
        44.500
 18  2 20 10 15 30.0000000  0  8G02G05G07G09G13G20G28G30
  23941027.762   125810910.342 6        42.250    23941031.722    98034467.469 6
        25.250
  20498623.464   107720988.145 8        52.500    20498629.024    83938434.364 9
        41.750
  21483377.058   112895928.141 7        52.000    21483382.598    87970855.419 8
        38.000
  23670433.304   124388954.808 6        42.500    23670442.084    96926456.126 7
        29.000
  22175758.814   116534415.703 6        46.750    22175764.574    90806033.839 7
        32.250
  23673462.564   124404882.818 4        38.750    23673468.764    96938869.825 6
        22.500
  23002765.708   120880368.544 6        44.500    23002772.308    94192501.149 7
        26.250
  20392395.044   107162783.274 8        54.500    20392403.124    83503472.895 9
        44.250
 18  2 20 10 16  0.0000000  0  8G02G05G07G09G13G20G28G30
  23957908.762   125899622.022 5        41.000    23957912.882    98103593.425 6
        25.250
  20497302.784   107714046.287 8        52.250    20497308.284    83933025.133 9
        41.750
  21494572.498   112954760.442 8        52.500    21494577.858    88016698.762 8
        38.250
  23688057.722   124481566.337 6        44.250    23688066.402    96998620.909 7
        29.500
  22160856.894   116456103.919 6        47.000    22160862.134    90745011.694 7
        31.250
  23654533.944   124305412.590 4        39.000    23654539.484    96861360.554 6
        21.750
  22986643.348   120795649.398 6        43.500    22986651.028    94126486.268 6
        25.500
  20395304.824   107178074.266 8        54.750    20395313.004    83515387.964 9
        44.250
 18  2 20 10 16 30.0000000  0  8G02G05G07G09G13G20G28G30
  23974817.862   125988481.408 5        41.000    23974823.022    98172834.450 6
        24.500
  20496088.404   107707665.424 8        52.500    20496093.964    83928053.025 9
        42.000
  21505834.838   113013944.472 7        51.750    21505840.218    88062816.184 8
        37.000
  23705700.682   124574285.361 5        42.000    23705709.802    97070869.453 7
        29.000
  22145992.794   116377994.780 6        47.000    22145998.174    90684147.423 7
        32.000
  23635648.984   124206173.471 5        39.250    23635655.484    96784031.407 6
        22.750
  22970574.748   120711203.958 6        45.000    22970580.608    94060684.690 6
        26.000
  20398310.304   107193869.957 8        54.250    20398318.324    83527696.291 9
        44.000
 18  2 20 10 17  0.0000000  0  8G02G05G07G09G13G20G28G30
  23991755.020   126077485.789 5        41.250    23991759.420    98242188.470 6
        23.000
  20494981.284   107701846.541 8        53.250    20494986.764    83923518.829 9
        42.000
  21517163.778   113073478.619 7        51.750    21517169.038    88109206.418 8
        37.500
  23723364.862   124667111.440 6        43.500    23723374.442    97143201.410 7
        27.750
  22131167.874   116300089.207 7        48.250    22131173.174    90623441.799 7
        31.500
  23616809.264   124107168.193 4        39.000    23616815.024    96706884.431 6
        21.750
  22954558.368   120627035.768 6        44.000    22954564.388    93995099.114 7
        26.750
  20401412.124   107210169.624 8        54.250    20401420.224    83540397.340 9
        44.000
 18  2 20 10 17 30.0000000  0  8G02G05G07G09G13G20G28G30
  24008719.520   126166632.363 5        41.000    24008724.000    98311653.271 6
        25.750
  20493980.944   107696590.560 8        53.000    20493986.344    83919423.257 9
        42.500
  21528558.958   113133360.946 7        51.250    21528564.838    88155867.972 8
        37.500
  23741049.582   124760043.778 6        43.000    23741058.342    97215616.176 7
        28.500
  22116382.474   116222388.366 7        49.000    22116387.774    90562895.701 7
        33.000
  23598014.524   124008399.173 5        40.000    23598020.104    96629921.583 6
        22.500
  22938593.968   120543147.159 6        44.250    22938600.648    93929731.414 6
        26.000
  20404609.584   107226972.192 8        55.000    20404617.584    83553490.253 9
        44.500
 18  2 20 10 18  0.0000000  0  8G02G05G07G09G13G20G28G30
  24025710.260   126255918.162 5        42.000    24025713.620    98381226.563 6
        26.000
  20493087.944   107691898.029 8        53.250    20493093.344    83915766.745 9
        42.000
  21540020.778   113193589.988 7        51.500    21540025.938    88202799.684 8
        37.500
  23758753.942   124853081.622 6        42.500    23758762.482    97288113.131 7
        27.500
  22101635.254   116144892.778 7        49.000    22101641.194    90502509.535 7
        32.750
  23579265.344   123909869.263 5        41.500    23579270.324    96553145.034 6
        23.250
  22922684.628   120459540.813 6        45.000    22922689.308    93864583.625 6
        26.000
  20407902.744   107244276.541 8        55.500    20407910.484    83566974.169 9
        44.000
 18  2 20 10 18 30.0000000  0  8G02G05G07G09G13G20G28G30
  24042726.080   126345340.462 4        39.000    24042730.780    98450906.217 6
        22.000
  20492302.584   107687769.639 7        52.000    20492307.764    83912549.808 9
        42.750
  21551546.918   113254163.436 7        51.250    21551552.598    88249999.768 8
        37.750
  23776478.282   124946224.380 6        42.750    23776487.582    97360691.859 7
        28.250
  22086927.174   116067603.902 7        49.250    22086933.414    90442284.443 7
        32.500
  23560561.164   123811580.664 5        40.000    23560566.364    96476556.542 6
        22.000
  22906829.008   120376219.838 6        45.250    22906835.408    93799658.222 7
        26.750
  20411290.544   107262081.767 8        54.500    20411298.704    83580848.380 9
        44.250
 18  2 20 10 19  0.0000000  0  8G02G05G07G09G13G20G28G30
  24059768.860   126434895.655 5        40.500    24059772.260    98520689.457 6
        22.500
  20491624.104   107684205.479 8        52.500    20491629.724    83909772.538 9
        42.000
  21563139.278   113315079.526 7        51.000    21563144.758    88297466.847 8
        37.250
  23794222.802   125039470.738 6        43.000    23794231.742    97433351.322 7
        27.250
  22072258.934   115990521.897 7        48.250    22072264.934    90382220.555 7
        32.500
  23541903.304   123713535.544 5        40.750    23541909.864    96400157.757 6
        22.250
  22891028.208   120293186.502 6        45.000    22891033.388    93734956.933 7
        26.500
  20414773.964   107280386.236 8        55.000    20414781.804    83595111.598 9
        44.000
 18  2 20 10 19 30.0000000  0  8G02G05G07G09G13G20G28G30
  24076834.200   126524581.366 4        38.500    24076839.600    98590574.355 6
        22.750
  20491053.284   107681206.249 8        52.500    20491059.024    83907435.472 9
        42.500
  21574795.678   113376336.303 7        50.250    21574801.578    88345199.390 8
        37.000
  23811987.102   125132820.297 6        42.750    23811995.742    97506091.163 7
        28.500
  22057630.374   115913648.014 7        47.750    22057636.454    90322318.857 7
        32.000
  23523294.024   123615737.192 5        41.000    23523297.744    96323951.258 6
        21.500
  22875283.308   120210443.932 6        44.500    22875288.228    93670482.240 7
        26.250
  20418352.044   107299189.055 8        54.750    20418359.864    83609763.159 9
        44.000
 18  2 20 10 20  0.0000000  0  8G02G05G07G09G13G20G28G30
  24093925.940   126614394.618 5        39.250    24093930.040    98660558.654 6
        22.750
  20490590.344   107678772.821 7        51.750    20490595.884    83905539.292 9
        42.500
  21586517.116   113437932.384 7        50.500    21586522.496    88393196.328 8
        37.750
  23829770.642   125226272.519 6        43.500    23829778.442    97578911.045 7
        27.750
  22043041.414   115836983.563 7        48.250    22043047.534    90262580.334 7
        32.750
  23504730.084   123518187.929 5        40.000    23504735.404    96247938.878 6
        22.500
  22859593.648   120127994.832 6        46.250    22859599.468    93606236.187 7
        28.750
  20422024.804   107318489.449 8        53.750    20422032.364    83624802.426 9
        43.750
 18  2 20 10 20 30.0000000  0  8G02G05G07G09G13G20G28G30
  24111041.000   126704332.348 4        38.500    24111044.620    98730639.972 6
        21.750
  20490234.864   107676905.652 7        50.750    20490240.504    83904084.353 9
        42.250
  21598302.696   113499865.912 7        50.750    21598308.416    88441456.214 8
        37.500
  23847573.142   125319826.612 6        43.500    23847582.462    97651810.267 7
        28.750
  22028492.954   115760529.194 7        48.000    22028498.314    90203005.509 7
        32.000
  23486215.704   123420890.110 5        41.250    23486220.984    96172122.376 6
        24.500
  22843959.668   120045842.137 6        44.250    22843965.648    93542221.126 7
        27.000
  20425792.004   107338286.093 8        53.750    20425799.524    83640228.396 9
        43.750
 18  2 20 10 21  0.0000000  0  8G02G05G07G09G13G20G28G30
  24128178.340   126794391.877 4        38.500    24128181.840    98800816.136 6
        22.250
  20489987.524   107675605.054 7        52.000    20489993.044    83903070.894 9
        42.500
  21610152.116   113562134.672 7        50.250    21610157.356    88489977.323 8
        37.500
  23865395.202   125413481.628 6        43.250    23865403.422    97724788.156 7
        27.000
  22013984.474   115684285.574 7        49.000    22013990.154    90143594.907 7
        32.000
  23467749.044   123323846.145 5        40.750    23467753.384    96096503.739 6
        23.500
  22828384.748   119963988.260 6        45.500    22828389.468    93478438.921 7
        27.500
  20429653.544   107358577.677 8        54.500    20429661.284    83656040.018 9
        44.250
 18  2 20 10 21 30.0000000  0  8G02G05G07G09G13G20G28G30
  24145338.160   126884570.130 4        37.250    24145343.480    98871084.878 6
        21.750
  20489848.084   107674871.693 7        50.000    20489853.804    83902499.440 9
        42.250
  21622064.796   113624737.024 7        49.250    21622070.276    88538758.373 8
        37.500
  23883236.462   125507236.974 6        42.500    23883245.022    97797844.212 7
        27.500
  21999516.014   115608254.076 7        48.500    21999521.914    90084349.598 8
        33.500
  23449329.144   123227058.836 5        39.250    23449336.364    96021085.043 6
        25.000
  22812864.448   119882436.132 6        44.000    22812871.948    93414891.841 7
        27.250
  20433608.944   107379363.207 8        54.500    20433616.624    83672236.544 9
        44.000
 18  2 20 10 22  0.0000000  0  8G02G05G07G09G13G20G28G30
  24162521.120   126974864.301 4        38.250    24162525.080    98941443.854 6
        21.000
  20489816.584   107674706.086 7        51.500    20489821.624    83902370.399 9
        42.250
  21634041.276   113687670.963 7        50.000    21634046.396    88587797.806 8
        37.750
  23901096.262   125601091.894 6        42.250    23901106.002    97870977.853 7
        27.000
  21985088.334   115532435.323 7        49.000    21985093.874    90025270.068 7
        32.500
  23430961.484   123130530.293 5        40.250    23430966.424    95945868.051 6
        22.750
  22797404.048   119801188.562 6        45.250    22797409.748    93351582.060 7
        29.250
  20437657.724   107400641.500 8        54.750    20437665.644    83688817.031 9
        43.750
 18  2 20 10 22 30.0000000  0  8G02G05G07G09G13G20G28G30
  24179723.820   127065271.235 3        36.750    24179728.300    99011890.803 6
        21.750
  20489893.204   107675108.716 7        51.250    20489898.664    83902684.131 9
        42.500
  21646079.676   113750934.972 7        50.750    21646085.176    88637094.426 8
        37.250
  23918975.302   125695045.677 6        42.500    23918984.002    97944188.544 7
        28.250
  21970700.854   115456830.208 7        48.500    21970706.474    89966357.000 7
        32.500
  23412642.584   123034263.981 5        40.500    23412647.844    95870855.343 6
        22.750
  22782001.410   119720248.093 6        45.000    22782007.570    93288511.580 7
        28.250
  20441800.484   107422411.299 8        54.000    20441808.004    83705780.517 9
        43.500
 18  2 20 10 23  0.0000000  0  8G02G05G07G09G13G20G28G30
  24196948.600   127155788.528 3        36.250    24196953.740    99082423.655 6
        21.500
  20490078.104   107676080.175 7        51.250    20490083.364    83903441.108 9
        42.250
  21658181.036   113814527.252 7        50.500    21658186.396    88686646.849 8
        37.500
  23936872.622   125789097.874 5        42.000    23936882.302    98017475.880 7
        28.000
  21956354.854   115381440.143 7        48.750    21956360.534    89907611.504 8
        33.500
  23394374.064   122938261.780 5        41.250    23394379.584    95796048.441 6
        25.000
  22766658.310   119639617.803 6        45.500    22766664.410    93225682.809 7
        28.500
  20446036.624   107444671.748 8        55.000    20446044.164    83723126.317 9
        43.750
 18  2 20 10 23 30.0000000  0  8G02G05G07G09G13G20G28G30
  24214194.160   127246412.857 3        37.000    24214199.520    99153039.914 6
        21.250
  20490370.904   107677620.476 7        50.000    20490376.464    83904641.336 9
        42.000
  21670344.136   113878445.793 7        49.500    21670349.556    88736453.503 8
        37.500
  23954788.602   125883247.379 6        42.250    23954797.742    98090839.110 6
        25.500
  21942049.914   115306265.659 7        49.500    21942055.594    89849034.002 8
        33.500
  23376156.646   122842526.487 5        41.500    23376162.286    95721449.540 6
        24.750
  22751374.210   119559299.954 6        45.500    22751379.930    93163097.497 7
        28.000
  20450365.444   107467421.254 8        54.500    20450373.384    83740853.209 9
        43.500
 18  2 20 10 24  0.0000000  0  8G02G05G07G09G13G20G28G30
  24231460.180   127337141.489 4        37.500    24231465.160    99223737.557 6
        22.250
  20490772.444   107679730.462 7        50.500    20490778.344    83906285.473 9
        42.500
  21682569.476   113942688.759 7        50.000    21682574.616    88786512.955 8
        37.000
  23972723.182   125977493.723 6        42.750    23972733.142    98164277.717 7
        28.000
  21927785.714   115231307.734 7        49.500    21927791.074    89790625.247 8
        33.750
  23357989.346   122747060.415 5        41.000    23357995.026    95647060.403 6
        25.250
  22736150.450   119479297.673 6        45.750    22736155.610    93100758.087 7
        28.500
  20454787.584   107490658.860 8        54.000    20454795.624    83758960.431 9
        43.750
 18  2 20 10 24 30.0000000  0  8G02G05G07G09G13G20G28G30
  24248744.480   127427971.353 3        36.250    24248750.620    99294513.976 6
        24.250
  20491282.144   107682410.317 7        51.500    20491288.084    83908373.674 9
        42.250
  21694855.716   114007254.322 7        49.750    21694860.996    88836823.773 8
        37.500
  23990676.580   126071835.793 5        41.750    23990684.580    98237791.006 6
        25.500
  21913562.954   115156567.285 7        48.750    21913567.954    89732385.940 8
        33.250
  23339874.566   122651866.235 5        41.750    23339880.006    95572883.127 6
        23.000
  22720987.070   119399612.898 6        46.250    22720992.790    93038666.102 7
        29.000
  20459302.004   107514382.991 8        54.500    20459310.024    83777446.768 9
        44.000
 18  2 20 10 25  0.0000000  0  8G02G05G07G09G13G20G28G30
  24266047.700   127518899.371 4        38.750    24266052.340    99365366.834 6
        22.750
  20491900.944   107685659.900 7        51.500    20491906.464    83910905.804 9
        42.500
  21707203.136   114072140.233 7        50.500    21707208.596    88887384.220 8
        37.000
  24008647.300   126166272.808 6        43.500    24008656.380    98311378.217 7
        28.750
  21899381.914   115082044.594 7        48.250    21899387.514    89674316.325 7
        33.000
  23321811.846   122556946.456 5        40.750    23321817.526    95498919.676 6
        24.000
  22705883.590   119320248.782 6        45.000    22705889.890    92976823.953 7
        29.750
  20463908.944   107538592.230 8        54.500    20463916.784    83796311.115 9
        43.250
 18  2 20 10 25 30.0000000  0  8G02G05G07G09G13G20G28G30
  24283368.358   127609922.710 4        39.000    24283372.518    99436294.201 6
        21.500
  20492627.884   107689479.843 7        50.500    20492633.084    83913882.383 9
        42.000
  21719611.096   114137344.995 7        51.000    21719617.076    88938193.122 8
        37.500
  24026635.860   126260804.254 6        42.750    24026643.820    98385039.025 6
        25.500
  21885242.154   115007741.296 7        48.500    21885247.534    89616417.676 8
        33.250
  23303802.006   122462303.543 6        42.750    23303807.526    95425171.966 6
        23.250
  22690842.510   119241208.117 6        45.750    22690849.210    92915233.865 7
        28.750
  20468608.024   107563285.634 8        54.250    20468615.644    83815552.728 9
        43.750
 18  2 20 10 26  0.0000000  0  9G02G05G07G09G13G15G20G28G30
  24300707.518   127701038.659 4        39.000    24300713.558    99507293.425 6
        23.750
  20493463.364   107693870.422 7        51.000    20493468.724    83917303.605 9
        42.250
  21732079.416   114202866.650 7        50.500    21732084.976    88989248.937 8
        37.500
  24044642.500   126355429.387 6        44.250    24044650.400    98458772.845 7
        26.500
  21871144.636   114933658.386 7        48.000    21871150.316    89558690.758 8
        33.500
  24513823.478   128820987.367 6        44.250    24513826.578   100379991.730 6
        20.750
  23285845.126   122367940.103 6        43.250    23285850.426    95351642.036 6
        22.000
  22675864.490   119162493.161 6        46.000    22675870.810    92853897.591 7
        29.250
  20473398.624   107588461.810 8        54.000    20473406.504    83835170.536 9
        43.250
 18  2 20 10 26 30.0000000  0  9G02G05G07G09G13G15G20G28G30
  24318063.918   127792243.236 5        40.750    24318067.078    99578361.908 6
        21.750
  20494407.424   107698831.491 8        52.250    20494412.884    83921169.365 9
        42.500
  21744607.776   114268702.712 7        52.000    21744613.076    89040549.763 8
        37.500
  24062666.080   126450146.774 5        41.500    24062675.880    98532578.499 6
        25.000
  21857089.356   114859795.896 7        48.500    21857094.736    89501135.581 8
        34.500
  24494685.138   128720426.267 5        41.750    24494693.518   100301632.391 6
        24.250
  23267942.966   122273858.110 6        43.000    23267947.106    95278331.406 6
        23.500
  22660947.870   119084106.293 6        45.750    22660953.310    92792816.937 7
        29.500
  20478281.184   107614118.869 8        53.500    20478288.684    83855163.055 9
        43.500
 18  2 20 10 27  0.0000000  0  9G02G05G07G09G13G15G20G28G30
  24335435.718   127883536.279 5        39.250    24335441.078    99649499.264 6
        22.000
  20495460.964   107704365.332 7        51.750    20495466.124    83925481.455 9
        43.000
  21757195.776   114334853.585 7        51.000    21757201.376    89092095.889 8
        37.000
  24080709.700   126544957.935 6        43.000    24080716.220    98606457.309 6
        25.750
  21843076.196   114786156.966 7        48.500    21843081.896    89443754.609 8
        33.500
  24475563.178   128619928.782 6        44.000    24475568.918   100223322.904 6
        22.750
  23250093.466   122180062.049 6        43.000    23250098.086    95205243.607 6
        25.500
  22646093.930   119006052.101 6        46.000    22646099.770    92731995.538 7
        28.750
  20483255.244   107640257.744 8        54.000    20483263.324    83875531.010 9
        44.000
 18  2 20 10 27 30.0000000  0  9G02G05G07G09G13G15G20G28G30
  24352825.338   127974912.607 5        41.500    24352829.698    99720701.512 6
        25.000
  20496622.484   107710470.504 8        52.750    20496627.904    83930238.722 9
        43.000
  21769843.376   114401315.642 7        51.500    21769848.276    89143884.493 8
        37.250
  24098767.140   126639860.352 4        39.000    24098777.020    98680407.165 6
        25.500
  21829105.476   114712740.718 7        48.500    21829110.956    89386547.157 8
        34.250
  24456449.598   128519494.649 6        43.000    24456455.598   100145062.299 6
        22.500
  23232298.806   122086552.941 6        42.500    23232304.946    95132379.372 6
        25.000
  22631304.370   118928331.695 6        46.250    22631310.970    92671434.205 7
        28.000
  20488320.144   107666875.247 8        54.000    20488327.904    83896271.915 9
        43.250
 18  2 20 10 28  0.0000000  0  9G02G05G07G09G13G15G20G28G30
  24370228.038   128066370.062 5        39.250    24370232.178    99791967.010 6
        20.500
  20497893.044   107717147.725 8        53.000    20497897.904    83935441.745 9
        42.500
  21782549.276   114468087.410 7        51.000    21782555.116    89195914.438 8
        37.250
  24116844.960   126734853.773 5        41.500    24116851.820    98754427.988 7
        26.500
  21815177.576   114639548.631 7        49.750    21815182.696    89329514.377 8
        34.250
  24437351.598   128419124.596 6        45.500    24437357.718   100066852.153 7
        28.000
  23214560.286   121993333.943 6        42.750    23214565.306    95059741.190 6
        24.250
  22616578.750   118850947.795 6        45.750    22616584.710    92611135.103 7
        29.000
  20493475.924   107693970.583 8        53.000    20493484.184    83917385.160 9
        43.250
 18  2 20 10 28 30.0000000  0  8G05G07G09G13G15G20G28G30
  20499272.664   107724397.328 7        52.000    20499278.004    83941090.792 9
        42.500
  21795314.316   114535167.100 7        50.500    21795319.616    89248184.314 8
        36.750
  24134937.740   126829937.510 4        38.000    24134947.640    98828519.142 6
        25.000
  21801292.596   114566582.015 7        48.500    21801297.936    89272657.285 8
        34.000
  24418262.078   128318820.163 5        41.500    24418266.438    99988692.697 6
        19.250
  23196877.226   121900407.430 6        43.250    23196881.706    94987330.942 6
        24.000
  22601917.890   118773903.168 6        44.250    22601923.790    92551100.347 7
        29.750
  20498722.984   107721542.456 8        52.750    20498731.004    83938869.743 9
        43.500
 18  2 20 10 29  0.0000000  0  8G05G07G09G13G15G20G28G30
  20500760.944   107732219.756 7        52.000    20500766.724    83947186.172 9
        42.250
  21808137.096   114602553.366 7        50.250    21808142.556    89300693.086 8
        36.750
  24153050.800   126925111.226 6        42.750    24153059.000    98902680.422 7
        29.250
  21787450.076   114493841.840 7        48.750    21787455.876    89215976.631 8
        33.750
  24399189.538   128218582.401 6        44.250    24399195.258    99910585.490 6
        26.000
  23179250.086   121807776.331 6        42.250    23179255.186    94915150.896 6
        24.750
  22587321.750   118697201.128 6        46.500    22587326.450    92491332.548 7
        28.500
  20504060.404   107749590.002 8        53.000    20504068.244    83960724.971 9
        43.000
 18  2 20 10 29 30.0000000  0  8G05G07G09G13G15G20G28G30
  20502358.244   107740613.834 8        52.500    20502364.264    83953727.010 9
        42.500
  21821018.616   114670243.341 7        50.000    21821023.936    89353438.503 8
        36.750
  24171175.600   127020372.995 4        39.000    24171185.020    98976910.310 6
        22.500
  21773651.056   114421327.645 7        48.750    21773656.956    89159472.086 8
        34.000
  24380125.638   128118411.873 6        43.250    24380133.938    99832530.549 6
        24.000
  23161679.206   121715442.150 5        42.000    23161684.806    94843202.208 6
        25.500
  22572791.330   118620843.242 6        46.500    22572797.310    92431832.926 7
        29.750
  20509487.704   107778110.511 8        53.250    20509495.704    83982948.743 9
        43.250
 18  2 20 10 30  0.0000000  0  8G05G07G09G13G15G20G28G30
  20504064.824   107749580.714 7        51.750    20504070.504    83960714.190 9
        42.500
  21833956.816   114738235.291 7        50.000    21833962.356    89406419.227 8
        37.000
  24189322.680   127115722.637 6        44.500    24189331.920    99051208.689 7
        30.750
  21759895.516   114349041.271 7        48.500    21759900.996    89103145.042 8
        33.750
  24361078.398   128018309.549 6        44.750    24361081.878    99754528.799 6
        21.750
  23144165.626   121623407.960 5        41.750    23144170.606    94771487.269 6
        25.750
  22558327.630   118544832.775 6        46.750    22558333.090    92372604.009 7
        29.750
  20515004.864   107807103.349 8        53.750    20515012.304    84005540.564 9
        43.000
 18  2 20 10 30 30.0000000  0  8G05G07G09G13G15G20G28G30
  20505880.104   107759120.314 8        53.000    20505885.644    83968147.634 9
        42.250
  21846952.236   114806527.680 7        49.750    21846957.916    89459634.065 8
        36.000
  24207481.980   127211159.536 5        41.000    24207492.100    99125574.977 6
        22.750
  21746183.316   114276983.855 7        48.750    21746189.036    89046996.418 8
        33.500
  24342042.638   127918276.772 6        44.500    24342049.278    99676581.193 7
        27.500
  23126709.966   121531676.261 6        42.250    23126714.246    94700008.031 6
        25.000
  22543929.070   118469171.513 6        46.500    22543935.290    92313647.193 7
        29.250
  20520611.384   107836567.032 8        53.500    20520619.324    84028499.280 9
        43.000
 18  2 20 10 31  0.0000000  0  8G05G07G09G13G15G20G28G30
  20507804.524   107769232.799 7        51.000    20507809.944    83976027.493 9
        42.750
  21860004.376   114875118.765 7        48.500    21860010.456    89513081.640 8
        36.750
  24225660.900   127306682.851 6        43.000    24225669.940    99200008.748 7
        28.000
  21732515.156   114205156.106 7        49.250    21732520.656    88991026.754 8
        34.000
  24323018.898   127818314.297 5        41.500    24323025.758    99598688.457 6
        21.500
  23109312.206   121440249.834 6        42.500    23109316.586    94628766.692 6
        25.000
  22529598.030   118393862.319 6        45.500    22529603.890    92254964.696 7
        28.500
  20526307.504   107866500.245 8        53.750    20526315.244    84051823.856 9
        43.000
 18  2 20 10 31 30.0000000  0  8G05G07G09G13G15G20G28G30
  20509837.764   107779918.259 7        52.000    20509843.564    83984353.825 9
        42.500
  21873113.516   114944006.542 7        49.750    21873118.856    89566760.404 8
        36.000
  24243852.560   127402292.005 5        40.250    24243864.240    99274509.252 6
        24.750
  21718891.196   114133559.070 7        49.250    21718896.216    88935236.864 8
        35.000
  24304012.058   127718423.430 6        45.000    24304015.618    99520851.377 6
        24.000
  23091972.226   121349130.948 5        41.250    23091977.906    94557764.967 6
        25.500
  22515334.770   118318907.883 6        45.000    22515340.150    92196558.675 7
        29.750
  20532092.984   107896901.597 8        53.250    20532100.284    84075513.229 9
        43.500
 18  2 20 10 32  0.0000000  0  8G05G07G09G13G15G20G28G30
  20511980.224   107791176.608 8        52.500    20511985.684    83993126.550 9
        42.250
  21886278.854   115013189.089 7        50.000    21886284.214    89620668.864 8
        37.000
  24262064.920   127497986.106 6        43.500    24262071.280    99349076.078 6
        26.000
  21705310.316   114062193.684 7        49.500    21705316.036    88879627.501 8
        34.750
  24285013.638   127618605.059 4        38.750    24285022.418    99443070.904 6
        21.500
  23074692.308   121258322.661 5        41.500    23074697.448    94487005.271 7
        26.750
  22501139.870   118244310.786 6        44.750    22501145.430    92138431.086 7
        30.500
  20537966.844   107927769.631 8        54.500    20537974.724    84099566.234 9
        43.000
 18  2 20 10 32 30.0000000  0  8G05G07G09G13G15G20G28G30
  20514231.784   107803007.821 7        50.750    20514236.884    84002345.669 9
        43.000
  21899499.354   115082664.371 7        49.250    21899505.054    89674805.435 8
        36.000
  24280289.020   127593764.561 5        39.250    24280298.780    99423708.526 6
        23.750
  21691774.656   113991060.864 7        49.250    21691780.076    88824199.346 8
        34.250
  24266036.360   127518860.318 6        44.750    24266039.680    99365347.783 6
        24.500
  23057471.128   121167827.306 5        41.000    23057476.708    94416489.436 6
        26.000
  22487013.170   118170073.673 6        46.750    22487018.610    92080584.005 7
        30.000
  20543929.444   107959102.966 8        53.250    20543937.444    84123981.823 9
        43.250
 18  2 20 10 33  0.0000000  0  8G05G07G09G13G15G20G28G30
  20516592.504   107815412.062 8        52.500    20516597.524    84012011.303 9
        42.500
  21912775.554   115152430.960 7        49.000    21912781.294    89729168.984 8
        36.500
  24298532.418   127689626.474 6        43.000    24298541.998    99498406.030 6
        25.750
  21678282.596   113920161.641 7        48.500    21678288.276    88768953.208 8
        35.000
  24247066.560   127419190.402 5        39.500    24247074.560    99287682.886 6
        21.500
  23040310.008   121077647.187 5        40.250    23040315.428    94346219.210 6
        24.500
  22472955.432   118096198.804 6        43.750    22472960.692    92023019.195 7
        30.250
  20549980.324   107990900.104 8        53.500    20549987.944    84148758.810 9
        43.500
 18  2 20 10 33 30.0000000  0  8G05G07G09G13G15G20G28G30
  20519061.744   107828389.335 8        53.000    20519067.104    84022123.462 9
        42.500
  21926106.634   115222486.500 7        50.000    21926112.114    89783757.694 8
        36.000
  24316788.018   127785571.135 4        37.750    24316797.558    99573168.071 6
        20.000
  21664835.516   113849497.019 7        48.750    21664840.896    88713889.877 8
        34.500
  24228117.620   127319596.441 6        45.250    24228123.640    99210077.299 7
        27.250
  23023210.268   120987784.940 5        41.250    23023215.528    94276196.694 6
        25.000
  22458966.412   118022688.654 6        45.500    22458972.092    91965738.583 7
        29.500
  20556119.184   108023159.513 8        53.500    20556126.944    84173896.008 9
        43.750
 18  2 20 10 34  0.0000000  0  8G05G07G09G13G15G20G28G30
  20521640.384   107841939.899 8        52.500    20521645.604    84032682.332 9
        42.250
  21939492.874   115292830.076 7        49.750    21939498.354    89838570.858 8
        36.250
  24335063.818   127881598.104 5        42.000    24335073.478    99647994.157 7
        28.250
  21651433.396   113779067.946 7        47.500    21651438.996    88659010.100 8
        35.000
  24209177.180   127220079.404 5        40.500    24209184.280    99132531.545 6
        21.500
  23006170.768   120898243.350 5        41.500    23006176.608    94206424.027 6
        24.000
  22445047.952   117949546.062 6        44.000    22445053.892    91908744.377 7
        30.000
  20562345.724   108055880.073 8        53.750    20562353.624    84199392.544 9
        43.250
 18  2 20 10 34 30.0000000  0  8G05G07G09G13G15G20G28G30
  20524327.744   107856063.539 7        52.000    20524333.264    84043687.765 9
        42.500
  21952933.174   115363459.069 7        51.000    21952938.154    89893606.423 8
        36.500
  24353350.958   127977706.557 3        36.750    24353360.258    99722883.814 6
        19.250
  21638076.456   113708875.525 7        49.750    21638081.516    88604314.711 8
        35.000
  24190257.060   127120640.375 6        45.000    24190263.320    99055046.623 7
        28.500
  22989193.288   120809024.632 5        42.000    22989198.728    94136902.964 6
        24.500
  22431199.012   117876773.450 6        44.750    22431205.472    91852038.481 7
        30.000
  20568659.384   108089060.254 8        54.250    20568667.384    84225247.227 9
        43.750
 18  2 20 10 35  0.0000000  0  8G05G07G09G13G15G20G28G30
  20527124.044   107870759.519 7        51.750    20527129.864    84055139.169 9
        42.500
  21966426.774   115434371.445 7        50.000    21966432.914    89948862.807 8
        36.250
  24371656.618   128073895.498 5        41.500    24371665.058    99797836.140 6
        25.250
  21624764.056   113638920.291 7        50.000    21624769.316    88549804.145 8
        35.750
  24171347.520   127021280.264 6        43.000    24171355.120    98977623.217 6
        22.750
  22972277.128   120720131.737 5        42.000    22972282.648    94067635.787 6
        25.750
  22417422.212   117804373.198 6        44.250    22417427.552    91795622.727 7
        30.000
  20575060.604   108122698.180 8        53.250    20575068.364    84251458.594 9
        43.000
 18  2 20 10 35 30.0000000  0  8G05G07G09G13G15G20G28G30
  20530030.164   107886028.910 8        52.750    20530035.744    84067037.380 9
        42.250
  21979975.154   115505566.295 7        51.500    21979980.554    90004339.298 8
        36.500
  24389974.358   128170164.669 4        38.250    24389985.638    99872850.961 6
        22.750
  21611497.696   113569203.774 7        49.500    21611502.856    88495479.593 8
        35.250
  24152456.580   126921999.930 6        43.500    24152460.480    98900261.921 6
        23.500
  22955423.928   120631567.369 5        41.500    22955429.348    93998624.607 6
        24.750
  22403716.332   117732348.107 6        44.000    22403722.232    91739499.333 7
        29.500
  20581549.004   108156793.039 8        54.000    20581556.744    84278026.010 9
        43.500
 18  2 20 10 36  0.0000000  0  8G05G07G09G13G15G20G28G30
  20533044.664   107901871.124 8        52.500    20533050.144    84079381.956 9
        42.750
  21993576.494   115577041.170 7        51.500    21993581.974    90060033.993 8
        35.750
  24408311.078   128266513.216 5        41.750    24408317.918    99947927.633 6
        24.500
  21598276.476   113499726.756 7        49.500    21598281.656    88441341.673 8
        35.500
  24133579.120   126822801.219 5        42.000    24133585.700    98822964.229 6
        25.250
  22938633.968   120543333.883 6        42.500    22938639.428    93929871.257 6
        25.250
  22390082.232   117660700.473 6        45.250    22390088.072    91683670.040 7
        30.000
  20588123.424   108191343.008 8        53.500    20588131.164    84304948.060 9
        43.000
 18  2 20 10 36 30.0000000  0  8G05G07G09G13G15G20G28G30
  20536168.284   107918286.016 8        52.750    20536173.904    84092172.776 9
        42.000
  22007230.874   115648794.326 8        52.500    22007236.334    90115945.525 8
        37.000
  24426660.558   128362940.161 5        41.500    24426670.318   100023065.522 6
        25.500
  21585101.096   113430490.003 7        49.500    21585106.696    88387390.967 8
        34.750
  24114718.500   126723684.978 6        43.000    24114722.820    98745730.894 6
        22.250
  22921906.708   120455433.801 5        41.500    22921912.308    93861377.704 6
        26.000
  22376520.572   117589432.728 6        44.500    22376525.972    91628136.787 7
        30.750
  20594784.304   108226346.571 8        53.750    20594792.144    84332223.557 9
        43.500
 18  2 20 10 37  0.0000000  0  8G05G07G09G13G15G20G28G30
  20539401.104   107935273.086 8        53.250    20539406.824    84105409.448 9
        42.000
  22020937.754   115720823.807 8        52.250    22020943.014    90172072.376 8
        36.500
  24445023.718   128459444.941 5        41.000    24445034.078   100098263.827 6
        24.250
  21571972.038   113361494.438 7        48.500    21571976.818    88333628.184 8
        35.500
  24095873.040   126624652.326 6        43.000    24095878.560    98668562.500 6
        25.000
  22905243.948   120367869.342 5        42.000    22905249.668    93793145.654 6
        25.750
  22363031.432   117518547.207 6        44.000    22363037.292    91572901.376 7
        30.000
  20601531.324   108261802.090 8        54.000    20601539.644    84359851.237 9
        44.000
 18  2 20 10 37 30.0000000  0  8G05G07G09G13G15G20G28G30
  20542742.244   107952832.789 7        51.500    20542748.224    84119092.320 9
        42.500
  22034696.714   115793127.932 8        52.750    22034701.854    90228413.255 8
        36.000
  24463403.758   128556026.962 6        43.500    24463412.218   100173522.565 6
        24.000
  21558888.078   113292741.732 7        47.500    21558893.598    88280054.657 8
        35.000
  24077043.900   126525704.362 5        41.750    24077050.460    98591460.291 7
        26.500
  22888645.268   120280643.567 5        41.500    22888650.568    93725177.537 6
        25.250
  22349615.372   117448046.721 6        43.500    22349620.372    91517965.973 7
        30.000
  20608364.164   108297708.499 8        54.000    20608372.024    84387830.251 9
        43.250
 18  2 20 10 38  0.0000000  0  8G05G07G09G13G15G20G28G30
  20546192.744   107970964.748 7        52.000    20546198.164    84133221.104 9
        42.500
  22048507.634   115865704.870 7        51.500    22048512.994    90284966.709 8
        36.500
  24481795.858   128652685.515 5        40.750    24481806.358   100248840.811 6
        23.250
  21545851.518   113224232.312 7        48.000    21545857.458    88226670.705 8
        35.250
  24058230.460   126426841.963 5        41.750    24058236.000    98514424.633 6
        22.000
  22872112.088   120193758.613 5        40.750    22872117.488    93657474.994 7
        27.000
  22336273.112   117377933.541 6        46.000    22336278.412    91463332.361 7
        30.000
  20615282.424   108334063.983 8        54.000    20615289.984    84416159.195 9
        43.250
 18  2 20 10 38 30.0000000  0  8G05G07G09G13G15G20G28G30
  20549752.044   107989668.864 7        51.000    20549757.544    84147795.732 9
        42.500
  22062370.054   115938552.728 7        51.250    22062375.394    90341731.268 8
        35.750
  24500205.958   128749419.743 6        44.750    24500214.838   100324217.980 7
        26.500
  21532861.158   113155967.329 6        47.000    21532866.318    88173477.227 8
        35.500
  24039434.540   126328066.561 6        42.750    24039440.440    98437456.857 6
        24.500
  22855643.488   120107217.786 5        41.500    22855648.988    93590040.601 7
        26.500
  22323005.452   117308210.006 6        45.000    22323011.212    91409002.386 7
        31.750
  20622285.784   108370867.172 8        54.500    20622293.524    84444837.001 9
        43.750
 18  2 20 10 39  0.0000000  0  8G05G07G09G13G15G20G28G30
  20553420.224   108008944.571 7        51.750    20553426.244    84162815.749 9
        42.750
  22076283.234   116011669.612 7        50.750    22076288.774    90398705.449 8
        35.500
  24518626.478   128846228.847 5        40.250    24518635.218   100399653.566 6
        19.750
  21519917.518   113087947.644 7        48.000    21519922.878    88120474.878 8
        35.000
  24020654.520   126229379.005 6        42.250    24020661.200    98360557.467 6
        26.000
  22839240.948   120021023.044 5        41.000    22839246.568    93522875.865 6
        26.000
  22309812.272   117238878.271 6        45.500    22309817.272    91354977.702 7
        30.500
  20629373.984   108408116.109 8        53.750    20629381.644    84473862.136 9
        43.500
 18  2 20 10 39 30.0000000  0  8G05G07G09G13G15G20G28G30
  20557197.004   108028791.742 8        52.500    20557202.664    84178281.067 9
        42.750
  22090247.714   116085054.049 7        50.750    22090253.794    90455888.115 8
        35.500
  24537063.558   128943112.402 5        42.000    24537073.218   100475147.175 6
        24.750
  21507020.698   113020174.529 7        48.750    21507026.378    88067664.662 8
        35.500
  24001891.680   126130780.656 5        41.250    24001897.240    98283727.652 6
        25.000
  22822905.708   119935177.142 6        42.750    22822910.748    93455982.970 7
        27.250
  22296693.392   117169941.237 6        46.250    22296699.152    91301260.571 7
        30.500
  20636546.844   108445809.829 8        54.500    20636554.824    84503233.854 9
        43.500
 18  2 20 10 40  0.0000000  0  7G05G07G13G15G20G28G30
  20561082.784   108049211.220 7        51.500    20561088.464    84194192.340 9
        42.000
  22104263.434   116158705.108 7        51.250    22104269.014    90513278.540 8
        36.000
  21494171.498   112952650.043 7        47.250    21494176.698    88015048.194 8
        36.500
  23983146.922   126032273.653 6        43.250    23983154.142    98206968.968 7
        28.000
  22806636.568   119849683.408 6        42.500    22806642.548    93389364.489 7
        27.500
  22283650.712   117101402.092 6        46.500    22283656.052    91247853.478 7
        31.000
  20643804.164   108483947.676 8        53.500    20643812.044    84532951.653 9
        43.000
 18  2 20 10 40 30.0000000  0  7G05G07G13G15G20G28G30
  20565077.144   108070201.842 7        51.750    20565082.464    84210548.656 9
        43.000
  22118328.814   116232619.702 7        50.000    22118334.454    90570874.311 8
        35.500
  21481369.058   112885373.834 7        48.250    21481374.918    87962625.176 8
        35.750
  23964418.542   125933857.898 6        42.500    23964425.162    98130281.445 6
        24.500
  22790435.008   119764543.662 6        42.750    22790440.868    93323021.854 7
        27.250
  22270683.752   117033261.994 6        45.000    22270689.612    91194757.315 7
        30.750
  20651145.664   108522526.847 8        54.500    20651153.524    84563013.344 9
        43.250
 18  2 20 10 41  0.0000000  0  7G05G07G13G15G20G28G30
  20569179.944   108091762.832 8        52.250    20569185.284    84227349.422 9
        42.250
  22132444.034   116306796.078 7        51.500    22132449.834    90628674.076 8
        35.000
  21468614.318   112818346.810 7        47.750    21468619.658    87910396.336 8
        36.000
  23945709.342   125835534.592 6        45.500    23945714.302    98053665.863 7
        26.750
  22774301.230   119679760.302 6        43.000    22774306.110    93256956.896 7
        28.000
  22257794.132   116965523.365 6        46.250    22257800.532    91141973.998 7
        31.750
  20658570.804   108561545.711 8        53.750    20658578.044    84593417.652 9
        43.000
 18  2 20 10 41 30.0000000  0  7G05G07G13G15G20G28G30
  20573391.264   108113894.153 8        53.000    20573396.864    84244594.589 9
        42.000
  22146608.954   116381232.365 7        50.000    22146614.214    90686676.364 8
        35.250
  21455907.158   112751570.047 7        49.500    21455912.478    87858362.505 8
        36.000
  23927014.622   125737305.038 6        42.750    23927022.362    97977123.362 6
        25.250
  22758236.210   119595335.425 6        43.500    22758240.930    93191171.304 7
        28.000
  22244980.632   116898188.573 6        46.000    22244986.252    91089505.357 7
        31.000
  20666078.904   108601002.785 8        54.750    20666087.284    84624163.413 9
        43.000
 18  2 20 10 42  0.0000000  0  7G05G07G13G15G20G28G30
  20577711.284   108136595.381 8        52.750    20577717.124    84262283.849 9
        42.250
  22160822.894   116455926.885 7        50.500    22160828.334    90744879.875 8
        35.000
  21443248.078   112685044.664 7        50.500    21443252.838    87806524.550 8
        37.000
  23908341.502   125639169.991 6        42.500    23908347.242    97900654.533 6
        25.500
  22742239.690   119511272.438 6        43.750    22742243.890    93125667.690 7
        28.250
  22232244.292   116831259.929 6        47.000    22232250.012    91037353.187 7
        30.500
  20673670.884   108640896.376 8        55.000    20673678.544    84655249.335 9
        43.250
 18  2 20 10 42 30.0000000  0  7G05G07G13G15G20G28G30
  20582139.724   108159866.394 7        52.000    20582145.424    84280417.100 9
        42.000
  22175085.434   116530877.663 7        50.000    22175090.874    90803283.065 8
        34.750
  21430636.278   112618771.819 7        50.250    21430641.398    87754883.369 8
        36.000
  23889684.142   125541131.122 6        42.750    23889691.182    97824260.585 6
        24.000
  22726311.610   119427573.507 6        44.000    22726317.050    93060447.748 7
        27.000
  22219586.152   116764739.787 6        47.000    22219591.712    90985519.311 7
        31.250
  20681344.944   108681225.197 8        54.000    20681352.664    84686674.384 9
        43.250
 18  2 20 10 43  0.0000000  0  7G05G07G13G15G20G28G30
  20586676.544   108183706.706 8        52.500    20586682.164    84298993.950 9
        42.000
  22189396.392   116606083.293 7        49.500    22189402.352    90861884.848 8
        35.000
  21418073.378   112552752.433 7        49.500    21418078.778    87703439.703 8
        36.000
  23871048.882   125443189.224 6        44.000    23871055.022    97747942.302 7
        28.750
  22710454.610   119344241.028 6        44.750    22710459.130    92995513.343 7
        28.500
  22207005.892   116698630.679 6        46.500    22207011.532    90934005.737 7
        31.000
  20689101.862   108721987.603 8        54.250    20689109.742    84718437.298 9
        43.750
 18  2 20 10 43 30.0000000  0  7G05G07G13G15G20G28G30
  20591321.044   108208115.534 7        51.750    20591326.884    84318013.799 9
        41.500
  22203755.472   116681541.296 7        50.000    22203761.492    90920683.274 8
        35.000
  21405558.498   112486987.196 7        50.250    21405564.138    87652194.062 8
        36.250
  23852427.042   125345345.737 5        40.250    23852434.142    97671700.616 6
        23.500
  22694667.010   119261277.431 6        44.500    22694671.670    92930866.403 7
        28.500
  22194504.512   116632934.443 6        45.500    22194510.112    90882813.865 7
        31.750
  20696940.822   108763181.585 8        54.250    20696948.682    84750536.494 9
        43.500
 18  2 20 10 44  0.0000000  0  7G05G07G13G15G20G28G30
  20596073.784   108233092.570 7        51.000    20596079.784    84337476.423 9
        42.000
  22218162.512   116757250.114 7        49.750    22218168.032    90979677.148 8
        35.000
  21393092.118   112421477.427 7        48.750    21393097.858    87601147.499 8
        35.750
  23833828.562   125247601.759 6        43.000    23833834.702    97595536.533 7
        26.750
  22678950.310   119178685.641 6        44.500    22678954.690    92866509.187 7
        28.750
  22182081.914   116567653.734 6        46.500    22182087.594    90831945.779 7
        32.250
  20704861.862   108804805.893 8        54.250    20704869.522    84782971.012 9
        42.750
 18  2 20 10 44 30.0000000  0  7G05G07G13G15G20G28G30
  20600935.164   108258637.962 7        50.750    20600941.284    84357381.905 9
        42.000
  22232617.512   116833208.359 7        50.250    22232622.832    91038865.372 8
        35.000
  21380675.098   112356224.188 7        48.000    21380680.578    87550300.836 8
        36.000
  23815247.102   125149958.534 6        42.500    23815254.162    97519450.905 6
        25.750
  22663304.650   119096468.066 6        45.250    22663309.370    92802443.547 7
        29.250
  22169738.654   116502790.608 6        46.000    22169744.194    90781403.071 7
        32.250
  20712864.202   108846859.038 8        53.750    20712871.702    84815739.694 9
        43.250
 18  2 20 10 45  0.0000000  0  7G05G07G13G15G20G28G30
  20605904.144   108284750.512 7        51.000    20605910.024    84377729.336 8
        41.000
  22247118.632   116909413.833 7        49.000    22247123.612    91098246.259 8
        35.000
  21368306.538   112291228.525 7        48.000    21368312.238    87499654.870 8
        36.500
  23796686.522   125052417.267 6        44.000    23796691.342    97443444.790 7
        27.250
  22647730.770   119014627.005 6        45.000    22647735.930    92738671.313 7
        28.250
  22157475.834   116438347.298 6        45.500    22157481.014    90731187.510 7
        32.000
  20720947.842   108889339.106 8        53.250    20720955.282    84848841.045 9
        43.250
 18  2 20 10 45 30.0000000  0  7G05G07G13G15G20G28G30
  20610981.284   108311430.099 7        50.000    20610987.104    84398518.606 9
        41.500
  22261667.732   116985864.806 7        50.500    22261672.332    91157818.430 8
        35.250
  21355987.898   112226491.383 7        47.250    21355993.278    87449210.350 8
        36.500
  23778142.742   124954979.093 6        42.500    23778150.202    97367518.916 6
        26.000
  22632229.250   118933164.959 6        44.500    22632233.370    92675194.416 7
        28.250
  22145292.534   116374326.068 6        46.000    22145298.774    90681300.843 7
        33.000
  20729112.482   108932244.597 8        53.250    20729120.562    84882273.891 9
        43.000
 18  2 20 10 46  0.0000000  0  7G05G07G13G15G20G28G30
  20616166.364   108338676.661 7        51.250    20616172.164    84419749.686 9
        41.750
  22276261.152   117062560.034 7        49.750    22276267.092    91217580.938 8
        35.250
  21343718.438   112162014.189 7        48.250    21343723.538    87398968.390 8
        36.000
  23759622.602   124857645.218 6        44.500    23759627.622    97291674.420 7
        26.250
  22616799.790   118852085.072 6        44.500    22616805.370    92612015.300 7
        28.750
  22133190.954   116310729.811 6        46.250    22133196.094    90631745.309 7
        31.500
  20737357.802   108975574.177 8        53.750    20737366.082    84916037.193 9
        43.250
 18  2 20 10 46 30.0000000  0  7G05G07G13G15G20G28G30
  20621458.904   108366488.774 7        51.000    20621464.264    84441421.451 9
        41.500
  22290902.632   117139496.846 7        50.250    22290907.692    91277531.693 8
        34.750
  21331498.218   112097797.330 7        48.500    21331503.318    87348929.285 8
        36.500
  23741119.542   124760416.670 6        44.250    23741126.902    97215911.903 7
        27.500
  22601443.810   118771389.338 6        45.250    22601449.450    92549135.513 7
        29.000
  22121170.014   116247560.075 6        46.000    22121176.014    90582522.130 7
        32.500
  20745683.322   109019325.571 8        53.000    20745691.062    84950129.190 9
        42.750
 18  2 20 10 47  0.0000000  0  7G05G07G13G15G20G28G30
  20626858.644   108394865.695 7        50.250    20626864.204    84463533.330 9
        42.000
  22305588.592   117216673.655 7        50.000    22305594.212    91337669.466 8
        35.000
  21319327.698   112033841.181 7        48.000    21319333.478    87299093.326 8
        37.000
  23722637.862   124663294.747 6        44.750    23722644.122    97140232.572 6
        26.000
  22586161.950   118691080.270 6        45.000    22586167.150    92486557.039 7
        28.500
  22109230.874   116184818.948 6        45.500    22109236.254    90533632.932 7
        32.500
  20754088.962   109063497.313 8        54.000    20754096.422    84984548.729 9
        43.250
 18  2 20 10 47 30.0000000  0  7G05G07G13G15G20G28G30
  20632366.044   108423807.190 7        50.500    20632371.744    84486085.134 9
        41.750
  22320320.092   117294089.111 7        48.750    22320325.332    91397993.172 8
        35.250
  21307207.238   111970148.201 7        47.500    21307212.938    87249462.446 8
        36.750
  23704176.562   124566280.738 6        45.000    23704182.942    97064637.239 7
        27.000
  22570953.550   118611160.159 6        45.000    22570957.990    92424281.649 7
        28.000
  22097373.514   116122508.928 6        45.500    22097379.094    90485079.676 7
        33.000
  20762574.262   109108087.911 8        53.000    20762582.042    85019294.641 9
        42.500
 18  2 20 10 48  0.0000000  0  7G05G07G13G15G20G28G30
  20637980.744   108453312.840 7        50.500    20637986.244    84509076.537 9
        41.750
  22335096.152   117371741.146 7        48.000    22335102.172    91458501.251 8
        34.750
  21295137.398   111906719.463 7        47.500    21295142.678    87200037.459 8
        36.250
  23685736.922   124469376.029 6        45.500    23685743.342    96989127.147 7
        28.500
  22555819.930   118531632.050 6        45.500    22555824.870    92362311.714 7
        27.750
  22085598.934   116060632.160 6        45.000    22085604.434    90436864.023 7
        32.500
  20771138.882   109153095.889 8        52.750    20771147.202    85054365.797 9
        42.500
 18  2 20 10 48 30.0000000  0  7G05G07G13G15G20G28G30
  20643703.064   108483382.542 7        51.000    20643708.504    84532507.462 9
        41.750
  22349918.352   117449627.864 7        49.750    22349922.832    91519192.169 8
        34.250
  21283117.600   111843554.985 7        48.500    21283122.560    87150818.398 8
        36.750
  23667317.044   124372581.723 6        45.500    23667323.724    96913703.037 7
        27.500
  22540760.830   118452498.215 6        45.750    22540766.050    92300648.994 7
        28.750
  22073907.134   115999190.897 6        45.500    22073912.434    90388987.719 7
        33.000
  20779782.722   109198519.275 8        53.750    20779790.362    85089760.650 9
        43.000
 18  2 20 10 49  0.0000000  0  7G05G07G13G15G20G28G30
  20649531.884   108514014.927 8        52.250    20649537.564    84556376.840 9
        41.750
  22364783.572   117527747.779 7        47.500    22364789.052    91580064.828 8
        34.500
  21271148.600   111780656.171 7        48.250    21271153.620    87101806.334 8
        37.250
  23648919.164   124275898.840 6        44.250    23648925.044    96838365.746 7
        26.500
  22525777.490   118373761.144 6        46.000    22525782.950    92239295.450 7
        28.500
  22062298.754   115938186.980 6        45.500    22062304.014    90341452.219 8
        33.500
  20788505.302   109244356.464 7        52.000    20788512.982    85125477.929 9
        43.250
 18  2 20 10 49 30.0000000  0  7G05G07G13G15G20G28G30
  20655467.904   108545209.708 7        51.000    20655473.584    84580684.452 9
        42.000
  22379693.392   117606099.246 7        48.250    22379698.772    91641117.901 8
        34.500
  21259229.840   111718024.393 7        49.500    21259234.920    87053002.360 8
        36.750
  23630543.124   124179328.795 7        47.250    23630549.084    96763116.414 7
        27.250
  22510870.230   118295423.484 6        45.250    22510876.250    92178253.128 7
        27.500
  22050773.334   115877622.888 6        45.750    22050779.034    90294259.451 8
        33.500
  20797306.282   109290606.036 8        53.000    20797314.302    85161516.563 9
        42.500
 18  2 20 10 50  0.0000000  0  7G05G07G13G15G20G28G30
  20661511.084   108576965.911 7        51.000    20661517.124    84605429.528 9
        41.750
  22394647.132   117684680.195 7        49.250    22394652.912    91702349.785 8
        34.500
  21247362.100   111655660.115 7        49.000    21247367.440    87004406.822 8
        36.750
  23612187.344   124082872.713 6        45.250    23612193.424    96687955.866 7
        27.250
  22496039.350   118217487.385 6        45.750    22496045.090    92117523.713 7
        28.750
  22039332.334   115817500.395 6        45.750    22039337.814    90247410.776 8
        34.000
  20806185.502   109337265.927 8        53.750    20806193.182    85197874.906 9
        43.000
 18  2 20 10 50 30.0000000  0  7G05G07G13G15G20G28G30
  20667660.904   108609283.060 7        51.500    20667666.784    84630611.704 9
        42.000
  22409643.872   117763488.743 7        48.750    22409649.572    91763759.039 8
        34.250
  21235545.800   111593564.829 7        47.750    21235551.400    86956020.888 8
        37.000
  23593854.524   123986532.109 6        46.000    23593859.704    96612885.256 7
        27.000
  22481286.112   118139955.438 6        45.250    22481290.832    92057109.229 7
        27.500
  22027975.854   115757821.656 6        46.000    22027981.414    90200907.901 8
        34.000
  20815141.942   109384334.599 8        53.000    20815150.222    85234551.789 9
        42.500
 18  2 20 10 51  0.0000000  0  7G05G07G13G15G20G28G30
  20673917.264   108642160.543 7        51.500    20673922.904    84656230.512 9
        41.250
  22424683.652   117842523.460 7        48.750    22424689.652    91825344.504 8
        34.000
  21223781.020   111531739.676 7        50.000    21223786.520    86907845.460 8
        37.750
  23575543.184   123890308.061 6        45.000    23575550.324    96537905.538 7
        27.250
  22466609.652   118062830.207 6        45.500    22466614.732    91997011.638 7
        28.000
  22016704.374   115698589.171 7        47.250    22016709.634    90154752.753 8
        33.500
  20824176.562   109431810.437 8        53.000    20824184.462    85271545.950 9
        42.750
 18  2 20 10 51 30.0000000  0  7G05G07G13G15G20G28G30
  20680280.124   108675597.443 7        51.500    20680285.844    84682285.227 9
        41.250
  22439766.232   117921782.608 7        48.750    22439771.672    91887104.867 8
        34.000
  21212067.240   111470185.467 7        49.000    21212072.800    86859881.147 8
        37.500
  23557255.424   123794201.718 6        45.500    23557260.584    96463017.483 7
        27.500
  22452010.932   117986114.101 6        45.250    22452015.832    91937232.856 7
        29.250
  22005517.914   115639804.600 6        45.500    22005523.634    90108946.636 8
        33.750
  20833288.122   109479691.832 8        52.250    20833296.142    85308856.124 9
        43.000
 18  2 20 10 52  0.0000000  0  7G05G07G13G15G20G28G30
  20686749.222   108709592.572 7        51.500    20686755.022    84708774.923 9
        41.500
  22454890.672   118001263.772 7        47.500    22454896.612    91949038.218 8
        33.750
  21200405.640   111408903.035 7        50.250    21200411.060    86812128.609 8
        37.000
  23538989.504   123698214.233 6        45.250    23538995.504    96388222.069 7
        27.000
  22437490.272   117909809.481 6        46.000    22437495.732    91877774.721 7
        28.750
  21994417.154   115581469.731 6        46.500    21994422.814    90063490.947 7
        33.000
  20842476.362   109527976.622 8        53.500    20842484.402    85346480.627 9
        42.250
 18  2 20 10 52 30.0000000  0  7G05G07G13G15G20G28G30
  20693324.762   108744145.713 8        52.500    20693330.102    84735699.438 9
        42.250
  22470057.972   118080965.823 7        50.250    22470063.212    92011143.690 8
        33.750
  21188796.060   111347893.637 7        50.250    21188801.760    86764588.826 8
        37.000
  23520746.284   123602347.207 6        46.750    23520752.604    96313520.504 7
        29.750
  22423049.052   117833918.870 6        44.750    22423054.572    91818639.188 7
        29.250
  21983402.494   115523587.105 6        45.750    21983407.994    90018387.637 8
        33.500
  20851741.262   109576663.440 8        53.000    20851749.202    85384418.398 9
        42.000
 18  2 20 10 53  0.0000000  0  7G05G07G13G15G20G28G30
  20700005.782   108779255.587 8        52.250    20700011.482    84763057.772 9
        42.000
  22485265.990   118160886.746 7        47.750    22485271.550    92073419.740 8
        33.500
  21177238.260   111287158.202 7        50.250    21177244.060    86717262.518 8
        37.250
  23502526.144   123506601.801 6        46.000    23502532.084    96238913.721 7
        27.250
  22408687.312   117758444.482 6        46.500    22408692.032    91759827.989 7
        29.250
  21972473.614   115466158.519 6        46.750    21972479.814    89973638.139 8
        33.500
  20861082.142   109625750.464 8        53.000    20861090.502    85422668.014 9
        42.000
 18  2 20 10 53 30.0000000  0  7G05G07G13G15G20G28G30
  20706792.782   108814921.471 7        52.000    20706798.522    84790849.351 9
        42.250
  22500516.250   118241025.109 7        48.500    22500521.210    92135865.173 8
        33.500
  21165733.240   111226697.889 7        50.000    21165738.160    86670150.592 8
        37.500
  23484330.544   123410979.081 6        45.500    23484335.984    96164402.537 7
        27.500
  22394404.332   117683389.251 6        45.250    22394409.552    91701343.402 7
        29.250
  21961632.374   115409185.950 6        46.250    21961638.174    89929243.976 8
        34.000
  20870498.762   109675236.040 8        53.000    20870506.862    85461228.181 9
        42.250
 18  2 20 10 54  0.0000000  0  7G05G07G13G15G20G28G30
  20713685.502   108851142.985 8        52.500    20713691.062    84819073.891 9
        41.750
  22515807.130   118321379.265 7        49.500    22515812.410    92198478.810 8
        33.250
  21154280.780   111166514.164 7        50.000    21154285.680    86623254.193 8
        36.500
  23466157.444   123315480.465 6        45.000    23466163.804    96089988.072 7
        28.000
  22380201.452   117608755.551 6        45.000    22380206.952    91643187.278 7
        29.250
  21950878.734   115352671.732 7        47.500    21950883.874    89885206.979 8
        34.000
  20879991.202   109725118.804 8        52.500    20879999.262    85500097.867 9
        42.500
 18  2 20 10 54 30.0000000  0  7G05G07G13G15G20G28G30
  20720683.862   108887918.872 8        52.750    20720689.562    84847730.410 9
        41.250
  22531138.470   118401946.621 7        49.000    22531143.870    92261258.528 7
        33.000
  21142881.380   111106607.343 7        50.500    21142885.880    86576573.545 8
        36.750
  23448008.664   123220107.178 6        45.750    23448014.324    96015671.246 7
        28.250
  22366080.192   117534545.364 6        45.250    22366085.072    91585361.168 7
        29.500
  21940211.654   115296617.228 6        47.000    21940216.734    89841528.175 8
        34.000
  20889558.762   109775396.172 8        53.250    20889567.302    85539275.017 9
        42.750
 18  2 20 10 55  0.0000000  0  7G05G07G13G15G20G28G30
  20727787.262   108925248.116 8        52.500    20727792.842    84876818.125 9
        41.250
  22546510.370   118482725.626 7        49.500    22546515.870    92324203.199 8
        33.500
  21131534.020   111046978.603 7        50.500    21131539.140    86530109.602 8
        37.500
  23429883.284   123124860.585 6        45.000    23429890.104    95941453.131 7
        28.500
  22352039.692   117460761.098 6        45.500    22352044.792    91527866.964 7
        29.000
  21929632.534   115241024.449 6        47.000    21929637.974    89798209.166 8
        34.500
  20899201.262   109826066.614 8        53.500    20899209.702    85578758.470 9
        42.250
 18  2 20 10 55 30.0000000  0  7G05G07G13G15G20G28G30
  20734995.842   108963130.056 8        52.750    20735001.622    84906336.499 9
        41.250
  22561921.710   118563715.365 7        48.000    22561927.590    92387312.069 8
        33.500
  21120240.240   110987629.541 7        50.250    21120245.100    86483863.588 8
        37.500
  23411783.804   123029742.281 6        45.250    23411788.804    95867335.001 7
        28.750
  22338080.372   117387405.779 6        45.500    22338085.332    91470706.973 7
        30.000
  21919141.774   115185895.882 6        47.000    21919147.294    89755251.873 8
        34.500
  20908917.802   109877129.019 8        52.250    20908926.102    85618547.342 9
        42.250
 18  2 20 10 56  0.0000000  0  7G05G07G13G15G20G28G30
  20742309.702   109001563.707 8        52.750    20742315.282    84936284.788 9
        41.500
  22577373.850   118644913.622 7        48.500    22577379.130    92450583.403 7
        32.500
  21108999.860   110928560.811 7        50.500    21109005.300    86437836.012 8
        37.750
  23393707.644   122934753.268 6        45.000    23393712.944    95793317.605 7
        29.000
  22324203.472   117314481.331 6        45.500    22324208.272    91413882.732 7
        28.750
  21908739.654   115131233.179 7        48.250    21908745.554    89712657.590 8
        34.500
  20918708.882   109928581.242 8        52.500    20918717.322    85658639.971 9
        42.500
 18  2 20 10 56 30.0000000  0  7G05G07G13G15G20G28G30
  20749727.962   109040547.819 7        52.000    20749733.602    84966661.998 9
        41.500
  22592864.530   118726318.649 7        48.750    22592870.010    92514015.885 7
        32.500
  21097813.100   110869773.071 7        50.500    21097818.180    86392027.388 8
        38.000
  23375656.886   122839894.192 6        45.000    23375662.526    95719401.475 7
        28.750
  22310408.712   117241989.949 6        44.750    22310413.452    91357395.961 7
        29.750
  21898426.374   115077037.770 6        46.500    21898431.874    89670427.426 8
        34.000
  20928573.442   109980421.129 8        52.250    20928581.682    85699034.676 9
        42.000
 18  2 20 10 57  0.0000000  0  8G05G07G13G15G20G21G28G30
  20757250.942   109080081.816 8        52.500    20757256.842    84997467.698 9
        41.500
  22608394.050   118807928.619 7        47.500    22608400.570    92577608.053 8
        33.250
  21086679.980   110811268.023 7        51.250    21086685.440    86346439.047 8
        38.250
  23357630.266   122745167.025 6        45.250    23357636.406    95645588.098 7
        29.000
  22296697.272   117169934.376 6        45.250    22296702.372    91301248.790 7
        30.000
  25478812.392   133892064.606 4        37.500    25478817.532   104331477.604 5
        16.750
  21888203.214   115023311.940 7        47.500    21888208.654    89628563.173 8
        34.000
  20938512.002   110032647.408 7        51.750    20938520.162    85739730.466 9
        42.000
 18  2 20 10 57 30.0000000  0  8G05G07G13G15G20G21G28G30
  20764878.822   109120165.238 8        52.750    20764884.542    85028701.514 9
        41.500
  22623962.790   118889742.212 7        47.250    22623968.390    92641358.870 7
        32.500
  21075600.340   110753046.636 7        50.250    21075605.600    86301071.732 8
        38.000
  23339629.226   122650573.184 6        43.500    23339635.266    95571878.652 7
        28.500
  22283068.672   117098317.066 6        44.250    22283073.912    91245443.082 7
        29.750
  25473475.492   133864016.687 4        39.000    25473480.392   104309622.052 5
        16.750
  21878069.236   114970058.081 7        48.000    21878074.776    89587066.680 8
        34.000
  20948523.462   110085258.548 7        51.750    20948531.662    85780726.147 9
        42.250
 18  2 20 10 58  0.0000000  0  8G05G07G13G15G20G21G28G30
  20772610.582   109160795.872 8        52.500    20772616.442    85060361.722 9
        41.500
  22639569.510   118971757.138 7        47.500    22639575.770    92705266.592 7
        32.250
  21064575.340   110695109.431 7        49.500    21064580.660    86255925.862 8
        37.750
  23321654.426   122556113.732 6        45.000    23321660.666    95498273.897 7
        29.000
  22269524.052   117027140.023 6        45.000    22269528.792    91189980.453 7
        29.750
  25468221.372   133836403.328 5        39.500    25468224.712   104288105.159 5
        16.250
  21868025.616   114917277.256 6        47.000    21868030.836    89545938.779 8
        34.000
  20958607.942   110138252.215 8        53.000    20958615.682    85822019.905 9
        42.250
 18  2 20 10 58 30.0000000  0  8G05G07G13G15G20G21G28G30
  20780446.242   109201973.260 7        52.000    20780452.122    85092447.990 8
        41.000
  22655214.710   119053972.204 6        46.500    22655220.590    92769330.231 7
        32.250
  21053605.020   110637458.232 7        49.250    21053609.940    86211002.866 8
        37.750
  23303704.806   122461790.189 6        43.500    23303711.386    95424775.048 7
        28.250
  22256064.032   116956405.808 6        45.000    22256069.092    91134862.903 7
        30.750
  25463048.672   133809225.588 4        37.500    25463053.452   104266927.707 5
        17.250
  21858071.856   114864971.660 6        47.000    21858077.396    89505181.198 8
        34.000
  20968764.802   110191627.076 7        51.750    20968772.522    85863610.696 9
        42.250
 18  2 20 10 59  0.0000000  0  8G05G07G13G15G20G21G28G30
  20788386.302   109243696.560 8        52.500    20788391.822    85124959.638 9
        41.250
  22670897.890   119136385.612 7        47.500    22670903.210    92833548.450 7
        32.500
  21042689.240   110580094.120 7        49.750    21042693.860    86166303.562 8
        37.500
  23285782.246   122367603.991 6        44.500    23285788.246    95351383.230 7
        28.500
  22242687.872   116886117.015 6        44.000    22242693.872    91080092.422 7
        30.500
  25457961.192   133782484.200 4        38.500    25457965.372   104246090.256 6
        18.500
  21848209.136   114813143.181 7        48.000    21848214.676    89464795.379 8
        34.000
  20978994.042   110245381.315 7        51.000    20979002.102    85905497.097 9
        42.000
 18  2 20 10 59 30.0000000  0  8G05G07G13G15G20G21G28G30
  20796429.322   109285964.589 7        52.000    20796435.322    85157895.744 8
        41.000
  22686618.130   119218995.458 7        48.750    22686624.250    92897919.738 8
        33.250
  21031827.400   110523017.527 7        50.500    21031832.660    86121828.299 8
        37.250
  23267885.566   122273556.077 6        44.500    23267891.806    95278099.172 7
        29.000
  22229398.212   116816275.726 6        44.500    22229403.092    91025670.644 7
        30.000
  25452954.132   133756179.860 3        37.000    25452959.892   104225593.357 6
        18.250
  21838437.316   114761793.368 7        48.500    21838443.036    89424782.556 8
        34.000
  20989294.960   110299513.047 8        53.000    20989303.160    85947677.657 9
        41.500
                            4  1
RINEX FILE SPLICE; other post-header comments skipped       COMMENT
 18  2 20 11  0  0.0000000  0  8G05G07G13G15G20G21G28G30
  20804575.902   109328776.107 8        52.500    20804582.042    85191255.344 8
        41.000
  22702375.650   119301800.192 7        47.500    22702381.130    92962442.879 8
        33.500
  21021020.940   110466230.135 7        50.000    21021026.180    86077578.395 8
        38.000
  23250015.606   122179648.162 6        44.500    23250021.466    95204924.184 7
        29.250
  22216192.832   116746884.026 6        43.750    22216198.252    90971599.187 7
        29.750
  25448031.372   133730313.067 3        35.500    25448037.692   104205437.417 5
        16.750
  21828757.436   114710924.131 7        47.750    21828762.956    89385144.202 8
        33.750
  20999667.300   110354020.597 7        51.250    20999675.540    85990151.063 9
        42.000
 18  2 20 11  0 30.0000000  0  8G05G07G13G15G20G21G28G30
  20812826.202   109372129.969 8        53.000    20812831.982    85225037.557 8
        41.000
  22718169.450   119384798.438 6        46.500    22718175.010    93027116.810 7
        31.500
  21010270.000   110409732.778 7        50.500    21010274.980    86033554.479 8
        37.750
  23232172.266   122085881.511 6        44.250    23232178.586    95131859.302 7
        29.250
  22203074.152   116677944.957 6        44.250    22203079.892    90917880.443 7
        30.250
  25443193.752   133704883.979 3        35.750    25443199.452   104185622.621 6
        18.250
  21819168.816   114660537.225 7        48.000    21819174.776    89345881.687 8
        34.750
  21010111.080   110408902.164 7        51.000    21010119.280    86032915.908 9
        41.500
 18  2 20 11  1  0.0000000  0  8G05G07G13G15G20G21G28G30
  20821179.062   109416025.017 8        53.250    20821184.942    85259241.471 9
        41.500
  22733999.630   119467988.090 7        47.250    22734005.510    93091939.887 7
        32.750
  20999574.380   110353526.253 7        50.750    20999579.080    85989757.197 8
        37.500
  23214355.706   121992257.221 6        45.000    23214362.586    95058905.352 7
        28.500
  22190041.692   116609460.684 6        44.500    22190047.512    90864516.080 7
        31.000
  25438437.532   133679893.677 4        37.500    25438443.952   104166149.668 6
        18.250
  21809673.056   114610634.669 7        48.500    21809678.716    89306996.573 8
        34.750
  21020625.600   110464155.951 8        52.500    21020633.080    86075970.784 9
        42.000
 18  2 20 11  1 30.0000000  0  8G05G07G13G15G20G21G28G30
  20829634.902   109460460.465 8        52.750    20829640.742    85293866.483 9
        41.250
  22749866.370   119551367.604 7        48.250    22749872.130    93156910.901 7
        31.750
  20988934.320   110297611.651 7        50.750    20988939.140    85946187.382 8
        38.000
  23196567.286   121898776.745 6        45.500    23196573.586    94986063.438 7
        29.500
  22177096.934   116541432.936 6        44.750    22177102.134    90811507.461 7
        30.750
  25433767.112   133655342.826 5        39.500    25433772.492   104147019.139 6
        18.500
  21800269.096   114561217.564 7        48.000    21800274.576    89268489.746 8
        34.500
  21031210.580   110519780.086 8        52.750    21031218.800    86119314.260 9
        41.250
 18  2 20 11  2  0.0000000  0  8G05G07G13G15G20G21G28G30
  20838193.202   109505434.713 8        53.250    20838199.082    85328911.331 8
        40.750
  22765768.550   119634935.220 6        46.500    22765774.330    93222028.505 7
        32.000
  20978349.542   110241990.601 7        50.500    20978354.842    85902846.307 8
        37.750
  23178807.126   121805441.693 6        45.500    23178812.406    94913334.864 7
        29.750
  22164239.394   116473864.546 6        44.500    22164244.874    90758856.772 7
        31.000
  25429178.232   133631232.122 5        40.000    25429183.172   104128231.497 6
        18.250
  21790958.296   114512288.357 7        48.000    21790963.776    89230363.098 8
        34.250
  21041865.320   110575773.046 7        51.250    21041873.240    86162945.126 9
        41.750
 18  2 20 11  2 30.0000000  0  8G05G07G13G15G20G21G28G30
  20846853.762   109550947.293 8        53.000    20846859.822    85364375.659 8
        41.000
  22781706.610   119718689.589 6        46.500    22781712.690    93287291.596 7
        31.250
  20967821.402   110186664.237 7        50.750    20967826.522    85859734.855 8
        38.500
  23161073.386   121712253.510 6        45.750    23161079.086    94840720.712 7
        30.000
  22151469.314   116406757.819 6        45.000    22151475.194    90706565.818 7
        31.500
  25424674.132   133607561.453 5        40.000    25424678.332   104109786.841 6
        19.000
  21781740.456   114463848.417 7        48.250    21781745.696    89192617.692 8
        35.250
  21052590.480   110632133.076 7        51.500    21052598.560    86206862.020 9
        41.250
 18  2 20 11  3  0.0000000  0  8G05G07G13G15G20G21G28G30
  20855616.722   109596995.966 8        53.750    20855622.482    85400257.719 9
        41.250
  22797680.008   119802628.365 7        47.250    22797685.748    93352698.402 7
        31.750
  20957349.422   110131632.654 7        51.000    20957354.842    85816853.119 8
        38.500
  23143368.046   121619212.813 6        45.500    23143374.606    94768221.496 7
        30.250
  22138787.414   116340114.566 6        45.000    22138793.114    90654636.018 7
        31.750
  25420253.892   133584332.010 4        38.250    25420257.272   104091685.960 6
        18.500
  21772616.016   114415899.380 7        48.750    21772621.496    89155254.806 8
        33.750
  21063385.180   110688857.912 7        50.750    21063392.940    86251063.171 8
        41.000
 18  2 20 11  3 30.0000000  0  8G05G07G13G15G20G21G28G30
  20864481.542   109643579.995 8        53.500    20864487.162    85436556.940 9
        41.500
  22813687.428   119886750.642 7        48.000    22813693.388    93418248.220 7
        31.500
  20946933.662   110076897.476 7        50.750    20946939.542    85774202.325 8
        38.500
  23125690.886   121526321.372 6        45.000    23125696.846    94695838.566 7
        30.000
  22126194.114   116273937.295 6        45.000    22126199.034    90603069.316 7
        31.500
  25415916.932   133561544.058 4        39.000    25415920.812   104073929.098 5
        16.750
  21763585.596   114368442.931 7        49.000    21763591.276    89118275.767 8
        34.750
  21074248.640   110745945.964 7        51.750    21074257.040    86295547.348 9
        41.500
 18  2 20 11  4  0.0000000  0  8G05G07G13G15G20G21G28G30
  20873447.842   109690698.419 8        53.000    20873453.182    85473272.576 8
        40.750
  22829729.688   119971054.196 6        46.500    22829735.988    93483939.268 7
        32.000
  20936574.522   110022459.917 7        51.500    20936579.502    85731783.456 8
        38.500
  23108043.506   121433580.753 6        45.250    23108049.666    94623573.175 7
        30.250
  22113690.254   116208228.102 6        45.500    22113695.374    90551867.370 7
        31.750
  25411664.412   133539198.005 4        38.250    25411669.192   104056516.583 5
        17.250
  21754648.656   114321480.802 7        49.000    21754654.436    89081681.910 8
        34.500
  21085180.760   110803395.628 7        51.000    21085188.960    86340313.312 8
        41.000
 18  2 20 11  4 30.0000000  0  8G05G07G13G15G20G21G28G30
  20882515.542   109738350.237 8        53.250    20882521.242    85510403.841 8
        40.750
  22845806.508   120055537.880 7        47.500    22845812.248    93549770.674 7
        31.500
  20926272.162   109968321.202 7        51.250    20926277.102    85689597.438 8
        38.250
  23090424.706   121340992.301 6        46.250    23090430.626    94551426.370 7
        29.250
  22101276.194   116142989.625 6        44.000    22101281.654    90501032.201 7
        31.500
  25407495.812   133517294.400 4        37.500    25407501.732   104039448.827 6
        18.500
  21745806.456   114275014.504 7        48.750    21745812.216    89045474.415 8
        34.500
  21096181.680   110861205.214 7        50.500    21096189.640    86385359.734 9
        41.250
 18  2 20 11  5  0.0000000  0  8G05G07G13G15G20G21G28G30
  20891684.602   109786533.458 7        52.000    20891690.902    85547949.193 8
        40.750
  22861917.908   120140199.831 7        48.250    22861923.548    93615740.992 7
        32.250
  20916026.822   109914481.876 7        50.750    20916032.162    85647644.727 8
        38.500
  23072834.128   121248557.302 6        44.750    23072841.048    94479399.108 7
        29.750
  22088951.514   116078223.817 6        45.500    22088956.194    90450565.350 7
        32.250
  25403411.892   133495833.849 3        36.000    25403418.832   104022726.379 6
        18.500
  21737058.796   114229045.666 7        47.750    21737064.516    89009654.542 8
        34.250
  21107250.560   110919372.518 7        52.000    21107258.140    86430684.896 8
        40.750
 18  2 20 11  5 30.0000000  0  8G05G07G13G15G20G21G28G30
  20900954.382   109835246.704 8        52.500    20900960.722    85585907.544 9
        41.250
  22878061.828   120225038.172 6        47.000    22878067.488    93681848.765 7
        31.000
  20905838.562   109860943.386 7        51.250    20905843.862    85605926.426 8
        38.250
  23055274.368   121156277.043 6        45.500    23055280.068    94407492.441 7
        30.000
  22076717.134   116013933.169 6        45.250    22076721.974    90400468.739 7
        31.750
  25399412.292   133474816.832 3        37.000    25399418.612   104006349.478 6
        18.250
  21728406.316   114183575.633 7        48.500    21728411.636    88974223.360 8
        34.500
  21118387.380   110977895.938 7        51.500    21118394.820    86476287.555 8
        41.000
 18  2 20 11  6  0.0000000  0  8G05G07G13G15G20G21G28G30
  20910324.962   109884488.835 8        52.750    20910330.902    85624278.009 8
        40.250
  22894239.128   120310051.553 6        46.500    22894244.868    93748092.934 7
        31.750
  20895707.982   109807706.863 7        51.000    20895713.462    85564443.423 8
        38.500
  23037743.668   121064153.449 6        45.250    23037749.668    94335707.850 7
        30.500
  22064574.334   115950119.999 6        45.000    22064579.454    90350744.201 7
        32.250
  25395497.692   133454243.589 4        37.250    25395504.332   103990318.392 5
        16.750
  21719848.976   114138606.411 7        49.750    21719854.636    88939182.424 8
        35.250
  21129591.120   111036773.910 7        51.500    21129598.680    86522166.488 9
        41.250
 18  2 20 11  6 30.0000000  0  8G05G07G13G15G20G21G28G30
  20919795.662   109934258.779 8        52.250    20919801.662    85663059.766 8
        40.750
  22910449.668   120395238.344 7        47.250    22910455.568    93814472.228 7
        31.000
  20885635.282   109754773.148 7        50.500    20885640.782    85523196.385 8
        37.750
  23020243.168   120972187.272 6        45.000    23020249.728    94264045.914 7
        30.750
  22052521.954   115886786.125 6        45.000    22052527.234    90301393.137 7
        32.750
  25391666.972   133434114.966 4        38.000    25391673.772   103974633.755 6
        19.000
  21711387.056   114094139.165 7        48.500    21711392.456    88904532.620 8
        34.500
  21140862.260   111096004.269 7        51.000    21140870.060    86568320.002 8
        40.500
 18  2 20 11  7  0.0000000  0  8G05G07G13G15G20G21G28G30
  20929366.502   109984554.600 8        53.000    20929372.562    85702251.298 8
        40.750
  22926692.908   120480596.056 6        46.500    22926698.508    93880984.698 7
        30.500
  20875619.922   109702142.977 7        51.500    20875625.402    85482185.867 8
        38.750
  23002773.068   120880379.554 6        45.250    23002778.828    94192507.446 7
        31.500
  22040561.654   115823933.081 6        45.500    22040566.474    90252416.750 7
        32.500
  25387921.912   133414430.730 4        38.750    25387927.592   103959295.373 6
        19.000
  21703021.076   114050175.333 7        49.500    21703026.376    88870275.103 8
        34.750
  21152200.300   111155584.776 7        51.000    21152208.120    86614746.365 9
        41.250
 18  2 20 11  7 30.0000000  0  8G05G07G13G15G20G21G28G30
  20939038.162   110035375.891 8        52.500    20939043.642    85741852.285 8
        40.750
  22942968.208   120566124.483 6        46.250    22942974.608    93947630.205 7
        31.250
  20865662.682   109649818.502 7        50.250    20865668.202    85441413.553 8
        38.750
  22985333.068   120788733.177 6        45.500    22985338.768    94121094.725 7
        32.000
  22028693.034   115761564.515 6        44.750    22028698.454    90203817.863 7
        32.250
  25384260.672   133395191.801 4        38.500    25384265.132   103944303.998 5
        17.250
  21694751.356   114006717.152 7        49.000    21694756.496    88836411.591 8
        34.750
  21163604.180   111215514.861 7        51.000    21163612.140    86661445.124 9
        41.250
 18  2 20 11  8  0.0000000  0  8G05G07G13G15G20G21G28G30
  20948808.482   110086720.866 8        52.500    20948814.022    85781861.345 8
        40.750
  22959275.708   120651821.347 6        46.000    22959281.608    94014406.929 7
        31.250
  20855764.442   109597800.057 7        51.000    20855769.362    85400879.699 8
        38.000
  22967924.188   120697248.515 6        45.750    22967930.288    94049807.979 7
        31.000
  22016917.294   115699682.001 6        45.500    22016922.774    90155597.730 7
        32.500
  25380683.692   133376397.921 4        37.750    25380689.472   103929659.469 5
        17.250
  21686577.716   113963765.521 7        48.750    21686583.216    88802942.800 8
        34.750
  21175075.020   111275791.959 7        51.500    21175082.960    86708414.282 8
        40.750
 18  2 20 11  8 30.0000000  0  8G05G07G13G15G20G21G28G30
  20958678.102   110138587.859 8        52.500    20958684.182    85822277.159 8
        40.500
  22975615.408   120737685.356 6        46.250    22975621.448    94081313.930 7
        31.000
  20845923.622   109546089.074 7        50.750    20845929.122    85360585.422 8
        39.000
  22950545.848   120605927.063 6        46.500    22950552.368    93978648.428 7
        31.250
  22005234.714   115638287.629 6        45.000    22005239.274    90107757.964 7
        31.750
  25377192.752   133358050.551 4        38.000    25377197.332   103915362.819 5
        17.750
  21678501.176   113921322.124 7        49.000    21678506.396    88769870.050 8
        35.750
  21186610.960   111336414.409 7        52.000    21186618.960    86755652.550 9
        41.250
 18  2 20 11  9  0.0000000  0  8G05G07G13G15G20G21G28G30
  20968647.402   110190975.268 7        52.000    20968653.782    85863098.498 8
        40.500
  22991985.968   120823713.941 6        45.500    22991991.188    94148349.166 7
        30.250
  20836142.322   109494686.064 7        50.750    20836147.262    85320531.131 8
        38.750
  22933199.288   120514769.901 6        45.000    22933205.588    93907616.878 7
        31.250
  21993644.454   115577383.118 6        45.000    21993649.534    90060299.918 7
        32.750
  25373786.132   133340148.915 4        38.750    25373789.972   103901413.445 5
        16.750
  21670521.496   113879387.895 7        49.250    21670526.116    88737194.051 8
        35.000
  21198212.120   111397379.951 7        50.750    21198220.320    86803158.161 8
        40.750
 18  2 20 11  9 30.0000000  0  8G05G07G13G15G20G21G28G30
  20978715.382   110243881.888 8        53.000    20978721.262    85904324.417 8
        41.000
  23008387.248   120909905.950 6        45.000    23008394.148    94215511.751 7
        30.250
  20826419.682   109443592.607 7        51.500    20826425.502    85280718.062 8
        38.750
  22915884.068   120423779.046 6        44.750    22915890.548    93836714.942 7
        30.500
  21982148.354   115516971.175 6        46.000    21982154.174    90013225.679 7
        32.750
  25370464.712   133322693.542 4        37.250    25370468.872   103887811.815 5
        15.500
  21662638.816   113837964.720 7        49.750    21662643.756    88704916.261 8
        35.500
  21209878.880   111458687.231 7        51.500    21209886.600    86850930.060 9
        42.000
