     2.11           OBSERVATION DATA    G (GPS)             RINEX VERSION / TYPE
teqc  2016Nov7                          20180403 09:55:33UTCPGM / RUN BY / DATE
ISLA                                                        MARKER NAME
19802M001                                                   MARKER NUMBER
Automatic           EXAGONE                                 OBSERVER / AGENCY
495336              LEICA GRX1200GGPRO  7.5                 REC # / TYPE / VERS
09070003            LEIAR25         LEIT                    ANT # / TYPE
  4180664.1620   161075.8920  4798188.8220                  APPROX POSITION XYZ
        0.0000        0.0000        0.0000                  ANTENNA: DELTA H/E/N
     1     1                                                WAVELENGTH FACT L1/2
     9    C1    L1    D1    P2    L2    D2    P1    S1    S2# / TYPES OF OBSERV
    30.0000                                                 INTERVAL
    18                                                      LEAP SECONDS
Linux 2.4.21-27.ELsmp|Opteron|gcc|Linux x86_64|=+           COMMENT
teqc  2016Nov7                          20180403 09:55:32UTCCOMMENT
     2.11           OBSERVATION DATA    M (MIXED)           COMMENT
teqc  2016Nov7                          20180403 09:55:30UTCCOMMENT
teqc  2016Nov7      IGN-RGP             20180220 09:08:37UTCCOMMENT
teqc_2016 edited: GLONASS # 25 - 30 excluded                COMMENT
GN-RINEX 1.3        Geo++ Teria         20-FEB-18 08:00     COMMENT
Forced Modulo Decimation to 30 seconds                      COMMENT
teqc_2016 edited: all GLONASS satellites excluded           COMMENT
teqc_2016 edited: all SBAS satellites excluded              COMMENT
teqc_2016 edited: all Galileo satellites excluded           COMMENT
  2018     2    20     8     0    0.0000000     GPS         TIME OF FIRST OBS
                                                            END OF HEADER
 18  2 20  8  0  0.0000000  0 11G09G06G07G02G23G30G05G16G29G26G03
  20216813.220   106240084.682 9      -980.251    20216811.060    82784478.730 9
      -763.832                          51.150          50.900
  21115052.400   110960336.568 8     -1796.911    21115050.860    86462605.490 8
     -1400.190                          50.350          49.700
  21733602.020   114210849.375 9      2354.271    21733597.700    88995465.174 8
      1834.497                          50.850          47.350
  21917622.180   115177863.335 8       970.025    21917614.900    89748929.288 8
       755.863                          48.300          46.900
  22494527.420   118209547.053 8     -2511.594    22494520.260    92111318.626 8
     -1957.087                          49.300          44.700
  23125322.660   121524394.497 8      3502.401    23125321.000    94694337.908 8
      2729.146                          48.300          45.250
  23764767.580   124884689.065 8      3293.762    23764762.220    97312723.038 7
      2566.569                          47.650          39.250
  24280154.120   127593080.920 7      1011.220    24280148.720    99423143.334 7
       787.966                          43.850          38.650
  24950030.400   131113294.323 7      1044.826    24950025.540   102166189.485 5
       814.149                          40.200          31.650
  25085528.680   131825347.799 7      -839.449    25085528.000   102721048.859 6
      -654.118                          43.550          36.050
  25272448.360   132807589.674 7     -3413.393    25272449.180   103486409.703 6
     -2659.782                          41.600          35.150
 18  2 20  8  0 30.0000000  0 11G09G06G07G02G23G30G05G16G29G26G03
  20222442.080   106269664.937 9      -992.196    20222439.900    82807528.270 9
      -773.141                          51.750          51.300
  21125357.640   111014490.636 9     -1813.575    21125356.140    86504803.457 8
     -1413.176                          50.900          49.550
  21720196.260   114140401.754 9      2341.876    21720191.980    88940570.936 8
      1824.839                          51.250          46.750
  21912130.560   115149004.448 8       953.627    21912123.220    89726441.836 8
       743.085                          48.800          46.350
  22508879.120   118284965.175 8     -2516.772    22508872.020    92170085.986 7
     -1961.121                          49.650          44.050
  23105343.060   121419401.582 8      3496.779    23105341.680    94612525.279 7
      2724.764                          48.800          43.650
  23745969.040   124785901.784 8      3291.500    23745963.720    97235745.928 7
      2564.803                          48.800          38.850
  24274430.860   127563003.234 7       993.510    24274425.080    99399706.188 6
       774.165                          43.850          37.900
  24944113.200   131082200.447 7      1027.642    24944110.260   102141960.325 5
       800.759                          41.950          27.300
  25090368.240   131850779.690 8      -856.500    25090367.020   102740865.966 6
      -667.398                          44.600          35.250
  25291935.820   132909995.052 7     -3414.234    25291936.260   103566206.081 6
     -2660.442                          42.150          34.400
 18  2 20  8  1  0.0000000  0 11G09G06G07G02G23G30G05G16G29G26G03
  20228145.060   106299634.000 9     -1004.956    20228142.780    82830880.786 9
      -783.082                          51.950          51.300
  21135764.360   111069178.314 9     -1831.358    21135762.920    86547417.217 8
     -1427.032                          51.100          49.350
  21706868.480   114070363.346 9      2328.178    21706864.100    88885995.557 8
      1814.164                          51.750          46.550
  21906738.800   115120671.578 8       936.094    21906731.700    89704364.268 8
       729.424                          49.200          46.300
  22523266.360   118360570.595 8     -2522.917    22523259.400    92228999.259 7
     -1965.911                          49.850          43.700
  23085402.020   121314610.975 8      3490.132    23085400.600    94530870.273 7
      2719.584                          49.250          43.550
  23727189.500   124687212.878 8      3288.391    23727183.660    97158845.467 7
      2562.382                          49.800          39.100
  24268813.900   127533487.991 7       975.150    24268808.420    99376707.275 6
       759.854                          43.650          37.550
  24938300.300   131051653.919 7      1009.452    24938295.120   102118157.717 5
       786.596                          41.950          28.550
  25095310.560   131876752.146 8      -874.520    25095310.460   102761104.178 6
      -681.446                          44.700          35.000
  25311435.460   133012466.614 7     -3416.444    25311436.500   103646054.002 5
     -2662.165                          39.950          32.400
 18  2 20  8  1 30.0000000  0 11G09G06G07G02G23G30G05G16G29G26G03
  20233921.520   106329988.864 9     -1017.635    20233919.060    82854533.919 9
      -792.962                          51.800          51.550
  21146271.900   111124395.880 9     -1848.652    21146270.520    86590443.874 8
     -1440.509                          50.650          49.750
  21693618.600   114000734.354 9      2314.819    21693614.100    88831739.213 8
      1803.756                          51.050          46.750
  21901447.140   115092863.985 8       918.907    21901440.140    89682696.003 8
       716.032                          48.600          46.650
  22537688.700   118436360.033 8     -2528.587    22537681.840    92288055.937 7
     -1970.329                          49.400          43.950
  23065499.600   121210023.283 8      3483.540    23065498.160    94449373.393 7
      2714.448                          48.650          44.350
  23708428.380   124588621.660 8      3285.448    23708422.580    97082021.131 7
      2560.090                          49.150          39.250
  24263303.320   127504535.120 7       956.268    24263299.020    99354146.619 7
       745.143                          42.250          39.200
  24932591.340   131021653.515 7       992.058    24932586.560   102094780.807 5
       773.032                          41.800          29.150
  25100355.500   131903262.412 7      -892.167    25100353.860   102781761.553 6
      -695.198                          44.050          34.000
  25330947.500   133115001.645 7     -3418.212    25330947.820   103725951.347 6
     -2663.546                          39.800          34.700
 18  2 20  8  2  0.0000000  0 11G09G06G07G02G23G30G05G16G29G26G03
  20239771.580   106360730.451 9     -1031.453    20239769.060    82878488.398 9
      -803.729                          51.850          51.600
  21156880.380   111180143.698 9     -1867.544    21156878.920    86633883.718 8
     -1455.229                          50.800          49.950
  21680447.280   113931518.569 9      2299.913    21680442.660    88777804.855 8
      1792.142                          51.100          47.000
  21896256.200   115065584.439 8       900.210    21896248.940    89661439.216 8
       701.462                          49.100          46.750
  22552146.240   118512334.519 8     -2536.011    22552139.300    92347256.817 7
     -1976.111                          49.400          44.000
  23045636.740   121105643.152 8      3475.582    23045635.260    94368038.244 7
      2708.246                          48.800          44.300
  23689686.500   124490131.914 8      3280.896    23689680.400    97005275.874 7
      2556.543                          48.800          39.100
  24257901.320   127476148.577 7       936.343    24257897.520    99332027.250 6
       729.615                          44.000          36.750
  24926986.760   130992202.376 7       972.066    24926982.180   102071831.818 5
       757.450                          41.000          30.500
  25105502.860   131930311.822 7      -910.895    25105501.800   102802838.995 6
      -709.792                          43.650          35.200
  25350471.500   133217601.046 7     -3421.432    25350471.720   103805898.867 6
     -2666.054                          39.100          35.900
 18  2 20  8  2 30.0000000  0 11G09G06G07G02G23G30G05G16G29G26G03
  20245695.160   106391858.669 9     -1043.566    20245692.680    82902744.142 9
      -813.169                          52.250          51.350
  21167589.720   111236420.997 9     -1884.333    21167588.060    86677736.140 8
     -1468.313                          51.300          49.450
  21667355.080   113862719.022 9      2286.774    21667350.420    88724194.833 8
      1781.902                          51.600          46.550
  21891166.160   115038835.554 8       883.180    21891158.740    89640595.917 8
       688.191                          49.650          46.050
  22566638.840   118588493.756 8     -2541.231    22566631.900    92406601.647 7
     -1980.183                          49.750          43.350
  23025813.960   121001474.171 8      3469.208    23025812.480    94286867.632 7
      2703.279                          49.800          43.200
  23670964.520   124391747.061 8      3278.057    23670958.560    96928612.338 6
      2554.329                          49.200          38.400
  24252607.900   127448330.921 8       918.073    24252604.740    99310351.186 6
       715.383                          44.900          36.750
  24921487.420   130963302.802 7       954.363    24921482.500   102049312.746 6
       743.657                          43.350          34.200
  25110752.800   131957900.713 8      -928.279    25110751.900   102824336.836 6
      -723.332                          45.000          33.950
  25370008.060   133320264.988 7     -3422.792    25370008.160   103885896.698 6
     -2667.108                          41.200          35.700
 18  2 20  8  3  0.0000000  0 11G09G06G07G02G23G30G05G16G29G26G03
  20251691.260   106423368.206 9     -1056.252    20251688.840    82927297.026 9
      -823.054                          52.350          51.300
  21178398.720   111293221.861 9     -1901.811    21178396.880    86721996.546 8
     -1481.931                          51.750          49.150
  21654341.640   113794333.580 9      2272.856    21654337.000    88670907.491 8
      1771.058                          51.650          46.450
  21886176.420   115012614.375 8       865.490    21886169.020    89620163.822 8
       674.409                          49.650          45.900
  22581165.460   118664832.498 8     -2547.296    22581159.020    92466086.350 7
     -1984.905                          50.300          43.100
  23006031.120   120897514.753 8      3462.071    23006029.720    94205860.322 7
      2697.720                          49.600          43.900
  23652261.880   124293464.029 8      3274.685    23652256.440    96852028.180 7
      2551.701                          48.950          39.050
  24247422.900   127421079.637 8       899.117    24247418.720    99289116.417 6
       700.611                          46.900          35.500
  24916092.360   130934951.323 7       936.333    24916088.060   102027220.631 5
       729.604                          42.800          31.650
  25116104.440   131986023.984 8      -945.736    25116103.600   102846251.096 6
      -736.938                          45.500          34.150
  25389556.180   133422988.466 7     -3424.938    25389555.940   103965940.859 5
     -2668.789                          41.500          31.900
 18  2 20  8  3 30.0000000  0 11G09G06G07G02G23G30G05G16G29G26G03
  20257760.780   106455263.788 9     -1070.055    20257758.360    82952150.723 9
      -833.810                          51.850          51.650
  21189307.980   111350550.302 9     -1919.945    21189306.140    86766668.049 8
     -1496.062                          50.650          50.000
  21641408.500   113726369.783 9      2258.081    21641403.800    88617948.713 8
      1759.544                          50.850          47.200
  21881288.340   114986927.299 8       847.071    21881281.100    89600147.920 8
       660.056                          48.800          47.250
  22595727.280   118741355.328 8     -2554.006    22595720.860    92525714.505 7
     -1990.136                          49.400          43.850
  22986289.760   120793773.211 8      3453.898    22986288.340    94125022.787 7
      2691.351                          48.850          44.050
  23633579.780   124195290.161 8      3270.229    23633574.380    96775529.072 7
      2548.232                          48.250          39.350
  24242346.740   127394401.795 8       879.426    24242341.700    99268328.478 6
       685.267                          45.600          36.300
  24910802.840   130907154.776 7       916.994    24910799.220   102005560.962 5
       714.541                          41.400          30.400
  25121558.600   132014686.758 7      -964.836    25121558.560   102868585.669 6
      -751.825                          44.000          35.350
  25409115.800   133525776.209 7     -3427.660    25409115.500   104046035.189 5
     -2670.898                          39.050          32.000
 18  2 20  8  4  0.0000000  0 11G09G06G07G02G23G30G05G16G29G26G03
  20263902.700   106487539.980 9     -1082.183    20263900.200    82977301.000 9
      -843.259                          51.700          51.100
  21200316.340   111408400.215 9     -1937.046    21200314.600    86811745.906 8
     -1509.386                          50.700          49.750
  21628555.140   113658825.264 9      2244.496    21628550.500    88565316.637 8
      1748.960                          51.050          47.250
  21876501.380   114961771.307 8       829.646    21876493.920    89580545.845 8
       646.478                          48.800          47.300
  22610323.040   118818056.673 8     -2559.635    22610316.500    92585481.766 8
     -1994.521                          49.300          44.650
  22966589.460   120690247.854 8      3447.119    22966588.160    94044353.708 8
      2686.068                          49.050          45.300
  23614917.920   124097222.139 8      3267.038    23614912.560    96699112.432 6
      2545.741                          48.500          37.700
  24237378.900   127368294.745 8       860.814    24237373.340    99247985.326 6
       670.764                          44.950          36.100
  24905618.020   130879909.654 7       899.132    24905613.400   101984331.014 5
       700.622                          41.050          32.150
  25127114.840   132043883.788 7      -981.942    25127113.800   102891336.626 6
      -765.145                          42.700          34.250
  25428686.300   133628622.983 7     -3429.054    25428687.140   104126175.459 6
     -2671.988                          39.700          33.000
 18  2 20  8  4 30.0000000  0 11G09G06G07G02G23G30G05G16G29G26G03
  20270117.740   106520200.404 9     -1095.154    20270115.220    83002750.680 9
      -853.366                          52.150          51.000
  21211424.500   111466774.500 9     -1954.589    21211422.960    86857232.347 8
     -1523.057                          51.350          49.300
  21615782.880   113591706.693 9      2230.057    21615778.280    88513016.460 8
      1737.707                          51.400          46.800
  21871816.580   114937152.184 8       811.644    21871809.020    89561362.102 8
       632.450                          49.750          46.000
  22624953.460   118894940.206 8     -2565.953    22624947.040    92645390.990 7
     -1999.445                          50.200          43.050
  22946931.800   120586946.003 8      3439.630    22946930.520    93963858.793 7
      2680.233                          49.900          44.150
  23596277.420   123999266.484 8      3263.158    23596271.500    96622783.354 6
      2542.722                          49.000          38.400
  24232520.400   127342765.070 7       841.485    24232514.040    99228092.049 6
       655.702                          44.200          34.150
  24900539.420   130853221.793 7       880.050    24900534.620   101963535.304 5
       685.758                          40.750          26.900
  25132772.880   132073619.072 7     -1000.206    25132773.300   102914506.992 6
      -779.381                          43.600          33.650
  25448269.600   133731532.643 7     -3431.399    25448270.500   104206364.792 5
     -2673.811                          40.200          32.000
 18  2 20  8  5  0.0000000  0 11G09G06G07G02G23G30G05G16G29G26G03
  20276404.240   106553236.265 9     -1107.153    20276401.720    83028492.898 9
      -862.718                          52.700          50.600
  21222630.800   111525663.657 9     -1971.257    21222629.360    86903119.992 8
     -1536.046                          52.000          48.850
  21603090.580   113525008.232 9      2216.569    21603086.160    88461043.638 8
      1727.197                          52.200          46.300
  21867232.900   114913063.443 9       794.382    21867225.080    89542591.638 8
       618.999                          50.750          44.950
  22639616.920   118971996.867 9     -2571.145    22639610.500    92705435.115 7
     -2003.489                          51.100          42.450
  22927315.760   120483862.539 9      3432.711    22927314.420    93883534.028 7
      2674.840                          51.050          43.400
  23577657.520   123901417.597 9      3260.099    23577651.560    96546537.442 6
      2540.334                          50.700          37.900
  24227770.220   127317806.623 8       822.733    24227765.200    99208643.923 6
       641.092                          45.900          33.300
  24895565.940   130827084.200 8       862.576    24895560.880   101943168.266 5
       672.129                          44.800          28.650
  25138532.180   132103883.985 8     -1017.234    25138532.020   102938090.009 5
      -792.654                          45.650          32.200
  25467863.400   133834496.662 7     -3432.778    25467864.280   104286596.338 5
     -2674.892                          42.450          26.600
 18  2 20  8  5 30.0000000  0 11G09G06G07G02G23G30G05G16G29G26G03
  20282763.000   106586651.525 9     -1119.188    20282760.500    83054530.755 9
      -872.095                          52.550          50.600
  21233935.620   111585070.889 9     -1987.835    21233934.140    86949411.318 8
     -1548.963                          51.900          48.550
  21590479.560   113458736.851 9      2202.935    21590475.240    88409403.609 8
      1716.573                          52.050          46.450
  21862751.160   114889511.091 8       777.149    21862743.480    89524239.154 8
       605.570                          50.350          44.900
  22654314.160   119049230.883 9     -2576.412    22654307.720    92765617.438 7
     -2007.596                          50.900          42.400
  22907742.780   120381005.136 9      3425.664    22907741.300    93803385.419 7
      2669.350                          50.900          43.800
  23559058.960   123803681.951 8      3257.025    23559053.200    96470379.800 6
      2537.942                          50.300          38.250
  24223130.200   127293425.876 8       803.823    24223125.480    99189645.919 6
       626.355                          45.700          34.550
  24890697.940   130801502.964 7       844.513    24890691.920   101923234.821 4
       658.067                          43.650          23.600
  25144393.020   132134682.844 7     -1034.504    25144392.460   102962089.095 6
      -806.110                          42.950          34.800
  25487468.040   133937519.339 7     -3434.164    25487468.300   104366873.621 6
     -2675.974                          40.000          33.400
 18  2 20  8  6  0.0000000  0 11G09G06G07G02G23G30G05G16G29G26G03
  20289193.740   106620445.126 9     -1133.049    20289191.240    83080863.423 9
      -882.896                          52.200          51.000
  21245338.640   111644994.421 9     -2006.249    21245337.360    86996104.967 8
     -1563.313                          51.400          49.100
  21577950.240   113392894.386 9      2187.299    21577945.880    88358097.798 8
      1704.389                          51.650          47.000
  21858371.480   114866496.432 8       757.876    21858363.820    89506305.641 8
       590.553                          49.650          46.050
  22669044.840   119126641.181 8     -2583.548    22669038.300    92825937.133 7
     -2013.155                          50.000          43.100
  22888213.260   120278376.414 9      3416.828    22888211.620    93723415.000 7
      2662.464                          50.650          44.100
  23540482.160   123706060.705 8      3251.835    23540476.420    96394311.284 7
      2533.896                          49.200          38.500
  24218601.360   127269624.328 8       783.485    24218597.260    99171099.265 6
       610.506                          45.750          34.750
  24885936.180   130776478.895 7       824.669    24885929.660   101903735.597 5
       642.606                          38.650          30.900
  25150355.220   132166014.635 8     -1053.604    25150355.020   102986503.469 6
      -820.989                          45.650          34.150
  25507083.320   134040599.471 7     -3437.078    25507082.960   104447195.661 5
     -2678.250                          42.650          30.850
 18  2 20  8  6 30.0000000  0 11G09G06G07G02G23G30G05G16G29G26G03
  20295695.720   106654613.199 9     -1145.025    20295693.180    83107487.891 9
      -892.228                          52.550          50.750
  21256839.060   111705429.631 9     -2022.870    21256837.740    87043197.323 8
     -1576.264                          51.700          48.750
  21565502.340   113327480.031 9      2173.447    21565498.100    88307125.585 8
      1693.597                          52.000          47.050
  21854093.680   114844017.282 8       740.504    21854085.960    89488789.414 8
       577.017                          50.050          45.050
  22683808.280   119204223.897 9     -2588.820    22683801.860    92886391.154 7
     -2017.265                          50.700          42.750
  22868727.200   120175976.217 9      3409.658    22868725.580    93643622.651 7
      2656.878                          50.650          44.100
  23521926.700   123608553.598 8      3248.426    23521921.620    96318331.718 6
      2531.243                          49.150          38.200
  24214182.640   127246400.891 8       764.448    24214178.720    99153003.074 6
       595.674                          46.900          34.650
  24881278.300                         806.103

  25156418.340   132197875.831 7     -1070.779    25156417.880   103011330.356 6
      -834.374                          44.100          33.750
  25526709.260   134143733.429 7     -3438.310    25526710.220   104527559.687 6
     -2679.203                          40.850          34.650
 18  2 20  8  7  0.0000000  0 10G09G06G07G02G23G30G05G16G26G03
  20302269.420   106689157.986 9     -1157.175    20302266.820    83134405.909 9
      -901.694                          52.100          51.150
  21268437.180   111766377.971 9     -2039.602    21268435.820    87090689.508 8
     -1589.303                          51.000          49.450
  21553136.840   113262498.700 9      2159.362    21553132.500    88256490.780 8
      1682.619                          51.500          47.600
  21849918.720   114822078.200 8       722.873    21849911.160    89471694.020 8
       563.278                          48.800          46.750
  22698604.920   119281980.957 8     -2594.156    22698598.260    92946981.057 7
     -2021.422                          49.450          43.750
  22849285.640   120073810.448 8      3402.021    22849284.080    93564012.985 8
      2650.926                          50.100          45.100
  23503394.060   123511165.116 8      3244.828    23503389.320    96242444.591 7
      2528.438                          48.600          39.400
  24209874.400   127223760.212 8       745.490    24209870.340    99135360.993 6
       580.901                          45.050          34.650
  25162582.800   132230268.792 7     -1087.980    25162582.680   103036571.639 6
      -847.777                          44.150          36.050
  25546345.800   134246924.137 6     -3440.427    25546345.960   104607967.977 5
     -2680.856                          38.200          31.000
 18  2 20  8  7 30.0000000  0 11G09G06G07G02G23G30G05G16G29G26G03
  20308912.140   106724065.642 9     -1169.809    20308909.540    83161606.678 9
      -911.539                          52.200          51.000
  21280130.120   111827824.775 9     -2056.751    21280128.820    87138570.102 8
     -1602.663                          51.250          49.100
  21540851.700   113197939.825 9      2144.628    21540847.340    88206185.185 8
      1671.139                          51.650          47.400
  21845844.220   114800667.351 8       704.727    21845836.980    89455010.231 8
       549.139                          49.150          46.450
  22713432.140   119359898.477 8     -2600.045    22713425.320    93007695.980 7
     -2026.011                          50.150          42.650
  22829886.820   119971868.995 8      3394.015    22829885.220    93484578.099 8
      2644.687                          50.150          44.950
  23484881.900   123413884.475 8      3240.601    23484877.300    96166641.498 7
      2525.145                          48.650          38.900
  24205674.620   127201691.176 8       725.748    24205670.560    99118164.351 6
       565.518                          44.750          36.700
  24872285.820   130704726.664 6       769.295    24872278.880   101847823.112 5
       599.446                          38.050          28.250
  25168845.660   132263179.923 7     -1105.801    25168843.620   103062216.600 5
      -861.673                          42.300          32.450
  25565990.660   134350157.554 6     -3441.802    25565988.460   104688448.562 4
     -2681.924                          33.850          26.300
 18  2 20  8  8  0.0000000  0 10G09G06G07G02G23G30G05G16G29G26
  20315627.860   106759357.275 9     -1183.174    20315625.280    83189106.648 9
      -921.954                          52.200          50.850
  21291921.860   111889790.390 9     -2074.617    21291920.520    87186854.970 8
     -1616.585                          51.450          49.000
  21528651.660   113133827.683 9      2129.202    21528647.140    88156227.678 8
      1659.119                          52.000          47.250
  21841874.820   114779807.979 8       685.686    21841867.560    89438756.167 8
       534.302                          49.750          46.100
  22728293.960   119437997.871 8     -2606.748    22728287.120    93068552.622 7
     -2031.232                          50.150          42.750
  22810535.320   119870176.615 9      3385.176    22810533.820    93405337.302 7
      2637.800                          50.650          44.300
  23466394.920   123316735.346 8      3235.713    23466390.400    96090940.870 7
      2521.335                          48.650          38.500
  24201587.720   127180217.212 8       705.489    24201583.740    99101431.413 6
       549.731                          45.200          36.050
  24867947.800   130681935.178 7       749.802    24867941.760   101830063.423 6
       584.262                          40.150          32.700
  25175211.200   132296630.418 7     -1124.595    25175210.380   103088281.984 6
      -876.303                          43.550          35.100
 18  2 20  8  8 30.0000000  0 10G09G06G07G02G23G30G05G16G29G26
  20322414.360   106795020.926 9     -1195.430    20322411.820    83216896.491 9
      -931.504                          52.050          50.950
  21303809.880   111952261.994 9     -2091.234    21303808.480    87235534.099 8
     -1629.534                          51.050          49.050
  21516534.760   113070152.728 9      2114.729    21516530.060    88106610.837 8
      1647.842                          51.750          47.200
  21838008.500   114759490.436 8       667.780    21838000.960    89422924.299 8
       520.349                          49.550          46.100
  22743188.260   119516267.478 8     -2612.296    22743181.420    93129541.898 7
     -2035.557                          49.900          42.950
  22791229.720   119768725.041 9      3377.207    22791228.060    93326284.140 8
      2631.591                          50.550          44.600
  23447931.060   123219707.638 8      3231.829    23447926.620    96015334.878 7
      2518.309                          48.400          38.750
  24197612.500   127159328.869 8       686.039    24197608.260    99085154.800 6
       534.576                          45.450          35.000
  24863716.680   130659703.916 7       731.069    24863710.860   101812740.337 5
       569.653                          39.050          27.600
  25181677.040   132330608.415 7     -1141.896    25181675.360   103114758.330 5
      -889.789                          42.900          31.900
 18  2 20  8  9  0.0000000  0 10G09G06G07G02G23G30G05G16G29G26
  20329271.200   106831053.937 9     -1206.297    20329268.700    83244974.168 9
      -939.971                          51.950          51.350
  21315793.560   112015236.198 9     -2106.557    21315791.960    87284604.891 8
     -1641.474                          50.850          49.450
  21504501.220   113006915.568 9      2101.551    21504496.340    88057335.144 8
      1637.573                          51.600          47.750
  21834245.160   114739713.935 8       651.139    21834237.680    89407514.030 8
       507.382                          48.900          46.850
  22758114.340   119594704.169 8     -2616.380    22758107.360    93190661.377 7
     -2038.738                          49.650          43.450
  22771970.020   119667515.363 8      3370.430    22771968.540    93247419.492 8
      2626.312                          49.700          45.750
  23429490.780   123122802.608 8      3229.071    23429486.240    95939824.440 7
      2516.159                          47.800          40.700
  24193749.440   127139026.008 8       667.921    24193744.360    99069334.403 6
       520.459                          44.950          36.350
  24859592.580   130638031.943 7       714.024    24859587.740   101795853.103 4
       556.400                          41.200          25.600
  25188242.680   132365111.454 7     -1157.956    25188241.640   103141643.807 6
      -902.304                          42.350          33.550
 18  2 20  8  9 30.0000000  0 10G09G06G07G02G30G23G05G16G29G26
  20336197.960   106867454.140 9     -1220.075    20336195.460    83273337.959 9
      -950.708                          52.100          51.000
  21327872.200   112078709.940 9     -2124.707    21327870.640    87334064.923 8
     -1655.616                          51.000          49.000
  21492551.020   112944116.641 9      2085.330    21492546.100    88008400.917 8
      1624.934                          51.800          47.450
  21830584.680   114720478.001 8       631.512    21830577.220    89392524.976 8
       492.087                          49.300          46.200
  22752756.840   119566549.060 9      3360.784    22752755.220    93168744.456 8
      2618.795                          50.550          45.050
  22773071.780   119673305.710 8     -2623.366    22773064.760    93251909.309 7
     -2044.183                          50.050          42.550
  23411074.000   123026021.211 8      3223.357    23411069.860    95864410.371 7
      2511.708                          48.850          40.150
  24189997.800   127119308.920 8       646.731    24189992.400    99053970.427 6
       503.945                          46.400          35.500
  24855575.040   130616919.212 7       693.837    24855570.520   101779401.598 6
       540.659                          41.350          32.500
  25194907.600   132400137.325 7     -1177.039    25194906.680   103168936.732 6
      -917.171                          43.250          34.200
 18  2 20  8 10  0.0000000  0 10G09G06G07G02G30G23G05G16G29G26
  20343195.440   106904225.786 9     -1232.072    20343192.940    83301991.185 9
      -960.057                          52.150          51.000
  21340046.560   112142686.571 9     -2141.055    21340044.920    87383916.830 8
     -1668.354                          51.250          48.850
  21480685.620   112881763.311 9      2070.892    21480680.600    87959813.923 8
      1613.682                          52.050          47.050
  21827028.000   114701789.090 8       613.669    21827020.940    89377962.176 8
       478.182                          49.200          46.350
  22733591.280   119465834.083 8      3352.771    22733589.960    93090265.262 8
      2612.549                          50.350          44.950
  22788061.480   119752076.542 8     -2628.613    22788054.600    93313289.164 7
     -2048.271                          50.250          42.900
  23392681.880   122929369.550 8      3219.295    23392677.820    95789097.407 7
      2508.540                          49.300          39.650
  24186358.920   127100184.501 8       627.529    24186353.700    99039068.296 6
       488.981                          46.600          33.700
  24851664.960   130596371.840 7       675.614    24851661.200   101763390.523 5
       526.443                          41.850          27.150
  25201673.520   132435690.454 7     -1193.807    25201672.380   103196640.419 6
      -930.238                          43.350          34.500
 18  2 20  8 10 30.0000000  0 10G09G06G07G02G30G23G05G16G29G26
  20350261.840   106941359.661 9     -1244.063    20350259.280    83330926.664 9
      -969.399                          51.700          51.600
  21352314.680   112207156.013 8     -2157.471    21352313.020    87434152.737 8
     -1681.146                          50.300          49.350
  21468903.700   112819849.070 9      2056.216    21468898.720    87911569.070 8
      1602.246                          51.350          47.700
  21823574.060   114683639.948 8       595.695    21823567.160    89363819.983 8
       464.178                          48.600          47.000
  22714472.580   119365364.920 8      3344.606    22714471.240    93011977.617 8
      2606.188                          49.700          45.800
  22803081.580   119831007.596 8     -2633.908    22803074.920    93374793.856 7
     -2052.396                          49.300          43.900
  23374313.380   122832841.464 8      3215.342    23374308.440    95713880.696 7
      2505.461                          48.100          40.350
  24182831.220   127081645.873 8       607.861    24182826.040    99024622.633 6
       473.660                          45.050          36.650
  24847860.980   130576381.982 7       656.619    24847855.260   101747814.045 4
       511.673                          42.100          21.600
  25208537.280   132471761.603 7     -1211.085    25208536.460   103224747.831 6
      -943.701                          41.500          36.900
 18  2 20  8 11  0.0000000  0 10G09G06G07G02G30G23G05G16G29G26
  20357397.420   106978857.529 9     -1255.798    20357394.880    83360145.780 9
      -978.544                          51.900          51.150
  21364676.680   112272119.195 9     -2173.415    21364675.220    87484773.374 8
     -1693.571                          50.700          49.200
  21457206.180   112758378.636 9      2041.771    21457201.340    87863670.053 8
      1590.991                          51.450          47.500
  21820224.020   114666034.402 8       577.969    21820217.220    89350101.368 8
       450.364                          49.150          47.050
  22695401.780   119265147.047 8      3336.603    22695400.360    92933885.777 8
      2599.950                          50.000          45.750
  22818132.460   119910100.583 8     -2638.951    22818125.900    93436424.734 7
     -2056.326                          50.200          42.800
  23355969.020   122736440.931 8      3211.321    23355964.320    95638763.400 7
      2502.329                          48.400          40.500
  24179415.540   127063697.100 8       588.615    24179410.520    99010636.580 6
       458.658                          45.550          36.650
  24844164.060   130556953.490 7       638.587    24844159.700   101732674.873 6
       497.594                          42.100          32.750
  25215500.540   132508352.709 7     -1228.374    25215499.980   103253260.389 6
      -957.170                          41.700          36.250
 18  2 20  8 11 30.0000000  0 10G09G06G07G02G30G23G05G16G29G26
  20364603.100   107016723.983 9     -1267.927    20364600.620    83389652.099 9
      -987.995                          51.850          51.100
  21377133.320   112337579.695 8     -2189.777    21377132.100    87535781.519 8
     -1706.321                          50.400          49.200
  21445594.620   112697359.513 9      2026.901    21445589.840    87816122.687 8
      1579.404                          51.650          47.450
  21816978.700   114648978.743 8       559.821    21816971.680    89336811.240 8
       436.225                          49.150          46.550
  22676380.340   119165188.732 8      3328.056    22676378.900    92855996.189 8
      2593.290                          50.000          45.350
  22833215.060   119989360.168 8     -2644.271    22833208.640    93498185.413 7
     -2060.472                          50.150          43.000
  23337650.460   122640176.511 8      3207.064    23337645.800    95563752.182 7
      2499.011                          48.800          39.550
  24176113.240   127046345.044 8       568.901    24176108.780    98997115.553 6
       443.300                          45.150          35.200
  24840575.200   130538092.753 7       620.253    24840569.780   101717978.131 5
       483.314                          38.850          30.500
  25222563.080   132545468.294 7     -1245.511    25222562.540   103282181.547 6
      -970.530                          41.650          37.900
 18  2 20  8 12  0.0000000  0  9G09G06G07G02G30G23G05G16G26
  20371877.800   107054953.233 9     -1280.890    20371875.380    83419441.115 9
      -998.097                          52.350          50.650
  21389683.400   112403530.903 9     -2207.134    21389682.200    87587172.048 8
     -1719.846                          51.400          48.650
  21434068.260   112636788.787 9      2010.985    21434063.700    87768924.731 8
      1567.001                          51.900          46.900
  21813837.240   114632469.410 8       540.732    21813830.120    89323946.817 8
       421.349                          49.950          45.900
  22657407.800   119065487.855 9      3318.406    22657406.400    92778307.212 8
      2585.771                          50.700          45.000
  22848328.240   120068780.591 9     -2650.518    22848321.980    93560071.426 7
     -2065.340                          50.550          42.450
  23319357.320   122544045.091 8      3201.643    23319352.460    95488844.570 7
      2494.788                          49.100          40.000
  24172923.940   127029586.260 8       548.235    24172919.280    98984056.754 6
       427.193                          46.000          33.050
  25229724.880   132583102.488 7     -1263.630    25229724.440   103311506.993 6
      -984.642                          42.400          36.450
 18  2 20  8 12 30.0000000  0 10G09G06G07G02G30G23G05G16G29G26
  20379221.220   107093543.407 9     -1292.245    20379218.900    83449511.381 9
     -1006.944                          51.400          51.050
  21402326.320   112469969.975 8     -2222.733    21402325.240    87638942.726 8
     -1732.002                          50.250          49.450
  21422627.400   112576667.387 9      1996.558    21422622.980    87722076.895 8
      1555.759                          50.850          48.150
  21810799.700   114616506.381 8       523.012    21810792.500    89311508.094 8
       407.541                          48.800          47.400
  22638484.660   118966046.228 8      3310.442    22638483.340    92700820.263 8
      2579.565                          49.550          46.500
  22863471.660   120148360.173 8     -2655.232    22863465.400    93622081.472 7
     -2069.013                          49.200          43.550
  23301089.740   122448047.409 8      3197.681    23301084.980    95414041.189 7
      2491.697                          48.800          41.850
  24169847.640   127013421.390 8       528.988    24169843.360    98971460.766 6
       412.199                          45.300          35.700
  24833718.660   130502070.927 6       581.710    24833716.260   101689921.596 6
       453.285                          35.300          33.550
  25236984.440   132621253.673 7     -1280.305    25236984.480   103341235.093 6
      -997.647                          39.050          37.400
 18  2 20  8 13  0.0000000  0 10G09G07G06G02G30G23G05G16G29G26
  20386634.180   107132499.154 9     -1303.914    20386631.940    83479866.510 9
     -1016.036                          51.800          50.700
  21411273.400   112517002.563 9      1981.829    21411269.140    87675584.857 8
      1544.284                          51.250          46.900
  21415062.900   112536900.629 9     -2238.575    21415061.580    87691096.458 8
     -1744.345                          50.850          48.550
  21807867.240   114601096.160 8       505.058    21807860.120    89299500.118 8
       393.552                          49.250          46.150
  22619612.520   118866872.205 8      3301.967    22619611.020    92623541.822 8
      2572.962                          50.050          45.600
  22878646.380   120228103.531 8     -2660.138    22878640.240    93684219.125 7
     -2072.836                          49.600          42.650
  23282849.080   122352190.612 8      3193.542    23282844.680    95339347.601 7
      2488.475                          49.400          41.400
  24166885.920   126997857.163 8       509.471    24166880.500    98959332.792 6
       396.991                          45.250          34.850
  24830452.360   130484906.108 6       563.379    24830448.560   101676546.244 4
       438.989                          38.050          25.950
  25244343.920   132659926.175 7     -1297.187    25244343.260   103371369.481 6
     -1010.795                          42.200          35.200
 18  2 20  8 13 30.0000000  0 10G09G07G06G02G30G23G05G16G29G26
  20394113.800   107171805.027 9     -1316.394    20394111.580    83510494.453 9
     -1025.762                          51.150          51.000
  21400003.960   112457781.918 9      1966.308    21399999.660    87629438.910 8
      1532.188                          50.700          47.750
  21427889.900   112604306.488 8     -2255.031    21427888.560    87743620.480 8
     -1757.168                          50.050          49.550
  21805037.380   114586225.243 8       486.397    21805030.320    89287912.382 8
       379.011                          48.600          47.250
  22600789.040   118767954.019 8      3292.587    22600787.500    92546462.734 8
      2565.655                          49.550          46.550
  22893849.360   120307995.202 8     -2665.836    22893843.080    93746472.344 7
     -2077.277                          48.900          43.200
  23264632.760   122256462.605 8      3188.385    23264628.120    95264754.349 7
      2484.455                          49.400          42.800
  24164036.160   126982880.608 8       489.073    24164030.540    98947662.721 6
       381.090                          44.650          36.550
  24827293.040   130468297.329 6       543.868    24827287.020   101663604.369 6
       423.785                          38.200          32.500
  25251798.860   132699104.629 6     -1314.470    25251799.120   103401898.251 6
     -1024.252                          36.900          36.850
 18  2 20  8 14  0.0000000  0 10G09G07G06G02G30G23G05G16G29G26
  20401663.020   107211476.485 9     -1327.407    20401660.840    83541407.263 9
     -1034.344                          51.500          51.000
  21388822.560   112399023.730 9      1951.827    21388818.320    87583653.317 8
      1520.905                          51.050          47.250
  21440810.080   112672201.972 9     -2270.382    21440808.640    87796526.015 8
     -1769.130                          50.600          49.300
  21802313.600   114571910.807 8       468.772    21802306.340    89276758.268 8
       365.278                          49.250          46.700
  22582017.920   118669310.797 8      3284.526    22582016.460    92469597.898 8
      2559.371                          50.350          46.300
  22909083.460   120388050.904 8     -2670.215    22909077.220    93808853.384 7
     -2080.688                          49.350          43.100
  23246444.040   122160880.951 8      3184.580    23246439.540    95190275.132 7
      2481.493                          49.050          40.900
  24161301.420   126968509.329 7       469.835    24161296.080    98936464.328 6
       366.104                          44.450          35.600
  24824240.580   130452261.504 6       525.793    24824235.240   101651108.856 6
       409.708                          38.150          33.050
  25259353.380   132738804.426 7     -1330.977    25259354.120   103432819.067 7
     -1037.130                          41.750          39.850
 18  2 20  8 14 30.0000000  0 10G09G07G06G02G30G23G05G16G29G26
  20409279.440   107251501.063 9     -1340.105    20409277.260    83572595.234 8
     -1044.237                          52.450          50.350
  21377727.340   112340718.431 9      1935.808    21377723.140    87538220.633 8
      1508.423                          52.100          46.400
  21453820.780   112740573.628 9     -2287.119    21453819.460    87849802.581 8
     -1782.173                          51.850          47.850
  21799693.700   114558142.554 9       449.559    21799686.200    89266029.755 8
       350.306                          50.900          45.250
  22563297.440   118570933.758 9      3274.692    22563295.820    92392940.484 8
      2551.709                          51.650          45.100
  22924346.420   120468258.205 9     -2676.222    22924340.060    93871352.551 7
     -2085.368                          50.900          41.100
  23228281.460   122065436.398 9      3178.985    23228276.840    95115902.739 7
      2477.130                          51.350          40.250
  24158679.740   126954733.143 8       449.087    24158674.800    98925729.627 6
       349.932                          48.550          32.950
  24821296.140   130436787.466 7       506.195    24821290.700   101639051.387 5
       394.463                          41.100          27.350
  25267005.280   132779012.983 7     -1348.785    25267005.060   103464150.394 6
     -1050.999                          43.150          33.300
 18  2 20  8 15  0.0000000  0 10G09G07G06G02G30G23G05G16G29G26
  20416964.040   107291883.644 9     -1351.842    20416961.840    83604062.171 9
     -1053.384                          52.100          50.800
  21366719.780   112282873.470 9      1920.687    21366715.580    87493146.658 8
      1496.641                          51.600          46.650
  21466922.840   112809425.423 9     -2302.796    21466921.500    87903453.287 8
     -1794.387                          51.300          48.400
  21797178.740   114544926.534 8       431.511    21797171.200    89255731.557 8
       336.242                          49.850          45.950
  22544629.280   118472831.474 9      3265.717    22544627.660    92316497.164 8
      2544.715                          50.850          45.800
  22939639.060   120548621.983 8     -2681.173    22939632.600    93933973.648 7
     -2089.228                          49.750          41.800
  23210146.740   121970137.528 8      3174.361    23210141.920    95041643.886 7
      2473.529                          50.150          40.850
  24156172.640   126941559.061 8       429.306    24156168.800    98915464.115 6
       334.523                          46.200          35.550
  24818459.200   130421881.866 7       488.174    24818454.140   101627420.436 5
       380.379                          38.800          27.000
  25274754.340   132819735.038 7     -1365.704    25274753.520   103495881.896 6
     -1064.185                          42.800          35.800
 18  2 20  8 15 30.0000000  0 10G09G07G06G02G30G23G05G16G29G26
  20424716.820   107332624.236 9     -1363.021    20424714.500    83635808.077 8
     -1062.096                          52.500          50.450
  21355800.360   112225491.694 9      1905.977    21355796.000    87448433.608 8
      1485.178                          51.850          46.600
  21480116.160   112878756.259 9     -2318.041    21480114.600    87957477.266 8
     -1806.267                          51.600          48.100
  21794769.040   114532264.830 8       413.730    21794761.860    89245865.299 8
       322.387                          49.900          45.750
  22526014.040   118375007.559 9      3257.107    22526012.240    92240270.753 8
      2538.007                          51.400          45.400
  22954961.620   120629142.230 8     -2685.618    22954955.060    93996716.673 7
     -2092.692                          49.850          41.250
  23192039.920   121874986.073 8      3170.175    23192035.440    94967499.892 7
      2470.267                          50.100          41.350
  24153780.540   126928989.255 8       409.889    24153776.940    98905669.447 6
       319.394                          46.950          36.350
  24815731.120   130407546.489 6       469.354    24815725.020   101616256.024 5
       365.744                          37.050          30.950
  25282601.220   132860970.518 8     -1381.958    25282601.300   103528013.444 6
     -1076.850                          44.600          33.850
 18  2 20  8 16  0.0000000  0 10G09G07G06G02G30G23G05G16G29G26
  20432535.500   107373711.078 9     -1376.248    20432533.040    83667823.794 9
     -1072.400                          52.000          50.750
  21344967.440   112168563.879 9      1889.035    21344962.960    87404074.296 8
      1471.976                          51.600          46.850
  21493398.140   112948553.451 9     -2335.314    21493396.680    88011864.646 8
     -1819.727                          51.050          48.550
  21792462.960   114520147.838 8       393.874    21792456.100    89236423.467 8
       306.916                          49.350          46.200
  22507450.180   118277454.027 9      3246.198    22507448.420    92164255.016 8
      2529.506                          50.950          45.750
  22970311.660   120709807.629 8     -2692.218    22970305.060    94059572.804 7
     -2097.832                          49.200          41.750
  23173959.800   121779974.049 8      3163.705    23173955.560    94893464.567 7
      2465.225                          50.400          41.300
  24151501.940   126917014.220 8       388.327    24151498.000    98896338.267 6
       302.593                          46.750          35.650
  24813109.900   130393770.503 6       448.908
                                        37.250
  25290543.680   132902707.608 7     -1400.822    25290543.400   103560535.826 6
     -1091.547                          42.050          37.650
 18  2 20  8 16 30.0000000  0 10G09G07G06G02G30G23G05G16G29G26
  20440421.560   107415152.855 9     -1386.702    20440419.140    83700116.076 9
     -1080.546                          52.000          50.800
  21334223.120   112112101.518 9      1874.864    21334218.460    87360077.659 8
      1460.935                          51.750          46.900
  21506770.340   113018824.595 9     -2349.600    21506768.920    88066621.360 8
     -1830.857                          51.300          48.300
  21790262.600   114508585.488 8       376.688    21790255.720    89227413.829 8
       293.522                          49.600          46.150
  22488940.200   118180183.147 9      3238.238    22488938.160    92088459.521 8
      2523.303                          51.100          45.900
  22985691.020   120790626.693 8     -2696.008    22985684.400    94122548.661 7
     -2100.786                          49.700          41.350
  23155908.540   121685112.910 9      3160.072    23155904.120    94819546.770 7
      2462.394                          50.700          41.050
  24149338.680   126905644.591 8       369.466    24149334.480    98887478.793 6
       287.897                          46.900          35.950
  24810596.820   130380564.630 6       431.029    24810591.360   101595224.156 6
       335.863                          36.600          33.000
  25298582.840   132944954.638 7     -1416.110    25298581.920   103593455.586 6
     -1103.467                          42.350          34.850
 18  2 20  8 17  0.0000000  0 10G09G07G06G02G30G23G05G16G29G26
  20448374.320   107456945.393 9     -1399.027    20448372.060    83732681.675 9
     -1090.151                          52.050          50.650
  21323567.120   112056103.098 9      1858.785    21323562.440    87316442.537 8
      1448.404                          51.750          47.100
  21520231.680   113089564.467 9     -2365.807    21520230.360    88121743.316 8
     -1843.486                          51.400          48.300
  21788167.480   114497575.632 8       357.776    21788160.700    89218834.720 8
       278.785                          49.650          46.350
  22470483.840   118083194.460 9      3228.201    22470481.920    92012883.931 8
      2515.481                          50.850          46.200
  23001098.780   120871595.665 8     -2701.540    23001092.100    94185641.335 7
     -2105.097                          49.650          41.000
  23137885.740   121590400.515 8      3154.483    23137880.860    94745744.902 7
      2458.039                          50.300          41.050
  24147290.380   126894878.605 8       348.754    24147285.080    98879089.682 6
       271.755                          47.000          34.800
  24808191.700   130367926.107 7       411.948    24808185.880   101585370.934 5
       321.021                          40.850          31.400
  25306718.980   132987707.383 7     -1433.420    25306718.320   103626769.420 6
     -1116.949                          42.650          35.750
 18  2 20  8 17 30.0000000  0 10G09G07G06G02G30G23G05G16G29G26
  20456394.600   107499092.469 9     -1409.935    20456392.460    83765523.543 9
     -1098.650                          52.300          50.550
  21313000.560   112000575.293 9      1843.997    21312995.860    87273174.142 8
      1436.881                          52.100          46.650
  21533782.840   113160775.775 9     -2380.647    21533781.420    88177232.623 8
     -1855.052                          51.950          47.600
  21786178.720   114487123.960 8       340.173    21786171.940    89210690.552 8
       265.070                          50.250          45.650
  22452082.460   117986495.364 9      3219.320    22452080.740    91937534.013 8
      2508.563                          51.500          45.400
  23016535.920   120952718.504 8     -2705.774    23016529.420    94248853.908 7
     -2108.397                          50.200          40.550
  23119892.160   121495844.310 9      3150.167    23119887.540    94672064.754 7
      2454.677                          50.550          40.850
  24145357.660   126884721.783 8       329.320    24145351.560    98871175.238 6
       256.612                          46.900          34.400
  24805895.620   130355860.002 7       393.648    24805892.080   101575968.759 5
       306.743                          41.100          29.250
  25314951.020   133030969.497 7     -1449.476    25314950.520   103660480.115 6
     -1129.464                          44.350          33.050
 18  2 20  8 18  0.0000000  0 10G09G07G06G02G30G23G05G16G29G26
  20464480.520   107541584.132 9     -1422.104    20464478.380    83798633.911 9
     -1108.134                          51.900          50.700
  21302522.160   111945511.000 9      1827.895    21302517.540    87230266.907 8
      1424.333                          51.600          46.950
  21547421.460   113232447.465 9     -2396.527    21547420.200    88233080.662 8
     -1867.425                          51.250          47.850
  21784294.500   114477221.794 8       321.088    21784287.520    89202974.569 8
       250.197                          49.250          46.450
  22433735.100   117890079.605 9      3209.224    22433733.380    91862404.856 8
      2500.693                          50.800          45.850
  23032000.440   121033984.834 8     -2711.156    23031994.000    94312178.291 7
     -2112.591                          49.250          41.900
  23101927.180   121401437.611 9      3144.566    23101922.520    94598501.095 7
      2450.311                          50.550          41.900
  24143539.060   126875166.307 8       308.734    24143534.060    98863729.430 6
       240.575                          46.450          36.750
  24803707.200   130344357.817 7       374.255    24803703.060   101567006.042 5
       291.632                          43.250          32.100
  25323278.940   133074730.642 7     -1466.983    25323278.660   103694579.710 6
     -1143.109                          41.550          37.150
 18  2 20  8 18 30.0000000  0 10G09G07G06G02G30G23G05G16G29G26
  20472632.960   107584425.007 9     -1432.251    20472630.740    83832016.407 9
     -1116.039                          51.400          50.900
  21292133.240   111890917.175 9      1813.513    21292128.760    87187726.289 8
      1413.128                          50.900          47.700
  21561148.460   113304583.129 8     -2410.649    21561147.240    88289290.244 8
     -1878.429                          50.300          48.650
  21782516.080   114467875.877 8       303.773    21782508.860    89195692.013 8
       236.706                          48.600          46.650
  22415443.240   117793955.466 8      3200.793    22415441.640    91787502.935 8
      2494.125                          50.200          46.150
  23047493.400   121115399.653 8     -2714.735    23047486.840    94375618.392 7
     -2115.379                          48.800          41.700
  23083992.100   121307187.709 8      3140.486    23083987.420    94525059.613 7
      2447.132                          49.200          42.650
  24141836.220   126866218.792 8       289.491    24141831.380    98856757.299 6
       225.577                          44.600          36.550
  24801626.540   130333425.843 6       356.359    24801622.980   101558500.718 5
       277.689                          38.300          29.350
  25331701.760   133118995.411 7     -1482.257    25331701.700   103729071.679 6
     -1155.009                          41.250          35.300
 18  2 20  8 19  0.0000000  0 10G09G07G06G02G30G23G05G16G29G26
  20480850.440   107627607.778 9     -1445.141    20480848.120    83865665.300 9
     -1126.084                          52.050          50.650
  21281832.980   111836789.298 9      1796.512    21281828.560    87145548.747 8
      1399.881                          51.600          47.200
  21574962.040   113377174.268 9     -2427.164    21574960.920    88345854.741 8
     -1891.298                          51.100          48.250
  21780842.240   114459080.077 8       284.106    21780835.040    89188838.145 8
       221.380                          49.200          46.300
  22397206.160   117698119.218 9      3189.669    22397204.540    91712825.350 8
      2485.456                          50.850          45.900
  23063013.240   121196955.941 8     -2720.869    23063006.620    94439168.721 7
     -2120.159                          49.400          40.850
  23066085.780   121213090.193 8      3134.094    23066081.160    94451736.875 7
      2442.151                          49.750          41.650
  24140248.120   126857873.935 8       268.142    24140243.620    98850254.825 6
       208.940                          45.450          35.100
  24799653.560   130323058.002 7       336.100    24799650.060   101550424.520 5
       261.899                          42.650          27.000
  25340219.820   133163756.129 7     -1500.387    25340218.620   103763950.167 6
     -1169.140                          42.300          36.050
 18  2 20  8 19 30.0000000  0 10G09G07G06G02G30G05G23G16G29G26
  20489134.160   107671139.044 9     -1456.350    20489131.780    83899585.765 9
     -1134.818                          52.150          50.650
  21271623.240   111783136.705 9      1780.954    21271618.800    87103741.540 8
      1387.756                          51.850          47.100
  21588863.480   113450226.455 9     -2442.193    21588862.240    88402778.503 8
     -1903.009                          51.350          48.000
  21779274.600   114450842.796 8       265.745    21779267.500    89182419.480 8
       207.073                          49.750          46.000
  22379025.820   117602581.186 9      3180.107    22379024.220    91638380.145 8
      2478.005                          50.950          45.750
  23048210.180   121119154.203 8      3129.021    23048205.400    94378540.016 7
      2438.198                          50.250          40.650
  23078561.120   121278660.342 8     -2725.392    23078554.400    94502834.463 7
     -2123.682                          50.050          40.650
  24138776.620   126850140.444 8       248.030    24138772.320    98844228.740 6
       193.269                          47.050          35.750
  24797789.720   130313262.421 8       317.684    24797785.100   101542791.629 5
       247.547                          44.700          27.500
  25348832.880   133209019.127 7     -1516.593    25348833.020   103799220.023 6
     -1181.761                          42.750          36.650
 18  2 20  8 20  0.0000000  0 10G09G07G06G02G30G05G23G16G29G26
  20497483.980   107715017.891 9     -1468.620    20497481.660    83933777.061 9
     -1144.379                          51.950          50.550
  21261504.220   111729961.169 9      1764.451    21261499.820    87062306.066 8
      1374.897                          51.800          47.200
  21602852.160   113523737.604 9     -2458.282    21602850.900    88460059.897 8
     -1915.546                          51.150          47.800
  21777813.660   114443165.008 8       246.491    21777806.560    89176436.786 8
       192.070                          49.550          46.400
  22360902.780   117507344.039 9      3169.429    22360901.240    91564169.405 8
      2469.685                          51.100          45.900
  23030365.900   121025381.435 9      3122.841    23030360.680    94305470.314 7
      2433.382                          50.550          42.850
  23094137.000   121360512.291 8     -2731.000    23094130.460    94566615.166 7
     -2128.053                          49.150          40.900
  24137421.440   126843019.130 8       227.188    24137417.100    98838679.652 6
       177.028                          46.400          35.050
  24796034.800   130304039.130 7       297.721    24796031.040   101535604.714 5
       231.996                          42.050          32.250
  25357541.700   133254783.236 7     -1533.783    25357540.940   103834880.323 6
     -1195.155                          43.450          36.950
 18  2 20  8 20 30.0000000  0 10G09G07G06G02G30G05G23G16G29G26
  20505897.900   107759233.836 9     -1479.103    20505895.740    83968231.035 9
     -1152.547                          51.700          50.800
  21251474.480   111677254.643 9      1749.432    21251470.020    87021236.061 8
      1363.195                          51.300          47.600
  21616926.040   113597696.080 9     -2472.334    21616924.720    88517689.856 8
     -1926.494                          50.600          48.300
  21776457.620   114436037.650 8       228.787    21776450.580    89170882.999 8
       178.275                          49.300          46.550
  22342835.760   117412400.961 8      3160.240    22342834.140    91490187.800 8
      2462.524                          50.250          46.300
  23012551.280   120931764.809 8      3118.273    23012546.480    94232522.317 7
      2429.824                          49.950          42.800
  23109738.800   121442501.317 8     -2734.800    23109732.640    94630502.684 7
     -2131.014                          48.250          41.350
  24136181.300   126836501.517 8       207.530    24136176.620    98833601.020 6
       161.713                          45.850          35.250
  24794386.800   130295379.163 7       279.725    24794382.840   101528856.626 6
       217.967                          42.100          35.100
  25366343.500   133301037.636 7     -1549.668    25366342.740   103870922.722 7
     -1207.530                          43.100          38.950
 18  2 20  8 21  0.0000000  0 10G09G07G06G02G30G05G23G16G29G26
  20514376.980   107803791.851 9     -1491.205    20514374.940    84002951.557 9
     -1161.979                          52.000          50.650
  21241535.460   111625024.732 9      1732.694    21241530.960    86980537.444 8
      1350.151                          51.750          47.350
  21631085.740   113672105.753 9     -2488.216    21631084.340    88575671.403 8
     -1938.870                          51.000          47.700
  21775207.520   114429467.201 8       209.396    21775200.380    89165763.166 8
       163.163                          49.700          46.250
  22324826.300   117317760.521 9      3149.347    22324824.660    91416442.031 8
      2454.036                          51.300          45.750
  22994768.000   120838313.278 8      3112.063    22994763.140    94159702.930 7
      2424.983                          50.250          41.100
  23125367.680   121524632.424 8     -2740.354    23125361.820    94694500.894 7
     -2135.343                          49.150          40.000
  24135057.340   126830594.628 8       186.342    24135052.620    98828998.268 6
       145.203                          46.350          34.150
  24792847.540   130287288.831 7       259.814    24792843.180   101522552.486 5
       202.452                          43.600          29.100
  25375239.900   133347787.014 7     -1566.764    25375238.740   103907350.797 6
     -1220.856                          43.650          36.800
 18  2 20  8 21 30.0000000  0 10G09G07G06G02G30G05G23G16G29G26
  20522920.900   107848690.302 9     -1502.064    20522918.840    84037937.348 9
     -1170.441                          51.300          51.150
  21231687.300   111573272.323 9      1717.271    21231682.840    86940210.922 8
      1338.136                          50.900          48.050
  21645330.780   113746963.715 8     -2502.450    21645329.460    88634002.276 8
     -1949.960                          50.150          48.900
  21774063.200   114423453.619 8       191.406    21774056.100    89161077.261 8
       149.148                          48.450          47.150
  22306874.840   117223424.754 8      3139.601    22306873.220    91342933.656 8
      2446.442                          50.100          47.250
  22977016.040   120745027.594 8      3107.003    22977011.520    94087012.801 7
      2421.043                          48.900          43.200
  23141023.340   121606904.054 8     -2744.499    23141017.480    94758608.631 7
     -2138.572                          47.550          41.650
  24134049.660   126825298.596 8       166.542    24134044.640    98824871.497 6
       129.776                          45.250          35.300
  24791416.500   130279767.861 7       241.284    24791411.600   101516691.939 5
       188.016                          41.150          31.550
  25384229.560   133395029.444 7     -1582.874    25384229.320   103944163.057 7
     -1233.405                          41.550          38.800
 18  2 20  8 22  0.0000000  0 10G09G07G06G02G30G05G23G16G29G26
  20531529.520   107893928.774 9     -1513.964    20531527.480    84073188.097 9
     -1179.713                          52.050          50.550
  21221930.480   111521999.785 9      1700.570    21221926.000    86900258.310 8
      1325.121                          51.750          47.300
  21659660.820   113822268.510 9     -2518.154    21659659.500    88692681.319 8
     -1962.198                          51.150          47.750
  21773024.960   114417998.104 8       172.150    21773017.780    89156826.192 8
       134.145                          49.400          46.350
  22288981.880   117129396.854 9      3128.649    22288980.320    91269665.195 8
      2437.911                          51.150          45.850
  22959296.560   120651910.336 8      3100.708    22959291.900    94014453.886 7
      2416.137                          50.300          41.650
  23156705.900   121689316.132 8     -2749.746    23156699.840    94822825.804 7
     -2142.660                          49.350          40.050
  24133158.480   126820614.943 8       145.431    24133152.880    98821221.867 6
       113.321                          46.700          32.600
  24790093.200   130272816.886 7       221.686    24790088.700   101511275.599 5
       172.741                          38.600          29.750
  25393313.260   133442764.182 7     -1600.012    25393312.400   103981358.940 6
     -1246.762                          41.400          38.350
 18  2 20  8 22 30.0000000  0 10G09G07G06G02G30G05G23G16G29G26
  20540202.600   107939505.935 9     -1524.344    20540200.560    84108702.756 9
     -1187.801                          52.250          50.500
  21212265.200   111471208.107 9      1685.640    21212260.720    86860680.395 8
      1313.487                          51.950          47.350
  21674075.360   113898017.518 9     -2531.878    21674074.000    88751706.495 8
     -1972.893                          51.350          47.700
  21772092.960   114413100.603 8       154.416    21772085.780    89153009.945 8
       120.325                          49.800          46.100
  22271147.940   117035679.114 9      3119.396    22271146.180    91196638.393 8
      2430.699                          51.250          45.850
  22941608.740   120558962.256 8      3095.947    22941604.640    93942026.850 7
      2412.428                          50.250          41.200
  23172415.140   121771867.547 8     -2753.476    23172408.980    94887151.528 7
     -2145.568                          49.850          40.550
  24132383.560   126816543.798 8       126.208    24132377.980    98818049.545 6
        98.343                          46.350          35.100
  24788878.700   130266436.253 7       203.795    24788874.180   101506303.643 5
       158.802                          40.350          28.250
  25402489.920   133490989.450 7     -1615.080    25402489.440   104018937.086 6
     -1258.501                          43.750          38.400
 18  2 20  8 23  0.0000000  0 10G09G07G06G02G30G05G23G16G29G26
  20548938.580   107985413.381 9     -1535.229    20548936.380    84144474.776 8
     -1196.282                          52.750          50.150
  21202690.300   111420891.532 9      1669.850    21202685.760    86821472.686 8
      1301.182                          52.600          46.900
  21688572.700   113974201.121 9     -2546.134    21688571.420    88811070.321 8
     -1984.001                          52.150          47.250
  21771265.660   114408754.465 9       136.252    21771258.940    89149623.338 8
       106.171                          50.750          45.050
  22253372.020   116942266.699 9      3109.256    22253370.460    91123849.523 8
      2422.798                          51.900          45.600
  22923952.620   120466178.444 9      3090.443    22923948.180    93869727.765 7
      2408.139                          51.200          40.400
  23188149.380   121854550.146 9     -2757.639    23188142.620    94951579.501 7
     -2148.812                          50.800          38.900
  24131724.260   126813079.030 8       105.805    24131719.100    98815349.742 6
        82.443                          48.750          32.550
  24787767.720                         185.196

  25411758.680   133539696.477 8     -1631.017    25411758.320   104056890.564 6
     -1270.922                          45.900          35.850
 18  2 20  8 23 30.0000000  0 10G09G07G06G02G30G05G23G16G29G26
  20557740.140   108031665.282 9     -1546.442    20557737.800    84180515.205 8
     -1205.021                          52.350          50.350
  21193208.960   111371066.775 9      1653.538    21193204.420    86782648.216 8
      1288.472                          52.150          47.400
  21703155.180   114050832.331 9     -2560.754    21703153.880    88870782.942 8
     -1995.394                          51.650          47.400
  21770546.300   114404975.270 8       117.490    21770539.840    89146678.502 8
        91.551                          50.150          45.850
  22235657.700   116849177.471 9      3098.534    22235656.120    91051312.505 8
      2414.444                          51.500          46.100
  22906331.060   120373577.041 9      3084.643    22906326.640    93797570.840 7
      2403.618                          50.600          40.800
  23203911.260   121937378.165 8     -2762.350    23203904.320    95016120.784 7
     -2152.482                          50.400          39.900
  24131183.300   126810236.098 8        85.326    24131178.340    98813134.492 6
        66.489                          47.400          33.600
  24786775.400   130255357.695 7       166.377    24786772.800   101497671.641 5
       129.644                          42.450          29.400
  25421121.620   133588899.077 8     -1647.308    25421121.260   104095230.263 6
     -1283.614                          45.650          35.550
 18  2 20  8 24  0.0000000  0 10G09G07G06G02G30G05G23G16G29G26
  20566603.500   108078242.403 9     -1559.133    20566601.080    84216809.058 8
     -1214.910                          52.350          50.350
  21183818.040   111321717.220 9      1635.868    21183813.520    86744194.032 8
      1274.703                          52.050          47.600
  21717818.900   114127890.666 9     -2576.895    21717817.500    88930828.373 8
     -2007.972                          51.500          47.500
  21769931.660   114401745.446 8        97.311    21769925.100    89144161.744 8
        75.825                          50.050          45.700
  22218001.940   116756395.734 9      3086.480    22218000.460    90979015.079 8
      2405.051                          51.350          46.450
  22888740.780   120281140.925 8      3077.237    22888736.140    93725542.695 7
      2397.850                          49.850          41.250
  23219697.160   122020332.413 9     -2768.387    23219689.960    95080760.429 7
     -2157.186                          50.650          40.300
  24130757.420   126807997.500 8        63.369    24130752.280    98811390.145 6
        49.377                          47.400          35.050
  24785884.920   130250677.618 7       146.425    24785883.520   101494044.849 5
       114.111                          40.550          27.250
  25430575.220   133638577.663 8     -1665.176    25430574.220   104133940.825 6
     -1297.541                          45.250          34.900
 18  2 20  8 24 30.0000000  0 10G09G07G06G02G30G05G23G16G29G26
  20575530.700   108125155.340 9     -1569.584    20575528.300    84253364.585 9
     -1223.053                          51.950          50.700
  21174520.120   111272856.084 9      1620.361    21174515.520    86706120.428 8
      1262.619                          51.500          47.950
  21732565.680   114205385.502 8     -2590.579    21732564.320    88991213.947 8
     -2018.633                          50.450          47.950
  21769423.940   114399076.456 8        79.346    21769416.840    89142081.995 8
        61.827                          49.000          46.650
  22200407.280   116663935.690 8      3076.351    22200405.740    90906968.325 8
      2397.157                          50.300          46.700
  22871184.680   120188883.614 8      3072.022    22871180.460    93653653.882 7
      2393.782                          49.650          41.750
  23235509.060   122103424.001 8     -2772.171    23235501.840    95145507.089 7
     -2160.134                          49.550          40.850
  24130448.900   126806375.780 8        43.647    24130443.920    98810126.494 6
        34.009                          45.700          34.850
  24785103.760   130246569.329 7       127.245
                                        39.950
  25440121.240   133688742.252 7     -1680.337    25440120.960   104173030.123 6
     -1309.352                          42.200          37.800
 18  2 20  8 25  0.0000000  0 10G09G07G06G02G30G05G23G16G29G26
  20584521.660   108172403.196 9     -1579.929    20584519.340    84290181.077 8
     -1231.114                          52.350          50.150
  21165315.280   111224484.268 9      1604.683    21165310.700    86668428.108 8
      1250.402                          52.000          47.500
  21747395.000   114283314.654 9     -2604.444    21747393.900    89051937.929 8
     -2029.437                          51.250          46.950
  21769023.240   114396969.176 8        61.406    21769015.760    89140439.938 8
        47.849                          50.300          45.050
  22182874.360   116571799.996 9      3066.232    22182872.800    90835174.315 8
      2389.272                          51.150          45.950
  22853662.900   120096806.612 9      3066.587    22853658.720    93581905.597 7
      2389.550                          50.500          41.500
  23251346.720   122186652.192 8     -2776.061    23251340.040    95210360.187 7
     -2163.165                          50.150          40.750
  24130257.660   126805372.053 8        23.665    24130253.060    98809344.368 6
        18.440                          46.850          34.750
  24784430.480   130243033.024 6       108.634    24784428.240   101488078.903 4
        84.665                          38.250          25.000
  25449759.520   133739391.572 8     -1695.865    25449758.980   104212497.121 6
     -1321.451                          45.800          36.000
 18  2 20  8 25 30.0000000  0 10G09G07G06G02G30G05G23G16G29G26
  20593575.260   108219979.893 9     -1591.955    20593572.980    84327253.814 9
     -1240.484                          51.900          50.650
  21156202.960   111176598.777 9      1587.517    21156198.360    86631114.749 8
      1237.025                          51.650          47.850
  21762305.700   114361670.816 9     -2619.524    21762304.660    89112994.661 8
     -2041.188                          50.550          47.750
  21768728.580   114395418.730 8        41.805    21768720.660    89139231.782 8
        32.574                          49.800          46.050
  22165402.740   116479986.242 9      3054.390    22165401.280    90763631.157 8
      2380.045                          50.850          47.050
  22836175.420   120004908.730 8      3059.691    22836171.340    93510296.843 7
      2384.176                          49.200          42.800
  23267209.180   122270010.854 8     -2781.404    23267202.740    95275314.944 7
     -2167.328                          49.250          40.450
  24130183.220   126804981.528 8         2.271    24130178.540    98809040.065 6
         1.772                          46.150          35.250
  24783865.520   130240063.766 7        88.613    24783860.180   101485758.208 5
        69.046                          39.250          30.200
  25459488.820   133790519.105 7     -1712.832    25459487.740   104252336.765 6
     -1334.675                          44.400          38.050
 18  2 20  8 26  0.0000000  0 10G09G07G02G06G30G05G23G16G29G26
  20602692.600   108267891.662 9     -1603.585    20602690.280    84364587.654 8
     -1249.547                          52.350          50.300
  21147184.780   111129208.147 9      1570.458    21147180.120    86594186.993 8
      1223.734                          52.050          47.400
  21768541.300   114394433.091 9        22.387    21768533.140    89138463.751 8
        17.444                          50.550          45.450
  21777298.500   114440458.927 9     -2634.370    21777297.480    89174387.973 8
     -2052.757                          51.100          47.050
  22147994.260   116388504.154 9      3042.888    22147992.760    90692346.446 8
      2371.082                          51.300          46.550
  22818723.380   119913197.554 8      3052.896    22818719.360    93438833.600 7
      2378.879                          50.450          41.300
  23283097.620   122353506.596 8     -2786.489    23283091.720    95340376.516 7
     -2171.292                          49.850          40.150
  24130226.720   126805211.843 8       -18.890    24130222.260    98809219.527 6
       -14.720                          46.150          33.400
  24783409.760   130237668.994 7        69.121    24783409.620   101483894.342 4
        53.875                          38.700          26.200
  25469309.920   133842130.539 8     -1729.478    25469309.420   104292553.458 6
     -1347.646                          46.800          36.450
 18  2 20  8 26 30.0000000  0  9G09G07G02G06G30G05G23G16G26
  20611869.740   108316117.716 9     -1611.836    20611867.380    84402166.396 9
     -1255.976                          51.800          50.850
  21138257.320   111082294.204 9      1556.703    21138252.580    86557630.685 8
      1213.016                          51.300          48.150
  21768457.560   114393992.774 8         6.479    21768449.160    89138120.635 8
         5.048                          49.450          46.700
  21792369.440   114519656.910 8     -2645.783    21792368.440    89236100.667 8
     -2061.649                          50.400          48.250
  22130645.640   116297336.554 9      3034.571    22130644.200    90621306.800 8
      2364.603                          50.600          48.000
  22801303.840   119821656.654 8      3049.535    22801299.420    93367503.028 7
      2376.262                          49.700          42.650
  23299008.420   122437118.877 8     -2788.104    23299002.660    95405528.904 7
     -2172.550                          48.600          41.550
  24130384.840   126806043.888 8       -36.934    24130380.100    98809867.868 6
       -28.780                          45.350          35.300
  25479219.520   133894204.607 8     -1742.581    25479219.080   104333130.677 7
     -1357.854                          45.000          39.350
 18  2 20  8 27  0.0000000  0 10G09G07G02G06G30G05G23G16G29G26
  20621110.520   108364677.915 9     -1623.996    20621108.060    84440005.503 9
     -1265.452                          52.050          50.750
  21129424.820   111035879.004 9      1539.121    21129420.060    86521463.010 8
      1199.315                          51.600          47.950
  21768481.460   114394118.779 8       -13.386    21768473.300    89138218.808 8
       -10.433                          49.550          46.150
  21807521.860   114599283.357 8     -2661.043    21807520.740    89298147.224 8
     -2073.542                          50.450          47.700
  22113361.420   116206506.839 9      3022.271    22113359.760    90550530.420 8
      2355.018                          50.850          47.650
  22783920.900   119730308.354 8      3041.989    22783916.120    93296322.529 7
      2370.380                          50.100          42.700
  23314945.240   122520867.579 8     -2793.548    23314939.620    95470787.575 7
     -2176.793                          48.900          40.750
  24130661.920   126807499.536 8       -58.633    24130657.360    98811002.110 6
       -45.690                          46.100          33.950
  24782818.960   130234566.326 6        33.491    24782819.060   101481477.249 5
        26.085                          36.850          28.900
  25489220.540   133946760.681 7     -1759.553    25489220.160   104374083.461 6
     -1371.077                          43.950          37.800
 18  2 20  8 27 30.0000000  0 10G09G07G02G06G30G05G23G16G29G26
  20630413.020   108413562.822 9     -1635.979    20630410.580    84478097.632 9
     -1274.789                          51.850          50.900
  21120685.920   110989955.396 9      1521.407    21120681.120    86485678.393 8
      1185.513                          51.150          48.700
  21768611.500   114394802.853 8       -33.214    21768603.800    89138751.872 8
       -25.881                          49.200          47.100
  21822753.860   114679327.492 8     -2676.153    21822752.700    89360519.255 8
     -2085.314                          50.050          48.450
  22096140.300   116116009.111 9      3009.924    22096138.640    90480012.736 8
      2345.396                          50.550          48.150
  22766573.360   119639145.675 8      3034.558    22766568.740    93225286.687 7
      2364.591                          49.700          42.800
  23330906.460   122604743.681 8     -2799.058    23330900.520    95536145.523 7
     -2181.086                          48.600          40.900
  24131056.360   126809570.450 8       -80.398    24131051.460    98812615.833 6
       -62.646                          46.200          36.050
  24782685.740   130233874.125 7        12.426    24782682.660   101480919.117 6
         9.683                          39.700          34.800
  25499311.440   133999788.727 7     -1776.718    25499311.260   104415404.010 6
     -1384.456                          44.400          38.350
 18  2 20  8 28  0.0000000  0 10G09G07G02G06G30G05G23G16G29G26
  20639776.000   108462765.619 9     -1645.283    20639773.640    84516437.458 9
     -1282.039                          52.300          50.650
  21112039.720   110944519.124 9      1506.416    21112035.020    86450273.506 8
      1173.831                          52.050          47.800
  21768846.760   114396039.684 8       -50.375    21768839.160    89139715.619 8
       -39.253                          49.700          46.250
  21838063.820   114759781.226 9     -2688.522    21838062.440    89423210.456 8
     -2094.953                          50.900          47.600
  22078981.780   116025840.183 9      3000.251    22078980.120    90409751.265 8
      2337.859                          51.450          47.500
  22749260.380   119548165.559 8      3029.617    22749255.460    93154393.092 7
      2360.740                          50.300          41.750
  23346890.800   122688740.457 8     -2801.787    23346884.660    95601597.511 7
     -2183.212                          49.400          39.950
  24131566.700   126812251.152 8       -99.425    24131561.920    98814704.654 6
       -77.475                          46.700          35.150
  24782659.560   130233736.824 7        -4.878    24782654.320   101480812.162 5
        -3.800                          40.800          29.300
  25509490.820   134053281.456 7     -1790.632    25509489.960   104457086.687 6
     -1395.295                          44.200          35.500
 18  2 20  8 28 30.0000000  0 10G09G07G02G06G30G05G23G16G29G26
  20649201.600   108512297.332 9     -1655.988    20649199.260    84555033.598 9
     -1290.379                          52.100          50.800
  21103488.800   110899583.820 9      1489.935    21103484.260    86415258.994 8
      1160.989                          51.450          48.050
  21769189.440   114397841.557 8       -68.948    21769182.120    89141119.660 8
       -53.726                          49.300          46.400
  21853453.460   114840654.222 8     -2702.347    21853452.160    89486228.359 8
     -2105.724                          50.400          47.700
  22061888.560   115936014.559 9      2989.018    22061886.820    90339757.284 8
      2329.105                          51.250          47.550
  22731985.000   119457382.233 8      3023.271    22731980.020    93083652.838 7
      2355.797                          50.200          41.950
  23362900.260   122772869.368 8     -2805.933    23362893.640    95667152.460 7
     -2186.442                          49.050          40.050
  24132195.340   126815554.538 8      -119.971    24132190.640    98817278.684 6
       -93.484                          44.950          34.650
  24782742.720   130234172.850 7       -23.382    24782738.400   101481151.924 6
       -18.218                          41.550          33.350
  25519760.520   134107249.404 8     -1806.455    25519759.960   104499139.627 6
     -1407.627                          45.400          37.700
 18  2 20  8 29  0.0000000  0 10G09G07G02G06G30G05G23G16G29G26
  20658688.840   108562152.920 9     -1666.979    20658686.420    84593882.104 9
     -1298.942                          51.950          50.850
  21095032.500   110855146.247 9      1473.214    21095028.120    86380632.317 8
      1147.960                          51.300          48.250
  21769638.860   114400204.693 8       -87.897    21769631.840    89142961.059 8
       -68.489                          48.900          46.900
  21868921.680   114921940.101 9     -2716.124    21868920.500    89549567.976 8
     -2116.460                          50.600          47.800
  22044860.380   115846530.748 9      2977.366    22044858.680    90270029.643 8
      2320.026                          51.000          47.900
  22714746.540   119366792.852 8      3016.704    22714741.560    93013063.700 7
      2350.680                          49.800          42.900
  23378933.740   122857125.522 8     -2810.293    23378926.880    95732806.547 7
     -2189.841                          47.950          40.800
  24132941.740   126819476.810 8      -140.692    24132936.880    98820335.002 6
      -109.630                          45.950          36.100
  24782933.060   130235177.742 7       -42.649    24782928.960   101481934.879 5
       -33.230                          40.900          31.700
  25530119.680   134161686.889 7     -1821.995    25530119.120   104541558.473 7
     -1419.733                          43.850          38.800
 18  2 20  8 29 30.0000000  0 10G09G07G02G06G30G05G23G16G29G26
  20668236.680   108612327.444 9     -1677.192    20668234.240    84632979.117 9
     -1306.904                          51.850          50.800
  21086670.460   110811203.980 9      1457.193    21086666.180    86346391.594 8
      1135.476                          51.250          48.450
  21770194.500   114403125.035 8      -105.944    21770187.700    89145236.627 8
       -82.555                          49.150          46.800
  21884467.240   115003632.560 8     -2729.179    21884466.020    89613224.413 8
     -2126.634                          50.300          47.750
  22027896.900   115757387.330 9      2966.379    22027895.340    90200567.258 8
      2311.465                          51.050          47.900
  22697545.040   119276396.373 8      3010.644    22697540.140    92942624.875 7
      2345.956                          50.100          43.150
  23394990.420   122941503.911 8     -2813.952    23394983.220    95798555.895 7
     -2192.691                          47.850          40.650
  24133805.240   126824014.677 8      -160.909    24133800.600    98823870.962 6
      -125.385                          45.700          35.250
  24783231.420   130236747.205 7       -61.153    24783227.500   101483157.864 5
       -47.648                          41.800          29.100
  25540566.900   134216588.352 7     -1837.037    25540566.300   104584338.820 6
     -1431.456                          43.300          36.300
 18  2 20  8 30  0.0000000  0 10G09G07G02G06G30G05G23G16G29G26
  20677845.040   108662820.329 9     -1688.563    20677842.680    84672324.229 9
     -1315.763                          51.900          50.650
  21078403.120   110767758.849 9      1439.610    21078398.760    86312538.255 8
      1121.774                          51.400          48.100
  21770856.540   114406603.382 8      -125.535    21770849.580    89147947.022 8
       -97.819                          49.250          46.450
  21900089.720   115085729.559 9     -2743.586    21900088.600    89677196.082 8
     -2137.860                          50.550          47.450
  22010998.880   115668587.270 9      2954.010    22010997.340    90131372.424 8
      2301.828                          51.000          47.800
  22680380.520   119186195.200 9      3003.199    22680375.140    92872338.257 7
      2340.154                          50.550          42.900
  23411070.200   123026004.747 8     -2818.903    23411063.340    95864400.654 7
     -2196.549                          48.350          39.050
  24134785.920   126829168.871 8      -182.207    24134781.500    98827887.204 6
      -141.981                          45.450          34.600
  24783637.280   130238882.153 7       -80.936    24783633.980   101484821.380 5
       -63.069                          39.600          26.800
  25551102.340   134271952.631 7     -1853.497    25551101.860   104627479.833 6
     -1444.284                          42.700          35.950
 18  2 20  8 30 30.0000000  0 10G09G07G02G06G30G05G23G16G29G26
  20687514.780   108713635.200 9     -1699.158    20687512.440    84711920.216 9
     -1324.021                          51.800          50.900
  21070231.580   110724816.646 9      1422.992    21070227.000    86279076.798 8
      1108.825                          51.250          48.400
  21771625.720   114410644.625 8      -144.126    21771618.480    89151096.020 8
      -112.306                          48.750          47.000
  21915789.720   115168233.606 8     -2756.963    21915788.640    89741484.927 8
     -2148.283                          49.800          47.750
  21994167.420   115580137.684 9      2942.424    21994165.800    90062450.686 8
      2292.800                          50.850          48.150
  22663254.100   119096195.786 8      2996.692    22663249.600    92802208.866 7
      2335.086                          50.250          44.100
  23427174.120   123110631.573 8     -2822.939    23427167.420    95930343.582 7
     -2199.695                          48.150          40.550
  24135884.880   126834944.260 8      -202.790    24135880.760    98832387.481 6
      -158.019                          45.800          36.900
  24784151.740   130241586.386 6       -99.469    24784148.380   101486928.532 5
       -77.511                          38.150          29.000
  25561726.460   134327782.748 7     -1868.674    25561726.320   104670983.783 7
     -1456.109                          43.750          38.500
 18  2 20  8 31  0.0000000  0 10G09G07G02G06G30G05G23G16G29G26
  20697243.900   108764761.840 9     -1709.443    20697241.540    84751759.156 9
     -1332.033                          51.800          50.750
  21062154.300   110682369.835 9      1406.580    21062149.600    86246001.366 8
      1096.037                          51.150          48.350
  21772500.060   114415239.497 8      -162.415    21772492.820    89154676.433 8
      -126.557                          48.550          47.050
  21931564.840   115251132.993 8     -2769.894    21931563.720    89806081.824 8
     -2158.359                          50.100          47.450
  21977401.440   115492031.917 9      2931.194    21977399.780    89993796.849 8
      2284.049                          50.700          47.900
  22646164.920   119006390.882 8      2990.202    22646159.640    92732230.992 7
      2330.027                          49.950          43.100
  23443300.220   123195374.516 8     -2826.729    23443293.900    95996376.963 7
     -2202.646                          48.450          40.600
  24137100.700   126841332.479 8      -223.171    24137096.000    98837365.301 6
      -173.899                          45.800          35.300
  24784772.740   130244851.135 6      -118.241    24784769.340   101489472.459 6
       -92.144                          35.950          32.800
  25572437.100   134384067.812 7     -1883.778    25572436.960   104714842.258 6
     -1467.875                          43.850          36.800
 18  2 20  8 31 30.0000000  0 10G09G07G02G06G30G05G23G16G29G26
  20707033.160   108816204.449 9     -1720.642    20707030.780    84791844.299 9
     -1340.761                          52.200          50.650
  21054172.380   110640424.576 9      1389.092    21054167.640    86213316.758 8
      1082.409                          51.650          48.400
  21773480.880   114420393.489 8      -181.854    21773473.520    89158692.520 8
      -141.705                          49.400          46.400
  21947415.880   115334430.492 8     -2783.864    21947414.700    89870988.941 8
     -2169.246                          50.450          47.500
  21960702.260   115404277.633 9      2918.524    21960700.700    89925416.898 8
      2274.175                          51.050          47.900
  22629113.860   118916788.466 8      2982.669    22629108.860    92662410.946 7
      2324.158                          50.200          43.100
  23459449.340   123280237.806 8     -2831.554    23459442.880    96062504.152 7
     -2206.407                          49.300          40.750
  24138433.980   126848338.752 8      -244.317    24138429.360    98842824.686 6
      -190.381                          46.400          35.050
  24785502.160   130248681.225 7      -137.626    24785498.420   101492456.949 6
      -107.247                          40.700          32.950
  25583235.240   134440811.391 7     -1899.791    25583234.580   104759058.076 6
     -1480.357                          44.250          37.000
 18  2 20  8 32  0.0000000  0 10G09G07G02G30G06G05G23G16G29G26
  20716882.360   108867962.273 9     -1731.157    20716879.980    84832175.063 8
     -1348.954                          52.700          50.050
  21046286.040   110598982.399 9      1372.327    21046281.480    86181024.165 8
      1069.347                          52.100          47.350
  21774568.160   114426106.984 8      -200.439    21774560.860    89163144.582 8
      -156.187                          50.200          45.600
  21944070.480   115316877.547 9      2906.850    21944068.900    89857312.945 8
      2265.078                          51.800          47.000
  21963342.240   115418123.963 9     -2797.077    21963341.040    89936204.610 8
     -2179.541                          51.150          46.250
  22612101.920   118827390.446 9      2975.813    22612097.200    92592750.157 7
      2318.816                          51.350          42.750
  23475621.380   123365221.078 8     -2835.461    23475615.320    96128724.832 7
     -2209.452                          50.350          39.700
  24139885.020   126855963.262 8      -264.985    24139880.320    98848765.868 6
      -206.481                          47.800          33.950
  24786339.040   130253076.390 7      -156.820    24786334.920   101495881.808 5
      -122.196                          41.100          30.400
  25594120.340   134498012.076 8     -1914.972    25594119.840   104803630.035 6
     -1492.184                          44.800          34.400
 18  2 20  8 32 30.0000000  0 10G09G07G02G30G06G05G23G16G29G26
  20726790.720   108920031.209 9     -1740.471    20726788.360    84872748.248 8
     -1356.212                          51.850          50.450
  21038495.140   110558041.703 9      1356.583    21038490.780    86149122.336 8
      1057.077                          51.050          48.250
  21775761.340   114432376.838 8      -218.073    21775753.700    89168030.170 8
      -169.928                          49.200          46.200
  21927506.160   115229831.056 9      2896.003    21927504.460    89789484.514 8
      2256.625                          50.800          47.750
  21979342.860   115502207.742 8     -2808.971    21979341.720    90001724.407 8
     -2188.810                          50.000          47.400
  22595128.760   118738195.709 8      2970.069    22595124.000    92523247.763 7
      2314.340                          49.900          43.300
  23491815.360   123450320.555 8     -2838.189    23491809.180    96195036.062 7
     -2211.578                          48.850          41.200
  24141453.220   126864203.420 8      -284.653    24141447.900    98855186.755 6
      -221.809                          45.350          34.900
  24787282.040   130258033.368 7      -174.238    24787277.000   101499744.324 5
      -135.775                          41.100          28.150
  25605091.320   134555665.183 7     -1929.049    25605091.080   104848554.505 6
     -1503.160                          40.950          37.800
 18  2 20  8 33  0.0000000  0 10G09G07G02G30G06G05G23G16G29G26
  20736758.660   108972413.145 9     -1752.056    20736756.320    84913565.335 8
     -1365.237                          52.400          50.100
  21030800.500   110517606.506 9      1338.676    21030796.280    86117614.401 8
      1043.125                          51.950          47.600
  21777060.840   114439206.058 8      -237.751    21777053.180    89173351.635 8
      -185.261                          50.250          45.150
  21911010.020   115143143.499 9      2882.910    21911008.380    89721935.779 8
      2246.425                          51.650          47.150
  21995417.940   115586682.579 9     -2822.984    21995416.740    90067548.939 8
     -2199.729                          50.800          46.450
  22578195.080   118649209.322 9      2962.055    22578190.160    92453907.713 7
      2308.095                          51.100          42.850
  23508031.980   123535538.604 8     -2843.227    23508025.580    96261439.679 7
     -2215.503                          50.050          39.750
  24143138.900   126873062.498 8      -306.297    24143134.020    98862089.926 6
      -238.673                          46.350          35.350
  24788333.000   130263554.765 8      -194.331    24788328.800   101504046.685 5
      -151.418                          44.800          28.350
  25616148.240   134613771.805 8     -1945.324    25616148.080   104893832.407 6
     -1515.832                          44.700          34.800
 18  2 20  8 33 30.0000000  0 10G09G07G02G30G06G05G23G16G29G26
  20746785.860   109025106.268 9     -1761.235    20746783.500    84954624.893 8
     -1372.394                          52.050          50.150
  21023202.120   110477676.782 9      1322.954    21023197.920    86086500.344 8
      1030.874                          51.400          47.900
  21778466.620   114446593.845 8      -255.268    21778459.220    89179108.329 8
      -198.911                          49.600          45.550
  21894582.460   115056816.551 9      2871.885    21894581.000    89654668.044 8
      2237.832                          50.950          47.200
  22011566.720   115671545.109 8     -2834.854    22011565.480    90133675.553 8
     -2208.979                          50.400          46.650
  22561301.400   118560432.773 9      2956.012    22561297.040    92384731.198 7
      2303.386                          50.800          44.100
  23524270.720   123620873.425 8     -2846.121    23524264.360    96327934.285 7
     -2217.760                          49.000          39.800
  24144942.320   126882539.897 8      -325.760    24144937.740    98869474.898 6
      -253.844                          46.100          35.100
  24789490.600   130269639.413 7      -211.831    24789486.960   101508787.955 5
      -165.064                          44.000          28.700
  25627291.560   134672329.422 8     -1958.934    25627291.200   104939461.711 6
     -1526.441                          44.800          36.950
 18  2 20  8 34  0.0000000  0 10G09G07G02G30G06G05G23G16G29G26
  20756872.120   109078109.820 9     -1771.688    20756869.760    84995926.353 8
     -1380.535                          52.050          50.250
  21015700.280   110438254.036 9      1306.013    21015695.920    86055781.338 8
      1017.673                          51.600          47.950
  21779978.720   114454540.326 8      -273.864    21779971.560    89185300.371 8
      -213.401                          49.450          46.000
  21878224.040   114970852.860 9      2859.731    21878222.540    89587683.358 8
      2228.364                          50.950          47.300
  22027788.900   115756793.095 8     -2847.744    22027787.660    90200102.533 8
     -2219.021                          50.450          46.950
  22544448.100   118471868.281 9      2948.870    22544443.500    92315719.909 7
      2297.822                          50.800          43.850
  23540531.520   123706324.534 8     -2849.917    23540525.280    96394519.512 7
     -2220.717                          49.000          39.600
  24146863.640   126892635.577 8      -346.465    24146858.860    98877341.692 6
      -269.971                          46.350          34.800
  24790755.880   130276287.361 8      -230.621    24790752.560   101513968.197 5
      -179.705                          44.950          27.550
  25638520.380   134731336.557 8     -1974.288    25638520.040   104985441.313 6
     -1538.405                          44.900          35.500
 18  2 20  8 34 30.0000000  0 10G09G07G02G30G06G05G23G16G29G26
  20767016.640   109131419.690 9     -1781.923    20767014.360    85037466.494 8
     -1388.512                          52.100          50.000
  21008294.500   110399336.260 9      1289.078    21008290.020    86025455.807 8
      1004.477                          51.750          47.500
  21781596.500   114463042.403 8      -292.402    21781589.460    89191925.350 8
      -227.847                          49.600          45.800
  21861934.640   114885251.811 9      2847.468    21861933.240    89520981.244 8
      2218.806                          51.000          47.350
  22044083.420   115842420.974 9     -2860.393    22044082.320    90266825.537 8
     -2228.878                          50.650          46.350
  22527635.060   118383514.558 9      2941.939    22527630.440    92246872.850 7
      2292.421                          50.600          43.200
  23556813.640   123791888.359 8     -2853.790    23556807.180    96461192.577 6
     -2223.733                          48.650          38.400
  24148901.820   126903346.884 8      -366.995    24148897.120    98885688.149 6
      -285.971                          46.400          34.750
  24792127.480   130283495.100 7      -249.622    24792124.180   101519584.539 5
      -194.518                          43.050          31.000
  25649833.520   134790788.300 7     -1989.052    25649833.420   105031767.350 6
     -1549.909                          42.700          33.750
 18  2 20  8 35  0.0000000  0 10G09G07G02G30G06G05G23G16G29G26
  20777219.840   109185037.997 9     -1792.030    20777217.640    85079246.976 8
     -1396.388                          51.950          50.350
  21000985.620   110360927.813 9      1272.183    21000981.020    85995527.157 8
       991.313                          51.650          47.950
  21783320.720   114472103.348 8      -310.946    21783313.660    89198985.814 8
      -242.295                          49.400          46.350
  21845715.420   114800018.925 9      2835.279    21845713.980    89454566.018 8
      2209.309                          51.000          47.850
  22060450.400   115928429.451 9     -2872.844    22060449.300    90333845.103 8
     -2238.579                          50.750          47.000
  22510863.020   118295376.998 9      2934.759    22510858.280    92178194.226 7
      2286.824                          50.700          43.750
  23573117.520   123877566.836 8     -2857.384    23573111.380    96527954.951 7
     -2226.535                          48.800          39.750
  24151057.980   126914677.358 8      -387.528    24151053.460    98894517.067 6
      -301.973                          45.850          36.300
  24793606.140   130291265.266 7      -267.778    24793601.620   101525639.216 5
      -208.658                          43.600          31.850
  25661231.860   134850686.185 7     -2003.265    25661231.160   105078441.062 6
     -1560.987                          41.500          36.250
 18  2 20  8 35 30.0000000  0 10G09G07G02G30G06G05G23G16G29G26
  20787480.920   109238960.465 9     -1802.490    20787478.720    85121264.471 9
     -1404.539                          51.450          50.650
  20993773.240   110323026.829 9      1254.943    20993768.660    85965993.937 8
       977.878                          50.800          48.750
  21785150.700   114481719.732 8      -329.769    21785143.720    89206479.086 8
      -256.963                          48.750          46.950
  21829566.000   114715153.368 9      2822.753    21829564.580    89388437.010 8
      2199.549                          50.600          48.250
  22076888.660   116014812.733 8     -2885.744    22076887.540    90401156.716 8
     -2248.634                          49.850          48.050
  22494132.020   118207455.181 8      2927.159    22494127.420    92109683.729 8
      2280.904                          49.800          44.650
  23589442.700   123963356.146 8     -2861.593    23589436.700    96594803.701 7
     -2229.817                          47.200          40.050
  24153331.380   126926623.762 8      -408.452    24153326.240    98903825.969 6
      -318.274                          44.500          35.800
  24795191.380   130299594.245 7      -286.906    24795187.360   101532129.317 6
      -223.563                          43.150          34.600
  25672713.900   134911025.085 7     -2018.756    25672712.880   105125458.411 6
     -1573.055                          38.750          33.350
 18  2 20  8 36  0.0000000  0 10G09G07G02G30G06G05G23G16G29G26
  20797799.700   109293186.164 9     -1811.943    20797797.480    85163518.253 8
     -1411.905                          52.200          49.950
  20986657.640   110285634.290 9      1238.454    20986653.100    85936856.900 8
       965.028                          51.900          47.750
  21787086.460   114491891.523 8      -347.796    21787079.600    89214405.139 8
      -271.011                          50.250          45.950
  21813487.020   114630657.592 9      2810.942    21813485.560    89322596.146 8
      2190.345                          51.500          47.650
  22093397.820   116101568.387 9     -2897.454    22093396.520    90468758.498 8
     -2257.759                          51.050          46.650
  22477442.140   118119750.260 9      2920.419    22477437.640    92041342.237 7
      2275.652                          50.950          43.350
  23605788.940   124049255.773 8     -2864.555    23605782.760    96661738.420 7
     -2232.122                          48.850          39.050
  24155721.560   126939185.735 8      -428.397    24155717.340    98913614.514 6
      -333.813                          47.100          33.750
  24796882.800   130308481.663 7      -305.174    24796878.040   101539054.558 5
      -237.799                          43.800          31.900
  25684279.720   134971803.331 7     -2032.736    25684278.540   105172818.099 6
     -1583.948                          41.950          33.350
 18  2 20  8 36 30.0000000  0 10G09G07G02G30G06G05G23G16G29G26
  20808177.320   109347720.610 9     -1823.192    20808174.980    85206012.616 8
     -1420.669                          51.800          50.250
  20979640.300   110248757.662 9      1220.455    20979635.760    85908121.883 8
       951.005                          51.300          48.350
  21789129.160   114502625.038 8      -367.368    21789122.280    89222768.923 8
      -286.261                          49.400          46.900
  21797480.080   114546540.589 9      2797.389    21797478.600    89257050.442 8
      2179.784                          50.950          48.000
  22109978.540   116188700.485 8     -2910.873    22109977.260    90536653.625 8
     -2268.212                          50.200          47.200
  22460795.640   118032271.529 8      2911.964    22460790.980    91973176.984 7
      2269.063                          50.350          44.400
  23622157.360   124135271.497 8     -2869.269    23622150.780    96728763.608 7
     -2235.793                          48.300          38.550
  24158230.460   126952370.017 8      -449.899    24158225.920    98923887.991 6
      -350.569                          45.650          35.650
  24798681.300   130317933.683 7      -324.801    24798676.300   101546419.780 5
      -253.088                          40.900          29.600
  25695930.120   135033025.505 7     -2048.342    25695929.240   105220523.715 6
     -1596.108                          40.900          34.150
 18  2 20  8 37  0.0000000  0 10G09G07G30G02G06G05G23G16G29G26
  20818611.800   109402553.694 9     -1833.242    20818609.340    85248739.693 8
     -1428.500                          51.850          50.050
  20972719.620   110212388.904 9      1203.209    20972715.080    85879782.608 8
       937.565                          51.550          48.100
  21781543.980   114462795.603 9      2784.710    21781542.560    89191794.621 8
      2169.905                          51.350          47.800
  21791277.120   114513911.433 8      -385.936    21791269.840    89231563.506 8
      -300.729                          49.800          46.100
  22126628.620   116276197.414 8     -2923.095    22126627.320    90604833.028 8
     -2277.737                          50.300          46.800
  22444190.800   117945012.340 8      2904.388    22444186.200    91905182.815 7
      2263.158                          50.350          43.650
  23638545.880   124221393.564 8     -2872.972    23638539.840    96795871.649 7
     -2238.681                          47.800          39.550
  24160856.120   126966167.877 8      -470.890    24160851.100    98934639.535 6
      -366.929                          45.750          35.650
  24800585.580   130327940.634 7      -343.316    24800580.460   101554217.327 5
      -267.521                          42.050          31.300
  25707662.480   135094680.837 7     -2063.127    25707662.160   105268566.847 5
     -1607.633                          41.350          32.350
 18  2 20  8 37 30.0000000  0 10G09G07G30G02G06G05G23G16G29G26
  20829103.280   109457686.978 9     -1842.582    20829100.840    85291700.676 8
     -1435.778                          51.800          50.100
  20965896.340   110176531.785 9      1186.882    20965891.760    85851842.005 8
       924.844                          51.500          48.450
  21765679.620   114379427.568 9      2772.735    21765678.060    89126832.526 8
      2160.574                          51.300          47.900
  21793530.300   114525752.620 8      -403.845    21793523.000    89240790.397 8
      -314.685                          49.250          46.000
  22143348.120   116364059.214 8     -2934.709    22143346.880    90673296.739 8
     -2286.787                          50.400          46.200
  22427628.260   117857976.864 8      2897.539    22427624.060    91837362.971 7
      2257.823                          50.200          44.100
  23654954.960   124307623.675 8     -2876.062    23654949.180    96863063.867 6
     -2241.091                          48.400          38.300
  24163598.820   126980581.481 8      -490.451    24163593.780    98945870.935 6
      -382.168                          45.750          35.250
  24802595.280   130338504.438 7      -361.208    24802592.260   101562448.837 5
      -281.455                          40.100          28.500
  25719477.780   135156770.114 7     -2076.753    25719476.840   105316948.093 5
     -1618.252                          40.600          31.800
 18  2 20  8 38  0.0000000  0 10G09G07G30G02G06G05G23G16G29G26
  20839652.000   109513121.574 9     -1852.868    20839649.740    85334896.458 9
     -1443.793                          51.450          50.550
  20959171.060   110141189.630 9      1169.372    20959166.320    85824302.680 8
       911.200                          51.300          48.950
  21749887.800   114296440.973 9      2759.728    21749886.140    89062167.661 8
      2150.438                          51.100          48.700
  21795889.140   114538150.431 8      -422.640    21795881.880    89250451.019 8
      -329.329                          49.000          46.800
  22160136.900   116452285.460 8     -2946.937    22160135.920    90742044.433 8
     -2296.315                          50.000          47.250
  22411109.280   117771169.345 8      2889.685    22411105.000    91769720.749 8
      2251.702                          49.700          45.050
  23671384.780   124393963.038 8     -2879.778    23671378.540    96930341.240 6
     -2243.984                          47.850          38.100
  24166459.460   126995612.790 8      -511.404    24166454.400    98957583.666 6
      -398.496                          44.850          35.800
  24804711.560   130349626.781 7      -380.228    24804708.820   101571115.784 5
      -296.270                          42.700          30.500
  25731375.320   135219293.659 7     -2091.284    25731375.000   105365667.787 6
     -1629.571                          40.150          35.800
 18  2 20  8 38 30.0000000  0 10G09G07G30G02G06G05G23G16G29G26
  20850257.240   109568852.749 9     -1862.382    20850255.020    85378323.335 8
     -1451.206                          51.800          50.050
  20952543.120   110106359.704 9      1152.578    20952538.400    85797162.484 8
       898.113                          51.450          48.400
  21734168.340   114213834.493 9      2747.299    21734166.740    88997798.979 8
      2140.753                          51.400          48.600
  21798353.460   114551101.392 8      -440.778    21798346.420    89260542.660 8
      -343.464                          49.250          46.400
  22176994.060   116540869.937 8     -2958.649    22176992.960    90811071.278 8
     -2305.442                          50.350          46.700
  22394633.200   117684587.796 8      2882.423    22394629.140    91702254.609 7
      2246.044                          50.200          44.050
  23687834.660   124480407.712 8     -2883.143    23687828.180    96997700.671 6
     -2246.605                          48.050          37.600
  24169436.760   127011258.452 8      -531.701    24169432.060    98969775.050 6
      -414.313                          45.550          35.800
  24806933.820   130361303.512 7      -398.416    24806930.360   101580214.438 5
      -310.457                          44.000          32.450
  25743354.780   135282245.678 7     -2105.330    25743354.860   105414721.299 6
     -1640.516                          42.400          33.950
 18  2 20  8 39  0.0000000  0 10G09G07G30G02G06G05G23G16G29G26
  20860919.360   109624882.437 9     -1872.154    20860917.160    85421982.820 8
     -1458.821                          51.400          50.350
  20946013.180   110072045.344 9      1135.716    20946008.480    85770424.039 8
       884.974                          50.850          48.700
  21718522.240   114131613.356 9      2734.691    21718520.480    88933730.565 8
      2130.927                          50.950          48.550
  21800923.720   114564607.916 8      -458.955    21800916.580    89271067.220 8
      -357.629                          49.050          46.700
  22193919.320   116629813.039 8     -2970.158    22193918.400    90880377.562 8
     -2314.410                          49.800          46.700
  22378201.360   117598238.152 8      2874.969    22378197.140    91634969.159 8
      2240.234                          49.700          44.650
  23704305.060   124566959.652 8     -2886.293    23704298.980    97065143.702 6
     -2249.061                          47.300          38.200
  24172531.060   127027520.750 7      -551.765    24172526.220    98982446.977 6
      -429.949                          44.250          37.050
  24809261.840   130373536.793 7      -416.658    24809257.880   101589746.809 5
      -324.671                          40.450          30.200
  25755416.040   135345627.236 7     -2119.210    25755414.780   105464109.565 6
     -1651.331                          41.300          36.750
 18  2 20  8 39 30.0000000  0 10G09G07G30G02G06G05G23G16G29G26
  20871637.160   109681204.570 9     -1881.421    20871634.900    85465870.190 8
     -1466.042                          51.800          50.250
  20939580.620   110038242.831 9      1119.169    20939576.040    85744084.428 8
       872.080                          51.500          48.300
  21702948.880   114049774.873 9      2722.402    21702947.020    88869960.331 8
      2121.353                          51.600          48.300
  21803598.740   114578664.765 8      -476.883    21803591.500    89282020.607 8
      -371.598                          49.800          46.350
  22210911.460   116719107.135 8     -2981.491    22210910.460    90949957.363 8
     -2323.240                          50.200          46.400
  22361812.580   117512116.050 8      2867.708    22361808.860    91567861.057 7
      2234.578                          50.450          44.200
  23720794.440   124653613.403 8     -2889.426    23720788.480    97132666.029 6
     -2251.503                          48.250          37.750
  24175742.220   127044394.884 8      -571.885    24175737.280    98995595.669 6
      -445.625                          45.750          34.750
  24811694.860   130386321.114 6      -434.519    24811690.780   101599708.639 5
      -338.597                          37.950          31.050
  25767557.380   135409431.510 7     -2132.763    25767557.060   105513827.178 6
     -1661.894                          42.100          35.350
 18  2 20  8 40  0.0000000  0 10G09G07G30G02G06G05G23G16G29G26
  20882412.900   109737831.213 9     -1891.258    20882410.640    85509994.837 8
     -1473.706                          51.950          50.050
  20933248.180   110004966.059 9      1101.991    20933243.620    85718154.484 8
       858.695                          51.450          48.000
  21687451.260   113968334.452 9      2709.547    21687449.460    88806500.281 8
      2111.337                          51.400          48.150
  21806381.020   114593284.810 8      -495.227    21806373.580    89293412.846 8
      -385.891                          50.100          45.850
  22227972.340   116808762.751 8     -2993.106    22227971.180    91019818.863 8
     -2332.291                          50.300          45.350
  22345470.960   117426238.715 9      2860.028    22345466.700    91500943.645 7
      2228.594                          50.750          44.100
  23737305.960   124740381.054 8     -2892.728    23737299.820    97200277.149 6
     -2254.074                          48.500          38.100
  24179072.160   127061894.011 8      -592.182    24179067.100    99009231.344 6
      -461.441                          45.450          35.500
  24814235.120   130399668.965 7      -452.872    24814231.200   101610109.475 6
      -352.892                          41.200          33.000
  25779781.540   135473669.691 7     -2146.733    25779780.800   105563882.921 6
     -1672.777                          41.850          33.650
 18  2 20  8 40 30.0000000  0 10G09G07G30G02G06G05G23G16G29G26
  20893241.880   109794737.759 9     -1902.914    20893239.580    85554337.581 8
     -1482.791                          51.600          50.350
  20927011.500   109972192.376 9      1082.838    20927006.960    85692616.558 8
       843.770                          51.000          48.250
  21672025.340   113887270.739 9      2694.601    21672023.440    88743333.766 8
      2099.688                          51.000          48.450
  21809265.960   114608444.318 8      -515.566    21809258.540    89305225.439 8
      -401.740                          49.200          46.300
  22245097.120   116898753.691 8     -3006.580    22245095.980    91089941.647 8
     -2342.791                          49.800          46.200
  22329171.500   117340583.986 8      2850.223    22329167.420    91434199.692 8
      2220.953                          49.850          44.700
  23753834.340   124827238.227 8     -2897.879    23753828.320    97267958.000 6
     -2258.088                          47.550          38.350
  24182516.320   127079993.780 8      -614.596    24182511.260    99023335.031 6
      -478.912                          45.100          33.850
  24816877.740   130413555.585 7      -473.733    24816872.100   101620930.175 5
      -369.144                          39.950          26.500
  25792083.480   135538316.399 6     -2162.886    25792081.460   105614257.042 5
     -1685.367                          38.250          32.050
 18  2 20  8 41  0.0000000  0  9G09G07G30G02G06G05G23G16G29
  20904123.960   109851923.102 9     -1912.645    20904121.680    85598897.576 8
     -1490.373                          52.100          49.950
  20920870.800   109939922.457 9      1065.497    20920866.160    85667471.180 8
       830.257                          51.850          47.850
  21656671.500   113806586.015 9      2681.308    21656669.640    88680462.569 8
      2089.331                          51.850          48.100
  21812253.220   114624142.607 8      -534.091    21812246.020    89317457.866 8
      -416.175                          50.050          45.800
  22262285.280   116989077.309 9     -3018.172    22262284.120    91160323.675 8
     -2351.823                          50.850          45.500
  22312914.720   117255153.707 9      2842.030    22312910.460    91367630.664 7
      2214.568                          51.000          43.800
  23770379.820   124914184.318 8     -2901.356    23770373.760    97335708.170 7
     -2260.801                          48.850          38.650
  24186075.040   127098694.152 8      -635.212    24186070.080    99037906.787 6
      -494.969                          46.050          35.200
  24819622.700   130427980.545 7      -491.779    24819618.800   101632170.414 5
      -383.199                          43.750          27.950
 18  2 20  8 41 30.0000000  0  9G07G09G30G02G06G05G23G16G29
  20914833.540   109908195.958 9      1049.047    20914828.880    85642749.243 8
       817.439                          51.250          47.900
  20915066.200   109909424.725 9     -1921.421    20915063.880    85643704.027 8
     -1497.211                          51.750          49.800
  21641397.580   113726321.042 9      2669.051    21641395.740    88617918.444 8
      2079.781                          51.000          48.050
  21815350.400   114640417.972 8      -551.510    21815343.280    89330139.965 8
      -429.749                          49.450          45.950
  22279543.440   117079769.484 8     -3028.543    22279542.140    91230992.881 8
     -2359.904                          49.950          45.600
  22296708.440   117169988.177 9      2835.065    22296703.840    91301267.917 7
      2209.142                          50.600          43.600
  23786949.380   125001257.142 8     -2903.912    23786943.100    97403557.083 6
     -2262.790                          48.800          37.250
  24189755.020   127118033.137 8      -654.754    24189750.320    99052976.103 6
      -510.197                          45.450          34.400
  24822477.160   130442981.600 7      -509.122    24822472.680   101643859.515 6
      -396.716                          41.550          33.750
 18  2 20  8 42  0.0000000  0  9G07G09G30G02G05G06G23G16G29
  20908893.640   109876981.302 9      1031.601    20908888.960    85618426.151 8
       803.846                          51.800          47.900
  20926062.240   109967209.231 9     -1931.248    20926059.940    85688730.907 8
     -1504.868                          52.050          49.650
  21626197.760   113646445.651 9      2655.558    21626195.940    88555677.909 8
      2069.267                          51.600          48.050
  21818551.180   114657237.627 8      -570.131    21818543.840    89343246.188 8
      -444.257                          50.200          45.600
  22280546.660   117085057.432 9      2826.674    22280542.040    91235088.136 7
      2202.604                          51.050          43.650
  22296865.140   117170795.227 8     -3040.071    22296863.880    91301922.022 8
     -2368.887                          50.300          45.250
  23803536.540   125088423.338 8     -2907.563    23803530.320    97471478.755 6
     -2265.634                          48.400          38.100
  24193550.400   127137977.933 8      -675.441    24193545.500    99068517.513 6
      -526.315                          45.800          34.300
  24825434.340   130458525.281 7      -527.452    24825430.180   101655971.476 5
      -411.003                          43.750          28.700
 18  2 20  8 42 30.0000000  0  9G07G09G30G02G05G06G23G16G29
  20903053.300   109846290.001 9      1014.817    20903048.640    85594510.849 8
       790.767                          51.300          48.450
  20937113.940   110025286.375 9     -1940.280    20937111.540    85733985.806 8
     -1511.907                          51.750          50.050
  21611074.540   113566972.907 9      2642.767    21611072.880    88493751.107 8
      2059.300                          50.850          49.000
  21821857.440   114674611.639 8      -587.850    21821850.040    89356784.364 8
      -458.063                          49.350          47.100
  22264432.220   117000375.231 8      2819.027    22264427.340    91169102.010 7
      2196.646                          49.850          44.000
  22314251.740   117262162.742 8     -3050.749    22314250.500    91373117.455 8
     -2377.209                          49.650          46.050
  23820143.460   125175693.255 8     -2910.111    23820137.600    97539481.238 7
     -2267.620                          48.050          40.100
  24197463.380   127158539.552 8      -695.161    24197458.480    99084539.537 6
      -541.688                          45.500          36.250
  24828497.260   130474622.303 7      -545.231    24828492.840   101668514.600 5
      -424.854                          42.900          29.500
 18  2 20  8 43  0.0000000  0  9G07G09G30G02G05G06G23G16G29
  20897311.120   109816114.780 9       997.823    20897306.420    85570997.697 8
       777.525                          51.450          48.300
  20948219.520   110083647.020 9     -1949.611    20948217.120    85779461.636 8
     -1519.178                          51.850          49.850
  21596026.860   113487896.964 9      2629.737    21596025.140    88432133.502 8
      2049.146                          51.400          48.700
  21825267.480   114692531.678 8      -605.862    21825260.120    89370748.035 8
      -472.099                          50.000          46.450
  22248363.620   116915934.665 9      2811.164    22248359.060    91103304.178 7
      2190.518                          50.850          44.350
  22331701.420   117353861.246 8     -3061.420    22331700.160    91444570.816 8
     -2385.522                          50.100          45.400
  23836768.480   125263058.143 8     -2913.209    23836762.780    97607557.730 7
     -2270.033                          48.750          39.650
  24201491.780   127179709.144 8      -715.397    24201486.840    99101035.348 6
      -557.453                          46.350          35.850
  24831663.920   130491263.516 7      -563.164    24831659.220   101681481.795 5
      -438.836                          42.850          31.300
 18  2 20  8 43 30.0000000  0  9G07G09G30G02G05G06G23G16G29
  20891668.440   109786462.583 9       980.327    20891663.800    85547892.101 8
       763.892                          50.700          48.900
  20959380.160   110142296.322 9     -1959.158    20959377.780    85825162.386 9
     -1526.618                          51.300          50.550
  21581056.300   113409226.211 8      2616.239    21581054.580    88370831.645 8
      2038.630                          50.400          49.450
  21828782.360   114711003.606 8      -624.243    21828775.260    89385141.726 8
      -486.424                          48.450          47.150
  22232342.700   116831744.496 8      2802.736    22232338.020    91037701.449 8
      2183.951                          49.350          44.650
  22349214.780   117445894.308 8     -3072.581    22349213.300    91516284.854 8
     -2394.223                          49.350          46.400
  23853412.640   125350523.647 8     -2916.467    23853407.020    97675712.594 7
     -2272.574                          47.050          41.400
  24205637.120   127201492.740 8      -735.709    24205632.060    99118009.559 6
      -573.279                          44.500          36.100
  24834935.140   130508454.116 7      -581.398    24834931.200   101694877.064 6
      -453.047                          40.600          35.350
 18  2 20  8 44  0.0000000  0  9G07G09G30G02G05G06G23G16G29
  20886124.360   109757328.275 9       962.209    20886119.660    85525190.039 8
       749.773                          50.900          48.350
  20970594.460   110201227.206 9     -1969.357    20970592.140    85871082.552 8
     -1534.564                          51.650          50.200
  21566162.100   113330956.820 9      2602.076    21566160.500    88309842.523 8
      2027.593                          50.800          49.100
  21832401.040   114730020.517 8      -643.177    21832393.900    89399960.089 8
      -501.177                          49.000          46.600
  22216368.460   116747800.669 8      2793.707    22216364.120    90972290.679 7
      2176.914                          50.350          44.250
  22366790.100   117538253.228 8     -3084.229    22366788.680    91588252.816 8
     -2403.297                          49.750          46.250
  23870074.540   125438082.593 8     -2920.314    23870068.720    97743940.293 7
     -2275.571                          47.900          39.200
  24209897.940   127223883.685 8      -756.816    24209893.180    99135457.058 6
      -589.728                          44.550          37.250
  24838309.900   130526186.855 7      -600.397    24838305.460   101708694.772 5
      -467.845                          43.400          30.300
 18  2 20  8 44 30.0000000  0  9G07G09G30G02G05G06G23G16G29
  20880680.040   109728718.128 9       945.100    20880675.200    85502896.430 8
       736.442                          51.150          48.450
  20981863.180   110260444.060 9     -1978.471    20981860.920    85917225.546 8
     -1541.665                          51.700          50.350
  21551345.760   113253096.407 9      2588.632    21551344.100    88249172.100 8
      2017.117                          51.250          48.900
  21836124.540   114749587.529 8      -661.281    21836117.300    89415207.095 8
      -515.284                          49.350          46.400
  22200442.800   116664109.705 8      2785.617    22200437.940    90907076.933 8
      2170.611                          50.350          44.900
  22384427.960   117630940.760 8     -3094.955    22384426.740    91660476.854 8
     -2411.654                          49.300          46.350
  23886755.120   125525739.570 8     -2923.339    23886749.500    97812244.384 7
     -2277.929                          47.400          39.200
  24214275.280   127246887.258 8      -776.937    24214270.400    99153381.939 6
      -605.402                          45.300          36.300
  24841788.880   130544466.693 7      -618.472    24841784.180   101722938.784 5
      -481.929                          42.300          31.400
 18  2 20  8 45  0.0000000  0  9G07G09G30G02G05G06G23G16G29
  20875335.060   109700629.832 9       928.212    20875330.160    85481009.454 8
       723.282                          51.700          47.900
  20993185.500   110319943.298 9     -1987.292    20993183.180    85963588.585 8
     -1548.538                          52.100          49.700
  21536607.200   113175644.570 9      2575.542    21536605.400    88188820.035 8
      2006.916                          51.700          48.650
  21839952.180   114769701.629 8      -678.954    21839945.020    89430880.411 8
      -529.056                          50.200          45.650
  22184565.180   116580672.921 9      2777.607    22184560.760    90842061.255 7
      2164.370                          50.650          44.050
  22402127.240   117723951.735 8     -3105.119    22402126.060    91732952.905 8
     -2419.574                          50.150          45.300
  23903454.080   125613491.707 8     -2926.048    23903448.160    97880622.634 6
     -2280.040                          49.300          37.650
  24218768.680   127270500.061 8      -796.532    24218763.640    99171781.525 6
      -620.674                          46.450          35.200
  24845371.240   130563290.325 8      -635.871    24845366.920   101737606.464 5
      -495.484                          45.300          32.100
 18  2 20  8 45 30.0000000  0  9G07G09G30G02G05G06G23G16G29
  20870089.680   109673064.906 9       909.385    20870084.680    85459530.297 8
       708.611                          51.700          48.000
  21004561.400   110379724.550 9     -1997.949    21004559.160    86010171.370 8
     -1556.843                          52.000          49.800
  21521946.920   113098604.144 9      2560.465    21521945.080    88128788.564 8
      1995.169                          51.650          48.600
  21843883.980   114790362.676 9      -698.476    21843876.820    89446979.930 8
      -544.266                          50.550          45.800
  22168736.760   116497493.161 9      2767.677    22168732.280    90777245.862 7
      2156.632                          51.350          44.000
  22419887.800   117817284.068 8     -3117.126    22419886.760    91805679.376 8
     -2428.930                          50.100          45.250
  23920170.900   125701339.071 8     -2930.485    23920164.820    97949075.066 7
     -2283.495                          48.950          38.550
  24223377.860   127294722.167 8      -818.271    24223373.000    99190655.892 6
      -637.616                          45.800          34.550
  24849056.600   130582657.222 7      -655.541    24849052.760   101752697.525 4
      -510.807                          43.350          25.900
 18  2 20  8 46  0.0000000  0  9G07G09G30G02G05G06G23G16G29
  20864943.040   109646018.965 9       893.634    20864938.100    85438455.546 8
       696.338                          51.450          48.450
  21015989.820   110439781.630 9     -2005.753    21015987.500    86056969.091 8
     -1562.925                          51.900          50.000
  21507364.260   113021972.119 9      2548.349    21507362.480    88069075.340 8
      1985.728                          51.450          48.900
  21847918.800   114811565.023 8      -714.998    21847911.620    89463501.223 8
      -557.142                          50.200          46.200
  22152956.240   116414566.495 9      2760.774    22152951.760    90712627.686 8
      2151.254                          51.050          44.850
  22437707.900   117910929.964 8     -3125.836    22437707.080    91878650.173 8
     -2435.718                          50.200          45.050
  23936904.920   125789275.805 8     -2931.954    23936898.680    98017597.155 7
     -2284.642                          47.800          39.850
  24228101.960   127319548.105 8      -836.908    24228097.380    99210000.795 6
      -652.137                          46.100          35.200
  24852844.300   130602561.176 7      -671.423    24852839.380   101768207.013 5
      -523.188                          42.250          29.100
 18  2 20  8 46 30.0000000  0  9G07G09G30G02G05G06G23G16G29
  20859897.520   109619504.691 9       874.414    20859892.720    85417795.081 8
       681.361                          51.750          48.000
  21027472.820   110500125.500 9     -2016.808    21027470.580    86103990.278 8
     -1571.539                          52.100          49.700
  21492862.080   112945762.686 9      2532.736    21492860.200    88009691.395 8
      1973.562                          51.800          48.550
  21852058.580   114833320.061 8      -734.862    21852051.600    89480453.172 8
      -572.621                          50.050          45.950
  22137226.840   116331907.215 9      2750.384    22137222.160    90648217.849 7
      2143.156                          51.350          44.450
  22455589.580   118004898.727 8     -3138.013    22455588.860    91951872.561 8
     -2445.205                          50.300          45.150
  23953657.820   125877312.993 8     -2936.646    23953651.680    98086197.523 7
     -2288.297                          48.300          38.550
  24232943.300   127344989.324 8      -858.801    24232939.200    99229825.119 6
      -669.197                          46.600          35.550
  24856736.040   130623013.214 7      -691.410    24856732.140   101784143.773 4
      -538.754                          41.200          25.300
 18  2 20  8 47  0.0000000  0  9G07G09G30G02G05G06G23G16G29
  20854950.740   109593509.379 9       857.431    20854946.000    85397538.999 8
       668.128                          51.450          48.050
  21039007.680   110560741.921 9     -2025.506    21039005.520    86151223.845 8
     -1578.317                          51.950          49.450
  21478438.120   112869964.727 9      2519.454    21478436.220    87950628.087 8
      1963.212                          51.500          48.750
  21856300.780   114855613.984 8      -752.504    21856294.000    89497825.046 8
      -586.367                          49.800          46.150
  22121546.080   116249503.891 9      2742.168    22121541.360    90584007.476 8
      2136.754                          51.050          44.700
  22473529.640   118099174.463 8     -3147.898    22473529.020    92025334.153 8
     -2452.908                          49.650          45.400
  23970426.920   125965436.606 8     -2939.296    23970420.780    98154865.220 7
     -2290.363                          47.100          38.600
  24237899.040   127371032.029 8      -878.537    24237894.300    99250118.134 6
      -684.574                          46.400          33.250
  24860729.460   130643999.277 7      -708.896    24860726.200   101800496.502 5
      -552.380                          40.000          27.600
 18  2 20  8 47 30.0000000  0  9G07G09G30G02G05G06G23G16G29
  20850104.140   109568040.681 9       840.657    20850099.520    85377693.271 8
       655.060                          51.400          48.250
  21050595.600   110621636.841 9     -2033.938    21050593.460    86198674.432 8
     -1584.886                          51.850          49.600
  21464094.180   112794587.318 9      2505.993    21464092.440    87891892.479 8
      1952.723                          51.450          48.850
  21860646.940   114878453.172 8      -770.022    21860640.120    89515621.793 8
      -600.018                          49.950          46.250
  22105915.920   116167365.843 9      2733.916    22105911.080    90520003.814 8
      2130.326                          51.100          44.950
  22491528.780   118193761.460 8     -3157.692    22491528.140    92099038.272 8
     -2460.540                          49.350          45.650
  23987213.920   126053653.186 8     -2941.689    23987207.880    98223605.373 7
     -2292.225                          47.300          38.800
  24242970.540   127397682.340 8      -897.915    24242965.760    99270884.620 6
      -699.674                          44.850          36.800
  24864825.160   130665525.037 6      -726.652    24864822.020   101817291.017 5
      -566.223                          34.550          30.950
 18  2 20  8 48  0.0000000  0  9G07G09G30G02G05G06G23G16G29
  20845357.080   109543095.038 9       823.592    20845352.540    85358255.114 8
       641.760                          51.400          48.400
  21062235.520   110682804.876 9     -2042.668    21062233.320    86246337.826 8
     -1591.690                          51.900          49.650
  21449829.860   112719628.181 9      2492.511    21449828.140    87833482.768 8
      1942.217                          51.400          48.850
  21865096.020   114901832.672 8      -787.515    21865089.020    89533839.563 8
      -613.649                          50.050          45.800
  22090335.940   116085492.127 9      2725.507    22090331.120    90456206.119 8
      2123.772                          50.900          45.450
  22509586.040   118288652.594 8     -3167.164    22509585.440    92172979.387 8
     -2467.920                          49.800          45.750
  24004017.700   126141957.691 8     -2944.189    24004011.860    98292414.002 7
     -2294.177                          47.000          39.000
  24248156.780   127424935.816 8      -917.658    24248151.800    99292121.095 6
      -715.057                          45.750          34.150
  24869023.080   130687585.411 6      -743.944
                                        33.300
 18  2 20  8 48 30.0000000  0  9G07G09G30G02G05G06G23G16G29
  20840710.220   109518675.816 9       805.517    20840705.720    85339227.163 8
       627.676                          51.250          48.650
  21073927.840   110744248.002 9     -2052.439    21073925.520    86294215.582 8
     -1599.304                          51.900          49.900
  21435646.180   112645092.500 9      2477.751    21435644.560    87775403.039 8
      1930.717                          51.400          49.400
  21869648.400   114925754.887 8      -806.101    21869641.040    89552480.235 8
      -628.132                          50.050          46.100
  22074806.820   116003886.960 9      2715.944    22074801.900    90392617.694 8
      2116.320                          51.000          45.050
  22527701.280   118383848.208 8     -3177.982    22527700.660    92247157.758 8
     -2476.351                          49.750          45.750
  24020838.860   126230352.595 8     -2947.677    24020832.600    98361293.122 7
     -2296.893                          46.950          39.900
  24253458.100   127452794.730 8      -938.432    24253453.400    99313829.311 6
      -731.244                          45.700          34.850
  24873323.700   130710182.355 6      -761.579    24873319.280   101852090.865 6
      -593.443                          34.150          33.650
 18  2 20  8 49  0.0000000  0  9G07G09G30G02G05G06G23G16G29
  20836163.540   109494783.243 9       787.877    20836159.100    85320609.580 8
       613.931                          50.550          49.250
  21085672.220   110805964.586 9     -2061.547    21085669.760    86342306.420 8
     -1606.401                          51.350          50.350
  21421543.360   112570981.751 9      2463.398    21421541.780    87717654.422 8
      1919.532                          50.700          49.900
  21874303.680   114950218.057 8      -824.212    21874295.880    89571542.450 8
      -642.243                          49.000          46.950
  22059329.520   115922552.085 8      2706.921    22059324.440    90329239.857 8
      2109.289                          50.300          45.950
  22545873.800   118479344.972 8     -3188.087    22545873.080    92321570.791 8
     -2484.224                          48.800          46.650
  24037676.760   126318836.018 8     -2950.706    24037670.720    98430241.192 7
     -2299.253                          45.800          39.050
  24258874.380   127481257.273 7      -958.781    24258869.700    99336007.906 6
      -747.101                          43.750          35.800
  24877725.580   130733314.236 6      -779.050    24877721.780   101870111.65616
      -607.052                          34.100          32.500
 18  2 20  8 49 30.0000000  0  9G07G09G30G02G05G06G23G16G29
  20831716.800   109471415.808 9       770.742    20831712.320    85302401.193 8
       600.578                          50.950          48.350
  21097468.020   110867951.946 9     -2070.199    21097465.520    86390608.262 8
     -1613.143                          51.550          49.750
  21407521.440   112497296.322 9      2449.563    21407519.940    87660237.227 8
      1908.750                          51.050          49.050
  21879061.360   114975219.868 8      -841.892    21879053.560    89591024.363 8
      -656.020                          49.450          45.900
  22043903.440   115841487.451 9      2698.234    22043898.340    90266072.612 8
      2102.520                          50.750          45.250
  22564102.800   118575138.567 8     -3197.618    22564102.100    92396215.107 8
     -2491.652                          49.350          45.400
  24054531.080   126407406.049 8     -2953.135    24054525.120    98499256.760 7
     -2301.146                          45.400          39.100
  24264405.120   127510321.385 7      -978.191    24264400.560    99358655.257 6
      -762.228                          44.200          37.050
  24882229.200   130756978.288 6      -797.458
                                        33.650
 18  2 20  8 50  0.0000000  0  9G07G09G30G02G05G06G23G16G29
  20827370.760   109448577.103 9       752.630    20827366.280    85284604.810 8
       586.465                          51.850          48.200
  21109315.660   110930211.914 9     -2079.671    21109313.380    86439122.508 8
     -1620.523                          52.300          49.450
  21393581.380   112424041.049 9      2434.841    21393579.960    87603155.220 8
      1897.279                          51.900          49.000
  21883921.880   115000762.312 9      -860.231    21883914.560    89610927.560 8
      -670.311                          50.650          45.650
  22028529.560   115760698.412 9      2688.513    22028524.900    90203120.122 8
      2094.945                          51.400          44.800
  22582388.300   118671229.032 8     -3207.784    22582387.520    92471090.770 8
     -2499.573                          50.250          44.650
  24071402.320   126496065.069 8     -2956.613    24071396.600    98568341.669 6
     -2303.854                          47.800          36.500
  24270050.540   127539989.108 8      -998.717    24270046.140    99381772.933 6
      -778.224                          46.300          33.050
  24886833.780   130781175.651 6      -815.247
                                        36.700
 18  2 20  8 50 30.0000000  0  9G07G09G30G02G05G06G23G16G29
  20823124.960   109426265.297 9       734.530    20823120.420    85267219.004 8
       572.361                          52.200          47.550
  21121214.560   110992741.143 9     -2089.164    21121212.340    86487846.560 8
     -1627.921                          52.600          49.050
  21379723.240   112351215.729 9      2419.879    21379721.840    87546408.255 8
      1885.621                          52.250          48.800
  21888884.720   115026842.551 9      -878.738    21888877.600    89631249.807 8
      -684.732                          51.000          45.050
  22013208.340   115680184.500 9      2678.759    22013203.540    90140382.009 8
      2087.345                          51.950          44.500
  22600729.320   118767611.362 9     -3218.032    22600728.680    92546193.837 7
     -2507.559                          50.950          44.150
  24088290.020   126584809.859 8     -2959.964    24088283.860    98637493.415 6
     -2306.465                          49.150          33.000
  24275810.420   127570257.119 8     -1019.255    24275805.960    99405358.376 6
      -794.230                          46.650          34.050
  24891539.400   130805902.881 7      -833.562
                                        40.100
 18  2 20  8 51  0.0000000  0  9G07G09G30G02G05G06G23G16G29
  20818979.760   109404481.572 9       717.327    20818975.060    85250244.679 8
       558.956                          51.450          47.950
  21133164.740   111055539.426 9     -2097.779    21133162.400    86536780.285 8
     -1634.634                          51.900          49.450
  21365947.480   112278823.178 9      2405.836    21365946.020    87489998.518 8
      1874.679                          51.600          49.200
  21893949.980   115053460.486 8      -896.183    21893942.940    89651991.033 8
      -698.325                          49.850          45.900
  21997940.200   115599949.883 9      2669.815    21997935.460    90077861.536 8
      2080.375                          51.250          45.600
  22619125.480   118864283.588 8     -3227.152    22619124.840    92621522.816 8
     -2514.666                          49.950          44.800
  24105193.960   126673640.716 8     -2962.512    24105187.800    98706712.225 6
     -2308.451                          47.550          36.100
  24281684.600   127601125.873 7     -1038.925    24281680.080    99429411.944 6
      -809.552                          44.250          35.450
  24896345.640   130831160.161 6      -850.606
                                        35.800
 18  2 20  8 51 30.0000000  0  8G07G09G30G02G05G06G23G16
  20814935.120   109383226.197 9       699.702    20814930.320    85233682.061 8
       545.223                          51.400          48.650
  21145165.780   111118605.372 9     -2106.826    21145163.420    86585922.579 8
     -1641.683                          51.800          49.750
  21352254.380   112206865.068 9      2391.250    21352252.720    87433927.292 8
      1863.312                          51.650          49.450
  21899117.340   115080614.833 8      -914.152    21899110.180    89673150.252 8
      -712.326                          49.700          46.150
  21982725.340   115519995.835 9      2660.396    21982720.880    90015559.703 8
      2073.037                          50.700          45.950
  22637576.280   118961242.666 8     -3236.748    22637575.340    92697075.329 8
     -2522.142                          49.850          45.650
  24122113.960   126762556.407 8     -2965.334    24122108.000    98775997.133 6
     -2310.651                          46.500          38.050
  24287672.700   127632593.811 8     -1059.123    24287668.320    99453932.419 6
      -825.288                          44.700          36.600
 18  2 20  8 52  0.0000000  0  9G07G09G30G02G05G06G23G16G29
  20810990.840   109362498.561 9       682.311    20810985.920    85217530.664 8
       531.670                          51.950          47.850
  21157217.360   111181936.989 9     -2115.199    21157214.940    86635271.868 8
     -1648.209                          52.200          49.300
  21338644.120   112135342.367 9      2377.054    21338642.360    87378195.339 8
      1852.251                          52.150          49.150
  21904386.360   115108303.970 9      -931.716    21904379.140    89694726.194 8
      -726.013                          50.750          45.300
  21967564.000   115440323.175 9      2651.288    21967559.480    89953477.115 8
      2065.938                          51.600          44.850
  22656080.940   119058484.824 9     -3245.810    22656079.920    92772848.395 8
     -2529.204                          50.850          44.700
  24139049.680   126851555.512 8     -2967.725    24139044.220    98845347.033 6
     -2312.516                          48.300          37.500
  24293774.560   127664659.617 8     -1078.432    24293770.260    99478918.712 6
      -840.334                          46.800          35.550
  24906256.840   130883268.220 6      -885.044
                                        33.550
 18  2 20  8 52 30.0000000  0  8G07G09G30G02G05G06G23G16
  20807146.680   109342297.235 9       664.986    20807141.720    85201789.379 8
       518.171                          51.100          48.850
  21169318.900   111245531.253 9     -2123.755    21169316.600    86684825.821 8
     -1654.874                          51.600          50.000
  21325116.680   112064255.101 9      2362.747    21325114.760    87322802.685 8
      1841.103                          51.300          49.750
  21909756.700   115136525.150 8      -949.195    21909749.320    89716716.714 8
      -739.634                          49.400          46.800
  21952456.380   115360932.501 8      2642.111    21952452.000    89891614.256 8
      2058.789                          50.300          45.550
  22674638.480   119156005.284 8     -3254.865    22674637.400    92848838.337 8
     -2536.260                          49.450          45.100
  24156001.020   126940635.389 8     -2970.186    24155995.740    98914759.890 6
     -2314.432                          47.200          37.550
  24299989.660   127697319.499 7     -1098.289    24299984.980    99504367.949 6
      -855.809                          44.450          35.600
 18  2 20  8 53  0.0000000  0  8G07G09G30G02G05G06G23G16
  20803402.700   109322622.658 9       646.205    20803397.760    85186458.548 8
       503.537                          51.150          48.250
  21181470.360   111309387.438 9     -2133.744    21181468.160    86734583.875 8
     -1662.658                          51.650          49.700
  21311672.360   111993605.508 9      2346.826    21311670.440    87267751.077 8
      1828.695                          51.450          49.250
  21915228.120   115165277.249 8      -968.115    21915220.580    89739120.935 8
      -754.375                          49.750          46.100
  21937402.720   115281825.627 9      2631.379    21937398.360    89829972.538 8
      2050.424                          50.600          45.800
  22693248.460   119253801.639 8     -3265.181    22693247.280    92925043.252 7
     -2544.297                          49.650          44.350
  24172967.760   127029795.277 8     -2973.960    24172961.960    98984235.074 6
     -2317.374                          47.600          37.400
  24306317.900   127730573.529 8     -1119.025    24306313.160    99530280.143 6
      -871.968                          45.400          34.300
 18  2 20  8 53 30.0000000  0 10G07G09G30G02G05G06G23G16G29G13
  20799760.240   109303481.890 9       630.320    20799755.380    85171543.679 8
       491.159                          51.600          48.000
  21193672.720   111373511.073 9     -2140.742    21193670.600    86784550.326 8
     -1668.111                          52.000          49.300
  21298313.000   111923402.136 9      2333.773    21298311.120    87213047.177 8
      1818.525                          51.750          49.050
  21920801.520   115194566.205 8      -984.116    21920793.960    89761943.506 8
      -766.844                          50.000          45.450
  21922404.760   115203011.717 9      2623.165    21922400.520    89768559.112 8
      2044.023                          50.700          45.000
  22711911.740   119351877.666 8     -3272.734    22711910.480    93001466.118 7
     -2550.185                          50.200          43.950
  24189950.780   127119041.392 8     -2975.198    24189945.300    99053777.472 6
     -2318.338                          47.550          36.300
  24312760.000   127764427.537 8     -1137.296    24312755.280    99556659.875 6
      -886.209                          45.750          34.200
  24921878.120   130965354.828 6      -937.515
                                        35.400
  24988034.960   131313003.696 6      3369.424
                                        37.700
 18  2 20  8 54  0.0000000  0  9G07G09G30G05G02G06G23G16G13
  20796219.060   109284873.210 9       613.146    20796214.280    85157043.417 8
       477.776                          50.800          48.950
  21205925.360   111437899.104 9     -2148.968    21205923.180    86834722.806 8
     -1674.521                          51.300          49.850
  21285038.560   111853644.858 9      2319.399    21285036.820    87158690.871 8
      1807.325                          51.150          49.950
  21907462.680   115124491.116 8      2614.075    21907458.740    89707374.236 8
      2036.940                          50.400          46.050
  21926476.520   115224388.849 8     -1001.230    21926469.020    89785181.936 8
      -780.179                          49.300          46.450
  22730627.340   119450228.506 8     -3281.190    22730626.400    93078103.099 8
     -2556.773                          49.050          45.050
  24206949.900   127208371.043 8     -2977.363    24206943.780    99123384.983 6
     -2320.024                          46.950          36.250
  24319315.920   127798878.396 8     -1156.555    24319310.780    99583504.670 6
      -901.210                          44.750          35.950
  24968812.660   131211991.239 6      3367.915    24968810.160   102243100.261 5
      2624.345                          38.050          28.600
 18  2 20  8 54 30.0000000  0  9G07G09G30G05G02G06G23G16G13
  20792777.220   109266786.852 9       593.549    20792772.520    85142950.165 8
       462.508                          51.000          48.700
  21218226.220   111502540.439 9     -2159.568    21218224.000    86885092.662 8
     -1682.780                          51.700          49.600
  21271847.580   111784325.549 9      2302.647    21271845.820    87104675.850 8
      1794.272                          51.650          49.800
  21892574.940   115046255.546 9      2602.456    21892570.940    89646411.456 8
      2027.890                          50.550          45.850
  21932251.160   115254734.398 8     -1020.797    21932243.860    89808827.810 8
      -795.425                          49.750          46.050
  22749392.720   119548841.367 8     -3292.038    22749391.800    93154944.267 8
     -2565.225                          49.500          44.550
  24223962.620   127297773.535 8     -2981.845    24223956.940    99193049.209 6
     -2323.517                          47.800          35.900
  24325982.960   127833914.335 7     -1178.218    24325978.180    99610805.404 6
      -918.090                          44.400          35.400
  24949602.780   131111044.433 7      3363.340    24949598.940   102164440.468 5
      2620.794                          42.200          29.550
 18  2 20  8 55  0.0000000  0  9G07G09G30G05G02G06G23G16G13
  20789436.400   109249231.177 8       576.490    20789431.800    85129270.435 8
       449.214                          50.400          49.300
  21230576.580   111567442.053 9     -2167.502    21230574.360    86935665.320 8
     -1688.964                          50.750          50.200
  21258741.800   111715454.071 9      2288.445    21258739.920    87051009.773 8
      1783.205                          51.100          50.100
  21877743.360   114968315.579 8      2593.219    21877739.420    89585679.023 8
      2020.690                          49.650          46.650
  21938126.420   115285609.600 8     -1037.887    21938119.580    89832886.389 8
      -808.743                          48.800          47.150
  22768209.080   119647721.425 8     -3300.342    22768208.000    93231993.635 8
     -2571.696                          49.000          44.800
  24240990.500   127387255.914 8     -2983.896    24240985.000    99262775.680 6
     -2325.113                          46.250          38.000
  24332762.980   127869543.181 7     -1197.503    24332758.360    99638568.096 7
      -933.121                          44.000          38.700
  24930407.520   131010172.576 7      3361.537    24930404.800   102085839.007 6
      2619.381                          43.050          33.550
 18  2 20  8 55 30.0000000  0  9G07G09G30G05G02G06G23G16G13
  20786196.160   109232204.016 9       558.033    20786191.760    85116002.519 8
       434.831                          51.450          48.100
  21242975.700   111632600.315 9     -2176.863    21242973.620    86986437.984 8
     -1696.258                          51.850          49.300
  21245721.160   111647029.789 9      2272.562    21245719.260    86997692.163 8
      1770.827                          52.000          49.300
  21862967.980   114890670.257 9      2582.531    21862964.100    89525176.175 8
      2012.361                          50.900          45.300
  21944101.900   115317010.909 8     -1056.188    21944095.280    89857354.931 8
      -823.005                          49.950          46.050
  22787075.120   119746863.361 8     -3309.654    22787074.220    93309247.060 7
     -2578.952                          49.900          43.600
  24258033.140   127476815.365 8     -2987.378    24258027.420    99332562.241 6
     -2327.827                          47.750          34.700
  24339655.020   127905760.715 8     -1217.706    24339650.360    99666789.530 6
      -948.864                          45.250          36.600
  24911226.240   130909373.768 8      3358.180    24911222.660   102007294.528 6
      2616.768                          46.600          32.750
 18  2 20  8 56  0.0000000  0  9G07G30G09G05G02G06G23G16G13
  20783056.580   109215705.690 9       540.445    20783052.220    85103146.695 8
       421.126                          51.250          48.450
  21232785.880   111579054.349 9      2257.683    21232783.880    86944724.304 8
      1759.233                          51.900          49.400
  21255423.440   111698014.085 9     -2185.493    21255421.500    87037409.721 8
     -1702.983                          51.600          49.850
  21848249.120   114813321.976 9      2572.616    21848245.100    89464904.789 8
      2004.636                          50.850          45.650
  21950177.320   115348936.826 8     -1073.537    21950170.440    89882232.247 8
      -836.522                          49.800          46.300
  22805990.400   119846264.159 8     -3318.380    22805989.500    93386702.187 7
     -2585.751                          49.550          44.400
  24275090.280   127566450.863 8     -2989.781    24275084.340    99402408.018 6
     -2329.702                          47.350          36.450
  24346658.840   127942566.085 7     -1237.063    24346654.120    99695469.023 6
      -963.946                          44.100          35.850
  24892058.800   130808648.443 8      3355.637    24892055.300   101928807.342 6
      2614.785                          45.350          32.800
 18  2 20  8 56 30.0000000  0 10G07G30G09G05G02G06G23G16G13G29
  20780018.060   109199738.467 9       523.452    20780013.800    85090704.711 8
       407.885                          51.050          48.500
  21219936.880   111511532.299 9      2243.306    21219934.780    86892109.717 8
      1748.029                          51.600          49.500
  21267920.180   111763684.910 9     -2193.116    21267918.340    87088581.777 8
     -1708.923                          51.600          49.600
  21833587.740   114736275.589 9      2563.297    21833583.640    89404868.645 8
      1997.374                          51.000          45.950
  21956352.940   115381389.161 8     -1090.437    21956345.680    89907519.764 8
      -849.691                          49.650          46.000
  22824955.000   119945923.713 8     -3326.171    22824954.100    93464358.933 7
     -2591.823                          49.150          43.600
  24292162.240   127656164.447 8     -2991.558    24292156.280    99472314.656 6
     -2331.088                          47.150          35.350
  24353774.640   127979960.964 7     -1256.200    24353770.460    99724607.870 6
      -978.857                          43.900          35.850
  24872905.760   130708000.703 7      3353.792    24872902.180   101850380.575 6
      2613.343                          44.200          34.700
  24955780.500   131143511.411 6     -1040.979
                                        34.300
 18  2 20  8 57  0.0000000  0 10G07G30G09G05G02G06G23G16G13G29
  20777080.980   109184304.081 9       506.681    20777076.720    85078677.935 8
       394.816                          51.050          48.600
  21207174.580   111444466.606 9      2228.988    21207172.580    86839850.767 8
      1736.874                          51.650          49.300
  21280465.940   111829612.964 9     -2200.813    21280464.140    87139954.264 8
     -1714.921                          51.650          49.600
  21818984.660   114659534.309 9      2554.031    21818980.280    89345070.235 8
      1990.154                          50.850          45.850
  21962628.720   115414368.439 8     -1106.972    21962621.340    89933217.905 8
      -862.576                          49.800          46.050
  22843968.440   120045840.222 8     -3333.792    22843967.600    93542215.916 7
     -2597.762                          48.750          44.150
  24309248.980   127745956.371 8     -2993.381    24309243.960    99542282.336 6
     -2332.507                          47.200          36.900
  24361002.940   128017945.047 7     -1274.940    24360998.240    99754205.819 6
      -993.466                          44.050          35.850
  24853768.100   130607432.691 7      3352.045    24853765.060   101772015.963 6
      2611.984                          43.850          34.250
  24961774.560   131175007.736 6     -1057.555
                                        34.750
 18  2 20  8 57 30.0000000  0  9G07G30G09G05G02G06G23G16G13
  20774244.360   109169397.377 9       488.289    20774240.040    85067062.336 8
       380.486                          50.550          48.850
  21194498.460   111377853.687 9      2213.109    21194496.520    86787944.615 8
      1724.502                          51.100          49.950
  21293059.420   111895791.788 9     -2209.970    21293057.500    87191522.168 8
     -1722.054                          51.350          50.100
  21804438.780   114583095.280 9      2543.081    21804434.600    89285507.382 8
      1981.622                          50.600          46.750
  21969003.360   115447867.590 8     -1125.071    21968996.040    89959321.127 8
      -876.679                          48.850          46.800
  22863029.320   120146005.557 8     -3342.771    22863028.240    93620266.804 7
     -2604.757                          48.350          44.100
  24326349.920   127835820.841 8     -2996.449    24326344.480    99612306.582 6
     -2334.896                          46.950          36.850
  24368341.880   128056511.631 7     -1294.924    24368337.700    99784257.703 6
     -1009.034                          44.200          36.100
  24834644.760   130506939.825 7      3348.576    24834641.480   101693709.904 6
      2609.283                          42.900          33.800
 18  2 20  8 58  0.0000000  0  9G07G30G09G05G02G06G23G16G13
  20771508.220   109155018.964 8       470.289    20771503.940    85055858.384 8
       366.459                          50.400          49.250
  21181909.080   111311695.965 9      2197.553    21181907.080    86736393.142 8
      1712.380                          50.850          49.900
  21305700.540   111962221.017 9     -2218.683    21305698.520    87243285.185 8
     -1728.843                          50.550          50.350
  21789951.120   114506960.860 8      2532.643    21789946.400    89226181.851 8
      1973.489                          49.950          46.550
  21975476.760   115481886.041 8     -1142.604    21975469.580    89985828.995 8
      -890.341                          48.300          47.100
  22882137.040   120246417.537 8     -3351.245    22882136.060    93698509.872 8
     -2611.361                          47.650          44.650
  24343464.240   127925757.998 8     -2999.248    24343459.020    99682387.418 6
     -2337.078                          45.350          38.000
  24375791.860   128095660.400 7     -1314.761    24375786.840    99814763.245 6
     -1024.485                          43.300          35.700
  24815536.320   130406523.641 7      3345.740    24815532.960   101615463.551 6
      2607.073                          42.200          35.200
 18  2 20  8 58 30.0000000  0  9G07G30G09G05G02G06G23G16G13
  20768872.840   109141169.704 9       452.649    20768868.440    85045066.761 8
       352.715                          51.100          48.650
  21169406.700   111245995.895 9      2182.129    21169404.760    86685198.283 8
      1700.359                          51.650          49.450
  21318389.240   112028900.249 9     -2226.974    21318387.020    87295243.006 8
     -1735.305                          51.800          49.400
  21775522.000   114431134.261 9      2522.221    21775517.200    89167096.184 8
      1965.366                          51.100          46.450
  21982048.860   115516423.485 8     -1160.033    21982041.860    90012741.286 8
      -903.922                          49.000          46.400
  22901291.340   120347073.982 8     -3359.443    22901290.380    93776943.416 7
     -2617.751                          48.700          43.400
  24360592.660   128015767.510 8     -3001.752    24360587.020    99752524.634 6
     -2339.031                          47.100          36.350
  24383352.320   128135390.969 7     -1334.097    24383347.360    99845722.132 6
     -1039.554                          44.400          34.100
  24796442.920   130306185.610 7      3343.093    24796439.280   101537278.111 6
      2605.010                          44.400          34.000
 18  2 20  8 59  0.0000000  0  9G07G30G09G05G02G06G23G16G13
  20766338.980   109127853.894 9       435.805    20766334.520    85034690.811 8
       339.588                          50.950          48.850
  21156992.560   111180759.246 9      2167.675    21156990.700    86634364.549 8
      1689.099                          51.250          49.800
  21331126.060   112095832.459 9     -2234.468    21331123.740    87347397.967 8
     -1741.145                          51.650          49.450
  21761152.380   114355621.280 9      2512.705    21761147.640    89108254.910 8
      1957.952                          50.800          46.050
  21988720.280   115551482.751 8     -1176.562    21988713.580    90040060.191 8
      -916.802                          48.850          46.700
  22920492.380   120447976.067 8     -3366.596    22920491.560    93855568.369 7
     -2623.323                          48.600          43.950
  24377735.520   128105852.893 8     -3003.316    24377730.020    99822720.940 6
     -2340.251                          47.150          37.900
  24391023.900   128175705.615 7     -1352.571    24391019.160    99877136.120 6
     -1053.954                          44.400          35.050
  24777365.280   130205930.429 7      3341.266    24777361.540   101459157.248 6
      2603.583                          42.050          34.550
 18  2 20  8 59 30.0000000  0  9G07G30G09G05G02G06G23G16G13
  20763905.580   109115066.056 9       417.212    20763901.060    85024726.267 8
       325.100                          51.600          48.100
  21144665.940   111115982.263 9      2151.312    21144664.020    86583888.982 8
      1676.347                          51.850          49.050
  21343909.760   112163011.082 9     -2243.694    21343907.420    87399744.932 8
     -1748.333                          51.800          49.000
  21746841.900   114280418.519 9      2501.316    21746836.660    89049655.344 8
      1949.078                          51.550          45.800
  21995489.780   115587056.969 8     -1194.639    21995483.200    90067780.342 8
      -930.887                          49.450          45.750
  22939738.640   120549115.405 8     -3375.403    22939737.740    93934378.216 7
     -2630.185                          48.750          43.550
  24394891.440   128196007.738 8     -3006.471    24394885.520    99892971.438 6
     -2342.705                          47.250          34.950
  24398805.600   128216598.033 7     -1372.954    24398800.720    99909000.311 6
     -1069.836                          43.850          35.800
  24758302.620   130105754.303 8      3337.411    24758298.760   101381097.966 5
      2600.583                          44.750          32.250
                            4  1
RINEX FILE SPLICE; other post-header comments skipped       COMMENT
 18  2 20  9  0  0.0000000  0  9G07G30G09G05G02G06G16G23G13
  20761573.340   109102809.837 9       400.892    20761568.760    85015175.972 8
       312.384                          51.250          48.300
  21132427.680   111051670.088 9      2137.249    21132425.860    86533775.626 8
      1665.390                          51.600          49.400
  21356740.800   112230438.513 9     -2250.292    21356738.520    87452285.777 8
     -1753.475                          51.450          49.150
  21732591.300   114205531.689 9      2492.239    21732586.460    88991301.990 8
      1942.006                          51.050          46.100
  22002357.800   115623148.352 8     -1210.396    22002351.160    90095903.470 8
      -943.165                          48.950          46.150
  22959030.040   120650492.601 8     -3381.909    22959029.300    94013373.393 7
     -2635.255                          48.500          43.950
  24406697.080   128258070.237 7     -1390.796    24406692.920    99941316.300 6
     -1083.736                          42.100          37.750
  24412061.000   128286235.125 8     -3007.423    24412055.540    99963278.405 6
     -2343.451                          46.750          36.050
  24739255.720   130005661.285 7      3336.195    24739251.320   101303103.415 6
      2599.632                          43.800          34.800
 18  2 20  9  0 30.0000000  0  9G07G30G09G05G02G06G16G23G13
  20759342.020   109091083.840 9       382.048    20759337.440    85006038.838 8
       297.699                          51.700          48.350
  21120278.040   110987823.168 9      2120.438    21120276.240    86484024.787 8
      1652.289                          52.000          49.100
  21369618.800   112298112.435 9     -2259.878    21369616.440    87505018.682 8
     -1760.945                          52.150          48.900
  21718401.040   114130961.401 9      2480.412    21718396.180    88933195.274 8
      1932.789                          51.450          45.700
  22009323.720   115659754.323 8     -1228.669    22009316.900    90124427.565 8
      -957.406                          49.750          45.750
  22978366.040   120752103.476 8     -3390.834    22978365.160    94092550.675 7
     -2642.208                          49.700          43.450
  24414698.800   128300119.983 8     -1411.251    24414694.500    99974082.321 6
     -1099.676                          45.000          36.400
  24429244.300   128376532.836 8     -3011.112    24429238.680   100033640.194 6
     -2346.321                          46.550          36.200
  24720224.080   129905650.931 7      3332.423    24720219.960   101225173.349 6
      2596.698                          44.100          35.150
 18  2 20  9  1  0.0000000  0  9G07G30G09G05G02G06G16G23G13
  20757211.260   109079886.337 9       364.184    20757206.620    84997313.513 8
       283.779                          51.250          48.750
  21108216.900   110924441.410 9      2104.750    21108215.120    86434636.414 8
      1640.065                          51.450          50.000
  21382543.160   112366030.061 9     -2268.191    21382540.560    87557941.499 8
     -1767.423                          51.700          49.150
  21704271.100   114056708.627 9      2469.584    21704266.000    88875335.968 8
      1924.352                          51.050          46.000
  22016386.980   115696872.018 8     -1245.904    22016380.020    90153350.422 8
      -970.835                          49.250          45.750
  22997745.640   120853943.470 8     -3398.720    22997744.780    94171906.476 7
     -2648.354                          48.700          44.050
  24422809.860   128342743.347 7     -1430.676    24422805.240   100007295.281 6
     -1114.812                          43.600          36.100
  24446440.280   128466898.684 8     -3013.487    24446434.820   100104055.011 6
     -2348.175                          46.200          37.650
  24701207.780   129805721.784 7      3329.051    24701204.140   101147306.536 6
      2594.066                          41.700          35.200
 18  2 20  9  1 30.0000000  0  9G07G30G09G05G02G06G16G23G13
  20755181.740   109069221.164 9       346.588    20755177.100    84989002.994 8
       270.068                          50.800          48.950
  21096245.460   110861530.403 9      2089.104    21096243.480    86385614.851 8
      1627.873                          51.250          49.800
  21395514.380   112434194.227 9     -2276.247    21395511.880    87611056.421 8
     -1773.699                          51.300          49.350
  21690202.740   113982779.280 9      2458.821    21690198.020    88817728.687 8
      1915.965                          50.600          46.550
  22023548.140   115734503.692 8     -1263.054    22023540.880    90182673.827 8
      -984.197                          48.500          46.600
  23017168.840   120956013.600 8     -3406.276    23017168.160    94251441.595 8
     -2654.243                          47.650          44.650
  24431030.480   128385943.144 7     -1449.833    24431026.380   100040957.454 7
     -1129.742                          41.600          39.100
  24463650.040   128557335.949 8     -3015.830    24463644.540   100174525.533 6
     -2350.001                          46.050          36.950
  24682208.360   129705879.568 7      3326.425    24682204.360   101069507.398 6
      2592.021                          43.200          33.300
 18  2 20  9  2  0.0000000  0  9G07G30G09G05G02G06G16G23G13
  20753252.440   109059082.687 9       330.022    20753247.780    84981102.885 8
       257.160                          51.700          48.550
  21084362.640   110799085.871 9      2074.552    21084360.760    86336956.771 8
      1616.534                          51.850          49.450
  21408531.200   112502597.949 9     -2283.270    21408528.740    87664358.019 8
     -1779.170                          51.900          49.050
  21676194.920   113909169.032 9      2449.097    21676190.200    88760370.048 8
      1908.387                          51.300          46.150
  22030805.800   115772642.311 8     -1279.047    22030798.540    90212392.250 8
      -996.658                          49.300          45.600
  23036634.280   121058305.025 8     -3412.560    23036633.840    94331149.148 7
     -2659.142                          48.850          43.750
  24439359.480   128429712.345 8     -1467.671    24439355.480   100075063.284 6
     -1143.641                          44.850          33.950
  24480872.300   128647837.855 8     -3016.943    24480866.840   100245046.412 6
     -2350.870                          46.350          36.600
  24663224.380   129606118.800 7      3324.802    24663220.540   100991771.757 6
      2590.754                          41.950          33.600
 18  2 20  9  2 30.0000000  0  9G07G30G09G05G02G06G16G23G13
  20751424.180   109049475.113 9       311.696    20751419.440    84973616.466 8
       242.881                          51.950          47.900
  21072569.640   110737113.471 9      2058.313    21072567.760    86288666.600 8
      1603.879                          52.100          49.100
  21421594.080   112571244.238 9     -2291.819    21421591.760    87717848.603 8
     -1785.835                          52.200          48.600
  21662249.220   113835884.386 9      2437.771    21662244.800    88703265.131 8
      1899.563                          51.700          45.850
  22038160.200   115811290.433 8     -1296.369    22038153.380    90242507.653 8
     -1010.157                          49.750          44.750
  23056142.060   121160818.909 8     -3420.429    23056141.660    94411030.058 7
     -2665.271                          49.750          42.200
  24447797.520   128474053.530 8     -1486.919    24447793.420   100109614.808 6
     -1158.645                          44.700          34.150
  24498107.160   128738407.953 8     -3019.809    24498101.620   100315620.385 6
     -2353.101                          47.550          35.300
  24644257.100   129506444.729 7      3321.369    24644252.980   100914103.753 6
      2588.079                          44.250          32.750
 18  2 20  9  3  0.0000000  0  9G07G30G09G05G02G06G16G23G13
  20749696.920   109040398.069 9       293.901    20749692.140    84966543.451 8
       229.015                          51.350          48.650
  21060866.920   110675615.184 9      2042.246    21060864.980    86240745.869 8
      1591.361                          51.500          49.850
  21434703.060   112640132.369 9     -2299.979    21434700.880    87771527.650 8
     -1792.190                          51.500          49.350
  21648365.900   113762927.711 9      2426.585    21648361.740    88646415.778 8
      1890.847                          50.800          46.550
  22045611.180   115850447.118 8     -1313.450    22045604.840    90273019.369 8
     -1023.465                          48.600          46.250
  23075691.840   121263552.738 8     -3427.788    23075691.220    94491082.359 7
     -2671.004                          49.000          43.600
  24456344.060   128518965.375 7     -1506.296    24456339.220   100144611.053 6
     -1173.734                          43.050          36.250
  24515355.060   128829045.635 8     -3022.145    24515349.540   100386247.026 6
     -2354.925                          46.450          36.800
  24625306.640   129406858.675 7      3318.429    24625302.560   100836504.234 6
      2585.791                          43.850          34.600
 18  2 20  9  3 30.0000000  0  9G07G30G09G05G02G06G16G23G13
  20748069.660   109031846.561 9       277.364    20748064.880    84959879.943 8
       216.129                          51.700          48.600
  21049253.720   110614587.385 9      2027.479    21049251.840    86193191.748 8
      1579.854                          51.800          49.600
  21447856.800   112709256.097 9     -2307.078    21447854.740    87825390.268 8
     -1797.724                          51.900          48.950
  21634544.600   113690296.224 9      2416.682    21634540.260    88589819.800 8
      1883.129                          51.400          46.300
  22053157.760   115890105.670 8     -1329.198    22053151.620    90303922.120 8
     -1035.739                          49.300          45.900
  23095281.800   121366498.417 8     -3433.960    23095281.220    94571299.714 7
     -2675.814                          49.550          43.250
  24464997.940   128564441.146 7     -1524.228    24464993.580   100180046.675 6
     -1187.713                          43.550          37.300
  24532614.840   128919745.482 8     -3023.218    24532609.440   100456922.151 6
     -2355.759                          46.050          36.100
  24606372.100   129307355.839 8      3316.330    24606367.440   100758969.600 5
      2584.154                          45.050          31.150
 18  2 20  9  4  0.0000000  0  9G07G30G09G05G02G06G16G23G13
  20746544.060   109023829.392 9       258.829    20746539.280    84953632.797 8
       201.686                          51.400          48.600
  21037731.920   110554040.345 9      2010.772    21037730.040    86146012.255 8
      1566.837                          51.500          49.800
  21461056.880   112778623.046 9     -2315.731    21461054.940    87879442.420 8
     -1804.467                          51.400          49.200
  21620787.240   113618000.641 9      2404.730    21620783.200    88533485.577 8
      1873.817                          51.050          46.650
  22060801.460   115930273.377 8     -1346.879    22060795.160    90335221.624 8
     -1049.516                          48.850          45.900
  23114913.160   121469661.695 8     -3441.906    23114912.340    94651686.655 7
     -2682.006                          49.100          43.850
  24473760.080   128610487.916 7     -1543.689    24473755.880   100215927.243 6
     -1202.874                          41.950          36.400
  24549887.620   129010515.129 8     -3026.260    24549882.040   100527651.664 6
     -2358.126                          45.850          33.600
  24587455.100   129207945.553 8      3312.717    24587449.900   100681507.084 6
      2581.340                          45.100          33.750
 18  2 20  9  4 30.0000000  0  9G07G30G09G05G02G06G16G23G13
  20745118.960   109016340.475 9       241.226    20745114.160    84947797.285 8
       187.968                          51.500          48.650
  21026300.840   110493969.743 9      1994.869    21026298.980    86099204.010 8
      1554.445                          51.700          49.800
  21474301.840   112848226.279 9     -2323.634    21474300.040    87933678.681 8
     -1810.625                          51.600          49.000
  21607093.060   113546037.329 9      2393.687    21607088.800    88477410.271 8
      1865.211                          51.250          46.250
  22068540.700   115970942.699 8     -1363.613    22068534.240    90366911.998 8
     -1062.555                          49.200          45.950
  23134584.180   121573033.823 8     -3448.766    23134583.460    94732236.327 7
     -2687.351                          48.950          43.500
  24482629.980   128657098.935 7     -1562.594    24482625.520   100252247.491 6
     -1217.608                          41.800          35.000
  24567172.680   129101348.089 8     -3028.329    24567167.440   100598430.483 6
     -2359.739                          45.450          37.100
  24568554.620   129108623.698 8      3309.693    24568549.380   100604113.454 5
      2578.984                          44.750          31.950
 18  2 20  9  5  0.0000000  0  9G07G30G09G05G02G06G16G13G23
  20743794.360   109009380.044 9       223.004    20743789.660    84942373.575 8
       173.769                          51.900          48.050
  21014960.840   110434377.594 9      1978.172    21014958.980    86052768.575 8
      1541.433                          52.000          49.400
  21487591.640   112918065.225 9     -2332.088    21487589.900    87988098.611 8
     -1817.213                          51.950          48.200
  21593462.680   113474408.423 9      2381.811    21593458.560    88421595.533 8
      1855.956                          52.000          46.350
  22076375.280   116012112.730 8     -1380.797    22076368.360    90398992.540 8
     -1075.945                          49.950          45.250
  23154294.460   121676612.370 8     -3456.265    23154293.840    94812946.845 7
     -2693.194                          49.950          42.400
  24491606.680   128704272.779 7     -1582.044    24491602.500   100289006.297 6
     -1232.759                          44.300          34.550
  24549670.980   129009391.269 8      3305.979    24549666.960   100526789.495 6
      2576.090                          45.950          34.850
  24584469.420   129192244.287 8     -3031.063    24584464.740   100669258.520 6
     -2361.874                          46.650          35.850
 18  2 20  9  5 30.0000000  0  9G07G30G09G05G02G06G16G13G23
  20742570.520   109002948.902 9       206.496    20742565.860    84937362.300 8
       160.906                          51.050          48.900
  21003712.320   110375266.417 9      1963.266    21003710.460    86006707.930 8
      1529.817                          51.350          49.950
  21500926.400   112988139.836 9     -2338.706    21500924.520    88042702.183 8
     -1822.369                          51.150          48.800
  21579896.540   113403117.464 9      2371.664    21579892.160    88366044.130 8
      1848.050                          50.900          46.450
  22084305.000   116053783.125 8     -1396.391    22084297.880    90431462.981 8
     -1088.098                          49.100          45.900
  23174043.780   121780395.400 8     -3461.858    23174043.060    94893816.706 7
     -2697.556                          48.600          43.550
  24500690.720   128752008.392 7     -1599.762    24500686.320   100326202.835 6
     -1246.568                          42.100          36.500
  24530805.120   128910250.038 8      3304.117    24530800.680   100449536.561 6
      2574.634                          45.850          33.150
  24601778.660   129283204.180 7     -3032.110    24601773.600   100740136.268 6
     -2362.687                          44.400          35.300
 18  2 20  9  6  0.0000000  0  9G07G30G09G05G02G06G16G13G23
  20741447.180   108997045.853 9       188.310    20741442.520    84932762.529 8
       146.735                          51.800          48.250
  20992555.400   110316636.530 9      1946.626    20992553.540    85961022.326 8
      1516.852                          51.950          49.550
  21514305.640   113058447.906 9     -2347.195    21514303.660    88097487.676 8
     -1828.983                          51.950          48.300
  21566394.820   113332165.010 9      2359.756    21566390.340    88310756.504 8
      1838.771                          51.750          46.200
  22092329.420   116095950.830 8     -1413.567    22092321.920    90464320.925 8
     -1101.480                          49.500          45.600
  23193831.180   121884378.881 8     -3468.995    23193830.540    94974842.742 7
     -2703.115                          49.700          42.400
  24509880.960   128800303.618 7     -1618.688    24509877.020   100363835.428 6
     -1261.316                          43.750          34.700
  24511956.280   128811199.590 8      3300.402    24511951.440   100372354.429 5
      2571.741                          46.950          30.950
  24619099.420   129374225.619 8     -3034.636    24619094.580   100811061.942 6
     -2364.657                          46.250          33.900
 18  2 20  9  6 30.0000000  0  9G07G30G09G05G02G06G13G16G23
  20740424.140   108991669.917 9       170.022    20740419.500    84928573.493 8
       132.485                          51.300          48.600
  20981490.160   110258488.262 9      1929.854    20981488.260    85915712.002 8
      1503.782                          51.650          49.750
  21527728.960   113128987.162 9     -2355.564    21527726.780    88152453.311 8
     -1835.505                          51.500          48.650
  21552957.680   113261552.308 9      2347.703    21552953.300    88255733.627 8
      1829.379                          51.000          46.600
  22100447.940   116138613.421 8     -1430.705    22100440.660    90497564.494 8
     -1114.835                          49.350          45.250
  23213655.980   121988558.724 8     -3476.218    23213655.560    95056021.794 7
     -2708.742                          48.800          42.400
  24493124.780   128712240.020 8      3296.650    24493120.120   100295243.141 6
      2568.822                          46.250          32.650
  24519177.200   128849155.240 7     -1638.047    24519172.860   100401901.592 6
     -1276.403                          42.800          35.400
  24636431.840   129465306.787 8     -3037.205    24636427.100   100882034.214 6
     -2366.656                          45.350          36.300
 18  2 20  9  7  0.0000000  0  9G07G30G05G09G02G06G13G16G23
  20739501.660   108986822.187 9       152.721    20739497.020    84924796.044 8
       119.003                          51.600          48.200
  20970517.200   110200825.010 9      1913.924    20970515.300    85870779.598 8
      1491.369                          51.900          49.350
  21539586.120   113191283.505 9      2336.465    21539581.540    88200978.708 8
      1820.622                          51.600          46.100
  21541196.460   113199758.522 9     -2363.043    21541194.060    88207599.809 8
     -1841.333                          51.800          48.150
  22108660.520   116181771.251 8     -1446.925    22108653.500    90531193.970 8
     -1127.475                          49.900          44.600
  23233517.960   122092933.921 8     -3482.505    23233517.760    95137353.038 7
     -2713.644                          49.550          42.300
  24474311.220   128613373.774 8      3294.038    24474306.380   100218204.496 6
      2566.782                          47.150          32.650
  24528579.480   128898563.559 7     -1656.169    24528574.840   100440401.556 6
     -1290.522                          43.850          36.700
  24653775.680   129556449.140 8     -3038.997    24653770.900   100953054.130 6
     -2368.052                          46.400          35.150
 18  2 20  9  7 30.0000000  0  9G07G30G05G09G02G06G13G16G23
  20738679.740   108982503.191 9       135.357    20738675.140    84921430.603 8
       105.475                          51.500          48.500
  20959636.900   110143649.026 9      1897.921    20959635.060    85826226.899 8
      1478.901                          51.700          49.700
  21526280.420   113121361.188 9      2325.135    21526275.680    88146493.792 8
      1811.793                          51.550          46.750
  21554708.060   113270761.694 9     -2370.351    21554705.460    88262926.936 8
     -1847.027                          51.750          48.650
  22116967.240   116225423.432 8     -1463.098    22116960.260    90565208.653 8
     -1140.075                          49.350          45.650
  23253416.820   122197502.324 8     -3488.481    23253416.300    95218834.882 7
     -2718.298                          48.900          43.200
  24455515.840   128514602.537 8      3290.968    24455511.380   100141239.947 6
      2564.393                          46.350          33.550
  24538087.380   128948528.244 7     -1674.699    24538083.200   100479335.061 6
     -1304.961                          42.100          37.550
  24671131.240   129647652.677 8     -3040.850    24671126.300   101024121.758 6
     -2369.495                          47.000          36.550
 18  2 20  9  8  0.0000000  0  9G07G30G05G09G02G06G13G16G23
  20737958.380   108978712.400 9       117.138    20737953.760    84918476.743 8
        91.276                          51.650          48.450
  20948849.520   110086961.111 9      1881.018    20948847.700    85782054.513 8
      1465.729                          52.100          49.600
  21513040.920   113051786.776 9      2312.947    21513036.140    88092279.964 8
      1802.298                          51.500          46.350
  21568263.420   113341995.038 9     -2378.694    21568260.740    88318433.419 8
     -1853.529                          52.150          48.250
  22125367.600   116269567.759 8     -1480.080    22125360.640    90599606.821 8
     -1153.309                          49.550          45.150
  23273351.520   122302260.442 8     -3495.262    23273351.180    95300464.551 7
     -2723.581                          48.900          41.800
  24436738.600   128415926.889 8      3287.242    24436734.460   100064349.801 5
      2561.487                          46.950          31.850
  24547700.220   128999046.605 7     -1693.262    24547695.960   100518700.012 6
     -1319.423                          43.350          34.150
  24688498.380   129738916.297 8     -3043.519    24688493.880   101095236.148 6
     -2371.578                          47.300          35.950
 18  2 20  9  8 30.0000000  0  9G07G30G05G09G02G06G13G16G23
  20737337.080   108975447.260 9        99.579    20737332.420    84915932.488 8
        77.595                          51.300          48.800
  20938154.940   110030760.485 9      1864.699    20938153.100    85738261.823 8
      1453.014                          51.650          49.750
  21499867.540   112982560.152 9      2301.290    21499862.780    88038337.140 8
      1793.213                          51.050          46.650
  21581861.820   113413455.285 9     -2386.295    21581859.380    88374116.706 8
     -1859.452                          51.400          48.500
  22133860.680   116314200.433 8     -1496.369    22133853.720    90634385.514 8
     -1166.001                          48.800          45.350
  23293321.320   122407203.145 8     -3501.519    23293320.940    95382238.041 7
     -2728.456                          48.050          43.100
  24417979.120   128317344.943 8      3283.949    24417974.960    99987532.678 6
      2558.918                          46.350          32.750
  24557418.140   129050114.165 7     -1711.628    24557414.140   100558492.921 6
     -1333.737                          41.650          37.650
  24705876.340   129830237.031 8     -3045.423    24705871.100   101166395.089 6
     -2373.060                          45.400          36.100
 18  2 20  9  9  0.0000000  0  9G07G30G05G09G02G06G13G16G23
  20736816.500   108972711.113 9        83.354    20736811.740    84913800.413 8
        64.950                          52.050          48.400
  20927553.980   109975052.077 9      1849.708    20927552.100    85694852.681 8
      1441.331                          52.100          49.650
  21486761.500   112913687.389 9      2290.853    21486756.660    87984670.050 8
      1785.080                          51.600          46.150
  21595503.820   113485144.950 9     -2392.569    21595501.480    88429978.753 8
     -1864.341                          51.900          48.000
  22142447.180   116359323.123 8     -1511.275    22142440.200    90669546.028 8
     -1177.619                          50.000          44.650
  23313326.640   122512331.042 8     -3506.355    23313326.280    95464155.825 7
     -2732.228                          49.500          41.600
  24399238.640   128218861.666 8      3282.157    24399234.500    99910792.449 5
      2557.523                          46.900          31.550
  24567241.040   129101733.477 7     -1728.747    24567236.880   100598715.746 6
     -1347.075                          44.350          36.300
  24723265.620   129921617.844 8     -3045.996    24723260.040   101237600.853 6
     -2373.507                          46.900          34.600
 18  2 20  9  9 30.0000000  0  9G07G30G05G09G02G06G13G16G23
  20736395.020   108970496.068 9        65.356    20736390.300    84912074.418 8
        50.927                          51.600          48.400
  20917045.660   109919829.926 9      1832.788    20917043.640    85651822.445 8
      1428.147                          51.950          49.400
  21473721.700   112845163.153 9      2278.538    21473717.080    87931274.550 8
      1775.483                          51.400          46.450
  21609187.820   113557055.570 9     -2400.523    21609185.700    88486012.978 8
     -1870.540                          51.600          47.700
  22151125.320   116404926.926 8     -1527.966    22151118.360    90705081.443 8
     -1190.623                          49.200          44.850
  23333365.180   122617633.836 8     -3512.820    23333364.660    95546209.914 7
     -2737.265                          48.850          41.200
  24380515.160   128120469.814 8      3278.332    24380511.200    99834123.541 6
      2554.548                          46.400          32.850
  24577167.320   129153895.498 7     -1747.517    24577162.840   100639361.390 6
     -1361.710                          41.950          36.400
  24740664.800   130013050.724 8     -3048.552    24740659.660   101308847.200 6
     -2375.496                          45.900          33.100
 18  2 20  9 10  0.0000000  0  9G07G30G05G09G02G06G13G16G23
  20736074.880   108968813.511 9        46.328    20736070.080    84910763.335 8
        36.100                          51.500          48.750
  20906632.340   109865107.174 9      1815.012    20906630.220    85609181.352 8
      1414.296                          51.950          49.900
  21460750.800   112777001.247 9      2265.236    21460746.160    87878161.378 8
      1765.119                          51.000          46.200
  21622915.940   113629197.937 9     -2409.307    21622914.020    88542227.785 8
     -1877.383                          51.250          48.200
  22159896.860   116451021.632 8     -1545.440    22159890.100    90740999.374 8
     -1204.240                          49.150          45.350
  23353438.700   122723120.378 8     -3520.086    23353438.100    95628407.195 7
     -2742.926                          48.400          41.300
  24361811.540   128022182.878 8      3273.661    24361807.440    99757536.335 5
      2550.905                          46.150          31.200
  24587198.080   129206609.447 7     -1766.985    24587194.320   100680437.234 6
     -1376.870                          42.700          35.900
  24758075.740   130104546.709 8     -3051.775    24758070.660   101380142.693 6
     -2378.009                          46.700          33.700
 18  2 20  9 10 30.0000000  0  9G07G30G05G09G02G06G13G16G23
  20735853.840   108967652.240 9        30.052    20735849.060    84909858.461 8
        23.418                          51.650          48.600
  20896312.200   109810874.128 9      1799.715    20896309.960    85566921.860 8
      1402.377                          52.000          49.800
  21447847.120   112709192.471 9      2254.466    21447842.620    87825323.375 8
      1756.727                          51.350          46.400
  21636685.940   113701559.962 9     -2415.675    21636684.060    88598613.766 8
     -1882.345                          51.450          48.100
  22168759.500   116497594.681 8     -1560.253    22168752.760    90777290.018 8
     -1215.784                          49.800          44.750
  23373544.360   122828776.757 8     -3524.697    23373544.020    95710736.794 7
     -2746.519                          48.300          40.650
  24343125.980   127923989.944 8      3271.707    24343121.520    99681022.393 6
      2549.385                          46.350          33.000
  24597332.120   129259863.330 7     -1784.022    24597328.100   100721933.727 6
     -1390.147                          44.400          36.900
  24775496.660   130196094.209 8     -3052.313    24775491.860   101451478.360 5
     -2378.428                          46.000          31.000
 18  2 20  9 11  0.0000000  0  9G07G30G05G09G02G06G13G16G23
  20735733.080   108967017.860 9        11.639    20735728.320    84909364.132 8
         9.068                          51.350          49.050
  20886086.620   109757138.203 9      1782.182    20886084.320    85525049.729 8
      1388.713                          51.700          50.250
  21435012.100   112641744.703 9      2241.479    21435007.840    87772766.683 8
      1746.605                          50.700          47.000
  21650498.740   113774146.681 9     -2423.979    21650496.840    88655174.818 8
     -1888.815                          51.250          48.300
  22177714.280   116544651.206 8     -1577.268    22177707.480    90813957.424 8
     -1229.042                          49.200          45.800
  23393683.060   122934606.067 8     -3531.316    23393682.660    95793201.148 7
     -2751.678                          47.750          42.300
  24324459.480   127825898.393 8      3267.201    24324455.360    99604587.441 6
      2545.873                          45.000          34.900
  24607569.880   129313661.188 7     -1803.064    24607565.580   100763854.136 6
     -1404.986                          41.950          37.050
  24792928.100   130287698.371 8     -3055.160    24792923.860   101522858.157 6
     -2380.649                          44.800          35.050
 18  2 20  9 11 30.0000000  0  9G07G30G05G09G02G06G13G16G23
  20735711.840   108966906.640 9        -4.408    20735707.160    84909277.475 8
        -3.435                          50.950          49.300
  20875955.240   109703897.245 9      1767.019    20875952.920    85483563.280 8
      1376.898                          51.600          50.400
  21422245.660   112574656.903 9      2230.846    21422241.300    87720490.475 8
      1738.320                          50.950          46.850
  21664353.640   113846953.606 9     -2429.909    21664351.500    88711907.464 8
     -1893.437                          51.000          48.700
  22186759.820   116592185.411 8     -1591.802    22186752.920    90850997.040 8
     -1240.365                          48.800          46.200
  23413853.320   123040601.998 8     -3535.411    23413852.960    95875795.317 7
     -2754.867                          47.200          42.600
  24305812.020   127727905.650 7      3265.356    24305807.680    99528229.443 6
      2544.433                          44.050          35.900
  24617909.780   129367997.451 7     -1819.890    24617905.420   100806194.075 6
     -1418.096                          43.600          36.750
  24810369.980   130379355.397 7     -3055.724    24810365.040   101594279.175 6
     -2381.082                          43.950          36.000
 18  2 20  9 12  0.0000000  0  9G07G30G05G09G02G06G13G16G23
  20735791.140   108967323.120 9       -22.681    20735786.420    84909602.005 8
       -17.674                          52.000          48.350
  20865919.140   109651157.302 9      1749.557    20865916.740    85442467.225 8
      1363.291                          52.250          49.550
  21409549.060   112507936.473 9      2217.807    21409544.700    87668500.528 8
      1728.162                          51.350          46.250
  21678251.060   113919984.418 9     -2438.103    21678248.820    88768814.574 8
     -1899.821                          52.000          47.700
  22195896.860   116640199.906 8     -1608.521    22195889.900    90888410.879 8
     -1253.396                          50.300          44.600
  23434055.900   123146766.295 8     -3541.559    23434055.280    95958520.681 7
     -2759.659                          49.100          40.200
  24287184.140   127630017.038 8      3261.354    24287180.500    99451952.645 6
      2541.314                          45.800          35.350
  24628352.640   129422874.980 7     -1838.302    24628348.600   100848955.765 6
     -1432.443                          44.350          35.000
  24827822.760   130471069.126 8     -3058.089    24827817.680   101665744.321 5
     -2382.928                          46.950          32.000
 18  2 20  9 12 30.0000000  0  9G07G30G05G09G02G06G13G16G23
  20735969.740   108968261.509 9       -39.977    20735964.980    84910333.220 8
       -31.150                          51.450          48.550
  20855977.520   109598914.311 9      1733.168    20855975.340    85401758.420 8
      1350.521                          51.800          50.000
  21396921.680   112441579.638 9      2205.863    21396917.620    87616793.913 8
      1718.855                          51.050          46.850
  21692189.860   113993232.773 9     -2445.184    21692187.560    88825891.204 8
     -1905.338                          51.700          47.850
  22205123.900   116688687.866 8     -1624.119    22205116.720    90926193.670 8
     -1265.550                          49.800          44.800
  23454288.900   123253090.760 8     -3546.761    23454288.180    96041370.867 7
     -2763.712                          48.000          41.600
  24268575.660   127532228.274 8      3257.932    24268571.880    99375753.633 6
      2538.649                          46.050          36.300
  24638897.200   129478286.467 7     -1855.902    24638892.580   100892133.550 6
     -1446.158                          44.100          37.750
  24845285.040   130562833.594 8     -3059.668    24845280.080   101737249.082 6
     -2384.157                          45.050          32.500
 18  2 20  9 13  0.0000000  0  9G07G30G05G09G02G06G13G16G23
  20736247.040   108969718.646 9       -57.211    20736242.220    84911468.649 8
       -44.580                          51.550          48.450
  20846130.260   109547166.992 9      1716.585    20846128.120    85361435.841 8
      1337.599                          51.950          49.850
  21384363.460   112375585.707 9      2193.678    21384359.140    87565370.062 8
      1709.359                          51.000          46.600
  21706169.340   114066695.087 9     -2452.238    21706167.140    88883134.541 8
     -1910.836                          51.500          47.800
  22214440.160   116737645.232 8     -1639.701    22214433.060    90964342.226 8
     -1277.689                          49.700          44.600
  23474551.400   123359569.876 8     -3551.768    23474550.880    96124341.551 7
     -2767.612                          47.750          41.750
  24249986.240   127434537.625 8      3254.654    24249981.980    99299631.072 6
      2536.097                          46.200          36.400
  24649542.640   129534227.744 8     -1873.661    24649538.040   100935724.155 6
     -1459.995                          45.750          36.100
  24862756.480   130654645.727 8     -3061.045    24862751.620   101808790.873 6
     -2385.236                          45.800          33.100
 18  2 20  9 13 30.0000000  0  9G07G30G05G09G02G06G13G16G23
  20736624.800   108971703.786 9       -74.062    20736620.000    84913015.511 8
       -57.710                          50.850          49.000
  20836379.520   109495926.368 9      1700.270    20836377.420    85321508.082 8
      1324.886                          51.400          50.400
  21371876.660   112309967.017 9      2181.822    21371872.400    87514238.620 8
      1700.121                          50.650          47.500
  21720191.020   114140380.146 9     -2459.059    21720189.100    88940551.441 8
     -1916.150                          50.650          48.650
  22223847.220   116787079.542 8     -1654.902    22223840.060    91002862.449 8
     -1289.536                          48.850          45.600
  23494844.500   123466210.605 8     -3556.629    23494844.040    96207438.160 7
     -2771.402                          46.950          40.900
  24231417.260   127336955.752 8      3251.587    24231412.820    99223593.328 6
      2533.706                          44.750          36.850
  24660290.180   129590706.676 7     -1890.692    24660285.940   100979733.711 6
     -1473.269                          43.650          35.550
  24880238.980   130746514.845 8     -3062.387    24880233.680   101880377.137 6
     -2386.280                          44.700          35.100
 18  2 20  9 14  0.0000000  0  9G07G30G05G09G02G06G13G16G23
  20737102.340   108974213.134 9       -92.299    20737097.500    84914970.847 8
       -71.921                          51.850          48.050
  20826724.760   109445190.256 9      1682.868    20826722.660    85281973.454 8
      1311.325                          52.100          49.950
  21359461.080   112244722.049 9      2168.729    21359456.840    87463398.379 8
      1689.918                          51.500          46.550
  21734254.280   114214283.475 9     -2466.834    21734252.320    88998138.430 8
     -1922.209                          51.600          47.700
  22233343.980   116836985.763 8     -1671.190    22233336.840    91041750.397 8
     -1302.228                          49.900          44.600
  23515167.020   123573006.431 8     -3562.246    23515166.680    96290655.627 7
     -2775.777                          47.750          40.300
  24212868.240   127239480.117 8      3247.480    24212864.040    99147638.309 6
      2530.507                          46.550          34.250
  24671138.960   129647717.708 8     -1909.249    24671134.520   101024157.927 6
     -1487.727                          45.450          35.200
  24897731.100   130838436.643 8     -3064.562    24897725.720   101952004.420 6
     -2387.972                          44.850          33.000
 18  2 20  9 14 30.0000000  0  9G07G30G05G09G02G06G13G16G23
  20737678.700   108977242.065 9      -110.101    20737673.880    84917331.058 8
       -85.792                          50.750          49.150
  20817165.440   109394955.854 9      1665.634    20817163.420    85242829.776 9
      1297.896                          51.400          50.700
  21347116.060   112179848.040 9      2155.831    21347111.540    87412847.193 8
      1679.867                          50.800          48.050
  21748358.200   114288400.028 9     -2474.543    21748356.140    89055891.570 8
     -1928.216                          50.650          48.800
  22242929.460   116887357.945 8     -1687.271    22242922.520    91081001.405 8
     -1314.757                          48.450          46.250
  23535517.780   123679950.552 8     -3567.720    23535517.320    96373988.647 7
     -2780.046                          47.350          41.100
  24194339.020   127142107.403 8      3243.671    24194334.380    99071763.479 6
      2527.537                          44.600          36.700
  24682087.880   129705255.183 7     -1927.082    24682083.580   101068992.297 6
     -1501.620                          44.100          38.350
  24915232.300   130930406.669 7     -3066.925    24915227.520   102023669.255 6
     -2389.815                          43.850          37.000
 18  2 20  9 15  0.0000000  0  9G07G30G05G09G02G06G13G16G23
  20738354.600   108980794.099 9      -127.894    20738349.780    84920098.870 8
       -99.657                          51.400          48.900
  20807702.560   109345228.223 9      1648.361    20807700.520    85204080.987 9
      1284.438                          51.750          50.650
  21334843.040   112115352.443 9      2142.764    21334838.660    87362590.896 8
      1669.687                          51.250          47.750
  21762503.140   114362732.665 9     -2482.182    21762501.180    89113813.081 8
     -1934.169                          51.050          48.600
  22252604.040   116938198.030 8     -1703.265    22252597.220    91120617.021 8
     -1327.220                          49.050          45.400
  23555896.940   123787043.831 8     -3572.963    23555896.480    96457437.923 7
     -2784.127                          46.350          41.300
  24175829.940   127044841.470 8      3239.569    24175825.660    98995971.853 6
      2524.342                          45.650          36.300
  24693137.260   129763320.781 8     -1945.043    24693132.440   101114238.234 6
     -1515.613                          45.050          34.500
  24932743.420   131022428.021 8     -3069.077    24932738.060   102095374.134 5
     -2391.489                          45.650          32.150
 18  2 20  9 15 30.0000000  0  9G07G30G05G09G02G06G13G16G23
  20739129.500   108984866.170 9      -143.627    20739124.660    84923271.913 8
      -111.917                          51.000          49.050
  20798335.860   109296006.250 9      1633.092    20798333.960    85165726.221 9
      1272.540                          51.350          50.800
  21322641.940   112051234.161 9      2131.780    21322637.180    87312628.583 8
      1661.127                          51.050          47.600
  21776688.680   114437278.081 9     -2487.576    21776686.760    89171900.389 8
     -1938.370                          50.750          48.600
  22262366.940   116989502.013 8     -1717.052    22262360.020    91160594.106 8
     -1337.964                          48.950          45.450
  23576303.380   123894281.214 8     -3575.966    23576302.920    96540999.452 7
     -2786.471                          46.450          40.550
  24157341.180   126947682.807 8      3237.658    24157337.340    98920263.867 6
      2522.852                          45.500          36.300
  24704286.420   129821910.352 8     -1960.888    24704282.020   101159892.451 6
     -1527.966                          44.850          34.700
  24950264.000   131114497.803 7     -3069.155    24950258.460   102167116.676 6
     -2391.553                          43.850          36.200
 18  2 20  9 16  0.0000000  0  9G07G30G05G09G02G06G13G16G23
  20740003.280   108989457.618 9      -161.526    20739998.460    84926849.664 8
      -125.864                          51.600          48.350
  20789065.500   109247290.818 9      1615.476    20789063.720    85127766.157 8
      1258.813                          51.950          50.100
  21310512.920   111987495.194 9      2118.509    21310508.240    87262961.869 8
      1650.787                          51.450          47.500
  21790914.500   114512034.959 9     -2495.255    21790912.520    89230152.492 8
     -1944.354                          51.100          48.100
  22272217.580   117041267.544 8     -1732.988    22272210.500    91200930.850 7
     -1350.382                          49.650          44.300
  23596736.720   124001659.341 8     -3581.367    23596736.380    96624670.670 7
     -2790.675                          47.050          40.650
  24138872.360   126850631.088 8      3233.639    24138868.700    98844639.176 6
      2519.721                          45.450          34.650
  24715534.960   129881021.148 8     -1978.793    24715530.640   101205952.822 6
     -1541.916                          45.850          37.000
  24967793.300   131206615.161 8     -3071.116    24967788.200   102238896.328 6
     -2393.084                          45.600          34.050
 18  2 20  9 16 30.0000000  0  9G07G30G05G09G02G06G13G16G23
  20740975.940   108994569.265 9      -179.044    20740971.120    84930832.755 8
      -139.516                          51.800          48.350
  20779892.180   109199084.310 9      1598.412    20779890.360    85090202.650 8
      1245.516                          52.200          50.150
  21298456.640   111924138.842 9      2105.536    21298451.800    87213593.280 8
      1640.678                          51.750          47.000
  21805180.600   114587003.561 9     -2502.400    21805178.560    89288569.557 8
     -1949.923                          51.800          47.550
  22282156.020   117093493.958 8     -1748.533    22282148.680    91241626.726 7
     -1362.495                          49.750          44.100
  23617196.640   124109176.646 8     -3586.115    23617196.620    96708450.342 7
     -2794.377                          48.250          40.100
  24120424.320   126753688.043 8      3229.604    24120420.820    98769099.194 6
      2516.576                          46.550          35.250
  24726882.500   129940652.673 8     -1996.297    24726877.600   101252418.923 6
     -1555.556                          46.450          35.150
  24985331.920   131298780.648 7     -3073.168    24985326.580   102310713.525 5
     -2394.679                          44.250          32.300
 18  2 20  9 17  0.0000000  0  9G07G30G05G09G02G06G13G16G23
  20742047.800   109000202.067 9      -196.796    20742043.020    84935221.957 8
      -153.348                          51.150          48.750
  20770816.160   109151389.187 9      1580.917    20770814.300    85053037.638 9
      1231.883                          51.850          50.700
  21286473.860   111861168.414 9      2092.214    21286468.860    87164525.410 8
      1630.297                          51.350          47.600
  21819487.160   114662184.200 9     -2509.991    21819485.040    89347151.858 8
     -1955.838                          51.250          48.500
  22292181.960   117146180.615 8     -1764.110    22292174.760    91282681.240 7
     -1374.632                          49.350          44.200
  23637682.760   124216831.542 8     -3591.058    23637682.940    96792337.204 7
     -2798.229                          47.600          41.500
  24101997.500   126656856.038 8      3225.449    24101994.340    98693645.724 6
      2513.338                          45.750          35.750
  24738328.960   130000804.303 8     -2013.898    24738324.700   101299290.319 6
     -1569.274                          45.650          34.350
  25002879.640   131390995.038 8     -3074.934    25002874.560   102382568.779 5
     -2396.058                          45.450          31.850
 18  2 20  9 17 30.0000000  0  9G07G30G05G09G02G06G13G16G23
  20743217.460   109006348.868 9      -213.445    20743212.700    84940011.675 8
      -166.321                          50.850          49.000
  20761836.440   109104200.424 9      1564.508    20761834.560    85016267.194 9
      1219.098                          51.500          50.850
  21274563.580   111798579.591 9      2079.866    21274558.720    87115754.911 8
      1620.676                          50.950          47.600
  21833832.600   114737569.746 9     -2516.236    21833830.440    89405893.827 8
     -1960.704                          50.950          48.400
  22302293.900   117199319.570 8     -1778.769    22302286.940    91324088.189 8
     -1386.055                          48.700          44.950
  23658193.520   124324614.915 8     -3594.912    23658193.400    96876324.226 7
     -2801.232                          47.650          42.750
  24083591.000   126560129.847 7      3222.722    24083588.060    98618274.739 6
      2511.213                          44.350          36.700
  24749872.880   130061467.930 8     -2030.513    24749868.080   101346560.674 6
     -1582.218                          46.300          33.850
  25020435.520   131483251.690 7     -3075.764    25020430.420   102454457.019 6
     -2396.703                          44.450          33.600
 18  2 20  9 18  0.0000000  0  9G07G30G05G09G02G06G13G16G23
  20744486.060   109013015.569 9      -230.530    20744481.280    84945206.511 8
      -179.633                          51.600          48.500
  20752954.480   109057525.499 9      1547.601    20752952.600    84979897.141 8
      1205.924                          52.100          50.250
  21262727.620   111736381.278 9      2067.066    21262722.640    87067288.697 8
      1610.701                          51.600          47.050
  21848218.000   114813165.576 9     -2523.044    21848215.920    89464799.644 8
     -1966.009                          51.650          47.950
  22312492.920   117252915.283 8     -1793.820    22312485.860    91365851.064 7
     -1397.781                          49.450          44.200
  23678729.320   124432530.298 8     -3598.922    23678728.940    96960414.089 7
     -2804.356                          48.950          41.000
  24065206.120   126463516.672 8      3218.797    24065202.260    98542991.745 6
      2508.153                          45.500          34.750
  24761515.140   130122647.558 8     -2047.762    24761509.720   101394233.125 6
     -1595.659                          46.350          34.100
  25038000.620   131575556.359 8     -3077.346    25037995.780   102526382.660 6
     -2397.934                          44.950          33.350
 18  2 20  9 18 30.0000000  0  9G30G07G05G09G02G06G13G16G23
  20744170.100   109011363.441 9      1529.740    20744168.240    84943926.714 8
      1192.006                          51.800          50.400
  20745853.140   109020199.555 9      -248.529    20745848.420    84950804.422 8
      -193.658                          51.350          48.650
  21250965.740   111674572.985 9      2053.301    21250960.960    87019126.401 8
      1599.976                          51.350          47.500
  21862642.940   114888968.637 9     -2530.642    21862640.920    89523866.946 8
     -1971.929                          51.400          47.900
  22322777.740   117306963.606 8     -1809.599    22322770.860    91407966.614 7
     -1410.078                          48.950          44.350
  23699289.280   124540572.687 8     -3603.995    23699288.760    97044602.917 7
     -2808.309                          48.800          40.950
  24046842.700   126367015.487 8      3214.161    24046838.160    98467796.049 6
      2504.544                          44.700          35.700
  24773254.540   130184339.336 8     -2065.292    24773250.220   101442304.628 6
     -1609.317                          46.700          34.400
  25055574.400   131667906.150 8     -3079.614    25055569.480   102598343.456 6
     -2399.703                          44.800          33.850
 18  2 20  9 19  0.0000000  0  9G30G07G05G09G02G06G13G16G23
  20735482.800   108965712.149 9      1513.480    20735481.000    84908354.302 9
      1179.336                          51.250          50.750
  20747317.920   109027897.036 9      -264.877    20747313.180    84956802.455 8
      -206.397                          50.950          48.800
  21239278.020   111613153.833 9      2041.056    21239273.240    86971267.314 8
      1590.433                          50.900          47.900
  21877106.300   114964974.790 9     -2536.666    21877104.440    89583092.483 8
     -1976.624                          50.600          48.450
  22333147.780   117361459.370 8     -1823.724    22333141.300    91450430.821 8
     -1421.083                          48.450          44.950
  23719872.340   124648736.065 8     -3607.159    23719871.560    97128886.024 7
     -2810.774                          48.000          41.650
  24028500.120   126270623.921 7      3211.435    24028495.860    98392685.763 6
      2502.418                          43.900          36.650
  24785090.640   130246537.554 8     -2081.437    24785085.640   101490770.777 6
     -1621.896                          45.200          33.900
  25073155.900   131760297.738 7     -3079.982    25073151.300   102670336.862 6
     -2399.987                          43.800          34.250
 18  2 20  9 19 30.0000000  0  9G30G07G05G09G02G06G13G16G23
  20726894.120   108920578.733 9      1495.955    20726892.300    84873185.418 8
      1165.680                          51.850          50.400
  20748881.460   109036113.368 9      -282.390    20748876.680    84963204.792 8
      -220.044                          51.500          48.400
  21227665.900   111552132.101 9      2027.529    21227661.240    86923717.912 8
      1579.892                          51.350          47.400
  21891609.340   115041189.085 9     -2543.811    21891607.560    89642480.233 8
     -1982.190                          51.100          48.100
  22343604.060   117416406.673 8     -1838.964    22343597.540    91493246.868 8
     -1432.960                          49.000          44.500
  23740478.700   124757023.638 8     -3611.427    23740477.680    97213265.932 7
     -2814.100                          48.150          41.000
  24010179.820   126174348.300 8      3207.471    24010175.000    98317665.829 6
      2499.329                          46.250          35.300
  24797023.840   130309246.597 8     -2098.508    24797018.360   101539634.974 6
     -1635.200                          46.400          34.050
  25090746.680   131852736.224 8     -3081.874    25090741.780   102742366.876 6
     -2401.457                          45.150          33.800
 18  2 20  9 20  0.0000000  0  9G30G07G05G09G02G06G13G16G23
  20718403.220   108875958.485 9      1479.337    20718401.340    84838416.401 8
      1152.730                          52.200          50.150
  20750542.500   109044842.019 9      -298.917    20750537.720    84970006.336 8
      -232.922                          51.700          48.250
  21216128.520   111491504.168 9      2014.861    21216124.280    86876475.369 8
      1570.022                          51.500          47.100
  21906150.780   115117604.818 9     -2549.950    21906149.040    89702024.927 8
     -1986.976                          51.300          47.700
  22354144.660   117471797.705 8     -1853.283    22354137.920    91536408.685 7
     -1444.117                          49.450          44.250
  23761107.200   124865426.709 8     -3614.862    23761106.360    97297735.821 7
     -2816.777                          48.400          40.700
  23991880.860   126078184.291 8      3204.210    23991875.800    98242732.847 6
      2496.790                          46.200          36.550
  24809052.460   130372458.304 8     -2115.111    24809048.240   101588890.790 6
     -1648.143                          46.250          33.300
  25108344.760   131945215.221 8     -3082.813    25108339.440   102814428.377 6
     -2402.193                          45.800          34.800
 18  2 20  9 20 30.0000000  0  9G30G07G05G09G02G06G13G16G23
  20710011.320   108831858.640 9      1462.108    20710009.380    84804052.900 8
      1139.307                          51.800          50.200
  20752302.140   109054088.756 9      -316.017    20752297.320    84977211.581 8
      -246.247                          51.350          48.450
  21204667.900   111431278.022 9      2001.646    21204663.600    86829545.897 8
      1559.725                          51.300          47.150
  21920731.600   115194227.279 9     -2556.514    21920729.900    89761730.718 8
     -1992.088                          51.400          47.600
  22364770.420   117527636.855 8     -1867.847    22364763.400    91579919.690 7
     -1455.465                          48.650          44.350
  23781758.220   124973948.607 8     -3618.440    23781757.780    97382298.304 7
     -2819.563                          47.700          40.300
  23973604.140   125982139.132 8      3200.509    23973599.060    98167892.517 6
      2493.904                          46.150          37.050
  24821177.600   130436176.789 8     -2131.415    24821173.840   101638541.582 5
     -1660.838                          46.350          31.050
  25125951.860   132037740.480 8     -3084.056    25125946.800   102886526.000 5
     -2403.157                          45.250          32.200
 18  2 20  9 21  0.0000000  0 10G30G07G05G09G02G06G13G16G28G23
  20701717.200   108788272.860 9      1445.180    20701715.340    84770089.972 9
      1126.114                          51.300          50.600
  20754158.780   109063845.659 9      -332.967    20754154.040    84984814.365 8
      -259.455                          50.600          48.950
  21193282.540   111371448.172 9      1988.329    21193278.320    86782925.244 8
      1549.348                          50.650          48.000
  21935350.280   115271048.114 9     -2563.407    21935348.360    89821591.083 8
     -1997.460                          50.550          48.250
  22375479.720   117583914.446 8     -1882.473    22375472.700    91623772.338 8
     -1466.861                          48.100          45.300
  23802429.720   125082579.202 8     -3622.168    23802429.360    97466945.492 7
     -2822.471                          45.950          41.100
  23955348.600   125886206.379 8      3196.770    23955343.600    98093139.745 6
      2490.989                          45.200          37.850
  24833397.620   130500392.703 7     -2147.975    24833392.260   101688580.006 5
     -1673.746                          44.300          32.400
  25017430.140                        3239.350

  25143566.200   132130304.189 7     -3085.374    25143560.940   102958653.579 6
     -2404.187                          43.900          35.950
 18  2 20  9 21 30.0000000  0 10G30G07G05G09G02G06G13G16G28G23
  20693522.260   108745208.255 9      1426.279    20693520.400    84736533.150 8
      1111.387                          51.850          50.450
  20756113.480   109074117.932 9      -351.469    20756108.780    84992818.725 8
      -273.872                          51.350          48.600
  21181974.460   111312022.980 9      1973.581    21181970.220    86736619.894 8
      1537.856                          51.150          47.650
  21950007.500   115348072.446 9     -2571.447    21950005.580    89881610.010 8
     -2003.727                          51.000          47.900
  22386273.380   117640634.672 8     -1898.462    22386266.500    91667969.894 7
     -1479.322                          49.250          44.450
  23823122.520   125191321.638 8     -3627.176    23823122.520    97551679.800 7
     -2826.373                          46.450          41.200
  23937115.380   125790392.578 8      3191.277    23937111.220    98018479.661 6
      2486.710                          45.650          37.700
  24845712.500   130565109.458 8     -2166.021    24845708.600   101739008.607 6
     -1687.810                          44.650          34.250
  24998936.260   131370301.079 6      3239.548    24998934.880   102366461.177 6
      2524.317                          37.800          34.400
  25161188.880   132222911.797 8     -3088.117    25161183.780   103030815.354 6
     -2406.323                          45.750          34.800
 18  2 20  9 22  0.0000000  0 10G30G07G05G09G02G06G13G16G28G23
  20685426.680   108702665.660 9      1409.368    20685424.740    84703383.089 9
      1098.210                          50.950          50.650
  20758166.180   109084904.893 9      -368.236    20758161.440    85001224.148 8
      -286.937                          50.650          49.150
  21170743.620   111253004.536 8      1960.362    21170739.180    86690631.492 8
      1527.555                          50.400          47.950
  21964703.280   115425299.252 8     -2577.727    21964701.460    89941786.717 8
     -2008.619                          50.100          48.600
  22397150.780   117697795.279 8     -1912.793    22397143.960    91712510.615 8
     -1490.487                          47.800          45.650
  23843836.400   125300172.953 8     -3630.021    23843836.300    97636498.958 7
     -2828.590                          45.700          43.100
  23918905.200   125694698.827 8      3187.612    23918901.280    97943913.103 7
      2483.856                          45.100          39.050
  24858122.720   130630325.399 7     -2182.229    24858119.440   101789826.254 5
     -1700.438                          43.650          31.650
  24980434.860   131273079.712 6      3241.369    24980432.660   102290704.376 6
      2525.745                          36.350          34.500
  25178819.520   132315562.587 7     -3089.273    25178814.680   103103010.754 6
     -2407.227                          43.000          36.100
 18  2 20  9 22 30.0000000  0 10G30G07G05G09G02G06G13G16G28G23
  20677429.320   108660639.447 9      1392.466    20677427.360    84670635.397 8
      1085.038                          51.850          50.350
  20760315.340   109096199.063 9      -384.693    20760310.600    85010024.795 8
      -299.762                          51.600          48.150
  21159589.280   111194388.057 9      1947.433    21159585.020    86644956.318 8
      1517.479                          51.350          47.450
  21979436.080   115502720.946 9     -2583.803    21979434.300    90002115.269 8
     -2013.354                          51.350          47.450
  22408110.120   117755387.654 8     -1926.684    22408103.700    91757387.780 7
     -1501.312                          49.100          43.750
  23864569.080   125409123.733 8     -3633.145    23864569.060    97721395.636 7
     -2831.023                          47.650          41.150
  23900716.720   125599119.054 8      3184.384    23900713.160    97869435.366 6
      2481.337                          46.450          37.000
  24870626.120   130696031.427 8     -2198.238    24870621.480   101841025.833 5
     -1712.907                          44.900          29.800
  24961926.080   131175813.042 7      3243.101    24961923.140   102214912.192 5
      2527.091                          40.050          30.700
  25196457.140   132408249.439 8     -3090.065    25196452.220   103175234.220 6
     -2407.847                          44.650          32.550
 18  2 20  9 23  0.0000000  0 10G30G07G05G09G02G13G06G16G28G23
  20669531.140   108619133.997 9      1375.681    20669529.160    84638293.500 9
      1071.959                          51.300          50.750
  20762561.540   109108003.094 9      -401.146    20762556.820    85019222.744 8
      -312.581                          50.750          48.750
  21148512.560   111136179.257 9      1934.410    21148508.040    86599598.813 8
      1507.333                          50.750          47.750
  21994206.540   115580339.998 9     -2589.581    21994204.480    90062597.633 8
     -2017.855                          50.700          48.000
  22419152.100   117813413.146 8     -1940.536    22419145.520    91802602.416 8
     -1512.106                          47.900          45.250
  23882550.700   125503657.706 8      3180.928    23882547.660    97795049.970 7
      2478.649                          45.100          38.650
  23885320.920   125518174.452 8     -3635.851    23885320.640    97806370.186 7
     -2833.131                          45.950          42.200
  24883223.160   130762229.093 8     -2213.828    24883219.500   101892608.469 6
     -1725.056                          44.600          33.850
  24943409.760   131078507.704 7      3244.658    24943407.840   102139089.919 5
      2528.311                          38.900          31.850
  25214102.300   132500975.296 8     -3090.568    25214097.840   103247488.139 6
     -2408.236                          45.150          34.950
 18  2 20  9 23 30.0000000  0 10G30G07G05G09G02G13G06G16G28G23
  20661732.760   108578152.947 9      1357.305    20661730.660    84606360.235 8
      1057.641                          51.900          50.100
  20764905.260   109120319.300 9      -419.033    20764900.520    85028819.789 8
      -326.519                          51.500          48.050
  21137514.320   111078382.600 9      1919.707    21137509.860    86554562.461 8
      1495.876                          51.250          47.100
  22009014.960   115658158.276 9     -2597.155    22009012.840    90123235.224 8
     -2023.757                          51.400          47.300
  22430276.840   117871872.410 8     -1955.731    22430269.740    91848155.065 7
     -1523.948                          49.400          43.350
  23864408.200   125408318.519 8      3176.008    23864405.180    97720759.719 6
      2474.815                          46.150          36.500
  23906091.840   125627325.071 8     -3639.864    23906091.660    97891422.563 7
     -2836.259                          47.050          41.550
  24895913.680   130828918.610 7     -2230.926    24895909.380   101944574.313 5
     -1738.388                          44.350          29.500
  24924886.580   130981169.087 7      3244.962    24924884.360   102063241.676 5
      2528.547                          39.800          26.950
  25231755.300   132593742.193 8     -3092.796    25231750.000   103319774.061 6
     -2409.969                          44.850          33.250
 18  2 20  9 24  0.0000000  0 10G30G07G05G09G02G13G06G28G16G23
  20654033.940   108537695.039 9      1339.508    20654031.780    84574834.602 9
      1043.773                          51.900          50.500
  20767345.800   109133144.400 9      -436.243    20767341.080    85038813.366 8
      -339.931                          51.400          48.350
  21126594.420   111020998.012 9      1905.524    21126589.600    86509847.192 8
      1484.824                          51.250          47.350
  22023860.620   115736172.617 9     -2604.030    22023858.640    90184025.587 8
     -2029.116                          51.350          47.450
  22441483.120   117930760.973 8     -1970.382    22441475.480    91894042.228 7
     -1535.363                          49.250          43.750
  23846288.720   125313100.233 8      3171.418    23846285.600    97646563.668 6
      2471.235                          47.350          36.550
  23926880.440   125736570.571 8     -3643.479    23926880.300    97976548.863 7
     -2839.075                          46.450          41.100
  24906357.480   130883797.663 7      3245.894    24906355.120   101987367.896 6
      2529.277                          40.350          32.900
  24908696.880   130896095.210 8     -2247.697    24908691.800   101996919.763 5
     -1751.448                          45.000          30.600
  25249415.280   132686547.507 7     -3094.330    25249410.540   103392089.847 6
     -2411.171                          42.300          34.550
 18  2 20  9 24 30.0000000  0 10G30G07G05G09G02G13G06G28G16G23
  20646434.240   108497758.264 9      1322.642    20646432.100    84543715.044 8
      1030.631                          51.800          50.450
  20769882.440   109146474.707 9      -452.656    20769877.780    85049200.620 8
      -352.719                          51.050          48.450
  21115752.740   110964024.991 9      1892.363    21115748.180    86465452.642 8
      1474.568                          51.150          47.600
  22038742.880   115814379.151 9     -2609.866    22038740.840    90244965.716 8
     -2033.663                          51.250          47.100
  22452770.020   117990073.986 8     -1984.046    22452762.740    91940260.127 7
     -1546.012                          49.000          44.200
  23828192.080   125218000.591 8      3168.227    23828188.200    97572460.074 6
      2468.749                          46.400          36.800
  23947685.820   125845905.139 8     -3645.943    23947685.980    98061744.583 7
     -2840.996                          44.900          41.950
  24887822.280   130786393.405 7      3247.435    24887819.700   101911468.548 5
      2530.469                          41.800          32.100
  24921572.240   130963753.952 8     -2263.219    24921568.680   102049640.877 5
     -1763.548                          45.050          30.350
  25267082.360   132779387.659 8     -3095.022    25267077.620   103464432.704 6
     -2411.710                          45.150          34.750
 18  2 20  9 25  0.0000000  0 10G30G07G05G09G02G13G06G28G16G23
  20638934.600   108458347.172 9      1305.092    20638932.520    84513005.108 8
      1016.954                          51.700          50.400
  20772515.800   109160313.152 9      -469.545    20772511.160    85059983.820 8
      -365.879                          51.050          48.400
  21104990.540   110907468.991 9      1878.431    21104985.820    86421383.023 8
      1463.712                          50.800          47.500
  22053662.160   115892780.683 9     -2616.337    22053660.320    90306057.788 8
     -2038.704                          50.700          47.350
  22464137.820   118049812.814 8     -1998.187    22464130.600    91986809.831 7
     -1557.031                          48.350          43.850
  23810118.940   125123024.320 8      3164.003    23810114.820    97498452.606 6
      2465.457                          47.450          35.950
  23968508.640   125955329.634 8     -3648.699    23968508.700    98147010.362 7
     -2843.145                          45.850          40.750
  24869281.860   130688962.659 7      3248.382    24869279.780   101835548.437 5
      2531.200                          42.400          31.250
  24934539.060   131031896.520 7     -2279.122    24934535.280   102102739.004 5
     -1775.940                          43.250          31.850
  25284756.660   132872266.041 8     -3096.328    25284752.060   103536805.451 6
     -2412.726                          44.550          33.900
 18  2 20  9 25 30.0000000  0 10G30G07G05G09G02G13G06G28G16G23
  20631534.600   108419460.440 9      1287.813    20631532.640    84482703.777 8
      1003.490                          52.450          49.850
  20775245.260   109174656.771 9      -486.265    20775240.720    85071160.664 8
      -378.908                          52.050          47.650
  21094307.600   110851329.654 9      1864.479    21094303.020    86377638.084 8
      1452.841                          52.000          46.750
  22068617.880   115971374.100 9     -2622.829    22068616.280    90367299.381 8
     -2043.764                          51.950          46.150
  22475585.900   118109973.261 8     -2012.138    22475578.780    92033688.060 7
     -1567.902                          50.300          42.700
  23792068.920   125028170.050 8      3160.063    23792064.200    97424540.196 6
      2462.387                          48.400          33.850
  23989347.720   126064839.031 8     -3651.466    23989347.400    98232342.334 7
     -2845.298                          47.300          38.500
  24850736.720   130591506.323 8      3249.360    24850733.380   101759608.489 5
      2531.971                          44.850          32.000
  24947597.420   131100518.029 8     -2295.062    24947593.620   102156210.329 5
     -1788.359                          46.150          28.400
  25302437.460   132965179.856 8     -3097.304    25302432.860   103609205.767 6
     -2413.483                          45.350          32.600
 18  2 20  9 26  0.0000000  0 10G30G07G05G09G02G13G06G28G16G23
  20624234.780   108381099.937 9      1269.690    20624232.860    84452812.478 9
       989.368                          51.750          50.550
  20778070.900   109189505.896 9      -503.583    20778066.360    85082731.417 8
      -392.401                          51.150          48.700
  21083704.540   110795610.059 9      1850.071    21083699.960    86334220.221 8
      1441.614                          51.100          47.100
  22083610.220   116050159.481 9     -2629.553    22083608.580    90428690.552 8
     -2049.003                          50.800          47.100
  22487113.960   118170554.077 8     -2026.599    22487107.160    92080893.875 8
     -1579.169                          48.050          44.800
  23774042.640   124933439.703 8      3155.388    23774037.480    97350724.358 6
      2458.743                          47.450          35.500
  24010202.300   126174431.603 8     -3654.479    24010202.080    98317739.063 7
     -2847.647                          45.000          38.750
  24832187.240   130494028.053 7      3249.736    24832184.240   101683651.350 6
      2532.262                          42.650          34.000
  24960746.740   131169617.809 7     -2311.457    24960742.440   102210054.352 5
     -1801.131                          42.650          31.250
  25320125.320   133058129.323 8     -3099.116    25320120.340   103681633.917 6
     -2414.899                          44.550          34.850
 18  2 20  9 26 30.0000000  0 10G30G07G05G09G02G13G06G28G16G23
  20617035.460   108343267.237 9      1252.914    20617033.500    84423332.466 9
       976.296                          51.400          50.550
  20780992.720   109204860.340 9      -519.549    20780988.200    85094695.939 8
      -404.844                          50.700          48.650
  21073181.760   110740313.091 9      1836.768    21073177.260    86291131.681 8
      1431.247                          50.600          47.450
  22098639.080   116129136.700 9     -2635.142    22098637.220    90490231.220 8
     -2053.357                          50.600          46.700
  22498721.780   118231553.775 8     -2039.715    22498715.220    92128426.086 7
     -1589.388                          48.250          44.250
  23756040.100   124838834.953 8      3152.057    23756035.120    97277006.397 6
      2456.147                          47.050          36.100
  24031072.540   126284105.208 8     -3656.586    24031072.100    98403198.957 7
     -2849.290                          45.600          40.050
  24813634.460   130396531.567 7      3250.778    24813631.700   101607680.068 6
      2533.072                          43.600          36.050
  24973986.420   131239194.061 7     -2326.531    24973982.280   102264269.658 6
     -1812.879                          43.250          33.000
  25337819.800   133151115.079 8     -3099.563    25337815.300   103754090.329 5
     -2415.240                          44.500          32.300
 18  2 20  9 27  0.0000000  0 10G30G07G05G09G02G13G06G28G16G23
  20609936.240   108305960.558 9      1234.474    20609934.240    84394262.347 9
       961.929                          51.450          50.800
  20784010.140   109220716.574 9      -537.188    20784005.520    85107051.450 8
      -418.588                          50.900          48.850
  21062739.380   110685438.193 9      1821.805    21062734.940    86248372.026 8
      1419.588                          50.750          47.750
  22113703.860   116208302.254 9     -2642.285    22113702.040    90551918.648 8
     -2058.924                          50.650          47.000
  22510408.480   118292967.709 8     -2054.259    22510401.640    92176281.059 8
     -1600.723                          47.900          46.000
  23738061.120   124744353.974 8      3146.896    23738055.440    97203384.841 6
      2452.125                          46.950          36.500
  24051957.240   126393854.395 8     -3659.695    24051956.840    98488717.760 7
     -2851.712                          45.100          39.800
  24795077.940   130299016.995 7      3250.386    24795075.400   101531694.733 6
      2532.773                          42.300          33.950
  24987316.140   131309241.188 7     -2343.000    24987312.240   102318851.825 6
     -1825.718                          42.050          33.400
  25355520.860   133244134.015 7     -3101.436    25355515.980   103826572.597 6
     -2416.701                          42.750          35.850
 18  2 20  9 27 30.0000000  0 10G30G07G05G09G02G13G06G28G16G23
  20602938.040   108269184.632 9      1218.233    20602935.920    84365605.783 9
       949.273                          51.700          50.650
  20787123.740   109237077.974 9      -552.583    20787118.960    85119800.593 8
      -430.584                          51.050          48.850
  21052378.480   110630991.469 8      1808.926    21052374.120    86205946.016 8
      1409.554                          50.450          47.900
  22128805.100   116287659.125 9     -2647.105    22128802.960    90613755.150 8
     -2062.681                          50.850          46.800
  22522174.220   118354797.502 8     -2066.726    22522167.460    92224460.078 7
     -1610.435                          48.600          44.400
  23720106.520   124650001.711 8      3144.203    23720100.720    97129863.612 6
      2450.027                          47.300          36.300
  24072856.420   126503680.377 8     -3661.020    24072856.080    98574296.377 7
     -2852.745                          45.950          40.200
  24776519.540   130201491.343 7      3252.137    24776516.120   101455700.694 6
      2534.134                          41.900          32.900
  25000735.680   131379761.357 7     -2357.290    25000731.140   102373802.596 5
     -1836.847                          43.250          29.450
  25373228.760   133337189.481 7     -3101.248    25373223.380   103899083.321 4
     -2416.561                          42.650          26.450
 18  2 20  9 28  0.0000000  0 10G30G07G05G09G02G13G06G28G16G23
  20596040.360   108232937.021 9      1199.094    20596038.160    84337360.902 9
       934.359                          51.750          50.500
  20790332.560   109253940.098 9      -570.725    20790327.720    85132939.913 8
      -444.721                          51.350          48.450
  21042098.700   110576971.460 9      1793.186    21042094.440    86163852.494 8
      1397.287                          50.800          47.350
  22143941.900   116367203.257 9     -2654.933    22143939.520    90675737.568 8
     -2068.778                          50.850          46.400
  22534018.160   118417037.706 8     -2081.878    22534011.600    92272958.913 8
     -1622.243                          48.100          44.950
  23702175.900   124555776.056 8      3138.531    23702170.460    97056441.046 6
      2445.612                          47.350          34.800
  24093769.000   126613577.066 8     -3664.684    24093769.020    98659930.093 7
     -2855.601                          46.450          39.700
  24757958.720   130103954.101 7      3251.259    24757955.060   101379697.705 6
      2533.448                          43.200          32.850
  25014244.240   131450748.985 7     -2374.173    25014239.620   102429117.631 5
     -1850.007                          41.850          32.150
  25390942.600   133430277.582 7     -3103.732    25390938.040   103971619.477 6
     -2418.499                          43.700          32.850
 18  2 20  9 28 30.0000000  0 10G30G07G05G09G02G13G06G28G16G23
  20589243.620   108197220.337 9      1182.447    20589241.460    84309529.728 8
       921.388                          52.150          50.050
  20793636.860   109271304.183 9      -586.372    20793632.020    85146470.368 8
      -456.912                          51.750          47.950
  21031900.880   110523381.953 9      1779.801    21031896.680    86122094.449 8
      1386.858                          51.350          46.850
  22159114.460   116446935.529 9     -2660.244    22159112.380    90737866.598 8
     -2072.917                          51.650          46.000
  22545940.180   118479688.058 8     -2094.422    22545933.780    92321777.316 7
     -1632.019                          49.450          43.800
  23684269.620   124461679.084 8      3135.037    23684264.420    96983118.762 6
      2442.889                          47.350          35.350
  24114695.040   126723543.505 8     -3666.017    24114695.420    98745618.184 7
     -2856.640                          47.850          38.850
  24739396.420   130006409.686 7      3252.243    24739393.620   101303689.089 5
      2534.219                          43.300          32.150
  25027841.380   131522203.970 7     -2388.667    25027837.040   102484796.854 6
     -1861.299                          41.900          32.600
  25408663.240   133523399.700 7     -3104.118    25408658.360   104044182.218 5
     -2418.788                          43.200          31.400
 18  2 20  9 29  0.0000000  0 10G30G07G05G09G02G13G06G28G16G23
  20582547.740   108162033.854 9      1163.572    20582545.720    84282111.699 8
       906.681                          51.700          50.400
  20797036.140   109289167.470 9      -604.307    20797031.360    85160389.811 8
      -470.888                          51.300          48.300
  21021785.160   110470223.481 9      1764.204    21021780.740    86080672.259 8
      1374.706                          50.650          47.350
  22174322.340   116526853.612 9     -2667.540    22174320.420    90800140.406 8
     -2078.602                          50.850          46.450
  22557939.640   118542744.792 8     -2109.198    22557932.900    92370912.411 8
     -1643.531                          48.950          44.600
  23666387.680   124367710.928 8      3129.363    23666383.140    96909896.868 6
      2438.467                          46.100          36.850
  24135633.520   126833575.484 8     -3669.444    24135633.760    98831357.323 7
     -2859.310                          47.150          39.200
  24720833.180   129908860.245 7      3250.978    24720830.280   101227676.559 6
      2533.226                          42.200          32.650
  25041526.700   131594121.931 7     -2405.365    25041522.740   102540836.828 6
     -1874.310                          41.100          32.550
  25426390.000   133616554.185 7     -3106.146    25426385.320   104116770.118 6
     -2420.376                          43.250          33.000
 18  2 20  9 29 30.0000000  0 10G30G07G05G09G02G13G06G28G16G23
  20575952.400   108127375.411 9      1147.003    20575950.460    84255105.116 8
       893.768                          51.950          50.200
  20800529.780   109307526.510 9      -619.571    20800524.900    85174695.549 8
      -482.783                          51.450          48.550
  21011751.280   110417495.148 9      1751.075    21011747.040    86039585.242 8
      1364.474                          51.150          47.050
  22189564.960   116606953.771 9     -2672.382    22189563.140    90862556.076 8
     -2082.378                          51.450          46.450
  22570015.280   118606202.695 8     -2121.342    22570008.900    92420360.084 7
     -1652.996                          49.150          44.200
  23648529.680   124273869.040 8      3126.664    23648525.940    96836773.335 6
      2436.361                          45.100          36.650
  24156583.540   126943667.258 8     -3669.994    24156583.480    98917143.089 6
     -2859.737                          47.900          37.900
  24702268.880   129811305.070 7      3252.478    24702266.160   101151659.610 5
      2534.400                          43.300          31.200
  25055299.560   131666497.430 7     -2419.449    25055295.140   102597233.317 5
     -1885.285                          41.300          28.700
  25444122.100   133709737.275 7     -3106.056    25444117.400   104189380.301 6
     -2420.303                          44.100          32.550
 18  2 20  9 30  0.0000000  0 10G30G07G05G09G02G13G06G28G16G23
  20569458.880   108093252.027 9      1128.029    20569457.000    84228515.471 8
       878.984                          51.800          50.400
  20804118.760   109326386.503 9      -637.542    20804113.900    85189391.642 8
      -496.785                          51.450          48.350
  21001801.040   110365205.412 9      1735.204    21001796.600    85998839.985 8
      1352.107                          50.950          47.750
  22204843.340   116687241.420 9     -2679.848    22204841.460    90925117.851 8
     -2088.193                          50.950          46.800
  22582168.080   118670065.901 8     -2135.938    22582161.500    92470123.566 7
     -1664.369                          48.950          44.400
  23630697.320   124180161.269 8      3120.677    23630694.400    96763754.366 6
      2431.698                          45.700          37.750
  24177545.560   127053822.447 8     -3673.430    24177545.400    99002978.221 6
     -2862.416                          47.200          37.200
  24683705.660   129713753.949 7      3251.106    24683703.160   101075645.772 5
      2533.329                          43.950          32.000
  25069159.900   131739334.637 7     -2436.245    25069154.200   102653989.550 6
     -1898.373                          40.300          35.600
  25461861.000   133802955.417 7     -3108.222    25461856.560   104262017.800 5
     -2421.992                          43.000          31.100
 18  2 20  9 30 30.0000000  0 10G30G07G05G09G02G13G06G28G16G23
  20563065.920   108059657.277 9      1111.170    20563064.140    84202337.753 8
       865.849                          52.150          50.000
  20807801.600   109345739.730 9      -653.165    20807796.680    85204472.080 8
      -508.960                          51.800          47.850
  20991933.140   110313348.998 9      1721.438    20991928.760    85958432.392 8
      1341.381                          51.600          46.950
  22220155.860   116767708.530 9     -2684.996    22220153.820    90987819.477 8
     -2092.204                          51.450          46.050
  22594396.200   118734325.071 8     -2148.331    22594389.640    92520195.624 7
     -1674.024                          49.350          44.150
  23612889.540   124086581.142 8      3117.310    23612886.720    96690834.842 6
      2429.075                          46.700          34.500
  24198517.720   127164031.046 8     -3674.306    24198517.120    99088855.016 6
     -2863.096                          48.300          36.750
  24665142.420   129616202.230 7      3251.784    24665139.360   100999631.492 5
      2533.859                          44.300          29.250
  25083106.600   131812624.075 7     -2450.492    25083101.560   102711098.196 5
     -1909.474                          43.900          31.450
  25479604.900   133896200.582 8     -3108.529    25479600.120   104334676.332 5
     -2422.234                          44.800          30.900
 18  2 20  9 31  0.0000000  0 10G30G07G05G09G02G13G06G28G16G23
  20556775.280   108026599.372 9      1093.592    20556773.440    84176578.347 9
       852.149                          51.650          50.650
  20811579.400   109365592.534 9      -669.478    20811574.480    85219941.792 8
      -521.671                          50.900          48.650
  20982149.620   110261935.786 9      1707.035    20982145.080    85918370.144 8
      1330.156                          50.850          48.100
  22235503.700   116848361.798 8     -2690.939    22235501.440    91050666.146 8
     -2096.837                          50.300          46.800
  22606700.900   118798985.355 8     -2161.343    22606694.260    92570580.214 8
     -1684.164                          48.650          45.050
  23595107.600   123993136.792 8      3113.257    23595104.460    96618021.106 6
      2425.918                          45.350          36.450
  24219500.960   127274297.878 8     -3675.871    24219500.000    99174777.162 7
     -2864.317                          47.600          38.750
  24646580.860   129518660.550 7      3251.968    24646577.420   100923625.025 5
      2534.002                          43.300          32.250
  25097140.520   131886370.913 7     -2464.988    25097134.960   102768563.241 6
     -1920.767                          41.500          34.050
  25497355.300   133989479.737 7     -3109.563    25497350.860   104407361.348 6
     -2423.037                          41.900          33.350
 18  2 20  9 31 30.0000000  0 10G30G07G05G09G02G13G06G28G16G23
  20550585.280   107994070.325 9      1076.020    20550583.380    84151231.049 8
       838.457                          51.900          50.450
  20815450.400   109385935.286 9      -685.799    20815445.640    85235793.283 8
      -534.389                          51.350          48.350
  20972449.020   110210958.423 9      1692.447    20972444.420    85878647.520 8
      1318.790                          51.350          47.450
  22250884.940   116929191.721 9     -2696.715    22250882.940    91113650.463 8
     -2101.337                          50.600          46.050
  22619079.740   118864035.768 8     -2174.421    22619072.920    92621268.801 7
     -1694.355                          48.950          44.300
  23577350.360   123899820.405 8      3108.727    23577346.520    96545307.073 6
      2422.384                          46.250          36.950
  24240492.960   127384611.469 8     -3677.351    24240492.540    99260735.762 6
     -2865.471                          47.400          37.150
  24628020.160   129421123.074 7      3251.828    24628016.720   100847621.763 5
      2533.888                          43.600          28.900
  25111258.800   131960564.081 7     -2480.316    25111254.460   102826376.108 6
     -1932.714                          39.600          33.000
  25515110.680   134082784.187 7     -3110.368    25515105.840   104480066.055 5
     -2423.669                          42.750          29.000
 18  2 20  9 32  0.0000000  0 10G30G07G05G09G02G13G06G28G16G23
  20544495.260   107962066.778 9      1057.868    20544493.280    84126293.210 8
       824.313                          52.000          50.300
  20819413.680   109406762.833 9      -702.538    20819409.060    85252022.524 8
      -547.433                          51.300          48.250
  20962830.960   110160414.969 9      1677.428    20962826.340    85839263.004 8
      1307.087                          51.200          47.500
  22266298.940   117010193.390 9     -2703.104    22266297.000    91176768.612 8
     -2106.314                          50.850          45.900
  22631531.560   118929470.146 8     -2187.698    22631524.320    92672256.593 7
     -1704.702                          49.600          43.300
  23559617.080   123806629.448 8      3103.914    23559613.080    96472690.751 6
      2418.633                          47.250          36.650
  24261492.440   127494965.125 8     -3679.216    24261492.620    99346725.568 6
     -2866.923                          47.950          36.950
  24609459.980   129323588.838 7      3251.084    24609456.900   100771621.119 5
      2533.310                          43.950          28.900
  25125460.540   132035197.033 7     -2495.233    25125456.840   102884531.563 6
     -1944.337                          40.650          34.300
  25532869.880   134176108.969 7     -3111.339    25532864.360   104552811.616 5
     -2424.438                          38.550          29.350
 18  2 20  9 32 30.0000000  0 10G30G07G05G09G02G13G06G28G16G23
  20538509.440   107930611.220 9      1039.113    20538507.420    84101782.399 8
       809.699                          52.000          50.450
  20823473.300   109428096.393 9      -719.806    20823468.720    85268646.071 8
      -560.887                          51.450          48.150
  20953299.960   110110329.718 9      1661.647    20953295.580    85800235.535 8
      1294.791                          51.300          47.950
  22281749.740   117091387.813 9     -2709.751    22281747.760    91240036.977 8
     -2111.494                          50.550          46.200
  22644060.160   118995307.850 8     -2201.506    22644053.040    92723558.663 7
     -1715.461                          49.300          43.700
  23541911.680   123713586.452 8      3098.801    23541907.560    96400189.748 6
      2414.648                          46.750          36.100
  24282503.380   127605377.895 8     -3681.682    24282503.560    99432761.460 6
     -2868.843                          47.850          37.050
  24590905.140   129226082.488 7      3248.885    24590901.740   100695642.148 5
      2531.598                          43.900          30.400
  25139750.580   132110289.156 7     -2510.831    25139746.340   102943044.961 6
     -1956.489                          42.300          33.550
  25550637.040   134269475.718 6     -3113.430    25550636.720   104625585.70615
     -2426.049                          34.400          27.750
 18  2 20  9 33  0.0000000  0  9G30G07G05G09G02G13G06G28G16
  20532624.480   107899685.229 9      1021.441    20532622.400    84077684.226 9
       795.929                          51.500          50.800
  20827625.380   109449915.695 9      -735.914    20827620.820    85285648.112 8
      -573.440                          50.800          48.550
  20943852.960   110060685.616 9      1646.822    20943848.520    85761551.816 8
      1283.237                          50.800          48.300
  22297233.460   117172755.166 8     -2715.869    22297231.500    91303440.066 8
     -2116.264                          50.150          46.250
  22656661.220   119061527.850 8     -2214.314    22656654.540    92775158.618 7
     -1725.442                          48.550          44.400
  23524231.060   123620672.979 8      3094.215    23524226.600    96327789.658 6
      2411.077                          47.150          38.150
  24303521.520   127715828.031 8     -3682.873    24303521.400    99518826.466 6
     -2869.771                          47.300          37.700
  24572352.420   129128587.962 7      3248.960    24572348.860   100619672.406 5
      2531.658                          42.600          31.700
  25154123.180   132185819.353 7     -2525.570    25154119.160   103001899.666 6
     -1967.978                          40.950          32.900
 18  2 20  9 33 30.0000000  0  9G30G07G05G09G02G13G06G28G16
  20526841.880   107869297.705 9      1003.546    20526839.940    84054005.640 9
       781.984                          51.600          50.750
  20831871.300   109472228.118 9      -752.377    20831866.740    85303034.408 8
      -586.269                          51.050          48.600
  20934491.960   110011492.664 9      1631.806    20934487.440    85723219.637 8
      1271.537                          50.950          48.200
  22312751.520   117254302.836 8     -2721.694    22312749.640    91366983.662 8
     -2120.803                          50.300          46.300
  22669336.160   119128135.992 8     -2227.127    22669329.720    92827061.041 7
     -1735.425                          48.000          44.100
  23506576.720   123527898.667 8      3089.627    23506572.240    96255497.978 6
      2407.502                          46.850          37.650
  24324547.620   127826321.093 8     -3684.238    24324547.600    99604924.890 6
     -2870.837                          47.300          37.050
  24553803.900   129031116.247 7      3248.278    24553800.700   100543720.450 6
      2531.127                          43.350          33.600
  25168580.500   132261793.471 7     -2540.374    25168576.320   103061100.238 6
     -1979.512                          42.350          32.500
 18  2 20  9 34  0.0000000  0  9G30G07G05G09G02G13G06G28G16
  20521160.600   107839442.038 9       985.072    20521158.600    84030741.482 9
       767.589                          51.400          50.950
  20836209.540   109495025.518 9      -769.246    20836204.920    85320798.610 8
      -599.412                          50.650          48.450
  20925215.640   109962745.439 9      1616.220    20925211.280    85685234.786 8
      1259.393                          50.550          48.600
  22328302.340   117336022.833 8     -2728.142    22328300.540    91430661.553 8
     -2125.825                          50.000          46.400
  22682083.060   119195122.651 8     -2240.476    22682077.080    92879258.404 8
     -1745.826                          47.500          44.800
  23488947.460   123435257.137 8      3084.520    23488943.280    96183309.781 7
      2403.522                          46.450          39.100
  24345579.980   127936847.114 8     -3685.980    24345580.280    99691049.027 7
     -2872.195                          46.900          38.850
  24535259.320   128933663.612 7      3246.881    24535256.480   100467783.388 5
      2530.041                          43.450          32.400
  25183120.780   132338201.206 7     -2555.065    25183115.660   103120638.717 6
     -1990.959                          40.500          35.800
 18  2 20  9 34 30.0000000  0  9G30G07G05G09G02G13G06G28G16
  20515582.620   107810128.720 9       968.004    20515580.460    84007899.929 8
       754.288                          52.250          50.250
  20840641.760   109518316.910 9      -784.832    20840637.200    85338947.724 8
      -611.559                          51.800          47.750
  20916026.400   109914455.675 9      1601.828    20916021.960    85647606.393 8
      1248.178                          51.750          47.300
  22343887.580   117417924.243 9     -2733.155    22343885.980    91494480.792 8
     -2129.732                          51.300          45.100
  22694903.660   119262495.315 8     -2252.178    22694897.540    92931756.523 7
     -1754.944                          49.350          42.350
  23471345.700   123342759.159 8      3080.893    23471341.220    96111233.420 6
      2400.693                          48.750          37.850
  24366619.840   128047413.367 8     -3686.334    24366620.380    99777204.488 7
     -2872.470                          48.250          38.500
  24516720.880   128836242.934 8      3246.665    24516717.180   100391871.199 5
      2529.868                          45.800          32.250
  25197744.320   132415050.122 7     -2569.173    25197739.920   103180520.985 6
     -2001.956                          39.950          32.750
 18  2 20  9 35  0.0000000  0  9G30G07G05G09G02G13G06G28G16
  20510105.680   107781346.878 9       951.168    20510103.480    83985472.523 9
       741.170                          51.800          50.900
  20845165.560   109542089.498 9      -799.798    20845161.000    85357471.814 8
      -623.220                          51.050          48.400
  20906922.440   109866614.034 9      1587.915    20906917.960    85610327.192 8
      1237.337                          51.000          48.250
  22359505.060   117499994.846 8     -2737.898    22359503.500    91558431.877 8
     -2133.429                          50.450          46.400
  22707795.080   119330240.231 8     -2263.620    22707788.760    92984544.729 7
     -1763.861                          48.300          43.250
  23453769.400   123250394.112 8      3077.306    23453764.880    96039260.638 7
      2397.901                          47.050          38.750
  24387664.960   128158005.641 8     -3686.074    24387665.400    99863380.225 7
     -2872.269                          46.850          39.200
  24498186.920   128738845.345 8      3246.542    24498183.160   100315977.020 5
      2529.772                          45.300          31.650
  25212449.560   132492326.590 7     -2582.325    25212446.000   103240736.417 6
     -2012.203                          41.550          36.000
 18  2 20  9 35 30.0000000  0  9G30G07G05G09G02G13G06G28G16
  20504731.500   107753105.418 9       931.531    20504729.380    83963466.179 9
       725.868                          52.150          50.600
  20849782.360   109566350.809 9      -817.600    20849777.640    85376376.717 8
      -637.091                          51.600          47.850
  20897905.720   109819230.635 9      1570.951    20897901.020    85573405.047 8
      1224.118                          51.500          47.800
  22375156.300   117582242.118 9     -2745.334    22375154.440    91622520.642 8
     -2139.223                          51.000          45.950
  22720758.580   119398363.213 8     -2277.820    22720752.200    93037627.558 7
     -1774.924                          48.950          43.250
  23436219.940   123158171.629 8      3070.832    23436215.840    95967398.985 6
      2392.857                          47.800          38.200
  24408716.160   128268629.614 8     -3688.589    24408716.320    99949580.643 6
     -2874.228                          47.250          37.450
  24479659.320   128641482.305 8      3244.137    24479655.640   100240109.763 6
      2527.900                          45.600          34.300
  25227237.620   132570036.373 7     -2598.157    25227232.760   103301289.486 6
     -2024.541                          41.700          34.550
 18  2 20  9 36  0.0000000  0  9G30G07G05G09G02G13G06G28G16
  20499459.580   107725400.816 9       914.313    20499457.360    83941878.178 8
       712.451                          52.300          50.250
  20854491.260   109591095.933 9      -832.970    20854486.400    85395658.626 8
      -649.066                          51.900          47.200
  20888975.880   109772304.162 9      1556.440    20888971.340    85536838.968 8
      1212.811                          51.850          47.450
  22390840.220   117664661.230 9     -2750.392    22390838.300    91686743.298 8
     -2143.162                          51.600          45.150
  22733792.860   119466858.202 8     -2289.415    22733786.220    93091000.248 7
     -1783.961                          49.400          41.950
  23418697.140   123066088.754 8      3066.879    23418692.920    95895646.098 6
      2389.774                          48.250          37.150
  24429772.040   128379278.563 8     -3688.782    24429771.860   100035800.544 6
     -2874.377                          47.450          37.400
  24461137.800   128544152.863 8      3243.759    24461134.620   100164268.724 5
      2527.605                          46.050          32.150
  25242105.960   132648173.280 7     -2611.732    25242101.640   103362175.382 5
     -2035.118                          42.100          32.150
 18  2 20  9 36 30.0000000  0  9G30G07G05G09G02G13G28G06G16
  20494289.620   107698232.493 9       897.188    20494287.400    83920708.054 9
       699.107                          51.350          51.150
  20859291.740   109616322.381 9      -848.412    20859286.840    85415315.586 8
      -661.101                          50.700          48.750
  20880133.100   109725835.068 9      1541.819    20880128.580    85500629.270 8
      1201.417                          50.550          48.850
  22406556.460   117747250.337 8     -2755.274    22406554.660    91751098.403 8
     -2146.969                          50.100          46.800
  22746897.280   119535721.619 8     -2301.124    22746890.660    93144660.041 7
     -1793.084                          47.450          43.950
  23401200.660   122974144.754 8      3062.977    23401196.500    95824001.412 7
      2386.733                          46.100          39.600
  24442623.320   128446858.721 7      3242.905    24442620.340   100088455.166 6
      2526.939                          43.700          34.850
  24450831.940   128489948.714 8     -3688.865    24450831.960   100122036.950 7
     -2874.444                          44.650          39.800
  25257055.960   132726733.627 7     -2625.152    25257051.800   103423391.216 6
     -2045.578                          41.300          37.000
 18  2 20  9 37  0.0000000  0  9G30G07G05G09G02G13G28G06G16
  20489221.920   107671601.626 9       878.911    20489219.740    83899956.731 8
       684.866                          52.300          50.300
  20864183.780   109642029.938 9      -864.783    20864178.840    85435347.441 8
      -673.857                          51.800          47.600
  20871377.780   109679825.814 9      1526.112    20871373.320    85464777.917 8
      1189.180                          51.750          47.550
  22422305.140   117830009.255 9     -2761.236    22422303.180    91815585.847 8
     -2151.613                          51.250          45.900
  22760071.380   119604951.916 8     -2313.574    22760065.140    93198605.678 7
     -1802.786                          49.050          42.000
  23383730.960   122882341.334 8      3057.931    23383727.020    95752466.296 6
      2382.806                          47.550          38.400
  24424116.160   128349603.859 7      3241.189    24424113.060   100012672.261 5
      2525.606                          44.300          32.300
  24471895.480   128600638.025 7     -3689.798    24471895.500   100208288.310 6
     -2875.168                          44.250          37.700
  25272085.760   132805715.058 7     -2639.389    25272080.980   103484935.200 6
     -2056.663                          42.400          35.000
 18  2 20  9 37 30.0000000  0  9G30G05G07G09G02G13G28G06G16
  20484257.780   107645515.165 9       860.223    20484255.660    83879629.614 9
       670.304                          52.050          50.650
  20862711.720   109634284.683 9      1509.958    20862707.100    85429291.310 8
      1176.591                          51.450          47.900
  20869168.320   109668223.791 9      -881.522    20869163.400    85455758.231 8
      -686.900                          51.500          47.850
  22438087.180   117912943.728 9     -2767.755    22438085.000    91880210.071 8
     -2156.693                          51.000          46.400
  22773316.280   119674553.035 8     -2326.465    22773309.060    93252840.275 7
     -1812.832                          48.000          42.550
  23366289.320   122790686.642 8      3052.383    23366285.520    95681047.047 6
      2378.479                          47.050          38.000
  24405618.500   128252397.621 8      3239.099    24405615.220    99936927.179 6
      2523.975                          44.750          35.900
  24492963.220   128711350.390 7     -3691.026    24492963.440   100294557.584 7
     -2876.130                          43.200          39.650
  25287196.400   132885121.955 7     -2654.438    25287191.660   103546810.665 6
     -2068.397                          42.450          34.550
 18  2 20  9 38  0.0000000  0  9G30G05G07G09G02G13G28G06G16
  20479395.620   107619964.350 9       842.942    20479393.500    83859719.886 9
       656.839                          52.050          50.800
  20854133.200   109589204.524 9      1495.062    20854128.660    85394163.911 8
      1164.983                          51.300          48.450
  20874243.500   109694893.790 9      -896.900    20874238.600    85476540.036 8
      -698.884                          51.600          48.100
  22453900.600   117996043.722 9     -2772.630    22453898.680    91944963.274 8
     -2160.492                          50.800          46.250
  22786629.360   119744513.327 8     -2337.787    22786622.140    93307354.760 7
     -1821.653                          48.300          43.000
  23348874.360   122699171.891 8      3048.323    23348870.560    95609736.858 7
      2375.316                          47.150          39.150
  24387128.920   128155233.763 8      3238.433    24387125.760    99861215.164 6
      2523.459                          44.850          36.000
  24514033.000   128822073.829 7     -3690.563    24514033.320   100380835.528 7
     -2875.762                          41.650          39.850
  25302385.800   132964942.438 7     -2667.436    25302381.560   103609008.529 6
     -2078.520                          43.400          33.550
 18  2 20  9 38 30.0000000  0  9G30G05G07G09G02G13G28G06G16
  20474635.680   107594951.221 9       824.651    20474633.620    83840229.130 9
       642.585                          51.650          50.850
  20845642.960   109544588.743 9      1479.219    20845638.540    85359398.363 8
      1152.638                          50.650          48.450
  20879409.340   109722040.570 9      -913.096    20879404.520    85497693.357 8
      -711.504                          51.250          48.300
  22469745.520   118079310.074 8     -2778.480    22469743.880    92009846.095 8
     -2165.053                          50.300          46.150
  22800010.460   119814832.250 8     -2350.143    22800003.740    93362148.682 7
     -1831.284                          47.600          43.000
  23331486.780   122607799.584 8      3043.022    23331483.420    95538537.655 7
      2371.188                          47.100          39.700
  24368648.060   128058116.939 7      3236.055    24368644.920    99785539.803 6
      2521.604                          43.200          36.700
  24535104.500   128932807.422 7     -3691.608    24535105.260   100467121.303 7
     -2876.580                          41.300          39.900
  25317653.500   133045175.913 7     -2681.570    25317649.020   103671528.086 6
     -2089.536                          40.800          32.550
 18  2 20  9 39  0.0000000  0  9G30G05G07G09G02G13G28G06G16
  20469978.980   107570480.429 9       806.177    20469976.980    83821160.982 9
       628.190                          51.750          50.800
  20837242.440   109500443.426 9      1463.174    20837237.960    85324999.413 8
      1140.136                          51.050          48.300
  20884666.440   109749666.956 9      -929.290    20884661.620    85519220.405 8
      -724.121                          51.050          48.250
  22485622.860   118162746.148 8     -2784.488    22485621.300    92074861.185 8
     -2169.732                          49.950          46.550
  22813460.120   119885511.344 8     -2362.425    22813453.620    93417223.267 7
     -1840.852                          47.600          43.150
  23314127.180   122516574.885 8      3037.846    23314123.520    95467453.476 7
      2367.153                          46.700          39.000
  24350177.620   127961054.280 7      3234.078    24350174.380    99709906.605 6
      2520.063                          44.200          35.950
  24556178.960   129043552.470 7     -3691.908    24556179.520   100553416.072 7
     -2876.815                          42.400          40.350
  25333000.100   133125823.901 7     -2695.754    25332995.460   103734370.683 6
     -2100.589                          41.900          32.800
 18  2 20  9 39 30.0000000  0  9G30G05G07G09G02G13G28G06G16
  20465424.620   107546547.326 9       788.265    20465422.620    83802511.809 9
       614.232                          51.350          51.100
  20828930.820   109456765.607 9      1447.567    20828926.360    85290964.735 8
      1127.974                          50.550          48.750
  20890013.700   109777766.926 9      -945.106    20890008.880    85541116.475 8
      -736.448                          50.800          48.400
  22501531.420   118246346.203 8     -2789.838    22501529.720    92140004.048 8
     -2173.901                          49.700          46.600
  22826977.120   119956542.933 8     -2374.127    22826970.420    93472572.520 7
     -1849.970                          47.750          43.250
  23296794.920   122425493.704 8      3032.943    23296791.160    95396481.129 7
      2363.333                          46.600          39.950
  24331716.880   127864043.568 7      3232.361    24331714.060    99634313.898 6
      2518.724                          42.600          36.450
  24577254.040   129154301.533 7     -3692.154    24577254.540   100639713.920 7
     -2877.006                          42.050          40.200
  25348424.320   133206878.659 7     -2708.979    25348419.760   103797530.251 6
     -2110.891                          40.100          34.900
 18  2 20  9 40  0.0000000  0  9G30G05G07G09G02G13G28G06G16
  20460972.680   107523152.245 9       771.474    20460970.660    83784281.870 9
       601.147                          51.750          50.750
  20820708.320   109413556.795 9      1433.017    20820704.040    85257295.543 8
      1116.637                          50.950          48.350
  20895450.840   109806339.303 9      -959.740    20895445.920    85563380.663 8
      -747.850                          51.300          48.050
  22517471.100   118330109.335 8     -2794.200    22517469.380    92205273.986 8
     -2177.300                          50.250          46.200
  22840560.780   120027924.850 8     -2384.533    22840553.840    93528194.764 7
     -1858.077                          48.300          42.850
  23279490.360   122334557.122 8      3029.432    23279486.440    95325621.419 6
      2360.594                          47.750          37.800
  24313266.860   127767088.083 7      3231.399    24313263.960    99558764.230 6
      2517.979                          43.100          36.250
  24598329.540   129265051.750 7     -3691.122    24598329.180   100726012.688 7
     -2876.205                          42.850          39.900
  25363925.500   133288337.484 7     -2721.438    25363921.080   103861004.668 6
     -2120.601                          42.400          34.200
 18  2 20  9 40 30.0000000  0  9G30G05G07G09G02G13G28G06G16
  20456624.120   107500300.176 9       753.521    20456622.040    83766475.082 9
       587.160                          52.300          50.650
  20812576.340   109370823.774 9      1417.329    20812572.200    85223997.089 8
      1104.413                          51.450          48.150
  20900978.460   109835387.565 9      -975.412    20900973.700    85586015.666 8
      -760.062                          51.700          47.950
  22533442.600   118414039.493 9     -2799.569    22533440.700    92270674.060 8
     -2181.483                          50.800          46.000
  22854211.280   120099659.061 8     -2396.260    22854204.560    93584091.515 7
     -1867.218                          48.300          42.700
  23262214.240   122243770.607 8      3024.516    23262210.500    95254878.673 6
      2356.766                          48.900          38.200
  24294829.060   127670195.429 8      3229.303    24294826.060    99483263.514 6
      2516.340                          45.100          35.550
  24619405.240   129375805.175 8     -3690.914    24619404.700   100812313.997 7
     -2876.039                          45.450          38.800
  25379503.660   133370202.578 7     -2734.830    25379499.660   103924795.620 6
     -2131.042                          41.550          34.100
 18  2 20  9 41  0.0000000  0  9G30G05G07G09G02G13G28G06G16
  20452378.700   107477989.529 9       735.372    20452376.440    83749090.160 8
       573.019                          52.450          50.300
  20804535.020   109328566.003 9      1401.383    20804530.840    85191068.947 8
      1091.987                          51.800          47.550
  20906596.020   109864908.470 9      -991.201    20906591.380    85609018.967 8
      -772.364                          51.900          47.350
  22549445.340   118498133.900 9     -2805.151    22549443.580    92336202.144 8
     -2185.832                          51.150          45.400
  22867927.920   120171741.218 8     -2407.723    22867921.300    93640259.405 7
     -1876.148                          48.400          42.100
  23244966.800   122153133.392 8      3019.511    23244962.660    95184252.258 6
      2352.864                          49.000          37.850
  24276403.400   127573366.518 7      3227.392    24276399.820    99407812.462 6
      2514.851                          43.650          35.800
  24640480.620   129486557.218 8     -3691.031    24640480.580   100898614.208 6
     -2876.128                          46.800          37.800
  25395158.760   133452469.812 7     -2748.201    25395154.560   103988899.923 5
     -2141.457                          44.150          31.900
 18  2 20  9 41 30.0000000  0  9G30G05G07G09G02G13G28G06G16
  20448235.360   107456216.075 9       716.355    20448233.100    83732123.836 9
       558.200                          52.000          50.800
  20796583.580   109286781.098 9      1384.467    20796579.480    85158509.287 8
      1078.807                          51.000          48.650
  20912302.520   109894896.499 9     -1007.787    20912297.940    85632386.255 8
      -785.287                          51.300          48.100
  22565478.180   118582387.232 8     -2811.497    22565476.520    92401854.040 8
     -2190.777                          50.300          46.400
  22881709.580   120244164.601 8     -2420.279    22881703.120    93696693.171 7
     -1885.933                          47.750          43.000
  23227746.900   122062641.752 8      3013.451    23227742.260    95113739.294 6
      2348.145                          47.700          38.000
  24257989.160   127476599.961 7      3223.972    24257985.820    99332410.039 6
      2512.188                          42.700          37.000
  24661554.600   129597300.677 8     -3691.800    24661554.380   100984907.747 7
     -2876.729                          45.000          38.800
  25410888.860   133535131.462 7     -2762.434    25410884.120   104053311.641 6
     -2152.543                          42.250          35.250
 18  2 20  9 42  0.0000000  0  9G30G05G07G09G02G13G28G06G16
  20444195.480   107434986.463 9       699.208    20444193.240    83715581.274 9
       544.837                          52.150          50.650
  20788723.660   109245476.906 9      1369.373    20788719.580    85126324.194 8
      1067.044                          51.250          47.900
  20918098.940   109925356.749 9     -1022.603    20918094.320    85656121.508 8
      -796.833                          51.500          48.100
  22581542.280   118666805.052 9     -2815.983    22581540.840    92467634.117 8
     -2194.274                          50.700          45.850
  22895556.980   120316932.798 8     -2430.744    22895550.540    93753395.617 7
     -1894.089                          48.100          41.950
  23210556.260   121972302.918 8      3009.390    23210551.900    95043345.424 6
      2344.980                          48.700          38.250
  24239588.720   127379905.472 7      3222.417    24239585.300    99257063.757 6
      2510.978                          43.350          36.500
  24682627.400   129708039.274 8     -3690.674    24682627.140   101071197.492 6
     -2875.853                          46.300          37.550
  25426694.820   133618191.431 7     -2774.510    25426690.800   104118033.672 6
     -2161.957                          42.750          33.350
 18  2 20  9 42 30.0000000  0  9G30G05G07G09G02G13G28G06G16
  20440258.660   107414298.573 9       681.387    20440256.460    83699460.847 9
       530.951                          52.050          50.650
  20780955.320   109204653.470 9      1353.524    20780951.140    85094513.721 8
      1054.693                          51.450          48.000
  20923984.600   109956285.857 9     -1037.996    20923979.840    85680222.099 8
      -808.828                          51.650          48.150
  22597637.240   118751384.212 9     -2821.126    22597635.600    92533539.902 8
     -2198.281                          50.800          45.850
  22909468.840   120390040.757 8     -2441.720    22909462.600    93810362.842 7
     -1902.640                          48.200          41.900
  23193394.480   121882115.303 8      3004.683    23193390.060    94973069.385 7
      2341.313                          48.300          38.700
  24221201.980   127283283.342 7      3220.374    24221198.520    99181773.849 6
      2509.389                          41.750          38.200
  24703698.340   129818768.011 8     -3689.912    24703698.620   101157479.559 6
     -2875.259                          46.150          38.250
  25442575.480   133701645.311 7     -2787.639    25442571.400   104183062.662 6
     -2172.187                          41.550          36.800
 18  2 20  9 43  0.0000000  0  9G30G05G07G09G02G13G28G06G16
  20436424.500   107394150.163 9       661.838    20436422.280    83683760.785 9
       515.718                          51.600          51.150
  20773278.180   109164309.446 9      1336.055    20773273.840    85063076.821 8
      1041.082                          50.650          49.350
  20929958.720   109987679.978 9     -1055.029    20929953.920    85704685.046 8
      -822.101                          50.950          48.750
  22613762.220   118836121.414 8     -2828.029    22613760.660    92599568.848 8
     -2203.662                          50.250          46.450
  22923444.580   120463483.625 8     -2454.457    22923438.480    93867591.005 7
     -1912.565                          47.150          43.800
  23176261.040   121792077.688 8      2997.905    23176256.280    94902910.196 7
      2336.030                          47.450          39.900
  24202828.760   127186733.766 7      3216.094    24202826.040    99106540.478 6
      2506.050                          42.200          36.250
  24724766.540   129929481.734 8     -3691.122    24724767.260   101243749.921 6
     -2876.201                          45.650          38.400
  25458529.960   133785487.629 7     -2802.484    25458526.480   104248394.297 6
     -2183.757                          40.200          34.500
