     2.11           OBSERVATION DATA    G (GPS)             RINEX VERSION / TYPE
teqc  2016Nov7                          20180403 09:55:33UTCPGM / RUN BY / DATE
MELN                                                        MARKER NAME
19831M001                                                   MARKER NUMBER
Automatic           EXAGONE                                 OBSERVER / AGENCY
5733R90244          SPECTRA SP90M       3.51                REC # / TYPE / VERS
09060015            LEIAR25         LEIT                    ANT # / TYPE
  4226433.0030   197279.0530  4756902.4360                  APPROX POSITION XYZ
        0.0000        0.0000        0.0000                  ANTENNA: DELTA H/E/N
     1     1                                                WAVELENGTH FACT L1/2
     9    C1    L1    D1    P2    L2    D2    P1    S1    S2# / TYPES OF OBSERV
    30.0000                                                 INTERVAL
    18                                                      LEAP SECONDS
Linux 2.4.21-27.ELsmp|Opteron|gcc|Linux x86_64|=+           COMMENT
teqc  2016Nov7                          20180403 09:55:32UTCCOMMENT
     2.11           OBSERVATION DATA    M (MIXED)           COMMENT
teqc  2016Nov7                          20180403 09:55:31UTCCOMMENT
teqc  2016Nov7      IGN-RGP             20180220 09:07:09UTCCOMMENT
teqc_2016 edited: GLONASS # 25 - 30 excluded                COMMENT
GN-RINEX 1.3        Geo++ GmbH          20-FEB-18 08:00     COMMENT
Forced Modulo Decimation to 30 seconds                      COMMENT
teqc_2016 edited: all GLONASS satellites excluded           COMMENT
teqc_2016 edited: all SBAS satellites excluded              COMMENT
teqc_2016 edited: all Galileo satellites excluded           COMMENT
  2018     2    20     8     0    0.0000000     GPS         TIME OF FIRST OBS
                                                            END OF HEADER
 18  2 20  8  0  0.0000000  0 12G09G06G07G02G23G30G05G16G29G26G03G04
  20218218.447   106247467.339 9      -975.963    20218219.875    82790236.820 8
      -760.493                          52.625          48.438
  21099956.591   110881010.603 9     -1751.548    21099959.285    86400784.420 8
     -1364.839                          50.563          45.375
  21686025.652   113960845.145 9      2321.968    21686025.311    88800656.631 7
      1809.326                          51.625          42.938
  21952958.877   115363576.522 8      1009.884    21952955.536    89893689.219 7
       786.926                          46.625          40.313
  22489678.765   118184067.278 9     -2495.271    22489675.827    92091482.583 7
     -1944.370                          51.375          38.750
  23069572.618   121231422.714 9      3485.802    23069575.271    94466049.975 6
      2716.209                          50.688          38.063
  23820733.670   125178783.898 8      3296.249    23820733.405    97541915.071 6
      2568.512                          46.563          32.813
  24286072.532   127624313.833 7       967.479    24286072.142    99447410.499 4
       753.872                          41.938          25.938
  25020638.707   131484332.606 7      1042.280    25020639.125   102455331.433 3
       812.198                          39.375          19.313
  25123716.234   132026007.297 7      -873.502    25123720.208   102877415.634 4
      -680.641                          39.250          24.188
  25215031.171   132505845.693 7     -3394.972    25215035.709   103251311.718 4
     -2645.439                          40.563          24.125
  25306245.680   132985217.010 7     -1561.250    25306246.851   103624846.499 3
     -1216.593                          38.813          18.875
 18  2 20  8  0 30.0000000  0 12G09G06G07G02G23G30G05G16G29G26G03G04
  20223825.893   106276934.677 9      -988.700    20223827.329    82813198.375 8
      -770.415                          53.875          48.125
  21110006.311   110933822.173 8     -1769.408    21110009.007    86441936.268 8
     -1378.759                          49.938          44.875
  21672808.578   113891388.971 9      2308.280    21672808.225    88746534.945 7
      1798.661                          51.125          42.625
  21947242.814   115333538.410 8       992.494    21947239.479    89870282.892 7
       773.374                          47.875          39.188
  22503940.793   118259014.609 9     -2501.350    22503937.850    92149883.087 7
     -1949.101                          51.125          38.563
  23049691.780   121126948.346 8      3478.951    23049694.424    94384641.421 6
      2710.866                          49.000          37.750
  23801924.174   125079939.331 7      3293.215    23801923.928    97464893.315 5
      2566.142                          43.563          32.375
  24280602.280   127595567.454 7       948.791    24280601.868    99425010.720 4
       739.315                          42.750          25.625
  25014740.199   131453335.696 7      1024.068    25014740.616   102431177.959 3
       797.969                          40.563          19.438
  25128753.550   132052478.517 7      -891.387    25128757.527   102898042.551 5
      -694.590                          43.188          27.688
  25234418.706   132607727.751 7     -3397.321    25234423.264   103330700.275 4
     -2647.250                          40.438          22.813
  25315208.654   133032317.723 7     -1578.966    25315209.823   103661548.352 4
     -1230.362                          40.313          22.313
 18  2 20  8  1  0.0000000  0 12G09G06G07G02G23G30G05G16G29G26G03G04
  20229506.134   106306784.543 9     -1001.382    20229507.577    82836458.003 8
      -780.299                          53.438          48.313
  21120158.302   110987171.164 8     -1787.234    21120160.997    86483506.905 8
     -1392.649                          50.438          45.688
  21659670.107   113822345.874 9      2294.502    21659669.745    88692735.138 7
      1787.923                          51.938          43.313
  21941626.463   115304024.314 8       975.036    21941623.141    89847284.882 7
       759.768                          47.625          39.125
  22518237.689   118334145.190 9     -2507.406    22518234.745    92208426.382 6
     -1953.822                          50.625          38.438
  23029850.465   121022681.722 8      3472.044    23029853.115    94303394.743 6
      2705.488                          50.313          38.000
  23783132.235   124981186.997 8      3290.209    23783131.997    97387943.448 5
      2563.804                          45.063          32.438
  24275239.228   127567384.474 7       930.018    24275238.811    99403049.951 4
       724.686                          42.188          25.688
  25008945.266   131422883.044 7      1006.031    25008945.665   102407448.625 3
       783.939                          40.500          18.438
  25133893.095   132079486.948 7      -909.256    25133897.073   102919088.083 4
      -708.521                          39.500          23.750
  25253819.801   132709681.064 7     -3399.622    25253824.378   103410144.384 4
     -2649.060                          41.750          22.813
  25324272.844   133079950.319 7     -1596.585    25324274.005   103698664.665 4
     -1244.086                          40.313          21.313
 18  2 20  8  1 30.0000000  0 12G09G06G07G02G23G30G05G16G29G26G03G04
  20235258.809   106337015.021 9     -1014.130    20235260.252    82860014.215 8
      -790.229                          54.188          48.125
  21130412.068   111041054.995 8     -1805.110    21130414.765    86525494.284 8
     -1406.578                          50.438          45.250
  21646610.509   113753717.256 9      2280.593    21646610.142    88639258.291 7
      1777.087                          51.625          42.750
  21936109.900   115275034.598 8       957.491    21936106.591    89824695.488 7
       746.092                          47.375          39.625
  22532569.047   118409456.948 8     -2513.476    22532566.116    92267110.844 6
     -1958.551                          48.625          37.813
  23010049.015   120918624.549 9      3464.965    23010051.656    94222311.278 6
      2699.969                          50.563          38.313
  23764357.929   124882527.335 8      3286.989    23764357.703    97311065.785 5
      2561.287                          45.438          32.000
  24269983.564   127539765.805 7       911.111    24269983.161    99381528.911 4
       709.948                          43.313          25.750
  25003253.921   131392974.687 7       987.842    25003254.302   102384143.400 3
       769.740                          41.188          18.813
  25139134.551   132107030.983 7      -927.154    25139138.536   102940550.955 4
      -722.448                          41.250          24.938
  25273234.135   132811703.941 7     -3402.018    25273238.727   103489642.730 4
     -2650.935                          42.500          22.625
  25333437.801   133128112.463 6     -1614.282    25333438.958   103736193.582 3
     -1257.895                          37.375          20.375
 18  2 20  8  2  0.0000000  0 12G09G06G07G02G23G30G05G16G29G26G03G04
  20241083.953   106367626.320 9     -1026.791    20241085.396    82883867.168 8
      -800.099                          53.375          48.750
  21140767.539   111095473.316 8     -1822.883    21140770.246    86567898.150 8
     -1420.427                          50.000          45.625
  21633630.350   113685506.083 9      2266.655    21633629.977    88586106.727 7
      1766.223                          51.375          42.500
  21930693.517   115246571.324 8       939.907    21930690.218    89802516.311 7
       732.393                          45.875          39.563
  22546934.937   118484950.163 8     -2519.512    22546932.017    92325936.700 6
     -1963.256                          49.563          37.625
  22990288.168   120814780.736 9      3457.806    22990290.787    94141394.029 6
      2694.392                          50.625          37.625
  23745601.827   124783963.365 8      3283.774    23745601.609    97234262.695 5
      2558.784                          45.625          32.188
  24264835.900   127512714.672 7       892.175    24264835.502    99360450.103 4
       695.187                          39.313          25.313
  24997666.560   131363612.835 7       969.611    24997666.945   102361264.015 3
       755.535                          40.875          18.938
  25144478.034   132135111.146 7      -945.020    25144482.024   102962431.615 4
      -736.389                          41.750          25.875
  25292661.783   132913796.771 7     -3404.328    25292666.384   103569195.509 4
     -2652.701                          40.500          21.250
  25342703.449   133176803.743 7     -1631.877    25342704.602   103774134.850 3
     -1271.576                          39.125          19.750
 18  2 20  8  2 30.0000000  0 12G09G06G07G02G23G30G05G16G29G26G03G04
  20246981.073   106398615.860 9     -1039.244    20246982.515    82908014.851 8
      -809.800                          53.688          47.938
  21151224.112   111150422.915 8     -1840.465    21151226.826    86610716.001 8
     -1434.129                          49.375          45.750
  21620729.723   113617712.877 8      2252.809    21620729.344    88533280.853 7
      1755.434                          49.375          42.438
  21925377.354   115218634.654 8       922.446    21925374.056    89780747.463 7
       718.789                          48.063          40.500
  22561334.829   118560622.049 8     -2525.337    22561331.915    92384901.799 6
     -1967.792                          49.750          37.563
  22970568.133   120711151.385 9      3450.753    22970570.724    94060643.906 6
      2688.896                          50.938          38.313
  23726864.102   124685495.980 8      3280.650    23726863.896    97157534.872 5
      2556.358                          45.375          31.750
  24259796.232   127486231.053 7       873.297    24259795.836    99339813.510 4
       680.492                          41.313          24.875
  24992183.169   131334797.429 7       951.401    24992183.585   102338810.390 3
       741.356                          41.688          19.375
  25149923.124   132163725.242 7      -962.679    25149927.115   102984728.266 4
      -750.141                          42.375          25.813
  25312102.293   133015957.199 7     -3406.434    25312106.906   103648800.974 3
     -2654.377                          40.938          19.250
  25352069.180   133226020.958 6     -1649.306    25352070.329   103812485.934 3
     -1285.155                          38.188          18.250
 18  2 20  8  3  0.0000000  0 12G09G06G07G02G23G30G05G16G29G26G03G04
  20252950.138   106429983.483 9     -1051.810    20252951.580    82932457.149 8
      -819.591                          52.813          48.063
  21161781.643   111205903.047 9     -1858.123    21161784.362    86653947.252 8
     -1447.888                          50.750          45.250
  21607909.204   113550340.646 9      2238.761    21607908.825    88480783.023 7
      1744.493                          51.125          43.063
  21920161.824   115191226.813 8       904.831    21920158.526    89759390.699 7
       705.067                          47.750          40.563
  22575768.710   118636472.567 8     -2531.272    22575765.804    92444006.071 6
     -1972.422                          50.375          37.625
  22950889.584   120607740.022 8      3443.435    22950892.153    93980063.657 6
      2683.196                          49.313          38.250
  23708145.158   124587127.301 8      3277.355    23708144.965    97080883.952 5
      2553.782                          45.313          32.000
  24254865.055   127460317.605 7       854.325    24254864.676    99319621.184 4
       665.710                          40.500          24.313
  24986804.053   131306530.016 7       933.148    24986804.503   102316783.815 3
       727.127                          41.625          19.625
  25155469.826   132192873.314 7      -980.475    25155473.820   103007441.033 4
      -764.008                          40.875          24.125
  25331555.645   133118185.128 7     -3408.660    25331560.273   103728459.061 4
     -2656.082                          41.875          21.938
  25361534.817   133275763.174 7     -1666.775    25361535.962   103851246.124 4
     -1298.790                          39.500          21.438
 18  2 20  8  3 30.0000000  0 12G09G06G07G02G23G30G05G16G29G26G03G04
  20258990.917   106461727.989 9     -1064.406    20258992.367    82957193.128 8
      -829.408                          52.875          48.063
  21172439.776   111261911.827 9     -1875.728    21172442.495    86697590.417 8
     -1461.607                          50.875          45.063
  21595169.091   113483390.951 9      2224.628    21595168.718    88428614.440 7
      1733.478                          52.500          42.438
  21915047.027   115164348.330 8       887.142    21915043.726    89738446.420 7
       691.281                          47.875          39.750
  22590236.343   118712500.387 8     -2537.174    22590233.434    92503248.528 6
     -1977.018                          50.375          37.813
  22931252.963   120504549.059 8      3436.009    22931255.527    93899655.164 6
      2677.409                          48.938          38.375
  23689445.255   124488858.701 8      3273.947    23689445.078    97004311.034 6
      2551.128                          47.063          32.813
  24250042.600   127434975.402 7       835.211    24250042.226    99299874.015 4
       650.811                          42.313          24.438
  24981529.425   131278811.552 7       914.822    24981529.878   102295184.982 4
       712.868                          42.375          21.875
  25161117.973   132222554.510 7      -998.252    25161121.975   103030569.248 4
      -777.864                          40.313          23.438
  25351021.666   133220479.576 7     -3410.916    25351026.302   103808168.941 4
     -2657.863                          42.938          22.188
  25371100.015   133326028.601 7     -1684.214    25371101.151   103890414.001 4
     -1312.378                          39.750          22.063
 18  2 20  8  4  0.0000000  0 12G09G06G07G02G23G30G05G16G29G26G03G04
  20265103.135   106493847.890 9     -1076.929    20265104.589    82982221.608 8
      -839.166                          53.313          48.188
  21183198.098   111318447.099 8     -1893.293    21183200.817    86741643.872 8
     -1475.295                          50.313          45.313
  21582509.679   113416865.290 9      2210.415    21582509.303    88376776.282 7
      1722.401                          51.500          42.375
  21910033.126   115138000.056 8       869.411    21910029.818    89717915.292 7
       677.464                          48.375          39.188
  22604737.405   118788703.886 9     -2543.037    22604734.493    92562627.865 6
     -1981.585                          50.563          37.625
  22911658.706   120401580.710 9      3428.504    22911661.271    93819420.115 7
      2671.563                          51.000          39.000
  23670764.509   124390690.722 8      3270.538    23670764.337    96927816.509 6
      2548.470                          47.375          34.125
  24245329.065   127410205.574 7       816.115    24245328.695    99280572.860 4
       635.941                          41.563          26.313
  24976359.340   131251642.427 7       896.447    24976359.772   102274014.256 4
       698.550                          42.625          21.688
  25166867.327   132252767.537 7     -1015.964    25166871.338   103054111.833 4
      -791.652                          42.375          24.000
  25370500.108   133322839.277 6     -3413.100    25370504.751   103887929.587 3
     -2659.552                          38.438          19.938
  25380764.367   133376815.093 6     -1701.556    25380765.498   103929987.882 4
     -1325.880                          37.063          21.000
 18  2 20  8  4 30.0000000  0 12G09G06G07G02G23G30G05G16G29G26G03G04
  20271286.580   106526342.087 9     -1089.379    20271288.036    83007541.761 8
      -848.865                          54.250          48.000
  21194056.251   111375507.009 9     -1910.718    21194058.976    86786106.119 8
     -1488.873                          50.563          45.063
  21569931.325   113350765.595 9      2196.184    21569930.945    88325270.031 7
      1711.312                          51.563          42.625
  21905120.341   115112183.153 8       851.680    21905117.027    89697798.214 7
       663.647                          48.563          39.125
  22619271.706   118865082.054 8     -2548.832    22619268.793    92622143.301 6
     -1986.106                          50.313          37.875
  22892107.316   120298837.542 9      3420.972    22892109.862    93739360.529 7
      2665.694                          51.125          39.000
  23652103.261   124292625.199 8      3267.101    23652103.082    96851401.809 6
      2545.791                          47.188          32.750
  24240724.848   127386010.139 7       796.944    24240724.457    99261719.269 4
       620.996                          43.313          26.125
  24971293.997   131225023.749 7       878.091    24971294.419   102253272.406 4
       684.233                          41.625          23.000
  25172717.714   132283511.480 7     -1033.626    25172721.729   103078068.186 4
      -805.436                          41.125          23.938
  25389990.791   133425263.297 6     -3415.191    25389995.450   103967740.377 3
     -2661.203                          37.938          14.688
  25390527.544   133428120.896 7     -1718.835    25390528.662   103969966.333 4
     -1339.372                          40.438          24.125
 18  2 20  8  5  0.0000000  0 12G09G06G07G02G23G30G05G16G29G26G04G03
  20277541.041   106559209.474 9     -1101.832    20277542.496    83033152.697 8
      -858.569                          52.938          47.813
  21205013.916   111433089.854 9     -1928.195    21205016.646    86830975.827 8
     -1502.488                          50.813          45.063
  21557434.368   113285093.664 9      2181.857    21557433.989    88274097.107 7
      1700.149                          51.625          42.688
  21900308.900   115086898.830 8       833.860    21900305.584    89678096.144 7
       649.761                          48.250          39.750
  22633838.980   118941633.567 8     -2554.653    22633836.080    92681793.803 6
     -1990.640                          48.875          37.125
  22872599.258   120196322.089 8      3413.295    22872601.782    93659478.388 7
      2659.708                          50.313          39.188
  23633461.892   124194664.138 8      3263.556    23633461.707    96775068.517 6
      2543.030                          45.500          32.750
  24236230.185   127362390.479 7       777.674    24236229.790    99243314.363 4
       605.984                          41.875          24.938
  24966333.532   131198956.276 7       859.664    24966333.975   102232960.061 4
       669.899                          40.625          22.188
  25178668.987   132314785.575 7     -1051.348    25178673.000   103102437.581 4
      -819.212                          39.188          23.938
  25400389.185   133479944.156 6     -1736.076    25400390.303   104010348.138 3
     -1352.792                          38.063          20.313
  25409493.544   133527750.703 7     -3417.312    25409498.225   104047600.58613
     -2662.855                          40.438          17.188
 18  2 20  8  5 30.0000000  0 12G09G06G07G02G23G30G05G16G29G26G04G03
  20283866.324   106592449.027 9     -1114.162    20283867.779    83059053.646 8
      -868.177                          53.188          48.000
  21216070.747   111491193.812 9     -1945.440    21216073.482    86876251.608 8
     -1515.927                          51.188          44.688
  21545019.183   113219851.451 9      2167.587    21545018.804    88223259.031 7
      1689.027                          52.500          42.563
  21895599.008   115062148.137 8       816.129    21895595.691    89658809.873 7
       635.946                          48.438          40.625
  22648439.094   119018357.655 9     -2560.307    22648436.207    92741578.766 6
     -1995.045                          50.625          37.438
  22853135.043   120094037.045 9      3405.656    22853137.543    93579775.787 7
      2653.754                          51.063          38.813
  23614840.682   124096809.065 8      3260.116    23614840.501    96698817.808 5
      2540.347                          45.688          32.375
  24231845.342   127339347.995 7       758.454    24231844.957    99225359.169 4
       591.002                          41.688          24.875
  24961478.141   131173440.938 7       841.355    24961478.622   102213077.938 4
       655.602                          40.750          22.500
  25184720.975   132346588.961 6     -1068.915    25184724.991   103127219.430 4
      -832.939                          37.688          22.625
  25410348.992   133532283.252 7     -1753.179    25410350.104   104051131.811 3
     -1366.105                          39.000          19.125
  25429008.227   133630300.737 7     -3419.345    25429012.928   104127509.656 4
     -2664.436                          41.938          21.375
 18  2 20  8  6  0.0000000  0 12G09G06G07G02G23G30G05G16G29G26G04G03
  20290262.188   106626059.483 9     -1126.572    20290263.642    83085243.610 8
      -877.846                          53.938          48.313
  21227226.380   111549816.944 9     -1962.793    21227229.117    86921931.954 8
     -1529.446                          51.625          44.938
  21532686.065   113155040.520 9      2153.106    21532685.689    88172757.025 7
      1677.745                          52.125          42.375
  21890990.869   115037932.177 8       798.238    21890987.557    89639940.284 7
       622.003                          48.313          39.875
  22663071.824   119095253.051 9     -2566.069    22663068.937    92801497.239 6
     -1999.534                          50.625          37.938
  22833715.116   119991984.786 8      3397.769    22833717.606    93500254.575 7
      2647.611                          49.438          38.625
  23596239.810   123999060.883 8      3256.399    23596239.632    96622650.393 5
      2537.457                          44.688          32.250
  24227570.585   127316884.001 7       739.105    24227570.202    99207854.750 4
       575.934                          39.938          24.563
  24956727.970   131148478.473 7       822.797    24956728.470   102193626.641 4
       641.142                          43.000          24.375
  25190873.455   132378920.465 7     -1086.546    25190877.483   103152412.810 4
      -846.659                          39.000          22.875
  25420406.546   133585136.020 6     -1770.322    25420407.659   104092315.821 3
     -1379.466                          37.188          20.188
  25448534.631   133732912.264 7     -3421.404    25448539.338   104207466.549 4
     -2666.022                          41.813          20.500
 18  2 20  8  6 30.0000000  0 12G09G06G07G02G23G30G05G16G29G26G04G03
  20296728.373   106660039.498 9     -1138.807    20296729.831    83111721.546 8
      -887.380                          52.250          47.938
  21238480.412   111608957.173 9     -1979.921    21238483.151    86968015.226 8
     -1542.794                          51.313          44.625
  21520435.331   113090662.543 9      2138.710    21520434.961    88122592.383 7
      1666.529                          52.125          42.563
  21886484.555   115014251.310 8       780.451    21886481.248    89621487.653 7
       608.147                          46.250          40.313
  22677736.895   119172318.427 8     -2571.638    22677734.013    92861548.139 6
     -2003.872                          50.000          37.000
  22814339.928   119890167.641 8      3389.988    22814342.408    93420916.573 7
      2641.545                          50.375          39.625
  23577659.714   123901421.860 8      3252.840    23577659.534    96546568.033 5
      2534.679                          46.813          32.250
  24223406.154   127294999.776 7       719.814    24223405.775    99190802.121 4
       560.898                          41.188          24.750
  24952083.099   131124069.383 7       804.410    24952083.590   102174606.563 4
       626.810                          42.500          22.875
  25197126.233   132411779.001 7     -1104.068    25197130.265   103178016.843 4
      -860.320                          41.313          24.063
  25430561.474   133638500.471 7     -1787.291    25430562.586   104133898.513 3
     -1392.700                          38.813          18.875
  25468072.546   133835584.321 7     -3423.357    25468077.274   104287470.579 3
     -2667.583                          41.000          20.000
 18  2 20  8  7  0.0000000  0 12G09G06G07G02G23G30G05G16G29G26G04G03
  20303264.687   106694388.028 9     -1150.927    20303266.143    83138486.634 8
      -896.827                          53.750          47.938
  21249832.492   111668612.652 9     -1996.946    21249835.235    87014500.009 8
     -1556.060                          51.938          45.063
  21508267.277   113026719.070 9      2124.348    21508266.913    88072766.307 7
      1655.337                          51.563          42.500
  21882080.317   114991106.833 8       762.669    21882077.009    89603452.984 7
       594.288                          47.500          40.375
  22692434.067   119249552.453 8     -2577.107    22692431.179    92921730.481 6
     -2008.133                          49.625          37.313
  22795009.990   119788588.255 8      3382.158    22795012.464    93341763.825 7
      2635.445                          50.000          39.625
  23559100.604   123803893.133 8      3249.264    23559100.431    96470571.627 5
      2531.895                          45.313          31.938
  24219352.318   127273696.715 7       700.539    24219351.940    99174202.341 4
       545.898                          43.000          24.625
  24947543.710   131100214.617 7       786.067    24947544.192   102156018.392 4
       612.535                          42.188          21.813
  25203479.109   132445163.539 7     -1121.404    25203483.143   103204030.765 4
      -873.821                          39.063          24.063
  25440813.408   133692374.699 7     -1804.120    25440814.518   104175878.459 4
     -1405.807                          40.625          20.563
  25487621.794   133938315.934 7     -3425.253    25487626.552   104367520.983 3
     -2669.018                          39.313          18.563
 18  2 20  8  7 30.0000000  0 12G09G06G07G02G23G30G05G16G29G26G04G03
  20309870.983   106729104.334 9     -1163.395    20309872.440    83165538.295 8
      -906.543                          52.688          48.563
  21261282.336   111728781.879 9     -2014.250    21261285.082    87061385.109 8
     -1569.545                          51.375          45.125
  21496182.387   112963212.623 9      2109.515    21496182.026    88023280.778 7
      1643.778                          52.000          43.063
  21877778.387   114968500.023 8       744.529    21877775.085    89585837.278 7
       580.151                          46.438          40.625
  22707163.182   119326954.338 8     -2582.908    22707160.288    92982043.627 6
     -2012.654                          49.438          37.000
  22775725.859   119687249.553 9      3373.866    22775728.318    93262798.620 7
      2628.983                          51.250          40.563
  23540562.925   123706476.994 8      3245.263    23540562.753    96394662.962 5
      2528.779                          48.063          32.125
  24215409.428   127252976.704 7       680.856    24215409.064    99158056.909 4
       530.526                          41.313          25.875
  24943109.981   131076915.151 7       767.345    24943110.464   102137862.955 4
       597.929                          39.875          21.750
  25209931.997   132479073.647 7     -1139.150    25209936.035   103230454.203 4
      -887.649                          38.625          25.438
  25451162.063   133746757.187 6     -1821.248    25451163.166   104218254.455 3
     -1419.139                          38.250          16.125
  25507182.274   134041106.510 7     -3427.453    25507187.063   104447617.475 3
     -2670.740                          39.375          17.813
 18  2 20  8  8  0.0000000  0 12G09G06G07G02G23G30G05G16G29G26G04G03
  20316546.971   106764186.888 9     -1175.642    20316548.430    83192875.334 8
      -916.083                          53.688          48.063
  21272829.489   111789462.471 9     -2031.276    21272832.235    87108668.675 8
     -1582.811                          51.375          45.250
  21484180.970   112900144.795 9      2094.830    21484180.606    87974137.038 7
      1632.336                          52.438          42.438
  21873578.892   114946431.510 8       726.510    21873575.597    89568641.027 7
       566.113                          47.500          39.875
  22721924.003   119404522.924 8     -2588.480    22721921.122    93042486.650 6
     -2016.996                          49.563          36.875
  22756487.926   119586153.644 9      3365.684    22756490.383    93184022.609 7
      2622.613                          50.750          40.500
  23522046.865   123609174.484 8      3241.410    23522046.692    96318842.814 6
      2525.777                          47.938          32.625
  24211577.638   127232840.522 7       661.340    24211577.280    99142366.397 4
       515.341                          43.813          26.063
  24938781.994   131054171.352 7       748.744    24938782.491   102120140.513 4
       583.432                          41.375          21.938
  25216484.609   132513507.802 7     -1156.593    25216488.651   103257286.019 4
      -901.230                          41.875          24.250
  25461607.049   133801645.933 6     -1838.143    25461608.148   104261024.896 3
     -1432.313                          36.938          16.750
  25526753.787   134143955.023 7     -3429.326    25526758.605   104527759.129 3
     -2672.187                          40.500          16.875
 18  2 20  8  8 30.0000000  0 12G09G06G07G02G23G30G05G16G29G26G04G03
  20323292.461   106799634.646 9     -1187.671    20323293.917    83220496.965 8
      -925.456                          52.063          48.250
  21284473.612   111850652.639 9     -2048.166    21284476.357    87156349.306 8
     -1595.973                          50.813          44.688
  21472263.272   112837516.908 9      2080.229    21472262.902    87925336.092 7
      1620.960                          52.688          42.563
  21869482.080   114924902.619 8       708.613    21869478.795    89551865.262 7
       552.171                          46.125          40.313
  22736716.411   119482257.508 8     -2593.911    22736713.543    93103059.028 6
     -2021.229                          48.500          36.250
  22737296.698   119485303.189 9      3357.563    22737299.151    93105437.865 7
      2616.283                          51.063          40.000
  23503552.603   123511986.456 8      3237.668    23503552.421    96243111.873 6
      2522.855                          48.313          32.938
  24207857.212   127213289.609 7       641.910    24207856.854    99127131.918 4
       500.188                          43.438          26.188
  24934559.912   131031984.057 7       730.297    24934560.420   102102851.697 4
       569.038                          41.250          20.500
  25223136.750   132548465.013 7     -1173.963    25223140.797   103284525.409 4
      -914.778                          38.563          24.313
  25472147.943   133857038.701 6     -1854.801    25472149.039   104304188.140 3
     -1445.299                          37.500          18.063
  25546336.124   134246860.406 6     -3431.060    25546340.967   104607945.121 3
     -2673.527                          38.375          17.875
 18  2 20  8  9  0.0000000  0 12G09G06G07G02G30G23G05G16G29G26G04G03
  20330107.056   106835445.544 9     -1199.814    20330108.506    83248401.556 8
      -934.920                          52.563          47.938
  21296214.147   111912349.470 9     -2065.071    21296216.892    87204424.718 8
     -1609.146                          50.688          44.500
  21460429.510   112775330.074 9      2065.441    21460429.130    87876878.825 7
      1609.436                          52.625          43.063
  21865487.928   114903913.139 8       690.579    21865484.640    89535509.808 7
       538.115                          47.313          40.375
  22718152.488   119384699.791 9      3349.239    22718154.935    93027045.630 7
      2609.797                          50.500          39.750
  22751539.917   119560155.528 8     -2599.405    22751537.067    93163758.754 6
     -2025.506                          48.438          36.188
  23485080.440   123414914.595 8      3233.690    23485080.262    96167471.480 6
      2519.750                          47.688          33.375
  24204248.211   127194324.263 7       622.340    24204247.854    99112353.759 4
       484.946                          41.688          24.375
  24930443.638   131010352.811 7       711.688    24930444.145   102085996.138 3
       554.564                          41.250          18.500
  25229888.070   132583943.416 7     -1191.333    25229892.120   103312170.900 4
      -928.309                          40.313          25.063
  25482784.196   133912932.606 6     -1871.541    25482785.287   104347741.805 3
     -1458.358                          37.938          15.875
  25565928.911   134349820.763 6     -3432.961
                                        35.063
 18  2 20  8  9 30.0000000  0 12G09G06G07G02G30G23G05G16G29G26G04G03
  20336990.792   106871619.805 9     -1211.792    20336992.243    83276589.286 8
      -944.255                          53.500          47.938
  21308050.983   111974552.381 9     -2081.803    21308053.732    87252894.478 7
     -1622.183                          50.563          43.875
  21448680.206   112713587.096 9      2050.733    21448679.823    87828767.419 7
      1597.972                          51.813          43.063
  21861596.793   114883465.025 8       672.630    21861593.503    89519576.198 7
       524.130                          48.188          39.750
  22699056.037   119284347.335 9      3340.920    22699058.475    92948848.924 7
      2603.315                          51.563          40.750
  22766394.570   119638217.159 8     -2604.714    22766391.728    93224585.968 6
     -2029.646                          49.813          37.438
  23466631.043   123317962.340 8      3229.795    23466630.866    96091924.266 6
      2516.732                          48.375          33.375
  24200751.162   127175947.194 7       602.834    24200750.810    99098033.948 4
       469.742                          40.813          26.125
  24926433.600   130989279.912 7       693.174    24926434.115   102069575.719 3
       540.127                          40.750          19.688
  25236738.588   132619943.122 7     -1208.481    25236742.643   103340222.619 4
      -941.704                          40.938          25.375
  25493515.748   133969327.318 6     -1888.134    25493516.842   104391685.693 4
     -1471.292                          38.313          21.188
  25585532.244   134452836.629 6     -3434.653
                                        32.563
 18  2 20  8 10  0.0000000  0 12G09G06G07G02G30G23G05G16G29G26G04G03
  20343943.311   106908155.510 9     -1223.750    20343944.761    83305058.656 8
      -953.572                          53.188          47.750
  21319983.601   112037258.580 9     -2098.478    21319986.348    87301756.411 7
     -1635.177                          50.813          44.250
  21437015.580   112652289.112 9      2035.941    21437015.198    87781002.766 7
      1586.449                          52.000          42.438
  21857808.730   114863558.557 8       654.616    21857805.437    89504064.661 7
       510.091                          48.250          40.313
  22680007.675   119184247.549 9      3332.526    22680010.097    92870849.084 7
      2596.775                          51.125          40.500
  22781280.037   119716440.705 8     -2610.034    22781277.201    93285539.361 6
     -2033.790                          48.938          37.000
  23448204.380   123221129.559 8      3225.842    23448204.200    96016470.152 6
      2513.647                          48.313          32.563
  24197366.189   127158159.038 8       583.216    24197365.833    99084173.071 4
       454.453                          45.125          25.125
  24922529.811   130968765.318 7       674.620    24922530.336   102053590.266 4
       525.691                          38.625          20.750
  25243687.958   132656462.295 7     -1226.000    25243692.020   103368679.115 5
      -955.367                          39.250          27.000
  25504342.054   134026219.956 6     -1904.569    25504343.144   104436017.683 3
     -1484.094                          36.938          18.375
  25605145.842   134555906.509 5     -3436.350
                                        29.063
 18  2 20  8 10 30.0000000  0 11G09G06G07G02G30G23G05G16G29G26G04
  20350964.374   106945051.384 9     -1235.858    20350965.816    83333808.690 8
      -963.007                          53.563          48.000
  21332011.603   112100466.001 9     -2115.260    21332014.343    87351008.947 7
     -1648.254                          51.875          44.188
  21425435.897   112591437.536 9      2020.934    21425435.523    87733585.974 7
      1574.753                          51.750          43.063
  21854123.876   114844194.463 8       636.437    21854120.581    89488975.742 7
       495.925                          49.938          40.500
  22661007.843   119084402.816 9      3323.887    22661010.266    92793048.010 7
      2590.040                          50.813          40.563
  22796196.097   119794825.044 8     -2615.474    22796193.270    93346618.038 6
     -2038.029                          49.500          37.313
  23429800.782   123124418.013 8      3221.663    23429800.600    95941110.521 6
      2510.387                          47.375          32.563
  24194093.470   127140960.780 8       563.453    24194093.100    99070771.820 4
       439.048                          45.000          25.938
  24918732.287   130948809.042 7       655.907    24918732.814   102038039.905 4
       511.104                          42.438          22.000
  25250735.942   132693499.697 7     -1243.154    25250740.012   103397539.428 4
      -968.654                          38.500          25.313
  25515262.717   134083608.450 6     -1921.212    25515263.800   104480735.950 2
     -1497.104                          35.625          14.438
 18  2 20  8 11  0.0000000  0 11G09G06G07G02G30G23G05G16G29G26G04
  20358053.799   106982306.516 9     -1247.822    20358055.238    83362838.657 8
      -972.330                          54.375          48.125
  21344134.625   112164172.791 9     -2131.876    21344137.363    87400650.595 8
     -1661.199                          51.563          44.500
  21413941.534   112531034.315 9      2005.941    21413941.166    87686518.547 7
      1563.072                          53.000          42.938
  21850542.443   114825373.877 8       618.270    21850539.153    89474310.345 7
       481.772                          48.813          41.000
  22642057.074   118984815.933 8      3315.212    22642059.509    92715447.854 7
      2583.279                          49.813          40.625
  22811142.574   119873369.211 8     -2620.793    22811139.755    93407821.257 6
     -2042.177                          49.938          37.375
  23411420.489   123027828.914 8      3217.546    23411420.298    95865846.289 6
      2507.176                          48.875          32.938
  24190933.267   127124353.784 8       543.684    24190932.877    99057831.337 4
       423.645                          45.125          24.938
  24915041.224   130929412.263 7       637.207    24915041.769   102022925.506 4
       496.545                          41.813          21.875
  25257882.380   132731054.462 6     -1260.392    25257886.453   103426802.836 4
      -982.114                          37.375          24.500
  25526277.363   134141490.824 6     -1937.642    25526278.440   104525839.186 3
     -1509.839                          37.125          16.375
 18  2 20  8 11 30.0000000  0 11G09G06G07G02G30G23G05G16G29G26G04
  20365211.403   107019919.942 9     -1259.747    20365212.840    83392147.816 8
      -981.623                          53.313          48.125
  21356352.295   112228376.987 8     -2148.417    21356355.037    87450679.803 7
     -1674.089                          49.625          43.688
  21402532.845   112471081.314 9      1990.901    21402532.481    87639801.933 7
      1551.351                          52.750          43.438
  21847064.584   114807097.591 8       600.117    21847061.303    89460069.070 7
       467.622                          48.938          40.500
  22623155.884   118885489.577 9      3306.499    22623158.332    92638050.711 7
      2576.493                          51.375          40.375
  22826119.299   119952072.366 8     -2626.074    22826116.492    93469148.355 6
     -2046.291                          48.750          36.000
  23393064.084   122931365.337 8      3213.357    23393063.880    95790679.885 6
      2503.916                          49.063          33.313
  24187885.815   127108339.302 7       523.946    24187885.404    99045352.534 5
       408.265                          44.125          26.688
  24911456.775   130910575.834 7       618.492    24911457.355   102008247.756 4
       481.940                          41.750          21.438
  25265127.066   132769125.531 7     -1277.601    25265131.149   103456468.609 4
      -995.533                          39.063          23.938
  25537385.698   134199865.551 6     -1954.026
     -1522.623                          35.063
 18  2 20  8 12  0.0000000  0 11G09G06G07G02G30G23G05G16G29G26G04
  20372436.829   107057889.798 9     -1271.531    20372438.268    83421734.715 8
      -990.803                          51.750          48.313
  21368664.109   112293075.902 8     -2164.793    21368666.855    87501094.495 7
     -1686.850                          48.125          43.813
  21391210.027   112411579.548 9      1975.916    21391209.660    87593436.906 7
      1539.676                          52.750          42.688
  21843690.382   114789365.977 8       582.015    21843687.102    89446252.213 7
       453.520                          48.313          40.563
  22604304.612   118786425.508 9      3297.825    22604307.055    92560857.940 7
      2569.734                          51.500          40.750
  22841125.939   120030932.700 8     -2631.232    22841123.142    93530597.926 6
     -2050.309                          49.188          36.750
  23374731.700   122835028.002 8      3209.155    23374731.482    95715611.819 5
      2500.636                          48.125          32.438
  24184951.186   127092917.751 7       504.211    24184950.776    99033335.750 4
       392.882                          41.875          26.063
  24907978.872   130892299.297 7       599.909    24907979.470   101994006.286 4
       467.462                          43.375          21.063
  25272469.642   132807711.031 7     -1294.689    25272473.736   103486535.223 4
     -1008.854                          39.375          23.188
  25548587.216   134258729.971 6     -1970.211    25548588.293   104617194.375 2
     -1535.272                          32.500          12.250
 18  2 20  8 12 30.0000000  0 11G09G07G06G02G30G23G05G16G29G26G04
  20379729.978   107096215.566 9     -1283.468    20379731.425    83451598.936 8
     -1000.106                          53.250          48.125
  21379973.500   112352531.225 9      1960.679    21379973.128    87547425.232 7
      1527.802                          53.563          43.188
  21381069.788   112358268.093 8     -2181.302    21381072.543    87551893.572 7
     -1699.717                          49.750          43.563
  21840420.078   114772180.355 8       563.718    21840416.802    89432860.818 7
       439.263                          48.938          40.875
  22585503.866   118687626.920 9      3288.804    22585506.294    92483872.012 7
      2562.703                          50.875          40.688
  22856162.438   120109949.815 8     -2636.532    22856159.629    93592169.683 6
     -2054.439                          49.063          37.250
  23356423.734   122738818.986 8      3204.779    23356423.502    95640643.757 6
      2497.231                          46.000          32.625
  24182129.751   127078091.043 7       484.260    24182129.339    99021782.481 5
       377.346                          43.875          26.625
  24904607.696   130874583.543 7       581.137    24904608.283   101980201.791 4
       452.825                          42.688          23.438
  25279910.006   132846810.383 6     -1311.915    25279914.106   103517002.219 4
     -1022.262                          37.625          23.688
  25559881.573   134318082.282 6     -1986.535    25559884.332   104663439.947 3
     -1547.947                          36.250          16.438
 18  2 20  8 13  0.0000000  0 12G09G07G06G02G30G23G05G16G29G26G04G03
  20387090.524   107134895.481 9     -1295.089    20387091.975    83481739.125 8
     -1009.159                          53.875          48.125
  21368823.406   112293937.104 9      1945.644    21368823.028    87501767.472 7
      1516.084                          52.250          43.125
  21393568.830   112423950.904 9     -2197.493    21393571.595    87603074.945 7
     -1712.329                          50.625          43.625
  21837253.700   114755540.846 8       545.640    21837250.424    89419894.964 7
       425.177                          50.438          40.875
  22566753.986   118589095.651 9      3280.017    22566756.409    92407094.413 7
      2555.858                          51.375          40.875
  22871228.438   120189122.035 8     -2641.541    22871225.631    93653862.286 6
     -2058.346                          48.500          35.813
  23338140.316   122642738.990 8      3200.583    23338140.079    95565776.233 6
      2493.959                          47.625          32.875
  24179421.562   127063859.461 7       464.602    24179421.146    99010692.932 4
       362.025                          43.250          26.063
  24901343.255   130857428.612 7       562.577    24901343.823   101966834.309 4
       438.382                          43.813          22.438
  25287447.795   132886421.706 7     -1328.761    25287451.904   103547868.180 4
     -1035.396                          40.063          22.625
  25571268.243   134377919.690 5     -2002.516
                                        30.625
  25723033.185   135175457.181 6     -3446.428
                                        32.563
 18  2 20  8 13 30.0000000  0 11G09G07G06G02G30G23G05G16G29G26G04
  20394518.410   107173929.250 9     -1307.005    20394519.862    83512155.049 8
     -1018.443                          53.000          48.000
  21357760.263   112235799.917 9      1930.248    21357759.879    87456465.772 7
      1504.089                          52.438          42.688
  21406160.988   112490123.029 8     -2213.885    21406163.761    87654637.606 7
     -1725.104                          49.375          43.125
  21834191.562   114739449.148 8       527.239    21834188.290    89407355.973 7
       410.837                          50.313          40.750
  22548055.616   118490835.119 8      3270.807    22548058.050    92330527.764 7
      2548.683                          49.500          41.125
  22886323.889   120268449.012 8     -2646.835    22886321.081    93715675.488 6
     -2062.471                          49.250          36.938
  23319882.033   122546791.065 8      3196.030    23319881.791    95491011.634 6
      2490.422                          47.875          32.688
  24176827.023   127050225.098 7       444.495    24176826.602    99000068.765 4
       346.343                          41.313          25.125
  24898185.854   130840836.303 7       543.713    24898186.441   101953905.227 4
       423.677                          42.500          21.125
  25295082.937   132926544.647 7     -1345.938    25295087.057   103579132.841 4
     -1048.801                          41.250          22.500
  25582747.222   134438243.559 6     -2018.800    25582750.105   104757071.550 3
     -1573.066                          38.438          18.125
 18  2 20  8 14  0.0000000  0 11G09G07G06G02G30G23G05G16G29G26G04
  20402013.284   107213315.066 9     -1318.658    20402014.740    83542845.291 8
     -1027.527                          52.375          48.125
  21346784.250   112178120.622 9      1915.028    21346783.869    87411520.883 7
      1492.230                          52.938          43.000
  21418845.734   112556781.703 8     -2229.970    21418848.514    87706579.396 7
     -1737.639                          48.750          43.438
  21831233.658   114723905.169 9       509.035    21831230.378    89395243.765 7
       396.648                          50.500          40.750
  22529409.101   118392847.089 9      3261.747    22529411.547    92254173.477 7
      2541.619                          50.875          40.688
  22901448.492   120347929.181 8     -2651.840    22901445.680    93777608.081 6
     -2066.367                          48.813          35.938
  23301648.924   122450975.478 8      3191.658    23301648.687    95416350.147 6
      2487.006                          48.313          33.188
  24174346.195   127037188.298 7       424.658    24174345.768    98989910.247 4
       330.901                          43.875          25.625
  24895135.404   130824806.099 7       525.019    24895136.012   101941414.160 4
       409.109                          42.438          21.875
  25302815.069   132967177.291 7     -1362.815    25302819.200   103610794.627 4
     -1061.956                          40.313          22.688
  25594317.604   134499046.300 6     -2034.691
                                        36.875
 18  2 20  8 14 30.0000000  0 10G09G07G06G02G30G23G05G16G29G26
  20409574.978   107253052.001 9     -1330.452    20409576.430    83573809.134 8
     -1036.717                          53.625          47.750
  21335895.731   112120901.111 9      1899.592    21335895.353    87366934.266 7
      1480.203                          52.813          43.563
  21431622.710   112623925.045 9     -2246.214    21431625.499    87758898.848 7
     -1750.295                          50.813          43.750
  21828380.214   114708910.155 9       490.677    21828376.929    89383559.329 7
       382.347                          50.500          40.813
  22510814.978   118295134.358 9      3252.462    22510817.435    92178033.695 7
      2534.384                          50.813          41.125
  22916602.079   120427561.758 8     -2656.965    22916599.283    93839659.389 6
     -2070.361                          47.813          35.875
  23283441.434   122355294.505 8      3187.063    23283441.198    95341793.545 6
      2483.423                          48.500          33.688
  24171979.317   127024750.295 7       404.582    24171978.882    98980218.308 4
       315.265                          43.625          25.375
  24892192.031   130809338.573 7       506.195    24892192.658   101929361.515 3
       394.459                          41.563          20.313
  25310644.008   133008318.631 6     -1379.804    25310648.144   103642852.815 4
     -1075.160                          36.625          24.625
 18  2 20  8 15  0.0000000  0 11G09G07G06G02G30G23G05G16G29G26G04
  20417203.169   107293138.394 9     -1341.977    20417204.616    83605045.273 8
     -1045.698                          52.750          48.188
  21325094.870   112064142.248 9      1884.309    21325094.494    87322706.596 7
      1468.294                          53.375          43.063
  21444491.400   112691550.340 8     -2262.154    21444494.197    87811593.854 7
     -1762.719                          47.500          43.375
  21825631.143   114694463.617 8       472.444    21825627.852    89372302.275 7
       368.139                          49.063          40.625
  22492273.615   118197698.853 9      3243.257    22492276.080    92102109.937 7
      2527.215                          51.313          41.125
  22931784.345   120507345.021 8     -2661.878    22931781.560    93901828.134 6
     -2074.190                          48.438          36.125
  23265259.934   122259750.115 8      3182.587    23265259.706    95267343.384 6
      2479.935                          48.813          34.438
  24169726.474   127012911.544 7       384.675    24169726.028    98970993.290 5
       299.742                          41.313          26.625
  24889355.726   130794433.704 7       487.502    24889356.359   101917747.319 4
       379.865                          43.688          22.875
  25318569.379   133049966.750 7     -1396.660    25318573.524   103675305.898 4
     -1088.286                          41.563          25.063
  25617731.315   134622088.611 6     -2066.498
                                        32.688
 18  2 20  8 15 30.0000000  0 10G09G07G06G02G30G23G05G16G29G26
  20424897.617   107333572.974 9     -1353.594    20424899.062    83636552.729 8
     -1054.747                          54.750          48.063
  21314381.949   112007845.510 9      1868.878    21314381.574    87278839.020 7
      1456.270                          53.563          42.938
  21457451.368   112759655.307 9     -2278.101    21457454.176    87864662.625 7
     -1775.143                          50.813          43.250
  21822986.599   114680566.399 8       454.092    21822983.307    89361473.259 7
       353.840                          50.125          40.875
  22473785.450   118100542.914 9      3233.876    22473787.918    92026404.022 7
      2519.904                          51.625          40.875
  22946995.050   120587277.693 8     -2666.868    22946992.270    93964113.311 6
     -2078.077                          48.563          34.813
  23247104.513   122164342.774 8      3177.950    23247104.291    95192999.999 6
      2476.322                          48.750          34.250
  24167587.804   127001672.824 7       364.637    24167587.355    98962235.853 4
       284.141                          43.250          24.688
  24886626.536   130780091.768 7       468.711    24886627.187   101906571.779 4
       365.210                          41.313          21.313
  25326590.919   133092120.242 7     -1413.482    25326595.074   103708152.763 4
     -1101.418                          41.875          25.125
 18  2 20  8 16  0.0000000  0 10G09G07G06G02G30G23G05G16G29G26
  20432658.230   107374355.250 9     -1365.052    20432659.672    83668331.123 8
     -1063.676                          52.438          47.875
  21303757.357   111952012.920 9      1853.457    21303756.978    87235333.124 7
      1444.250                          53.188          43.688
  21470502.338   112828238.501 8     -2293.902    21470505.160    87918104.053 7
     -1787.457                          48.875          43.375
  21820446.894   114667220.159 8       435.808    21820443.607    89351073.592 7
       339.592                          48.313          40.500
  22455351.104   118003669.803 9      3224.485    22455353.575    91950918.486 7
      2512.586                          51.063          40.938
  22962234.181   120667359.836 8     -2671.730    22962231.423    94026514.930 6
     -2081.871                          47.625          35.313
  23228975.785   122069075.706 8      3173.337    23228975.565    95118765.911 6
      2472.733                          49.000          34.125
  24165563.648   126991035.862 7       344.666    24165563.202    98953947.304 4
       268.556                          42.313          25.125
  24884004.617   130766313.517 7       449.994    24884005.297   101895835.437 4
       350.652                          42.250          21.938
  25334708.522   133134778.560 7     -1430.193    25334712.685   103741393.008 4
     -1114.426                          42.625          24.813
 18  2 20  8 16 30.0000000  0 10G09G07G06G02G30G23G05G16G29G26
  20440484.765   107415483.954 9     -1376.756    20440486.206    83700379.467 8
     -1072.797                          53.625          48.063
  21293221.375   111896645.969 9      1837.772    21293220.987    87192190.068 7
      1432.028                          52.813          43.750
  21483643.858   112897297.571 8     -2309.893    21483646.700    87971916.289 7
     -1799.915                          49.250          43.313
  21818012.038   114654424.911 8       417.294    21818008.759    89341103.255 7
       325.167                          47.813          39.688
  22436971.007   117907081.781 8      3214.801    22436973.478    91875655.107 7
      2505.034                          48.375          41.125
  22977501.464   120747589.876 8     -2676.823    22977498.720    94089031.818 6
     -2085.834                          48.063          35.313
  23210874.034   121973950.417 8      3168.447    23210873.824    95044642.309 6
      2468.922                          46.563          34.813
  24163654.123   126981001.272 7       324.502    24163653.673    98946128.146 4
       252.860                          40.938          25.438
  24881490.072   130753099.395 7       431.054    24881490.769   101885538.670 4
       335.875                          42.375          20.625
  25342921.879   133177940.038 7     -1447.115    25342926.047   103775025.323 5
     -1127.617                          43.000          26.813
 18  2 20  8 17  0.0000000  0 10G09G07G06G02G30G23G05G16G29G26
  20448376.951   107456957.653 9     -1388.249    20448378.394    83732696.622 8
     -1081.755                          53.750          47.688
  21282774.212   111841745.797 9      1822.166    21282773.822    87149410.733 7
      1419.869                          53.313          43.875
  21496875.461   112966830.008 9     -2325.658    21496878.316    88026097.381 7
     -1812.201                          50.563          43.375
  21815682.147   114642181.251 8       398.856    21815678.873    89331562.739 7
       310.796                          47.500          40.438
  22418645.581   117810781.076 9      3205.158    22418648.054    91800615.603 7
      2497.525                          51.250          40.875
  22992796.722   120827966.886 8     -2681.707    22992793.984    94151663.249 6
     -2089.640                          47.688          35.188
  23192799.368   121878967.440 8      3163.652    23192799.167    94970629.614 6
      2465.184                          48.625          34.563
  24161859.401   126971569.939 7       304.261    24161858.938    98938779.083 5
       237.086                          43.500          26.688
  24879082.895   130740449.465 7       412.261    24879083.586   101875681.594 4
       321.230                          41.500          20.875
  25351230.685   133221603.153 7     -1463.810    25351234.866   103809048.536 4
     -1140.632                          39.500          23.063
 18  2 20  8 17 30.0000000  0 10G09G07G06G02G30G23G05G16G29G26
  20456334.601   107498775.383 9     -1399.585    20456336.050    83765281.862 8
     -1090.586                          53.188          48.250
  21272416.229   111787314.260 9      1806.617    21272415.832    87106996.578 7
      1407.755                          53.938          43.438
  21510196.766   113036833.807 9     -2341.258    21510199.627    88080645.774 7
     -1824.355                          50.500          43.563
  21813457.405   114630490.160 8       380.579    21813454.137    89322452.777 7
       296.554                          48.250          40.375
  22400375.334   117714770.318 9      3195.557    22400377.803    91725802.054 7
      2490.044                          51.500          40.500
  23008119.800   120908490.131 8     -2686.449    23008117.076    94214408.583 6
     -2093.336                          46.938          35.313
  23174752.301   121784129.503 8      3158.858    23174752.106    94896729.936 6
      2461.447                          48.938          34.125
  24160179.616   126962742.622 7       284.210    24160179.142    98931900.645 4
       221.464                          42.688          25.500
  24876783.133   130728364.063 7       393.482    24876783.820   101866264.400 4
       306.605                          41.875          21.063
  25359634.729   133265766.708 7     -1480.386    25359638.913   103843461.708 4
     -1153.556                          41.750          24.375
 18  2 20  8 18  0.0000000  0 10G09G07G06G02G30G23G05G16G29G26
  20464357.374   107540935.333 9     -1411.105    20464358.830    83798133.757 8
     -1099.563                          53.563          47.875
  21262147.600   111733352.320 9      1790.818    21262147.198    87064948.333 7
      1395.440                          53.688          43.313
  21523607.211   113107306.036 8     -2356.929    21523610.074    88135559.179 7
     -1836.565                          50.063          43.313
  21811337.714   114619351.079 8       362.013    21811334.450    89313772.967 7
       282.090                          48.375          41.000
  22382160.606   117619051.363 9      3185.661    22382163.081    91651215.874 7
      2482.329                          50.688          40.875
  23023470.282   120989157.307 8     -2691.375    23023467.558    94277266.108 6
     -2097.175                          49.125          35.750
  23156733.101   121689437.997 8      3153.847    23156732.906    94822944.345 6
      2457.541                          49.563          34.750
  24158614.815   126954519.617 7       263.935    24158614.347    98925493.108 4
       205.649                          40.813          24.938
  24874590.712   130716842.732 7       374.545    24874591.391   101857286.725 3
       291.842                          41.063          17.000
  25368133.600   133310428.614 7     -1497.086    25368137.793   103878263.216 4
     -1166.563                          40.375          22.375
 18  2 20  8 18 30.0000000  0 10G09G07G06G02G30G23G05G16G29G26
  20472445.117   107583436.688 9     -1422.445    20472446.579    83831251.686 8
     -1108.398                          53.813          47.875
  21251968.604   111679861.449 9      1775.128    21251968.203    87023267.154 7
      1383.216                          52.625          43.188
  21537106.441   113178244.876 8     -2372.399    21537109.311    88190836.179 7
     -1848.624                          50.313          42.625
  21809323.317   114608765.327 9       343.586    21809320.062    89305524.322 7
       267.730                          50.563          41.250
  22364001.949   117523627.012 9      3175.837    22364004.418    91576859.222 7
      2474.677                          51.563          41.438
  23038848.083   121069968.060 8     -2696.099    23038845.362    94340235.500 6
     -2100.855                          48.875          35.250
  23138742.111   121594894.729 8      3148.939    23138741.915    94749274.269 6
      2453.718                          49.313          34.563
  24157165.202   126946901.884 7       243.809    24157164.737    98919557.192 4
       189.994                          41.063          26.000
  24872505.797   130705886.348 7       355.793    24872506.466   101848749.285 3
       277.213                          41.125          19.250
  25376727.112   133355587.863 7     -1513.620    25376731.313   103913452.200 4
     -1179.451                          40.875          23.688
 18  2 20  8 19  0.0000000  0 10G09G07G06G02G30G23G05G16G29G26
  20480597.614   107626278.313 9     -1433.709    20480599.075    83864634.767 8
     -1117.174                          54.938          48.000
  21241879.559   111626843.276 9      1759.390    21241879.162    86981954.319 7
      1370.950                          52.875          43.313
  21550694.025   113249648.025 9     -2387.813    21550696.903    88246474.971 7
     -1860.634                          50.625          43.125
  21807414.247   114598733.045 8       325.186    21807410.995    89297706.950 7
       253.392                          49.125          41.000
  22345899.820   117428499.705 9      3165.945    22345902.280    91502734.079 7
      2466.969                          51.063          41.000
  23054253.030   121150921.591 8     -2700.787    23054250.335    94403316.112 6
     -2104.510                          47.375          34.688
  23120779.665   121500501.501 8      3143.932    23120779.471    94675721.121 6
      2449.819                          49.438          35.188
  24155830.955   126939890.371 7       223.619    24155830.496    98914093.670 5
       174.246                          41.063          26.750
  24870528.408   130695495.019 7       336.949    24870529.074   101840652.148 3
       262.556                          43.313          17.563
  25385414.956   133401242.829 7     -1530.100    25385419.163   103949027.522 4
     -1192.294                          42.000          25.313
 18  2 20  8 19 30.0000000  0 10G09G07G06G02G30G23G05G16G29G26
  20488814.619   107669458.912 9     -1444.859    20488816.078    83898281.971 8
     -1125.864                          53.438          48.188
  21231880.725   111574299.144 9      1743.672    21231880.328    86941010.856 7
      1358.704                          53.688          43.375
  21564369.506   113321513.067 9     -2403.040    21564372.389    88302473.685 7
     -1872.498                          50.688          43.500
  21805610.570   114589254.622 8       306.822    21805607.325    89290321.161 7
       239.083                          49.625          41.000
  22327854.651   117333671.780 9      3156.032    22327857.109    91428842.216 7
      2459.248                          50.750          41.250
  23069684.902   121232016.532 8     -2705.404    23069682.220    94466506.957 6
     -2108.103                          48.438          34.938
  23102846.003   121406259.492 8      3138.981    23102845.801    94602285.779 6
      2445.961                          49.938          35.500
  24154612.199   126933485.757 7       203.502    24154611.741    98909103.036 5
       158.574                          41.750          26.625
  24868658.570   130685668.960 7       318.241    24868659.244   101832995.428 3
       247.996                          41.000          17.250
  25394196.859   133447392.070 6     -1546.417    25394201.072   103984987.979 5
     -1204.995                          37.188          26.500
 18  2 20  8 20  0.0000000  0 10G09G07G06G02G30G05G23G16G29G26
  20497095.950   107712977.535 9     -1456.198    20497097.407    83932192.578 8
     -1134.701                          54.625          48.000
  21221972.427   111522230.763 9      1727.729    21221972.025    86900438.113 7
      1346.282                          54.000          43.500
  21578132.482   113393837.909 8     -2418.401    21578135.371    88358830.683 7
     -1884.469                          49.625          42.750
  21803912.497   114580331.124 8       288.252    21803909.252    89283367.774 7
       224.611                          50.063          41.063
  22309866.956   117239145.868 9      3145.859    22309869.407    91355185.670 7
      2451.319                          51.188          40.875
  23084941.429   121312170.314 8      3133.784    23084941.212    94528969.541 6
      2441.909                          50.000          35.375
  23085143.593   121313252.384 8     -2710.118    23085140.919    94529807.584 6
     -2111.773                          49.063          35.875
  24153509.069   126927688.799 7       183.168    24153508.628    98904585.913 4
       142.731                          41.813          25.000
  24866896.286   130676408.104 7       299.317    24866896.976   101825779.145 3
       233.224                          42.875          19.063
  25403072.566   133494034.248 7     -1562.865    25403076.783   104021332.502 4
     -1217.829                          42.063          24.313
 18  2 20  8 20 30.0000000  0 10G09G07G06G02G30G05G23G16G29G26
  20505441.273   107756832.425 9     -1467.481    20505442.722    83966365.219 8
     -1143.490                          54.063          47.938
  21212154.777   111470638.713 9      1711.715    21212154.363    86860236.537 7
      1333.805                          53.500          43.500
  21591982.403   113466619.658 8     -2433.712    21591985.300    88415543.711 7
     -1896.396                          49.375          43.375
  21802319.949   114571962.176 8       269.665    21802316.705    89276846.517 7
       210.128                          48.375          40.563
  22291937.081   117144923.820 9      3135.579    22291939.527    91281765.918 7
      2443.312                          51.875          41.438
  23067066.250   121218235.626 8      3128.503    23067066.027    94455773.680 6
      2437.794                          50.375          35.563
  23100628.779   121394627.436 8     -2714.872    23100626.108    94593216.682 6
     -2115.482                          48.313          34.938
  24152521.614   126922499.694 7       162.752    24152521.182    98900542.440 4
       126.815                          41.188          25.625
  24865241.513   130667712.099 7       280.391    24865242.191   101819002.970 4
       218.503                          44.438          21.438
  25412041.679   133541167.249 7     -1579.351    25412045.894   104058059.531 4
     -1230.659                          41.563          25.250
 18  2 20  8 21  0.0000000  0 10G09G07G06G02G30G05G23G16G29G26
  20513850.429   107801022.796 9     -1478.554    20513851.878    84000799.267 8
     -1152.117                          55.313          47.625
  21202428.116   111419524.784 9      1695.851    21202427.682    86820407.519 7
      1321.445                          54.438          43.563
  21605918.908   113539856.393 9     -2448.721    21605921.814    88472611.275 7
     -1908.091                          51.625          43.313
  21800833.064   114564148.509 8       251.255    21800829.823    89270757.939 7
       195.782                          48.813          40.063
  22274065.567   117051008.445 9      3125.432    22274068.009    91208585.117 7
      2435.402                          50.625          41.563
  23049221.069   121124458.580 8      3123.310    23049220.847    94382700.658 6
      2433.749                          49.750          35.813
  23116140.294   121476140.847 8     -2719.362    23116137.628    94656733.603 6
     -2118.988                          48.938          35.438
  24151650.056   126917919.585 7       142.584    24151649.624    98896973.518 5
       111.110                          42.375          26.563
  24863694.354   130659581.613 7       261.626    24863695.035   101812667.521 4
       203.849                          43.875          20.938
  25421103.989   133588790.035 7     -1595.546    25421108.207   104095168.198 4
     -1243.287                          42.125          24.375
 18  2 20  8 21 30.0000000  0 10G09G07G06G02G30G05G23G16G29G26
  20522323.132   107845547.115 9     -1489.699    20522324.582    84035493.537 8
     -1160.804                          53.313          48.000
  21192792.610   111368889.914 9      1679.794    21192792.166    86780951.799 7
      1308.931                          53.563          43.688
  21619941.467   113613545.352 8     -2463.815    21619944.383    88530031.228 7
     -1919.855                          48.438          42.938
  21799451.867   114556890.241 8       232.667    21799448.628    89265102.139 7
       181.299                          48.063          40.750
  22256252.798   116957401.809 9      3115.048    22256255.243    91135644.884 7
      2427.310                          50.500          41.875
  23031406.042   121030840.000 8      3117.933    23031405.825    94309751.125 6
      2429.547                          49.563          36.250
  23131677.882   121557791.287 8     -2723.989    23131675.222    94720357.291 6
     -2122.587                          48.750          35.188
  24150894.456   126913948.722 8       122.162    24150894.003    98893879.332 5
        95.197                          45.063          27.500
  24862254.761   130652016.407 7       242.736    24862255.450   101806772.529 4
       189.141                          44.250          21.500
  25430259.118   133636900.595 7     -1611.831    25430263.340   104132656.934 4
     -1255.986                          40.000          24.813
 18  2 20  8 22  0.0000000  0 10G09G07G06G02G30G05G23G16G29G26
  20530859.230   107890404.587 9     -1500.827    20530860.681    84070447.396 8
     -1169.474                          53.563          48.063
  21183248.617   111318735.984 9      1663.744    21183248.168    86741870.836 7
      1296.424                          52.750          43.188
  21634049.714   113687684.603 9     -2478.824    21634052.640    88587802.057 7
     -1931.552                          50.625          43.125
  21798176.502   114550188.111 8       214.092    21798173.260    89259879.697 7
       166.821                          48.313          40.875
  22238499.315   116864106.703 8      3104.593    22238501.758    91062947.400 7
      2419.164                          50.000          41.625
  23013621.561   120937381.982 8      3112.546    23013621.352    94236926.707 6
      2425.365                          48.625          34.750
  23147241.439   121639578.248 8     -2728.523    23147238.795    94784087.347 6
     -2126.117                          47.500          33.750
  24150254.968   126910588.081 8       101.789    24150254.504    98891260.648 5
        79.307                          45.313          26.563
  24860922.797   130645016.769 7       223.851    24860923.488   101801318.246 4
       174.410                          43.250          22.438
  25439506.850   133685497.763 6     -1628.058    25439511.073   104170524.816 4
     -1268.596                          36.188          23.750
 18  2 20  8 22 30.0000000  0 10G09G07G06G02G30G05G23G16G29G26
  20539458.494   107935593.988 9     -1511.717    20539459.943    84105659.907 8
     -1177.961                          55.313          47.813
  21173796.338   111269064.043 9      1647.795    21173795.889    86703165.452 7
      1283.993                          52.250          43.000
  21648243.179   113762271.700 9     -2493.563    21648246.112    88645921.850 7
     -1943.032                          51.688          42.625
  21797006.991   114544042.250 8       195.712    21797003.745    89255090.708 7
       152.503                          48.063          40.625
  22220805.545   116771125.393 9      3094.276    22220807.987    90990494.453 7
      2411.119                          50.500          41.813
  22995867.823   120844085.506 8      3107.295    22995867.611    94164228.157 6
      2421.264                          48.875          35.000
  23162830.788   121721500.757 8     -2732.887    23162828.164    94847923.013 6
     -2129.519                          47.375          34.438
  24149731.650   126907837.914 7        81.583    24149731.172    98889117.650 4
        63.564                          44.375          26.063
  24859698.512   130638582.975 7       205.164    24859699.204   101796304.895 4
       159.854                          42.625          22.000
  25448846.865   133734579.892 7     -1644.034    25448851.094   104208770.630 4
     -1281.043                          41.688          21.438
 18  2 20  8 23  0.0000000  0 10G09G07G06G02G30G05G23G16G29G26
  20548120.631   107981113.769 9     -1522.943    20548122.072    84141129.857 8
     -1186.708                          53.813          47.938
  21164435.970   111219875.144 9      1631.464    21164435.529    86664836.460 7
      1271.270                          52.875          43.125
  21662521.337   113837303.872 9     -2508.510    21662524.279    88704388.459 7
     -1954.680                          51.313          42.625
  21795943.375   114538452.894 8       176.936    21795940.128    89250735.364 7
       137.871                          47.875          40.750
  22203171.897   116678459.992 9      3083.455    22203174.334    90918287.656 7
      2402.691                          51.000          41.500
  22978145.166   120750952.364 8      3101.584    22978144.954    94091656.887 6
      2416.819                          49.188          35.500
  23178445.690   121803557.486 8     -2737.541    23178443.078    94911863.297 6
     -2133.144                          48.813          35.563
  24149324.610   126905698.879 7        61.009    24149324.133    98887450.854 4
        47.551                          42.125          25.500
  24858581.717   130632714.018 7       186.109    24858582.403   101791731.702 4
       145.022                          42.938          22.625
  25458278.814   133784145.114 7     -1660.362    25458283.048   104247392.856 4
     -1293.787                          41.750          25.250
 18  2 20  8 23 30.0000000  0 10G09G07G06G02G30G05G23G16G29G26
  20556845.366   108026962.506 9     -1533.764    20556846.801    84176856.132 8
     -1195.140                          54.938          47.875
  21155167.726   111171170.328 9      1615.401    21155167.289    86626884.672 7
      1258.754                          53.125          43.313
  21676883.701   113912778.535 9     -2523.186    21676886.650    88763199.861 7
     -1966.119                          51.188          42.625
  21794985.660   114533420.013 8       158.471    21794982.407    89246813.624 7
       123.484                          47.563          40.875
  22185598.779   116586112.658 9      3072.927    22185601.210    90846328.703 7
      2394.489                          50.875          42.500
  22960454.084   120657985.147 8      3096.142    22960453.867    94019214.904 6
      2412.575                          49.063          36.000
  23194085.892   121885747.155 8     -2741.862    23194083.290    94975907.159 6
     -2136.508                          48.313          35.125
  24149033.831   126904170.792 7        40.750    24149033.355    98886260.105 4
        31.752                          41.375          25.125
  24857572.403   130627409.945 7       167.380    24857573.082   101787598.629 4
       130.447                          40.938          21.750
  25467802.308   133834191.406 7     -1676.190    25467806.550   104286389.985 3
     -1306.125                          40.375          20.000
 18  2 20  8 24  0.0000000  0 10G09G07G06G02G30G05G23G16G29G26
  20565632.541   108073139.388 9     -1544.652    20565633.976    84212838.102 8
     -1203.625                          53.938          48.063
  21145991.932   111122951.331 9      1599.241    21145991.499    86589311.445 7
      1246.161                          52.688          43.438
  21691329.864   113988693.550 9     -2537.744    21691332.817    88822354.398 7
     -1977.460                          51.313          42.750
  21794133.990   114528944.422 8       139.974    21794130.738    89243326.148 7
       109.070                          47.250          40.875
  22168086.695   116494086.043 9      3062.221    22168089.121    90774619.664 7
      2386.144                          51.000          42.125
  22942794.806   120565185.089 8      3090.601    22942794.591    93946903.173 6
      2408.263                          47.813          35.313
  23209751.241   121968068.965 8     -2746.224    23209748.648    95040053.981 6
     -2139.908                          48.125          34.750
  24148859.464   126903254.404 7        20.413    24148858.987    98885546.061 4
        15.901                          42.188          25.688
  24856670.635   130622671.109 7       148.577    24856671.334   101783906.049 4
       115.795                          40.563          22.750
  25477417.140   133884717.678 7     -1692.138    25477421.388   104325761.082 4
     -1318.556                          41.313          21.375
 18  2 20  8 24 30.0000000  0 10G09G07G06G02G30G05G23G16G29G26
  20574481.892   108119643.012 9     -1555.487    20574483.335    84249074.685 8
     -1212.068                          54.188          48.250
  21136908.810   111075219.306 9      1583.019    21136908.376    86552117.670 7
      1233.520                          53.375          43.750
  21705859.330   114065046.321 9     -2552.278    21705862.287    88881850.047 7
     -1988.789                          51.563          42.750
  21793388.269   114525025.648 8       121.405    21793385.027    89240272.559 7
        94.601                          47.750          40.500
  22150636.071   116402382.384 9      3051.440    22150638.488    90703162.275 7
      2377.745                          51.125          42.438
  22925167.632   120472553.692 8      3084.975    22925167.412    93874722.866 6
      2403.880                          50.438          35.938
  23225441.566   122050522.015 8     -2750.553    23225438.979    95104303.063 6
     -2143.289                          49.250          34.625
  24148801.599   126902950.283 7         0.004    24148801.126    98885309.079 4
        -0.009                          41.813          25.125
  24855876.384   130618497.176 7       129.788    24855877.080   101780653.598 4
       101.130                          44.188          24.125
  25487122.951   133935722.026 7     -1707.987    25487127.203   104365504.727 3
     -1330.901                          38.563          19.125
 18  2 20  8 25  0.0000000  0 10G09G07G06G02G30G05G23G16G29G26
  20583393.199   108166472.214 9     -1566.369    20583394.652    84285564.971 8
     -1220.547                          53.750          48.188
  21127918.474   111027974.831 9      1566.675    21127918.034    86515303.805 7
      1220.781                          53.313          43.625
  21720471.626   114141834.392 8     -2566.792    21720474.591    88941684.878 7
     -2000.102                          49.563          42.250
  21792748.638   114521664.348 8       102.782    21792745.401    89237653.358 7
        80.087                          46.313          40.688
  22133247.342   116311004.026 8      3040.530    22133249.759    90631958.375 7
      2369.244                          49.188          42.063
  22907572.790   120380092.193 9      3079.168    22907572.567    93802674.958 6
      2399.353                          50.563          36.188
  23241156.688   122133105.369 8     -2754.930    23241154.106    95168653.694 6
     -2146.696                          49.375          34.063
  24148860.395   126903259.199 7       -20.491    24148859.916    98885549.800 4
       -15.955                          40.625          25.813
  24855189.650   130614888.223 7       110.899    24855190.328   101777841.455 4
        86.409                          43.063          22.438
  25496919.406   133987202.708 6     -1723.879    25496923.663   104405619.571 3
     -1343.280                          37.625          16.125
 18  2 20  8 25 30.0000000  0 10G09G07G06G02G30G05G23G16G29G26
  20592366.294   108213626.119 9     -1577.209    20592367.756    84322308.257 8
     -1228.994                          52.250          48.000
  21119021.324   110981220.009 9      1550.335    21119020.870    86478871.488 7
      1208.053                          51.813          44.000
  21735166.347   114219055.636 9     -2581.190    21735169.325    89001857.247 7
     -2011.316                          50.500          42.000
  21792215.136   114518860.766 8        84.166    21792211.900    89235468.746 7
        65.585                          48.875          40.625
  22115921.014   116219953.607 8      3029.507    22115923.432    90561010.032 7
      2360.652                          50.000          42.063
  22890011.020   120287804.497 8      3073.368    22890010.794    93730762.478 6
      2394.832                          49.188          36.188
  23256896.421   122215818.060 8     -2759.214    23256893.846    95233105.099 6
     -2150.043                          48.625          33.750
  24149035.891   126904181.436 7       -40.990    24149035.412    98886268.442 4
       -31.937                          40.375          25.188
  24854610.425   130611844.314 7        92.058    24854611.096   101775469.595 4
        71.743                          43.250          23.313
  25506806.251   134039158.402 6     -1739.765    25506810.510   104446104.491 2
     -1355.696                          36.063          13.500
 18  2 20  8 26  0.0000000  0 10G09G07G06G02G30G05G23G16G29G26
  20601400.866   108261103.071 9     -1587.771    20601402.334    84359303.272 8
     -1237.226                          53.625          47.563
  21110217.471   110934955.452 9      1534.145    21110217.005    86442821.200 7
      1195.437                          53.563          44.313
  21749942.944   114296707.126 9     -2595.365    21749945.933    89062364.876 7
     -2022.363                          50.500          42.250
  21791787.802   114516615.078 8        65.703    21791784.560    89233718.849 7
        51.197                          49.688          40.438
  22098657.453   116129233.026 8      3018.638    22098659.867    90490318.697 7
      2352.182                          49.063          42.125
  22872482.280   120195690.350 8      3067.763    22872482.043    93658985.219 6
      2390.462                          48.438          36.500
  23272660.517   122298658.867 8     -2763.316    23272657.968    95297656.306 6
     -2153.237                          48.688          34.250
  24149328.057   126905716.796 7       -61.235    24149327.581    98887464.838 4
       -47.724                          41.250          26.438
  24854138.636   130609364.994 7        73.404    24854139.302   101773537.643 4
        57.202                          42.938          25.500
  25516783.092   134091587.016 6     -1755.342
     -1367.872                          35.125
 18  2 20  8 26 30.0000000  0 10G09G07G06G02G30G05G23G16G29G26
  20610496.805   108308902.499 9     -1598.606    20610498.275    84396549.567 8
     -1245.666                          53.250          48.063
  21101507.285   110889183.117 9      1517.607    21101506.810    86407154.455 7
      1182.550                          52.250          44.313
  21764801.053   114374786.948 8     -2609.690    21764804.053    89123206.271 7
     -2033.523                          50.375          42.313
  21791466.754   114514927.942 8        47.010    21791463.511    89232404.203 7
        36.632                          48.063          40.438
  22081457.228   116038845.276 8      3007.419    22081459.632    90419886.700 7
      2343.443                          50.438          42.063
  22854987.271   120103753.475 8      3061.677    22854987.029    93587346.091 6
      2385.720                          50.438          37.313
  23288448.943   122381627.451 8     -2767.625    23288446.409    95362307.095 6
     -2156.589                          48.313          34.688
  24149737.068   126907866.194 7       -81.789    24149736.598    98889139.680 4
       -63.739                          42.500          26.125
  24853774.302   130607450.385 7        54.462    24853774.977   101772045.723 4
        42.433                          42.875          24.250
  25526849.695   134144487.343 6     -1771.147
     -1380.158                          32.500
 18  2 20  8 27  0.0000000  0 10G09G07G06G02G30G05G23G16G29G26
  20619653.733   108357022.424 9     -1609.356    20619655.203    84434045.600 8
     -1254.043                          53.063          47.438
  21092890.789   110843903.142 9      1501.057    21092890.304    86371871.372 7
      1169.654                          51.938          44.125
  21779740.048   114453291.829 9     -2623.918    21779743.060    89184378.879 7
     -2044.609                          50.875          42.313
  21791251.851   114513798.589 8        28.292    21791248.606    89231524.170 7
        22.046                          48.250          40.938
  22064320.618   115948791.834 9      2996.148    22064323.012    90349715.200 7
      2334.657                          50.938          41.875
  22837526.090   120011994.329 8      3055.626    22837525.838    93515845.461 6
      2381.011                          49.438          36.938
  23304261.326   122464721.827 8     -2771.952    23304258.792    95427055.915 6
     -2159.966                          49.563          35.313
  24150262.933   126910629.643 7      -102.405    24150262.464    98891293.010 5
       -79.797                          41.063          26.625
  24853517.255   130606099.575 7        35.627    24853517.935   101770993.118 4
        27.779                          41.688          22.313
  25537005.566   134197856.777 5     -1786.929
                                        30.938
 18  2 20  8 27 30.0000000  0 10G09G07G02G06G30G05G23G16G29G26
  20628871.586   108405462.527 9     -1619.981    20628873.056    84471791.121 8
     -1262.323                          53.313          47.375
  21084368.338   110799117.433 9      1484.649    21084367.853    86336973.429 7
      1156.869                          51.813          43.625
  21791143.258   114513227.908 8         9.753    21791140.015    89231079.469 7
         7.599                          48.500          40.938
  21794759.615   114532220.115 9     -2637.961    21794762.637    89245881.411 7
     -2055.553                          50.500          42.813
  22047248.222   115859075.867 9      2984.906    22047250.607    90279806.690 7
      2325.899                          51.813          42.000
  22820099.122   119920415.008 9      3049.644    22820098.865    93444484.954 6
      2376.350                          50.625          37.125
  23320097.683   122547942.165 8     -2776.067    23320095.147    95491902.892 6
     -2163.171                          49.563          34.750
  24150905.785   126914007.879 7      -122.847    24150905.316    98893925.406 4
       -95.723                          44.438          26.063
  24853367.602   130605313.183 7        16.829    24853368.292   101770380.309 4
        13.105                          41.438          22.813
  25547250.081   134251694.536 6     -1802.184
                                        32.625
 18  2 20  8 28  0.0000000  0 10G09G07G02G06G30G05G23G16G29G26
  20638149.946   108454220.582 9     -1630.509    20638151.412    84509784.413 8
     -1270.526                          53.063          47.625
  21075939.991   110754826.272 9      1468.175    21075939.512    86302460.847 7
      1144.029                          51.500          43.188
  21791140.827   114513215.136 8        -8.800    21791137.590    89231069.517 7
        -6.856                          49.000          40.688
  21809859.099   114611568.339 9     -2651.844    21809862.130    89307711.172 7
     -2066.371                          51.875          42.500
  22030240.303   115769698.756 9      2973.631    22030242.680    90210162.215 7
      2317.116                          51.188          41.813
  22802706.658   119829017.072 8      3043.614    22802706.412    93373265.789 6
      2371.649                          49.000          36.875
  23335957.590   122631286.337 8     -2780.141    23335955.064    95556846.361 6
     -2166.341                          49.063          33.375
  24151665.454   126917999.957 7      -143.209    24151664.982    98897036.125 4
      -111.600                          43.063          26.250
  24853325.130   130605090.002 7        -1.854    24853325.823   101770206.388 4
        -1.418                          41.188          21.688
  25557583.424   134305997.710 5     -1817.945
                                        30.938
 18  2 20  8 28 30.0000000  0 10G09G07G02G06G30G05G23G16G29G26
  20647488.920   108503297.173 9     -1641.057    20647490.387    84548025.902 8
     -1278.745                          52.188          47.750
  21067606.341   110711032.742 9      1451.607    21067605.865    86268336.031 7
      1131.122                          50.938          43.188
  21791244.918   114513762.120 8       -27.441    21791241.683    89231495.729 7
       -21.381                          47.750          40.750
  21825038.332   114691335.625 8     -2665.736    21825041.370    89369867.470 7
     -2077.196                          50.375          42.750
  22013297.623   115680664.493 9      2962.181    22013299.994    90140784.898 7
      2308.190                          51.375          42.500
  22785349.420   119737804.230 8      3037.444    22785349.183    93302190.861 6
      2366.844                          49.375          37.500
  23351841.235   122714755.349 8     -2784.249    23351838.736    95621887.098 6
     -2169.542                          48.625          33.000
  24152542.371   126922608.214 7      -163.759    24152541.904    98900626.966 4
      -127.605                          42.750          24.625
  24853390.157   130605431.676 7       -20.743    24853390.842   101770472.608 4
       -16.164                          41.125          23.125
  25568006.227   134360766.323 5     -1833.316
                                        31.000
 18  2 20  8 29  0.0000000  0 10G09G07G02G06G30G05G23G16G29G26
  20656888.129   108552690.312 9     -1651.733    20656889.602    84586514.045 8
     -1287.062                          51.813          47.813
  21059367.344   110667736.622 8      1434.900    21059366.873    86234598.802 7
      1118.101                          50.313          43.750
  21791455.396   114514868.165 8       -46.200    21791452.164    89232357.581 7
       -36.001                          48.938          40.813
  21840296.683   114771518.694 8     -2679.636    21840299.729    89432347.751 7
     -2088.029                          49.813          42.188
  21996420.480   115591974.601 8      2950.552    21996422.841    90071675.921 7
      2299.129                          48.563          43.125
  22768027.448   119646776.677 8      3031.134    22768027.209    93231260.299 6
      2361.923                          44.938          37.313
  23367748.281   122798347.321 8     -2788.419    23367745.808    95687023.651 6
     -2172.795                          47.063          33.313
  24153536.394   126927831.840 7      -184.390    24153535.925    98904697.309 5
      -143.689                          42.750          27.313
  24853562.413   130606336.793 7       -39.517    24853563.087   101771177.896 4
       -30.798                          41.875          21.938
  25578516.527   134415997.873 5     -1848.681
                                        28.688
 18  2 20  8 29 30.0000000  0 10G09G07G02G06G30G05G23G16G29G26
  20666347.237   108602398.206 9     -1662.212    20666348.711    84625247.463 8
     -1295.230                          51.813          47.313
  21051223.130   110624938.564 9      1418.231    21051222.659    86201249.680 7
      1105.117                          51.125          43.188
  21791772.100   114516532.413 8       -64.845    21791768.865    89233654.386 7
       -50.527                          48.063          41.000
  21855633.550   114852114.357 8     -2693.415    21855636.598    89495149.554 7
     -2098.764                          49.563          42.250
  21979609.193   115503630.768 9      2938.932    21979611.545    90002836.595 7
      2290.079                          52.375          43.688
  22750741.126   119555936.500 8      3024.827    22750740.889    93160475.744 6
      2357.011                          50.375          37.063
  23383678.405   122882060.502 8     -2792.483    23383675.946    95752254.637 6
     -2175.958                          47.625          33.250
  24154647.492   126933670.667 8      -204.944    24154647.019    98909247.061 5
      -159.703                          45.438          27.563
  24853841.724   130607804.501 7       -58.356    24853842.387   101772321.549 4
       -45.452                          40.813          22.750
  25589114.469   134471689.960 5     -1864.130
                                        31.688
 18  2 20  8 30  0.0000000  0  9G09G07G02G06G30G05G23G16G29
  20675865.939   108652419.284 9     -1672.641    20675867.420    84664224.912 8
     -1303.357                          52.000          47.875
  21043173.831   110582639.283 9      1401.598    21043173.360    86168289.216 7
      1092.155                          52.438          43.938
  21792194.971   114518754.612 8       -83.426    21792191.741    89235385.984 7
       -65.008                          48.438          40.688
  21871048.351   114933119.564 9     -2707.043    21871051.399    89558270.467 7
     -2109.385                          50.813          42.188
  21962864.123   115415634.899 8      2927.288    21962866.464    89934268.413 7
      2281.002                          49.438          42.813
  22733490.721   119465285.049 8      3018.474    22733490.489    93089838.265 6
      2352.060                          46.438          37.500
  23399631.440   122965894.021 8     -2796.513    23399628.984    95817579.419 6
     -2179.102                          48.250          33.750
  24155875.580   126940124.289 8      -225.433    24155875.108    98914275.848 5
      -175.659                          45.375          27.188
  24854227.994   130609834.302 7       -76.946    24854228.649   101773903.243 4
       -59.977                          41.938          21.375
 18  2 20  8 30 30.0000000  0 10G09G07G02G06G30G05G23G16G29G26
  20685444.140   108702753.049 9     -1683.007    20685445.630    84703446.020 8
     -1311.432                          50.688          47.625
  21035219.754   110540840.395 9      1384.907    21035219.283    86135718.668 7
      1079.148                          51.250          44.188
  21792724.178   114521535.583 8      -102.046    21792720.947    89237552.961 7
       -79.515                          49.188          40.813
  21886540.764   115014532.639 8     -2720.590    21886543.816    89621709.218 7
     -2119.942                          48.125          42.125
  21946185.819   115327989.929 9      2915.586    21946188.153    89865973.658 7
      2271.884                          52.688          42.563
  22716276.670   119374824.644 8      3012.137    22716276.439    93019349.634 6
      2347.122                          50.063          37.250
  23415607.273   123049847.335 8     -2800.459    23415604.820    95882997.544 6
     -2182.174                          47.938          33.375
  24157220.800   126947193.435 8      -245.947    24157220.317    98919784.267 5
      -191.657                          45.000          26.625
  24854721.203   130612426.080 7       -95.747    24854721.851   101775922.795 4
       -74.609                          42.750          23.250
  25610571.387   134584447.206 5     -1894.596
     -1476.337                          29.563
 18  2 20  8 31  0.0000000  0 10G09G07G02G06G30G05G23G16G29G26
  20695081.573   108753398.105 8     -1693.250    20695083.080    84742909.691 8
     -1319.416                          49.438          47.188
  21027361.135   110499543.123 8      1368.284    21027360.661    86103538.982 8
      1066.196                          49.438          44.500
  21793359.616   114524874.831 8      -120.548    21793356.389    89240154.970 7
       -93.935                          48.875          40.500
  21902110.246   115096350.728 8     -2733.891    21902113.303    89685463.557 7
     -2130.299                          48.875          41.500
  21929574.680   115240697.949 9      2903.898    21929577.013    89797953.975 7
      2262.778                          52.188          43.125
  22699099.262   119284556.765 9      3005.750    22699099.024    92949011.032 6
      2342.140                          50.750          37.313
  23431605.704   123133919.421 8     -2804.294    23431603.256    95948508.211 6
     -2185.158                          48.313          33.625
  24158683.219   126954878.464 7      -266.366    24158682.728    98925772.583 4
      -207.553                          43.125          25.813
  24855321.355   130615579.889 7      -114.403    24855322.004   101778380.289 4
       -89.152                          41.250          24.313
  25621429.431   134641509.378 5     -1909.635
     -1487.989                          29.688
 18  2 20  8 31 30.0000000  0 10G09G07G02G30G06G05G23G16G29G26
  20704778.025   108804353.273 9     -1703.672    20704779.544    84782615.004 8
     -1327.537                          51.688          47.813
  21019598.107   110458748.156 9      1351.416    21019597.625    86071750.700 7
      1053.051                          50.938          44.313
  21794101.314   114528772.485 8      -139.248    21794098.091    89243192.101 7
      -108.507                          47.625          40.313
  21913031.145   115153761.211 8      2891.931    21913033.472    89730211.093 7
      2253.451                          48.750          43.313
  21917756.293   115178571.180 8     -2747.365    21917759.360    89749531.412 7
     -2140.803                          48.938          41.438
  22681958.995   119194484.089 8      2999.161    22681958.757    92878824.537 6
      2337.009                          46.563          37.688
  23447626.508   123218109.146 8     -2808.293    23447624.076    96014110.549 6
     -2188.275                          46.688          32.625
  24160262.792   126963179.110 7      -286.955    24160262.285    98932240.590 4
      -223.598                          43.750          25.750
  24856028.300   130619294.931 7      -133.220    24856028.968   101781275.081 4
      -103.799                          40.625          22.500
  25632374.604   134699024.688 6     -1924.721
     -1499.760                          33.563
 18  2 20  8 32  0.0000000  0 10G09G07G02G30G06G05G23G16G29G26
  20714533.243   108855617.247 9     -1714.049    20714534.772    84822560.943 8
     -1335.621                          51.813          47.375
  21011930.842   110418456.392 9      1334.560    21011930.348    86040354.531 7
      1039.917                          51.625          44.250
  21794949.246   114533228.407 8      -157.933    21794946.026    89246664.238 7
      -123.063                          48.313          40.125
  21896555.622   115067181.845 9      2879.900    21896557.936    89662746.673 7
      2244.077                          51.500          43.188
  21933478.399   115261191.285 8     -2760.711    21933481.467    89813910.702 7
     -2151.199                          47.313          41.938
  22664856.114   119104607.849 9      2992.475    22664855.869    92808791.115 6
      2331.802                          50.875          37.938
  23463669.521   123302415.566 8     -2812.234    23463667.103    96079803.820 6
     -2191.353                          45.500          33.000
  24161959.441   126972095.011 8      -307.530    24161958.934    98939188.024 4
      -239.633                          44.875          25.563
  24856841.929   130623570.544 7      -151.946    24856842.606   101784606.693 4
      -118.427                          42.688          24.125
  25643405.278   134756990.966 6     -1939.766
     -1511.540                          32.875
 18  2 20  8 32 30.0000000  0 10G09G07G02G30G06G05G23G16G29G26
  20724346.929   108907188.444 8     -1724.212    20724348.459    84862746.286 8
     -1343.542                          50.438          47.375
  21004359.499   110378668.701 8      1317.784    21004358.996    86009351.149 8
      1026.844                          49.313          44.875
  21795903.306   114538241.981 8      -176.482    21795900.076    89250570.909 7
      -137.520                          47.938          39.875
  21880148.450   114980961.683 9      2867.927    21880150.755    89595562.166 7
      2234.749                          52.750          43.063
  21949275.953   115344207.888 8     -2773.876    21949279.022    89878598.944 7
     -2161.460                          48.125          41.625
  22647790.891   119014929.482 9      2985.907    22647790.625    92738911.864 6
      2326.682                          51.938          37.813
  23479734.506   123386837.446 7     -2816.048    23479732.103    96145587.052 6
     -2194.319                          43.688          33.313
  24163773.123   126981625.909 7      -328.035    24163772.613    98946614.673 4
      -255.615                          42.938          24.938
  24857762.083   130628405.913 7      -170.586    24857762.754   101788374.505 4
      -132.934                          41.563          22.063
  25654521.461   134815405.990 6     -1954.691
     -1523.131                          34.438
 18  2 20  8 33  0.0000000  0 10G09G07G02G30G06G05G23G16G29G26
  20734219.038   108959066.663 9     -1734.474    20734220.567    84903170.861 8
     -1351.540                          53.063          47.250
  20996884.417   110339386.897 9      1300.865    20996883.913    85978741.964 7
      1013.660                          51.313          44.375
  21796963.649   114543814.119 8      -195.128    21796960.418    89254912.832 7
      -152.048                          48.250          40.375
  21863810.245   114895103.940 9      2855.772    21863812.542    89528660.055 7
      2225.276                          52.000          43.750
  21965148.690   115427619.626 8     -2787.026    21965151.769    89943595.078 7
     -2171.710                          48.750          41.438
  22630763.873   118925451.897 9      2979.124    22630763.591    92669189.073 6
      2321.394                          51.125          37.625
  23495821.523   123471375.079 8     -2819.919    23495819.129    96211460.492 6
     -2197.341                          47.250          33.063
  24165704.069   126991773.051 8      -348.617    24165703.564    98954521.514 4
      -271.646                          44.563          24.938
  24858788.818   130633801.418 7      -189.267    24858789.492   101792578.783 4
      -147.467                          43.250          21.625
  25665722.721   134874269.023 6     -1969.613
     -1534.775                          37.375
 18  2 20  8 33 30.0000000  0 10G09G07G02G30G06G05G23G16G29G26
  20744149.099   109011249.400 9     -1744.472    20744150.620    84943832.723 8
     -1359.330                          54.063          47.313
  20989505.459   110300610.220 9      1284.130    20989504.954    85948526.379 7
      1000.619                          52.500          44.000
  21798130.003   114549943.331 8      -213.578    21798126.771    89259688.822 7
      -166.425                          48.813          40.625
  21847541.176   114809609.529 9      2843.738    21847543.467    89462041.054 7
      2215.897                          52.063          43.500
  21981095.839   115511422.409 8     -2799.917    21981098.929    90008895.924 7
     -2181.750                          48.438          40.938
  22613775.201   118836175.862 9      2972.497    22613774.914    92599623.333 6
      2316.235                          50.875          37.813
  23511930.092   123556025.986 8     -2823.564    23511927.711    96277422.183 6
     -2200.178                          47.250          33.313
  24167752.028   127002535.046 8      -368.971    24167751.519    98962907.449 4
      -287.500                          44.563          24.313
  24859921.818   130639755.327 7      -207.786    24859922.497   101797218.181 4
      -161.917                          42.563          21.813
  25677008.444   134933576.711 7     -1984.337    25677013.714   105143054.917 3
     -1546.275                          38.563          20.375
 18  2 20  8 34  0.0000000  0 10G09G07G02G30G06G05G23G16G29G26
  20754137.054   109063736.418 9     -1754.714    20754138.576    84984731.689 8
     -1367.309                          54.188          47.375
  20982222.989   110262340.603 9      1267.122    20982222.485    85918705.904 7
       987.368                          52.250          43.938
  21799402.492   114556630.271 8      -232.257    21799399.259    89264899.416 7
      -180.979                          47.875          40.688
  21831341.841   114724481.577 9      2831.397    21831344.124    89395707.602 7
      2206.283                          52.000          43.875
  21997117.075   115595614.508 8     -2812.937    21997120.174    90074500.134 7
     -2191.897                          49.250          41.625
  22596825.402   118747104.101 9      2965.570    22596825.115    92530216.771 6
      2310.836                          50.563          38.000
  23528060.222   123640790.158 8     -2827.418    23528057.844    96343472.141 6
     -2203.179                          47.625          32.625
  24169917.073   127013912.280 8      -389.545    24169916.551    98971772.806 4
      -303.535                          45.000          25.063
  24861161.173   130646268.056 7      -226.452    24861161.848   101802293.025 4
      -176.425                          42.500          21.438
  25688378.731   134993327.975 7     -1999.126    25688383.815   105189614.328 4
     -1557.752                          40.813          21.063
 18  2 20  8 34 30.0000000  0 10G09G07G02G30G06G05G23G16G29G26
  20764182.612   109116526.158 9     -1764.647    20764184.137    85025866.545 8
     -1375.050                          52.000          46.938
  20975037.101   110224578.532 9      1250.295    20975036.597    85889280.914 7
       974.254                          52.688          44.313
  21800781.005   114563874.402 8      -250.724    21800777.782    89270544.190 7
      -195.370                          48.563          40.625
  21815212.608   114639721.981 9      2819.196    21815214.871    89329661.184 7
      2196.777                          52.313          43.188
  22013211.827   115680192.909 8     -2825.675    22013214.927    90140405.358 7
     -2201.824                          48.000          40.625
  22579914.715   118658237.859 9      2958.788    22579914.426    92460970.352 6
      2305.544                          50.813          37.500
  23544211.718   123725666.613 8     -2831.044    23544209.342    96409609.621 6
     -2205.995                          44.875          33.313
  24172199.136   127025904.589 8      -409.966    24172198.626    98981117.458 4
      -319.458                          45.125          25.188
  24862506.688   130653338.685 7      -244.931    24862507.358   101807802.595 4
      -190.832                          41.125          21.688
  25699832.961   135053520.570 7     -2013.704    25699837.886   105236517.700 3
     -1569.124                          38.813          20.438
 18  2 20  8 35  0.0000000  0 10G09G07G30G02G06G05G23G16G29G26
  20774285.587   109169617.626 9     -1774.670    20774287.113    85067236.511 8
     -1382.857                          52.625          47.063
  20967948.011   110187325.155 9      1233.343    20967947.507    85860252.320 7
       961.044                          51.438          43.875
  21799153.914   114555333.087 9      2806.821    21799156.161    89263903.619 7
      2187.133                          50.875          43.688
  21802265.586   114571675.901 8      -269.297    21802262.372    89276623.258 7
      -209.842                          48.250          40.813
  22029379.612   115765155.133 8     -2838.379    22029382.717    90206609.675 7
     -2211.722                          47.250          41.125
  22563043.561   118569579.380 8      2951.812    22563043.273    92391885.831 6
      2300.115                          48.438          37.750
  23560384.349   123810654.177 8     -2834.730    23560381.982    96475833.667 5
     -2208.883                          44.813          31.938
  24174598.320   127038512.339 7      -430.440    24174597.822    98990941.661 4
      -335.396                          44.250          24.688
  24863958.273   130660966.742 7      -263.510    24863958.938   101813746.530 4
      -205.356                          43.000          21.000
  25711370.836   135114152.682 7     -2028.356    25711375.556   105283763.518 3
     -1580.563                          39.250          19.438
 18  2 20  8 35 30.0000000  0 10G09G07G30G02G06G05G23G16G29G26
  20784445.737   109223009.564 9     -1784.670    20784447.269    85108840.607 8
     -1390.652                          53.313          47.125
  20960955.924   110150581.537 9      1216.300    20960955.423    85831620.938 7
       947.767                          52.875          44.313
  21783166.165   114471316.984 9      2794.282    21783168.397    89198436.549 7
      2177.363                          52.563          43.938
  21803856.149   114580034.334 8      -287.870    21803852.945    89283136.304 7
      -224.316                          47.625          40.813
  22045619.903   115850498.380 8     -2851.085    22045623.013    90273110.894 7
     -2221.622                          47.813          40.750
  22546212.435   118481131.238 8      2944.785    22546212.142    92322965.199 6
      2294.638                          50.438          38.000
  23576577.976   123895752.128 8     -2838.405    23576575.628    96542143.690 5
     -2211.747                          46.688          32.063
  24177114.560   127051735.217 7      -450.988    24177114.068    99001245.198 4
      -351.430                          44.250          23.875
  24865515.794   130669151.516 7      -282.100    24865516.464   101820124.260 3
      -219.804                          40.375          20.313
  25722991.994   135175222.232 7     -2042.940    25722996.734   105331350.182 4
     -1591.900                          39.625          20.875
 18  2 20  8 36  0.0000000  0 10G09G07G30G02G06G05G23G16G29G26
  20794662.814   109276700.642 9     -1794.745    20794664.356    85150677.794 8
     -1398.503                          51.438          46.875
  20954060.948   110114348.241 9      1199.165    20954060.449    85803387.203 7
       934.414                          52.375          44.188
  21767249.750   114387675.721 9      2781.687    21767251.970    89133261.547 7
      2167.552                          52.250          44.188
  21805552.613   114588949.297 8      -306.514    21805549.419    89290083.026 7
      -238.842                          46.500          40.500
  22061932.176   115936219.889 8     -2863.733    22061935.292    90339906.848 7
     -2231.478                          46.688          41.063
  22529421.474   118392894.170 9      2937.613    22529421.181    92254209.042 6
      2289.053                          50.813          37.938
  23592792.423   123980959.465 8     -2842.133    23592790.091    96608538.949 5
     -2214.640                          46.375          32.188
  24179747.706   127065572.424 7      -471.542    24179747.215    99012027.418 4
      -367.433                          43.500          25.125
  24867179.104   130677892.253 7      -300.687    24867179.785   101826935.195 3
      -234.296                          40.500          19.438
  25734695.962   135236727.180 6     -2057.429    25734700.698   105379276.127 3
     -1603.186                          37.250          17.500
 18  2 20  8 36 30.0000000  0 10G09G07G30G02G06G05G23G16G29G26
  20804936.633   109330689.885 9     -1804.611    20804938.184    85192747.322 8
     -1406.193                          53.125          47.500
  20947263.242   110078626.092 9      1182.185    20947262.742    85775551.770 8
       921.185                          51.813          44.563
  21751405.113   114304411.678 9      2769.155    21751407.332    89068380.481 8
      2157.781                          52.313          44.500
  21807354.959   114598420.643 8      -324.993    21807351.765    89297463.280 7
      -253.240                          48.125          40.438
  22078315.950   116022317.120 8     -2876.159    22078319.071    90406995.572 7
     -2241.164                          47.875          40.938
  22512671.200   118304870.895 8      2930.508    22512670.904    92185619.482 6
      2283.513                          48.938          38.188
  23609027.575   124066275.468 8     -2845.674    23609025.233    96675018.913 6
     -2217.410                          47.938          34.250
  24182497.783   127080024.138 7      -491.994    24182497.305    99023288.488 4
      -383.366                          43.563          24.813
  24868948.154   130687188.656 7      -319.136    24868948.853   101834179.119 4
      -248.656                          41.625          21.813
  25746482.467   135298665.794 6     -2071.889    25746487.219   105427539.991 3
     -1614.448                          36.938          19.063
 18  2 20  8 37  0.0000000  0 10G09G07G30G02G06G05G23G16G29G26
  20815266.884   109384975.701 9     -1814.492    20815268.453    85235047.939 8
     -1413.888                          52.500          47.188
  20940562.889   110043415.504 9      1165.121    20940562.382    85748114.958 7
       907.887                          52.188          44.313
  21735632.590   114221526.566 9      2756.455    21735634.805    89003794.681 7
      2147.888                          52.625          44.188
  21809263.104   114608447.956 8      -343.522    21809259.907    89305276.778 7
      -267.679                          48.375          40.375
  22094770.627   116108786.944 8     -2888.534    22094773.753    90474374.634 7
     -2250.806                          48.938          40.750
  22495961.966   118217063.297 9      2923.270    22495961.665    92117197.976 6
      2277.874                          51.188          37.750
  23625283.180   124151698.927 8     -2849.246    23625280.822    96741582.619 6
     -2220.193                          47.688          32.750
  24185364.729   127095090.006 7      -512.478    24185364.264    99035028.125 4
      -399.311                          43.000          25.125
  24870822.703   130697039.427 7      -337.630    24870823.410   101841855.031 4
      -263.095                          39.813          20.688
  25758350.973   135361035.321 6     -2086.213    25758355.699   105476139.617 3
     -1625.675                          34.625          16.438
 18  2 20  8 37 30.0000000  0 10G09G07G30G02G06G05G23G16G29G26
  20825653.314   109439556.729 9     -1824.127    20825654.895    85277578.602 8
     -1421.396                          52.000          46.875
  20933960.036   110008717.303 9      1148.165    20933959.528    85721077.408 8
       894.673                          51.938          44.563
  21719932.555   114139022.389 9      2743.894    21719934.774    88939505.711 8
      2138.101                          52.500          44.688
  21811276.881   114619030.346 8      -361.876    21811273.677    89313522.775 7
      -281.980                          48.063          40.688
  22111295.668   116195626.534 8     -2900.671    22111298.795    90542041.817 7
     -2260.264                          47.375          40.938
  22479294.016   118129472.637 9      2916.190    22479293.706    92048945.508 6
      2272.353                          50.688          37.500
  23641558.989   124237228.675 8     -2852.663    23641556.637    96808229.140 5
     -2222.851                          44.500          31.500
  24188348.409   127110769.301 7      -532.750    24188347.945    99047245.742 4
      -415.122                          44.375          25.250
  24872802.568   130707443.610 7      -355.905    24872803.277   101849962.161 4
      -277.350                          41.500          21.250
  25770301.093   135423833.766 6     -2100.189
     -1636.500                          34.188
 18  2 20  8 38  0.0000000  0 10G09G07G30G02G06G05G23G16G29G26
  20836095.932   109494433.028 9     -1834.033    20836097.527    85320339.335 8
     -1429.117                          52.500          46.813
  20927455.092   109974533.618 9      1130.938    20927454.587    85694440.771 7
       881.252                          50.875          44.375
  21704305.651   114056902.506 9      2730.958    21704307.873    88875516.188 7
      2128.020                          53.375          44.125
  21813396.405   114630168.489 8      -380.466    21813393.203    89322201.854 7
      -296.468                          48.438          40.000
  22127890.784   116282834.331 8     -2912.980    22127893.907    90609995.929 7
     -2269.855                          48.625          41.125
  22462667.932   118042101.973 9      2908.750    22462667.616    91980864.478 6
      2266.558                          50.500          38.438
  23657855.038   124322864.861 8     -2856.253    23657852.704    96874958.591 5
     -2225.651                          45.438          30.438
  24191448.968   127127062.794 7      -553.269    24191448.508    99059941.971 4
      -431.107                          43.063          25.688
  24874887.864   130718401.846 7      -374.436    24874888.576   101858501.017 4
      -291.773                          41.625          22.063
  25782332.673   135487060.199 6     -2114.633    25782337.571   105574340.863 3
     -1647.757                          36.125          14.500
 18  2 20  8 38 30.0000000  0 10G09G07G30G02G06G05G23G16G29G26
  20846594.348   109549602.554 9     -1843.826    20846595.952    85363328.560 8
     -1436.747                          52.063          46.875
  20921048.034   109940864.326 9      1113.786    20921047.534    85668204.977 7
       867.886                          50.625          44.250
  21688752.124   113975168.221 9      2718.091    21688754.352    88811827.144 7
      2117.991                          52.938          44.125
  21815621.540   114641861.640 8      -398.960    21815618.345    89331313.395 7
      -310.877                          48.688          39.625
  22144555.296   116370406.787 8     -2925.080    22144558.414    90678234.182 7
     -2279.282                          49.000          41.188
  22446083.861   117954952.047 9      2901.321    22446083.534    91912955.448 6
      2260.774                          50.875          37.688
  23674171.104   124408606.191 8     -2859.741    23674168.781    96941769.950 5
     -2228.371                          47.000          31.750
  24194666.254   127143969.734 8      -573.741    24194665.801    99073116.211 4
      -447.069                          44.750          25.938
  24877078.269   130729912.480 7      -392.869    24877078.999   101867470.344 4
      -306.123                          41.250          21.188
  25794445.185   135550711.942 6     -2128.757    25794450.203   105623939.652 3
     -1658.751                          38.188          17.750
 18  2 20  8 39  0.0000000  0 10G09G07G30G02G06G05G23G16G29G26
  20857148.322   109605063.996 8     -1853.465    20857149.929    85406545.255 8
     -1444.257                          50.063          46.563
  20914738.879   109907709.511 8      1096.672    20914738.377    85642370.052 8
       854.551                          48.938          44.750
  21673272.348   113893821.483 9      2705.151    21673274.578    88748440.090 7
      2107.910                          53.313          44.438
  21817952.143   114654109.012 8      -417.373    21817948.955    89340856.778 7
      -325.223                          48.750          40.000
  22161288.653   116458341.032 8     -2937.042    22161291.770    90746754.354 7
     -2288.602                          47.625          41.375
  22429542.295   117868025.490 9      2893.917    22429541.952    91845220.472 6
      2254.999                          51.313          38.188
  23690506.960   124494451.414 8     -2863.131    23690504.630    97008662.297 6
     -2231.007                          47.813          32.938
  24198000.106   127161489.210 7      -594.059    24197999.655    99086767.734 4
      -462.897                          44.375          25.125
  24879373.605   130741974.521 7      -411.117    24879374.346   101876869.309 3
      -320.317                          41.000          18.438
  25806638.144   135614786.530 6     -2142.739    25806643.201   105673867.880 3
     -1669.640                          35.000          17.750
 18  2 20  8 39 30.0000000  0 10G09G07G30G02G06G05G23G16G29G26
  20867757.639   109660816.267 9     -1863.191    20867759.243    85449988.580 8
     -1451.835                          51.313          46.563
  20908527.837   109875070.249 8      1079.437    20908527.327    85616936.876 8
       841.118                          50.000          44.813
  21657866.750   113812864.494 9      2692.098    21657868.972    88685356.725 7
      2097.739                          54.500          44.313
  21820388.148   114666910.284 8      -435.887    21820384.966    89350831.781 7
      -339.651                          48.938          40.000
  22178090.338   116546634.356 8     -2948.998    22178093.457    90815554.324 7
     -2297.919                          49.063          41.438
  22413043.339   117781322.907 8      2886.343    22413042.994    91777660.030 6
      2249.098                          50.438          37.625
  23706862.469   124580399.954 8     -2866.614    23706860.140    97075635.150 6
     -2233.726                          46.063          32.625
  24201450.500   127179621.151 7      -614.571    24201450.056    99100896.535 4
      -478.883                          43.938          25.375
  24881773.783   130754587.452 7      -429.548    24881774.520   101886697.563 4
      -334.730                          42.313          20.938
  25818911.230   135679282.084 5     -2156.783
     -1680.607                          30.000
 18  2 20  8 40  0.0000000  0 10G09G07G30G02G06G05G23G16G29G26
  20878422.119   109716858.399 8     -1873.006    20878423.714    85493657.755 8
     -1459.486                          49.875          46.875
  20902415.061   109842947.393 8      1062.016    20902414.547    85591906.080 8
       827.545                          48.875          44.688
  21642535.755   113732299.536 9      2678.805    21642537.968    88622578.853 8
      2087.381                          54.438          44.813
  21822929.533   114680265.350 8      -454.549    21822926.361    89361238.320 7
      -354.194                          50.125          40.313
  22194959.877   116635284.238 8     -2961.052    22194962.993    90884632.142 7
     -2307.317                          45.938          41.063
  22396587.789   117694848.455 9      2878.545    22396587.446    91710277.345 6
      2243.018                          50.500          37.500
  23723237.490   124666451.073 7     -2870.206    23723235.167    97142687.935 5
     -2236.522                          42.813          31.813
  24205017.460   127198365.684 7      -635.152    24205017.028    99115502.661 4
      -494.917                          43.938          22.563
  24884278.634   130767750.479 7      -448.064    24884279.379   101896954.464 4
      -349.118                          41.688          21.125
  25831264.121   135744197.056 5     -2170.983
     -1691.714                          31.938
 18  2 20  8 40 30.0000000  0 10G09G07G30G02G06G05G23G16G29G26
  20889141.474   109773188.902 9     -1882.573    20889143.060    85537551.641 8
     -1466.940                          51.688          46.938
  20896400.630   109811341.330 9      1044.815    20896400.106    85567277.990 8
       814.142                          50.750          44.688
  21627279.693   113652128.378 9      2665.692    21627281.899    88560107.831 7
      2077.160                          53.625          44.375
  21825576.185   114694173.563 8      -472.928    21825573.017    89372075.871 7
      -368.517                          49.313          40.438
  22211896.672   116724287.607 8     -2972.765    22211899.792    90953985.402 7
     -2316.439                          48.563          40.563
  22380175.835   117608603.082 9      2870.906    22380175.490    91643073.158 6
      2237.073                          50.875          38.188
  23739631.763   124752603.384 8     -2873.534    23739629.450    97209819.560 5
     -2239.115                          46.563          32.125
  24208700.750   127217721.541 7      -655.486    24208700.329    99130585.160 4
      -510.769                          43.438          23.750
  24886887.909   130781462.250 7      -466.337    24886888.661   101907638.912 4
      -363.402                          43.063          22.063
  25843696.295   135809528.697 6     -2184.734
     -1702.406                          33.313
 18  2 20  8 41  0.0000000  0 10G07G09G30G02G06G05G23G16G29G26
  20890484.583   109780252.308 9      1027.689    20890484.055    85543052.780 7
       800.798                          52.063          44.313
  20899915.437   109829806.373 9     -1891.979    20899917.016    85581669.144 8
     -1474.269                          52.188          46.688
  21612098.909   113572352.857 9      2652.610    21612101.114    88497945.114 8
      2066.966                          53.563          44.813
  21828327.915   114708633.938 9      -491.183    21828324.745    89383343.687 7
      -382.739                          50.688          40.438
  22228900.155   116813641.448 8     -2984.255    22228903.285    91023611.743 7
     -2325.393                          48.750          40.875
  22363807.758   117522588.252 9      2863.311    22363807.404    91576048.626 6
      2231.151                          51.313          38.000
  23756045.131   124838856.011 8     -2876.730    23756042.821    97277029.357 5
     -2241.614                          46.313          31.438
  24212500.285   127237688.242 7      -675.705    24212499.865    99146143.634 4
      -526.528                          44.438          23.875
  24889601.434   130795721.799 8      -484.416    24889602.179   101918750.254 4
      -377.468                          44.750          21.125
  25856206.790   135875271.711 5     -2198.305
     -1712.936                          28.688
 18  2 20  8 41 30.0000000  0 11G07G09G30G02G06G05G23G16G29G13G26
  20884667.268   109749682.133 8      1010.415    20884666.734    85519231.873 8
       787.334                          49.375          44.563
  20910743.941   109886710.492 9     -1901.504    20910745.524    85626010.004 8
     -1481.693                          50.563          46.938
  21596993.981   113492975.934 9      2639.311    21596996.179    88436092.968 8
      2056.608                          54.125          45.063
  21831184.819   114723647.014 8      -509.583    21831181.647    89395042.184 7
      -397.076                          50.375          40.125
  22245969.967   116903343.836 8     -2995.792    22245973.106    91093509.685 7
     -2334.381                          47.438          40.875
  22347484.030   117436806.474 9      2855.552    22347483.664    91509205.685 7
      2225.107                          51.125          38.813
  23772477.583   124925208.975 8     -2880.007    23772475.285    97344317.330 5
     -2244.163                          45.938          31.500
  24216416.099   127258265.977 7      -696.027    24216415.681    99162178.208 4
      -542.347                          43.813          25.125
  24892419.188   130810529.079 7      -502.653    24892419.926   101930288.408 4
      -391.697                          44.125          21.188
  25465409.511   133821636.197 6      3392.228
                                        34.313
  25868796.852   135941430.791 5     -2212.152
     -1723.700                          30.750
 18  2 20  8 42  0.0000000  0 11G07G09G30G02G06G05G23G16G29G13G26
  20878948.639   109719630.560 9       993.089    20878948.101    85495815.072 7
       773.835                          50.625          44.063
  20921626.608   109943899.267 9     -1910.955    20921628.202    85670572.674 8
     -1489.055                          51.563          46.313
  21581965.135   113413998.812 9      2625.896    21581967.319    88374552.357 7
      2046.152                          53.875          44.375
  21834146.635   114739211.373 8      -527.953    21834143.453    89407170.247 7
      -411.395                          49.688          40.625
  22263105.420   116993391.155 8     -3007.284    22263108.562    91163676.398 7
     -2343.339                          48.313          40.813
  22331204.935   117351259.185 9      2847.660    22331204.550    91442545.458 7
      2218.955                          51.313          38.938
  23788928.750   125011660.302 8     -2883.325    23788926.469    97411681.955 5
     -2246.749                          46.500          30.875
  24220447.917   127279453.290 7      -716.373    24220447.496    99178687.795 4
      -558.214                          43.375          24.500
  24895340.780   130825882.077 7      -520.840    24895341.515   101942251.765 4
      -405.830                          42.375          21.813
  25446049.763   133719897.320 6      3390.443
                                        34.938
  25881464.713   136007999.942 5     -2225.704
     -1734.319                          31.688
 18  2 20  8 42 30.0000000  0 11G07G09G30G02G06G05G23G16G29G13G26
  20873328.816   109690098.227 9       975.769    20873328.279    85472802.872 8
       760.338                          51.563          44.750
  20932563.253   110001371.696 9     -1920.430    20932564.862    85715356.371 8
     -1496.438                          50.500          46.313
  21567012.784   113335423.690 9      2612.491    21567014.958    88313324.995 8
      2035.708                          53.625          45.188
  21837213.209   114755326.318 9      -546.321    21837210.033    89419727.353 7
      -425.707                          50.688          39.875
  22280306.008   117083780.785 8     -3018.652    22280309.158    91234109.848 7
     -2352.195                          46.125          40.500
  22314971.009   117265949.294 8      2839.713    22314970.608    91376070.209 6
      2212.762                          50.375          38.188
  23805398.575   125098209.634 8     -2886.614    23805396.301    97479122.959 5
     -2249.307                          46.500          31.188
  24224595.758   127301250.335 7      -736.680    24224595.337    99195672.483 4
      -574.023                          44.313          24.000
  24898366.177   130841780.634 7      -539.009    24898366.925   101954640.239 4
      -420.027                          41.250          22.063
  25426699.244   133618211.138 6      3388.705
                                        34.875
  25894210.145   136074977.318 6     -2239.293
     -1744.889                          35.125
 18  2 20  8 43  0.0000000  0 10G07G09G30G02G06G05G23G16G29G13
  20867808.008   109661086.246 9       958.285    20867807.474    85450196.150 7
       746.717                          51.375          44.000
  20943553.742   110059127.094 9     -1929.987    20943555.367    85760360.572 8
     -1503.885                          52.125          46.625
  21552137.412   113257253.101 9      2598.821    21552139.579    88252412.866 7
      2025.054                          54.063          44.125
  21840384.593   114771992.006 9      -564.788    21840381.418    89432713.580 7
      -440.095                          51.313          40.375
  22297571.294   117174510.419 8     -3030.088    22297574.458    91304808.235 7
     -2361.106                          48.000          40.625
  22298782.548   117180878.358 8      2831.564    22298782.136    91309781.173 7
      2206.413                          50.375          38.688
  23821886.989   125184856.649 8     -2889.943    23821884.721    97546640.076 5
     -2251.896                          45.500          30.375
  24228859.536   127323656.639 7      -757.151    24228859.118    99213131.914 4
      -589.986                          43.688          24.563
  24901495.259   130858224.090 7      -557.237    24901496.024   101967453.314 4
      -434.209                          41.125          22.250
  25407359.462   133516578.730 6      3386.737
                                        37.375
 18  2 20  8 43 30.0000000  0 10G07G09G30G02G05G06G23G16G29G13
  20862386.193   109632594.474 9       940.956    20862385.663    85427994.769 7
       733.211                          51.750          44.125
  20954597.729   110117163.617 9     -1939.320    20954599.370    85805583.820 8
     -1511.157                          51.438          46.313
  21537339.271   113179488.381 9      2585.266    21537341.435    88191816.995 8
      2014.492                          53.813          44.500
  21843660.544   114789207.203 8      -583.090    21843657.372    89446128.033 7
      -454.353                          50.063          40.563
  22282639.884   117096048.074 9      2823.533    22282639.474    91243679.668 7
      2200.155                          50.500          38.938
  22314900.618   117265576.523 8     -3041.234    22314903.785    91375768.823 7
     -2369.792                          48.000          40.313
  23838393.714   125271599.926 8     -2893.145    23838391.460    97614232.203 5
     -2254.398                          44.563          30.438
  24233239.057   127346671.145 7      -777.393    24233238.638    99231065.316 4
      -605.769                          44.438          23.875
  24904727.659   130875210.512 7      -575.348    24904728.447   101980689.466 4
      -448.338                          42.125          21.125
  25388029.801   133415000.354 6      3384.889
                                        38.375
 18  2 20  8 44  0.0000000  0 10G07G09G30G02G05G06G23G16G29G13
  20857063.573   109604623.978 9       923.657    20857063.047    85406199.593 7
       719.730                          50.938          44.125
  20965695.071   110175480.483 9     -1948.536    20965696.721    85851025.526 8
     -1518.339                          51.750          46.313
  21522618.809   113102131.894 9      2571.723    21522620.972    88131539.242 8
      2003.940                          53.313          44.500
  21847040.964   114806971.424 9      -601.279    21847037.803    89459970.274 7
      -468.527                          51.188          40.375
  22266543.453   117011460.732 9      2815.500    22266543.044    91177767.457 7
      2193.898                          50.563          39.188
  22332293.525   117356976.732 8     -3052.208    22332296.691    91446989.748 7
     -2378.341                          47.375          39.500
  23854918.607   125358438.711 8     -2896.167    23854916.372    97681898.739 5
     -2256.752                          46.750          30.313
  24237734.238   127370293.443 7      -797.503    24237733.820    99249472.291 4
      -621.441                          43.563          25.188
  24908063.210   130892738.976 7      -593.296    24908064.020   101994347.996 4
      -462.298                          42.063          21.438
  25368710.479   133313476.976 7      3383.168
                                        39.688
 18  2 20  8 44 30.0000000  0 10G07G09G30G02G05G06G23G16G29G13
  20851840.287   109577175.456 9       906.251    20851839.758    85384811.146 7
       706.168                          52.188          44.375
  20976845.548   110234076.570 9     -1957.823    20976847.201    85896684.792 8
     -1525.577                          51.563          46.813
  21507976.421   113025185.721 9      2558.027    21507978.587    88071581.206 8
      1993.268                          53.500          44.563
  21850525.789   114825284.210 9      -619.561    21850522.619    89474239.948 7
      -482.773                          50.563          40.313
  22250493.412   116927117.211 9      2807.348    22250493.010    91112045.254 7
      2187.544                          50.688          39.813
  22349749.470   117448708.233 8     -3063.192    22349752.636    91518468.819 7
     -2386.904                          47.313          39.688
  23871461.485   125445372.016 8     -2899.360    23871459.272    97749638.920 5
     -2259.226                          45.688          30.688
  24242345.013   127394523.231 7      -817.773    24242344.607    99268352.602 4
      -637.237                          42.750          25.250
  24911501.806   130910808.874 7      -611.346    24911502.618   102008428.415 4
      -476.372                          44.000          23.000
  25349401.787   133212009.463 7      3381.343    25349402.350   103801561.913 3
      2634.793                          41.250          17.063
 18  2 20  8 45  0.0000000  0 10G07G09G30G02G05G06G23G16G29G13
  20846716.324   109550248.861 9       888.720    20846715.794    85363829.389 8
       692.510                          51.750          44.750
  20988048.923   110292950.625 9     -1967.196    20988050.573    85942560.680 8
     -1532.879                          52.688          46.063
  21493412.474   112948651.722 9      2544.102    21493414.636    88011944.335 8
      1982.418                          53.688          44.750
  21854114.872   114844144.918 8      -637.933    21854111.702    89488936.597 7
      -497.088                          49.063          40.313
  22234490.480   116843021.234 8      2798.929    22234490.080    91046515.919 7
      2180.985                          49.188          40.438
  22367267.906   117540768.142 8     -3074.214    22367271.075    91590203.796 7
     -2395.488                          46.563          38.938
  23888022.261   125532399.281 8     -2902.577    23888020.053    97817452.337 5
     -2261.750                          46.875          31.313
  24247071.186   127419359.376 7      -838.079    24247070.778    99287705.429 4
      -653.061                          42.500          24.750
  24915043.247   130929419.194 7      -629.448    24915044.054   102022929.957 4
      -490.477                          43.000          21.000
  25330103.837   133110598.618 7      3379.279    25330103.910   103722540.479 3
      2633.203                          42.750          18.250
 18  2 20  8 45 30.0000000  0 10G07G09G30G02G05G06G23G16G29G13
  20841691.701   109523844.307 9       871.484    20841691.171    85343254.417 8
       679.077                          52.125          44.500
  20999304.877   110352100.999 9     -1976.246    20999306.523    85988651.875 8
     -1539.933                          52.438          45.938
  21478927.250   112872531.401 9      2530.454    21478929.408    87952629.804 7
      1971.781                          53.813          44.250
  21857807.927   114863552.056 8      -655.966    21857804.766    89504059.031 7
      -511.138                          50.375          39.063
  22218534.930   116759174.225 8      2790.787    22218534.519    90981180.597 7
      2174.638                          50.438          39.375
  22384848.191   117633153.064 8     -3084.854    22384851.362    91662192.032 7
     -2403.781                          46.688          38.875
  23904600.690   125619519.326 8     -2905.492    23904598.490    97885338.037 5
     -2264.023                          45.813          31.063
  24251912.489   127444800.565 7      -858.089    24251912.087    99307529.744 4
      -668.637                          42.563          24.438
  24918687.183   130948568.150 7      -647.199    24918687.991   102037851.216 3
      -504.325                          44.000          20.438
  25310816.706   133009244.937 7      3377.502    25310816.800   103643563.613 3
      2631.820                          42.375          19.188
 18  2 20  8 46  0.0000000  0 10G07G09G30G02G05G06G23G16G29G13
  20836766.706   109497963.280 9       854.067    20836766.174    85323087.390 8
       665.507                          51.625          44.813
  21010613.355   110411527.411 9     -1985.369    21010615.000    86034958.173 8
     -1547.041                          52.563          46.125
  21464521.279   112796827.553 9      2516.584    21464523.432    87893639.807 8
      1960.973                          53.938          45.000
  21861605.028   114883505.935 8      -674.152    21861601.871    89519607.504 7
      -525.314                          49.563          39.000
  22202627.138   116675578.227 9      2782.413    22202626.725    90916040.859 7
      2168.112                          50.500          39.938
  22402489.959   117725861.085 8     -3095.543    22402493.132    91734432.027 7
     -2412.111                          46.188          39.250
  23921196.786   125706732.200 8     -2908.512    23921194.593    97953296.089 5
     -2266.372                          45.625          29.750
  24256869.011   127470847.218 7      -878.196    24256868.613    99327825.829 4
      -684.302                          41.313          24.063
  24922433.557   130968255.422 7      -665.121    24922434.367   102053191.925 4
      -518.255                          44.125          22.188
  25291540.775   132907949.944 7      3375.610    25291540.915   103564632.468 4
      2630.336                          43.250          22.188
 18  2 20  8 46 30.0000000  0 10G07G09G30G02G05G06G23G16G29G13
  20831941.327   109472605.749 9       836.558    20831940.793    85303328.286 8
       651.861                          52.875          45.125
  21021974.045   110471228.239 9     -1994.550    21021975.694    86081478.299 8
     -1554.193                          51.938          45.875
  21450194.852   112721541.723 9      2502.599    21450197.002    87834975.539 8
      1950.077                          53.250          45.125
  21865505.932   114904005.355 8      -692.352    21865502.790    89535581.049 7
      -539.498                          49.375          38.813
  22186767.419   116592234.844 8      2773.926    22186767.001    90851097.967 7
      2161.502                          50.375          39.188
  22420192.567   117818888.865 8     -3106.197    22420195.750    91806921.174 7
     -2420.414                          47.875          39.813
  23937810.264   125794036.438 8     -2911.612    23937808.082    98021325.296 5
     -2268.784                          47.188          30.938
  24261940.510   127497498.087 7      -898.391    24261940.114    99348592.741 4
      -700.045                          41.063          25.188
  24926282.052   130988479.409 7      -683.023    24926282.879   102068950.875 4
      -532.220                          42.750          22.250
  25272276.089   132806713.801 7      3373.588    25272276.402   103485747.163 4
      2628.764                          42.563          25.125
 18  2 20  8 47  0.0000000  0 10G07G09G30G02G05G06G23G16G29G13
  20827215.604   109447771.911 9       819.024    20827215.067    85283977.255 8
       638.199                          51.875          44.563
  21033386.710   110531202.209 9     -2003.720    21033388.366    86128211.265 8
     -1561.341                          52.563          45.563
  21435948.324   112646675.739 9      2488.469    21435950.465    87776638.424 8
      1939.068                          53.813          45.500
  21869510.482   114925049.447 8      -710.570    21869507.358    89551979.048 7
      -553.688                          48.563          38.750
  22170956.077   116509145.678 8      2765.343    22170955.652    90786353.155 7
      2154.813                          50.063          39.438
  22437955.476   117912233.469 8     -3116.747    22437958.656    91879657.220 7
     -2428.631                          47.063          40.313
  23954440.920   125881430.934 8     -2914.679    23954438.748    98089424.860 5
     -2271.181                          46.625          30.563
  24267126.831   127524752.326 7      -918.553    24267126.433    99369829.803 4
      -715.749                          43.625          25.500
  24930232.466   131009238.983 7      -700.927    24930233.314   102085127.143 4
      -546.195                          42.438          22.688
  25253022.840   132705537.494 7      3371.514    25253023.283   103406908.528 4
      2627.153                          42.813          24.813
 18  2 20  8 47 30.0000000  0 10G07G09G30G02G05G06G23G16G29G13
  20822589.643   109423462.353 9       801.530    20822589.106    85265034.750 7
       624.567                          51.875          44.313
  21044851.153   110591448.308 9     -2012.790    21044852.821    86175156.256 8
     -1568.407                          51.625          45.688
  21421782.060   112572231.581 9      2474.383    21421784.200    87718630.006 8
      1928.091                          53.500          45.438
  21873618.573   114946637.631 8      -728.701    21873615.461    89568800.982 7
      -567.818                          48.688          39.625
  22155193.521   116426312.943 8      2756.723    22155193.094    90721808.174 7
      2148.094                          48.625          38.875
  22455778.140   118005892.104 8     -3127.193    22455781.324    91952637.947 7
     -2436.771                          47.500          39.250
  23971088.675   125968915.265 8     -2917.694    23971086.511    98157594.422 5
     -2273.528                          46.313          30.813
  24272427.787   127552608.969 7      -938.609    24272427.380    99391536.267 4
      -731.379                          42.125          24.188
  24934284.562   131030532.842 7      -718.750    24934285.414   102101719.736 4
      -560.063                          42.875          22.375
  25233781.102   132604421.972 7      3369.456    25233781.557   103328117.248 4
      2625.563                          42.500          24.813
 18  2 20  8 48  0.0000000  0 10G07G09G30G02G05G06G23G16G29G13
  20818063.548   109399677.613 9       784.161    20818063.014    85246501.197 7
       611.033                          51.250          44.375
  21056367.151   110651965.298 9     -2021.638    21056368.824    86222312.337 8
     -1575.302                          52.500          45.938
  21407696.424   112498211.143 9      2460.348    21407698.568    87660951.758 8
      1917.152                          53.313          45.563
  21877830.063   114968769.125 8      -746.676    21877826.956    89586046.299 7
      -581.827                          49.375          39.875
  22139480.391   116343739.918 8      2748.185    22139479.963    90657465.559 7
      2141.442                          49.250          38.688
  22473660.011   118099861.904 8     -3137.374    22473663.202    92025861.152 7
     -2444.705                          46.938          39.813
  23987753.356   126056488.551 7     -2920.503    23987751.203    98225833.297 5
     -2275.711                          43.938          29.750
  24277843.304   127581067.645 7      -958.552    24277842.890    99413711.880 4
      -746.925                          43.313          24.313
  24938438.131   131052359.956 7      -736.352    24938438.986   102118727.877 4
      -573.786                          43.313          22.688
  25214551.089   132503367.874 7      3367.549    25214551.512   103249373.854 4
      2624.062                          42.688          25.688
 18  2 20  8 48 30.0000000  0 10G07G09G30G02G05G06G23G16G29G13
  20813637.367   109376417.934 9       766.334    20813636.835    85228376.777 7
       597.143                          51.938          43.938
  21067934.500   110712752.098 9     -2030.927    21067936.178    86269678.668 8
     -1582.540                          52.375          45.938
  21393691.803   112424616.436 9      2445.800    21393693.949    87603605.258 8
      1905.819                          53.438          45.750
  21882144.821   114991443.288 8      -765.062    21882141.719    89603714.453 7
      -596.155                          50.313          39.875
  22123816.902   116261427.715 9      2739.147    22123816.464    90593326.182 7
      2134.401                          51.000          39.188
  22491600.554   118194140.054 8     -3147.922    22491603.758    92099324.609 7
     -2452.925                          47.000          38.813
  24004434.860   126144150.264 7     -2923.729    24004432.722    98294141.085 5
     -2278.229                          42.563          30.000
  24283373.213   127610127.508 7      -978.920    24283372.797    99436355.942 4
      -762.785                          42.625          23.625
  24942692.981   131074719.317 7      -754.410    24942693.842   102136150.740 4
      -587.848                          43.250          21.938
  25195332.985   132402376.165 7      3365.154    25195333.337   103170679.040 4
      2622.215                          44.188          24.188
 18  2 20  8 49  0.0000000  0 10G07G09G30G02G05G06G23G16G29G13
  20809311.183   109353683.748 9       749.070    20809310.651    85210661.834 7
       583.689                          51.875          44.000
  21079552.958   110773807.448 9     -2039.599    21079554.635    86317254.253 8
     -1589.298                          53.063          46.313
  21379768.523   112351449.155 9      2431.794    21379770.668    87546591.809 8
      1894.904                          53.750          45.125
  21886562.566   115014658.631 8      -782.828    21886559.467    89621804.330 7
      -609.995                          49.688          39.875
  22108203.426   116179378.347 9      2730.634    22108202.982    90529391.613 7
      2127.771                          51.000          39.063
  22509599.200   118288723.504 8     -3157.805    22509602.413    92173025.978 7
     -2460.629                          47.375          38.688
  24021132.884   126231898.833 7     -2926.358    24021130.767    98362516.530 5
     -2280.271                          44.000          29.250
  24289017.238   127639787.047 7      -998.661    24289016.818    99459467.272 4
      -778.168                          41.125          25.500
  24947048.843   131097609.485 7      -771.807    24947049.710   102153987.207 4
      -601.420                          42.500          23.250
  25176126.839   132301447.196 7      3363.275    25176127.151   103092033.123 4
      2620.741                          41.188          22.313
 18  2 20  8 49 30.0000000  0 10G07G09G30G02G05G06G23G16G29G13
  20805085.057   109331475.343 9       731.521    20805084.524    85193356.592 8
       570.015                          52.250          44.500
  21091222.361   110835130.499 9     -2048.547    21091224.034    86365038.439 8
     -1596.271                          53.625          45.875
  21365926.999   112278711.532 9      2417.411    21365929.144    87489913.170 8
      1883.696                          53.375          44.813
  21891083.214   115038414.737 8      -800.866    21891080.117    89640315.554 7
      -624.050                          49.750          40.563
  22092640.319   116097593.648 9      2721.743    22092639.866    90465663.270 7
      2120.837                          51.500          39.000
  22527655.467   118383609.774 8     -3167.870    22527658.690    92246963.308 7
     -2468.468                          46.938          39.250
  24037847.427   126319734.159 8     -2929.257    24037845.322    98430959.602 5
     -2282.541                          45.625          28.563
  24294775.323   127670045.976 7     -1018.621    24294774.900    99483045.661 4
      -793.727                          41.188          25.188
  24951505.517   131121029.374 7      -789.468    24951506.382   102172236.449 4
      -615.166                          44.313          23.438
  25156932.874   132200582.431 7      3361.089    25156933.164   103013437.274 4
      2619.045                          41.375          21.063
 18  2 20  8 50  0.0000000  0 10G07G09G30G02G05G06G23G16G29G13
  20800958.996   109309792.753 9       714.037    20800958.457    85176461.066 7
       556.394                          52.625          44.438
  21102942.391   110896719.591 9     -2057.332    21102944.057    86413029.946 8
     -1603.116                          52.313          45.875
  21352167.483   112206404.871 9      2403.025    21352169.626    87433570.348 8
      1872.485                          53.750          45.063
  21895706.478   115062710.103 8      -818.813    21895703.386    89659247.006 7
      -638.037                          49.563          40.500
  22077127.925   116016075.440 9      2712.776    22077127.461    90402142.591 7
      2113.851                          50.688          39.625
  22545768.706   118478795.415 8     -3177.823    22545771.938    92321133.907 6
     -2476.226                          46.625          38.250
  24054578.291   126407655.197 8     -2932.097    24054576.189    98499469.444 5
     -2284.760                          46.875          29.625
  24300647.168   127700902.745 7     -1038.558    24300646.746    99507089.898 4
      -809.280                          42.125          24.688
  24956062.620   131144977.035 7      -807.001    24956063.484   102190896.950 4
      -628.832                          43.750          21.500
  25137751.164   132099782.088 6      3358.930    25137751.482   102934891.583 3
      2617.336                          37.875          19.313
 18  2 20  8 50 30.0000000  0 10G07G09G30G02G05G06G23G16G29G13
  20796933.159   109288636.824 9       696.382    20796932.609    85159975.940 7
       542.634                          52.813          44.375
  21114712.939   110958574.194 9     -2066.255    21114714.607    86461228.320 8
     -1610.069                          53.500          45.938
  21338490.438   112134531.625 9      2388.485    21338492.582    87377565.262 8
      1861.155                          54.000          44.813
  21900432.352   115087544.676 8      -836.823    21900429.264    89678598.610 7
      -652.071                          49.500          40.375
  22061666.666   115934825.995 9      2703.779    22061666.204    90338831.344 7
      2106.839                          50.938          39.188
  22563938.477   118574278.119 8     -3187.702    22563941.716    92395535.985 7
     -2483.923                          48.250          39.188
  24071325.380   126495661.522 8     -2934.980    24071323.285    98568045.759 5
     -2286.992                          45.250          30.313
  24306632.663   127732356.791 7     -1058.458    24306632.248    99531599.541 4
      -824.775                          41.625          25.063
  24960719.946   131169451.404 7      -824.602    24960720.815   102209967.872 4
      -642.550                          42.250          22.500
  25118581.926   131999047.366 7      3356.673    25118582.287   102856397.067 3
      2615.623                          38.625          18.188
 18  2 20  8 51  0.0000000  0 10G07G09G30G02G05G06G23G16G29G13
  20793007.399   109268006.829 9       678.760    20793006.841    85143900.636 8
       528.904                          53.188          44.875
  21126533.612   111020692.233 9     -2075.123    21126535.275    86509631.996 8
     -1616.977                          52.063          45.750
  21324896.050   112063092.735 9      2373.917    21324898.189    87321898.609 8
      1849.804                          53.750          44.813
  21905260.465   115112916.527 8      -854.801    21905257.381    89698368.878 7
      -666.077                          49.375          40.438
  22046256.994   115853847.650 9      2694.601    22046256.536    90275731.343 7
      2099.688                          51.813          39.375
  22582164.064   118670054.076 8     -3197.513    22582167.298    92470166.575 7
     -2491.565                          47.750          39.250
  24088088.395   126583751.521 8     -2937.847    24088086.305    98636687.269 5
     -2289.233                          46.125          30.313
  24312731.547   127764406.668 7     -1078.329    24312731.136    99556573.465 4
      -840.274                          42.000          22.563
  24965477.220   131194450.998 7      -842.195    24965478.095   102229448.056 4
      -656.237                          42.375          20.938
  25099425.230   131898378.507 7      3354.497    25099425.606   102777953.822 3
      2613.916                          40.438          18.313
 18  2 20  8 51 30.0000000  0 10G07G09G30G02G05G06G23G16G29G13
  20789181.983   109247904.120 9       661.341    20789181.414    85128236.196 8
       515.332                          52.500          44.813
  21138404.369   111083073.505 9     -2083.709    21138406.041    86558240.765 8
     -1623.669                          52.125          45.500
  21311384.835   111992090.935 9      2359.479    21311386.971    87266572.543 8
      1838.557                          53.188          45.188
  21910190.791   115138825.507 8      -872.516    21910187.711    89718557.691 7
      -679.882                          49.250          39.938
  22030899.376   115773142.807 9      2685.629    22030898.912    90212844.445 7
      2092.699                          51.250          40.063
  22600445.081   118766121.345 8     -3207.025    22600448.317    92545024.150 7
     -2498.978                          46.875          39.250
  24104867.326   126671925.177 8     -2940.461    24104865.245    98705393.948 5
     -2291.272                          46.063          30.063
  24318943.725   127797051.893 7     -1098.077    24318943.309    99582011.326 4
      -855.648                          42.500          26.125
  24970334.302   131219975.101 7      -859.487    24970335.190   102249336.962 4
      -669.729                          41.938          20.938
  25080281.353   131797776.970 7      3352.343    25080281.716   102699563.056 3
      2612.213                          41.500          18.313
 18  2 20  8 52  0.0000000  0 10G07G09G30G02G05G06G23G16G29G13
  20785456.857   109228328.474 9       643.911    20785456.282    85112982.446 8
       501.750                          51.938          44.813
  21150324.920   111145716.463 9     -2092.270    21150326.604    86607053.452 8
     -1630.338                          52.563          45.563
  21297957.072   111921527.655 9      2344.967    21297959.198    87211588.183 8
      1827.247                          54.250          45.375
  21915223.115   115165270.492 8      -890.245    21915220.040    89739164.159 7
      -693.696                          48.500          40.563
  22015594.034   115692712.720 9      2676.588    22015593.574    90150171.649 7
      2085.654                          51.250          40.625
  22618780.902   118862476.585 8     -3216.420    22618784.137    92620106.132 7
     -2506.298                          48.000          39.063
  24121662.002   126760181.571 8     -2943.073    24121659.930    98774165.094 5
     -2293.314                          46.500          30.938
  24325269.014   127830291.516 7     -1117.664    24325268.592    99607912.345 4
      -870.903                          41.438          26.375
  24975290.826   131246021.781 7      -876.690    24975291.720   102269633.074 4
      -683.142                          42.000          21.688
  25061150.346   131697243.103 7      3350.162    25061150.704   102621225.008 4
      2610.502                          41.563          21.375
 18  2 20  8 52 30.0000000  0 10G07G09G30G02G05G06G23G16G29G13
  20781832.093   109209280.226 9       626.208    20781831.512    85098139.660 7
       487.953                          52.188          44.313
  21162295.064   111208619.978 9     -2101.053    21162296.752    86656069.159 8
     -1637.181                          52.875          45.438
  21284613.093   111851404.651 9      2330.131    21284615.212    87156946.905 8
      1815.687                          54.563          45.000
  21920357.268   115192250.551 8      -908.165    21920354.186    89760187.575 7
      -707.660                          50.313          39.188
  22000341.446   115612559.827 9      2667.185    22000340.995    90087714.859 7
      2078.328                          51.000          40.688
  22637170.970   118959116.896 8     -3226.020    22637174.206    92695410.224 7
     -2513.782                          48.063          38.688
  24138472.262   126848519.856 8     -2945.907    24138470.200    98843000.068 5
     -2295.508                          45.563          29.625
  24331707.036   127864123.580 7     -1137.571    24331706.617    99634274.998 4
      -886.413                          41.125          25.688
  24980346.541   131272589.732 7      -894.247    24980347.446   102290335.357 4
      -696.844                          40.938          21.313
  25042032.461   131596778.047 7      3347.681    25042032.782   102542940.612 4
      2608.583                          40.938          21.250
 18  2 20  8 53  0.0000000  0 10G07G09G30G02G05G06G23G16G29G13
  20778307.644   109190759.147 9       608.527    20778307.058    85083707.663 7
       474.175                          51.500          43.875
  21174314.548   111271782.689 9     -2109.787    21174316.223    86705286.860 8
     -1643.989                          53.000          45.938
  21271353.206   111781723.537 9      2315.259    21271355.316    87102649.957 8
      1804.095                          53.938          45.563
  21925592.908   115219763.971 8      -926.052    21925589.826    89781626.599 7
      -721.600                          49.188          39.563
  21985141.829   115532685.315 8      2657.766    21985141.384    90025474.984 7
      2070.986                          49.438          40.625
  22655614.689   119056039.152 8     -3235.458    22655617.928    92770934.033 7
     -2521.137                          47.938          38.563
  24155297.860   126936938.733 8     -2948.697    24155295.808    98911897.836 5
     -2297.674                          45.875          29.813
  24338257.677   127898547.439 7     -1157.362    24338257.255    99661098.782 4
      -901.852                          42.313          26.375
  24985501.194   131299677.585 7      -911.630    24985502.102   102311442.754 3
      -710.360                          40.438          19.250
  25022927.698   131496382.043 7      3345.312    25022928.035   102464709.993 3
      2606.722                          40.625          20.438
 18  2 20  8 53 30.0000000  0 10G07G09G30G02G05G06G23G16G29G13
  20774883.660   109172766.020 9       591.085    20774883.069    85069687.055 8
       460.584                          51.688          44.625
  21186383.237   111335203.982 9     -2118.204    21186384.909    86754706.026 8
     -1650.549                          53.250          45.875
  21258177.838   111712486.597 9      2300.605    21258179.943    87048699.114 8
      1792.679                          54.125          45.688
  21930929.981   115247810.446 8      -943.622    21930926.901    89803480.975 7
      -735.296                          48.438          38.688
  21969995.744   115453092.150 9      2648.509    21969995.313    89963454.342 7
      2063.773                          50.813          40.563
  22674111.604   119153240.946 8     -3244.555    22674114.843    92846675.656 6
     -2528.225                          47.875          38.125
  24172138.788   127025438.200 8     -2951.201    24172136.752    98980858.385 5
     -2299.633                          45.313          28.500
  24344920.852   127933562.692 7     -1176.887    24344920.434    99688383.373 4
      -917.062                          39.375          25.813
  24990754.497   131327283.818 7      -928.697    24990755.407   102332954.095 4
      -723.672                          40.688          20.750
  25003836.364   131396056.537 7      3343.129    25003836.702   102386534.347 3
      2605.013                          39.813          17.500
 18  2 20  8 54  0.0000000  0 10G07G09G30G02G05G06G23G16G13G29
  20771560.060   109155300.435 9       573.434    20771559.468    85056077.510 7
       446.831                          51.375          44.250
  21198500.807   111398882.169 9     -2126.865    21198502.477    86804325.392 8
     -1657.300                          53.438          45.438
  21245087.214   111643695.015 9      2285.658    21245089.321    86995095.318 8
      1781.032                          53.000          45.250
  21936368.162   115276388.269 8      -961.412    21936365.088    89825749.394 7
      -749.152                          48.438          38.750
  21954903.528   115373782.060 9      2638.963    21954903.105    89901654.285 7
      2056.337                          51.063          41.000
  22692661.052   119250718.819 8     -3253.825    22692664.295    92922632.400 6
     -2535.446                          48.313          38.438
  24188994.830   127114017.045 8     -2953.903    24188992.804    99049880.786 5
     -2301.735                          45.563          28.750
  24351696.229   127969167.568 7     -1196.575    24351695.816    99716127.424 4
      -932.388                          40.813          24.375
  24984758.494   131295801.801 7      3340.689    24984758.808   102308413.852 3
      2603.132                          38.625          19.125
  24996106.152   131355406.896 7      -945.977    24996107.065   102354868.175 4
      -737.103                          40.938          22.750
 18  2 20  8 54 30.0000000  0 10G07G09G30G05G02G06G23G16G13G29
  20768336.926   109138362.809 9       555.827    20768336.337    85042879.371 7
       433.113                          51.688          44.125
  21210667.105   111462816.462 9     -2135.351    21210668.781    86854144.308 8
     -1663.909                          52.250          45.750
  21232081.727   111575350.865 9      2270.698    21232083.835    86941840.167 8
      1769.372                          52.313          45.313
  21939865.567   115294757.022 9      2629.434    21939865.146    89840076.322 7
      2048.910                          51.375          41.313
  21941907.364   115305496.960 8      -979.086    21941904.298    89848431.460 7
      -762.924                          49.563          39.313
  22711262.543   119348470.156 8     -3262.844    22711265.787    92998802.231 6
     -2542.474                          47.750          38.438
  24205865.859   127202674.668 7     -2956.522    24205863.848    99118964.599 5
     -2303.775                          44.188          27.688
  24358583.509   128005360.487 7     -1216.145    24358583.096    99744329.679 4
      -947.645                          41.188          22.938
  24965694.269   131195618.844 6      3338.272    24965694.592   102230349.211 3
      2601.270                          38.313          17.375
  25001555.913   131384045.553 7      -963.176    25001556.834   102377183.953 4
      -750.512                          39.313          21.625
 18  2 20  8 55  0.0000000  0 10G07G30G09G05G02G06G23G16G13G29
  20765214.308   109121953.407 9       538.291    20765213.724    85030092.823 7
       419.450                          51.625          44.000
  21219161.725   111507455.918 9      2255.776    21219163.829    86888935.033 8
      1757.748                          53.938          45.375
  21222881.923   111527005.766 9     -2143.749    21222883.607    86904161.935 8
     -1670.454                          52.438          45.188
  21924882.317   115216019.506 9      2619.876    21924881.894    89778722.420 7
      2041.464                          51.250          41.250
  21947547.337   115335135.160 8      -996.648    21947544.271    89871526.148 7
      -776.607                          48.688          39.188
  22729915.533   119446492.079 8     -3271.732    22729918.772    93075182.909 7
     -2549.397                          48.000          38.563
  24222751.725   127291410.225 8     -2959.030    24222749.725    99188109.122 5
     -2305.729                          45.313          28.125
  24365582.629   128042141.107 7     -1235.693    24365582.212    99772989.887 4
      -962.882                          41.063          25.625
  24946643.922   131095508.866 6      3335.882    24946644.264   102152341.499 3
      2599.388                          36.500          16.813
  25007103.497   131413198.246 7      -980.194    25007104.424   102399900.329 4
      -763.769                          40.188          22.063
 18  2 20  8 55 30.0000000  0 10G07G30G09G05G02G06G23G16G13G29
  20762192.159   109106071.963 9       520.488    20762191.578    85017717.688 7
       405.574                          52.063          44.125
  21206327.450   111440011.462 9      2240.542    21206329.548    86836380.939 8
      1745.878                          53.250          45.375
  21235144.975   111591448.508 9     -2152.381    21235146.658    86954377.055 8
     -1677.179                          52.063          45.875
  21909953.979   115137570.546 9      2610.050    21909953.549    89717593.363 7
      2033.807                          51.938          40.688
  21953287.781   115365301.331 8     -1014.412    21953284.716    89895032.219 7
      -790.449                          48.438          39.125
  22748619.366   119544781.213 8     -3280.805    22748622.607    93151771.797 6
     -2556.467                          47.188          37.875
  24239652.259   127380222.879 8     -2961.770    24239650.274    99257313.730 5
     -2307.873                          46.188          28.625
  24372693.171   128079507.211 7     -1255.335    24372692.747    99802106.307 4
      -978.181                          41.875          25.563
  24927607.474   130995471.979 7      3333.211    24927607.828   102074390.732 3
      2597.321                          39.563          17.813
  25012748.503   131442862.891 7      -997.328    25012749.436   102423015.624 4
      -777.126                          40.500          22.500
 18  2 20  8 56  0.0000000  0 10G07G30G09G05G02G06G23G16G13G29
  20759270.782   109090720.094 9       502.963    20759270.210    85005755.198 7
       391.918                          51.313          44.000
  21193579.459   111373020.425 9      2225.511    21193581.545    86784180.148 8
      1734.164                          53.438          45.688
  21247456.284   111656144.858 9     -2160.708    21247457.968    87004789.785 8
     -1683.668                          52.438          45.563
  21895081.267   115059413.905 9      2600.385    21895080.826    89656692.074 7
      2026.273                          50.688          41.313
  21959128.675   115395995.368 8     -1031.870    21959125.615    89918949.643 7
      -804.056                          48.438          40.125
  22767373.725   119643335.860 8     -3289.499    22767376.969    93228567.586 6
     -2563.247                          48.250          38.125
  24256567.520   127469112.940 8     -2964.232    24256565.553    99326578.634 5
     -2309.790                          45.563          28.688
  24379915.207   128117459.215 7     -1274.769    24379914.779    99831679.295 4
      -993.330                          41.688          24.875
  24908585.255   130895509.818 6      3330.898    24908585.628   101996498.134 3
      2595.510                          37.375          19.125
  25018490.902   131473039.322 7     -1014.371    25018491.837   102446529.688 4
      -790.424                          41.250          22.438
 18  2 20  8 56 30.0000000  0 10G07G30G09G05G02G06G23G16G13G29
  20756449.688   109075895.169 9       485.473    20756449.114    84994203.308 8
       378.290                          52.438          44.875
  21180917.688   111306482.469 9      2210.457    21180919.762    86732332.411 8
      1722.435                          53.750          45.563
  21259815.248   111721091.615 9     -2168.957    21259816.927    87055397.640 8
     -1690.096                          52.000          45.438
  21880264.181   114981549.591 9      2590.655    21880263.736    89596018.593 7
      2018.691                          51.750          40.875
  21965069.449   115427214.282 8     -1049.283    21965066.397    89943276.059 7
      -817.623                          46.625          40.375
  22786177.674   119742151.134 8     -3298.051    22786180.929    93305566.463 6
     -2569.909                          48.875          37.688
  24273496.982   127558077.641 8     -2966.618    24273495.036    99395901.726 5
     -2311.649                          45.250          28.438
  24387248.118   128155993.891 7     -1294.081    24387247.692    99861706.305 4
     -1008.377                          41.438          23.375
  24889577.125   130795621.664 6      3328.473    24889577.499   101918663.265 3
      2593.625                          38.313          19.125
  25024330.006   131503723.952 7     -1031.178    25024330.946   102470439.769 4
      -803.500                          41.063          21.563
 18  2 20  8 57  0.0000000  0 10G07G30G09G05G02G06G23G16G13G29
  20753729.238   109061599.122 9       467.707    20753728.659    84983063.538 8
       364.447                          52.000          44.688
  21168342.741   111240400.778 9      2195.108    21168344.807    86680840.189 8
      1710.473                          53.063          45.250
  21272221.947   111786289.218 9     -2177.406    21272223.629    87106200.942 8
     -1696.679                          52.500          45.875
  21865503.377   114903981.060 9      2580.648    21865502.926    89535575.586 7
      2010.889                          50.625          40.375
  21971110.237   115458958.764 8     -1066.911    21971107.190    89968012.004 7
      -831.364                          48.875          39.813
  22805030.916   119841225.434 8     -3306.766    22805034.182    93382767.166 6
     -2576.701                          48.125          37.813
  24290440.765   127647117.570 8     -2969.256    24290438.835    99465283.388 5
     -2313.710                          44.875          28.125
  24394691.902   128195111.205 7     -1313.578    24394691.480    99892187.294 4
     -1023.573                          42.250          24.125
  24870583.557   130695809.984 7      3325.750    24870583.930   101840887.973 3
      2591.500                          40.375          18.813
  25030265.776   131534916.558 7     -1048.219    25030266.720   102494745.694 4
      -816.793                          42.000          21.250
 18  2 20  8 57 30.0000000  0 10G07G30G09G05G02G06G23G16G13G29
  20751109.398   109047831.784 9       450.141    20751108.813    84972335.747 7
       350.761                          53.313          44.063
  21155854.887   111174776.761 9      2179.854    21155856.952    86629704.609 8
      1698.587                          53.000          46.250
  21284676.123   111851736.262 9     -2185.700    21284677.798    87157198.638 8
     -1703.144                          50.813          45.375
  21850799.290   114826710.585 9      2570.726    21850798.835    89475364.831 7
      2003.163                          51.375          41.188
  21977250.679   115491226.924 7     -1084.266    21977247.636    89993155.994 7
      -844.877                          43.813          39.688
  22823932.870   119940555.695 8     -3315.244    22823936.142    93460167.332 6
     -2583.299                          47.063          38.063
  24307398.730   127736232.036 7     -2971.652    24307396.821    99534723.143 5
     -2315.566                          42.750          27.313
  24402246.243   128234809.484 7     -1332.909    24402245.829    99923120.970 4
     -1038.625                          40.563          24.250
  24851604.590   130596075.019 7      3323.235    24851604.954   101763172.495 4
      2589.531                          41.250          20.500
  25036297.933   131566615.657 7     -1065.013    25036298.875   102519446.274 4
      -829.898                          42.563          21.500
 18  2 20  8 58  0.0000000  0 10G07G30G09G05G02G06G23G16G13G29
  20748590.060   109034592.574 9       432.475    20748589.465    84962019.486 7
       336.992                          51.500          44.000
  21143454.379   111109611.720 9      2164.481    21143456.440    86578926.664 8
      1686.608                          53.563          46.063
  21297177.483   111917431.289 9     -2194.000    21297179.161    87208389.549 8
     -1709.612                          53.625          45.625
  21836152.142   114749739.313 9      2560.666    21836151.676    89415387.216 7
      1995.325                          51.938          39.750
  21983490.441   115524017.016 8     -1101.733    21983487.403    90018706.673 7
      -858.490                          47.750          39.000
  22842882.889   120040138.532 8     -3323.635    22842886.168    93537764.303 6
     -2589.842                          48.313          37.125
  24324370.680   127825419.944 7     -2974.192    24324368.786    99604220.127 5
     -2317.552                          44.063          27.625
  24409910.848   128275087.177 7     -1352.235    24409910.439    99954506.167 4
     -1053.682                          42.000          24.250
  24832640.332   130496417.275 7      3320.595    24832640.662   101685517.126 3
      2587.473                          40.688          20.313
  25042426.009   131598818.813 7     -1081.854    25042426.947   102544539.631 4
      -842.991                          42.875          22.125
 18  2 20  8 58 30.0000000  0 10G07G30G09G05G02G06G23G16G13G29
  20746171.236   109021881.579 9       414.899    20746170.634    84952114.816 8
       323.300                          53.125          44.750
  21131141.516   111044907.248 9      2149.113    21131143.573    86528507.611 8
      1674.631                          53.250          45.938
  21309725.816   111983373.172 9     -2202.154    21309727.494    87259772.839 8
     -1715.962                          52.938          45.063
  21821562.405   114673069.739 9      2550.609    21821561.940    89355644.708 7
      1987.486                          51.500          40.625
  21989829.319   115557327.997 8     -1119.022    21989826.295    90044663.260 7
      -871.967                          48.188          39.125
  22861880.423   120139971.076 8     -3331.895    22861883.712    93615555.846 6
     -2596.279                          49.563          37.750
  24341356.436   127914680.404 7     -2976.529    24341354.560    99673773.634 5
     -2319.365                          44.063          26.750
  24417685.505   128315943.179 7     -1371.493    24417685.096    99986342.009 4
     -1068.694                          40.688          23.813
  24813690.875   130396837.368 7      3318.084    24813691.187   101607922.469 4
      2585.538                          41.500          20.688
  25048649.763   131631524.780 7     -1098.549    25048650.700   102570024.804 4
      -856.001                          40.875          21.625
 18  2 20  8 59  0.0000000  0 10G07G30G09G05G02G06G23G16G13G29
  20743852.990   109009699.129 9       397.477    20743852.385    84942621.999 7
       309.724                          51.938          44.375
  21118916.649   110980665.231 9      2133.864    21118918.711    86478448.913 8
      1662.751                          53.625          46.063
  21322320.956   112049561.070 9     -2210.168    21322322.645    87311347.809 8
     -1722.208                          52.250          45.063
  21807030.443   114596703.815 9      2540.655    21807029.982    89296138.794 7
      1979.730                          51.938          40.938
  21996267.140   115591158.895 8     -1136.163    21996264.122    90071024.969 7
      -885.319                          48.313          38.750
  22880924.950   120240050.529 8     -3339.860    22880928.243    93693539.791 6
     -2602.487                          48.313          38.063
  24358355.915   128004012.957 7     -2978.776    24358354.058    99743383.322 5
     -2321.121                          43.688          28.000
  24425569.889   128357375.807 7     -1390.507    24425569.484   100018627.146 4
     -1083.504                          41.188          24.813
  24794756.365   130297336.053 7      3315.541    24794756.675   101530389.001 4
      2583.540                          40.188          20.688
  25054968.888   131664731.950 7     -1115.034    25054969.829   102595900.512 4
      -868.855                          40.625          21.250
 18  2 20  8 59 30.0000000  0 10G07G30G09G05G02G06G23G16G13G29
  20741635.220   108998044.681 9       379.819    20741634.614    84933540.617 8
       295.961                          52.938          45.188
  21106780.003   110916886.804 9      2118.333    21106782.067    86428751.443 8
      1650.647                          53.500          45.688
  21334962.609   112115993.414 9     -2218.303    21334964.307    87363113.256 8
     -1728.547                          52.875          45.063
  21792556.565   114520643.081 9      2530.378    21792556.097    89236870.703 7
      1971.722                          52.250          40.438
  22002803.552   115625507.873 8     -1153.439    22002800.539    90097790.406 7
      -898.784                          48.563          39.125
  22900015.823   120340373.529 8     -3348.007    22900019.121    93771713.519 6
     -2608.840                          48.750          38.188
  24375368.869   128093416.307 8     -2981.152    24375367.032    99813048.167 5
     -2322.960                          44.625          27.688
  24433563.729   128399383.655 7     -1409.692    24433563.333   100051360.506 4
     -1098.470                          41.313          25.625
  24775837.042   130197914.539 7      3312.841    24775837.355   101452917.745 4
      2581.436                          41.500          20.875
  25061382.942   131698437.971 7     -1131.731    25061383.885   102622164.952 4
      -881.861                          40.438          21.438
                            4  1
RINEX FILE SPLICE; other post-header comments skipped       COMMENT
 18  2 20  9  0  0.0000000  0 10G07G30G09G05G02G06G23G16G13G29
  20739518.140   108986919.348 9       362.082    20739517.531    84924871.529 7
       282.140                          52.750          44.375
  21094732.079   110853574.613 9      2102.686    21094734.141    86379417.282 8
      1638.456                          52.250          45.750
  21347650.775   112182670.146 9     -2226.577    21347652.476    87415069.144 8
     -1734.995                          52.688          45.063
  21778141.389   114444890.836 9      2519.964    21778140.909    89177842.961 7
      1963.607                          51.875          40.875
  22009438.506   115660374.703 8     -1170.781    22009435.500    90124959.383 7
      -912.294                          47.250          39.000
  22919152.675   120440938.174 8     -3356.080    22919155.984    93850075.544 6
     -2615.125                          48.938          38.250
  24392395.395   128182890.933 7     -2983.599    24392393.573    99882768.556 5
     -2324.877                          44.250          27.500
  24441666.954   128441966.307 7     -1428.981    24441666.567   100084541.742 4
     -1113.483                          41.500          24.250
  24756933.185   130098574.293 7      3310.012    24756933.480   101375509.811 4
      2579.218                          41.750          21.375
  25067891.771   131732642.014 7     -1148.417    25067892.711   102648817.443 3
      -894.882                          41.063          19.625
 18  2 20  9  0 30.0000000  0 10G07G30G09G05G02G06G23G16G13G29
  20737501.550   108976322.103 9       344.324    20737500.943    84916613.941 7
       268.305                          52.813          44.313
  21082773.035   110790729.482 9      2086.918    21082775.095    86330447.063 8
      1626.166                          52.938          46.000
  21360385.098   112249589.417 9     -2234.809    21360386.799    87467214.012 8
     -1741.409                          52.063          45.500
  21763785.110   114369448.074 9      2509.446    21763784.630    89119056.406 7
      1955.415                          52.500          41.438
  22016171.569   115695757.120 8     -1188.116    22016168.571    90152530.116 7
      -925.809                          47.375          38.938
  22938334.794   120541740.714 8     -3364.118    22938338.120    93928622.942 6
     -2621.391                          48.063          38.000
  24409435.185   128272435.204 8     -2986.090    24409433.370    99952543.223 5
     -2326.811                          45.500          27.750
  24449879.203   128485121.870 7     -1448.132    24449878.826   100118169.424 4
     -1128.432                          41.250          24.750
  24738044.792   129999315.310 7      3307.150    24738045.058   101298165.168 4
      2577.010                          42.188          21.500
  25074495.013   131767342.239 7     -1165.027    25074495.953   102675856.576 4
      -907.799                          39.625          21.688
 18  2 20  9  1  0.0000000  0 10G07G30G09G05G02G06G23G16G13G29
  20735585.412   108966252.721 9       326.775    20735584.805    84908767.676 8
       254.632                          53.875          45.125
  21070903.140   110728352.837 9      2071.313    21070905.197    86281841.899 8
      1614.009                          52.250          45.563
  21373165.348   112316750.010 9     -2242.786    21373167.041    87519546.941 8
     -1747.625                          53.250          45.063
  21749488.203   114294317.348 9      2499.045    21749487.723    89060512.993 7
      1947.306                          51.750          41.125
  22023002.506   115731653.883 8     -1205.192    22022999.512    90180501.612 7
      -939.112                          48.813          39.313
  22957561.610   120642778.111 8     -3371.855    22957564.943    94007353.349 6
     -2627.418                          48.250          37.813
  24426488.111   128362048.521 8     -2988.322    24426486.309   100022371.690 4
     -2328.552                          44.875          26.375
  24458200.021   128528847.932 7     -1467.129    24458199.650   100152241.649 4
     -1143.211                          42.500          23.938
  24719171.846   129900137.563 7      3304.462    24719172.098   101220883.826 4
      2574.886                          40.375          20.813
  25081192.240   131802536.358 7     -1181.469    25081193.181   102703280.540 3
      -920.629                          39.250          18.688
 18  2 20  9  1 30.0000000  0 10G07G30G09G05G02G06G23G16G13G29
  20733769.742   108956711.309 9       309.237    20733769.135    84901332.804 8
       240.963                          53.438          44.563
  21059122.747   110666446.535 9      2055.684    21059124.806    86233603.230 8
      1601.832                          52.313          45.500
  21385991.361   112384151.125 9     -2250.678    21385993.059    87572067.278 8
     -1753.776                          52.688          45.250
  21735251.102   114219500.909 9      2488.617    21735250.632    89002214.468 7
      1939.180                          52.188          41.063
  22029931.042   115768063.525 8     -1222.196    22029928.046    90208872.759 7
      -952.357                          48.750          38.625
  22976832.610   120744047.674 8     -3379.459    22976835.948    94086264.651 6
     -2633.342                          48.625          37.875
  24443554.088   128451730.435 7     -2990.555    24443552.303   100092253.616 5
     -2330.304                          43.938          27.563
  24466629.242   128573143.654 7     -1485.988    24466628.875   100186757.782 4
     -1157.900                          42.500          23.188
  24700314.800   129801043.293 7      3301.775    24700315.031   101143667.566 4
      2572.803                          43.438          23.250
  25087983.205   131838223.064 7     -1197.750    25087984.143   102731088.345 4
      -933.298                          41.813          21.188
 18  2 20  9  2  0.0000000  0 10G07G30G09G05G02G06G23G16G13G29
  20732054.617   108947698.281 9       291.557    20732054.011    84894309.668 7
       227.189                          53.000          44.063
  21047432.200   110605012.380 9      2039.844    21047434.261    86185732.478 8
      1589.489                          52.625          46.188
  21398862.982   112451791.951 9     -2258.735    21398864.689    87624774.404 7
     -1760.050                          52.750          44.188
  21721074.144   114145000.541 9      2477.982    21721073.677    88944162.243 7
      1930.898                          52.688          41.375
  22036957.033   115804985.303 8     -1239.317    22036954.034    90237642.981 7
      -965.702                          49.625          39.250
  22996147.272   120845546.721 8     -3387.153    22996150.620    94165354.775 6
     -2639.338                          48.813          37.813
  24460633.024   128541480.419 8     -2992.874    24460631.250   100162188.566 4
     -2332.114                          45.938          25.125
  24475166.664   128618008.005 7     -1505.011    24475166.307   100221716.992 4
     -1172.727                          43.188          24.188
  24681473.747   129702032.947 7      3298.874    24681473.945   101066516.694 4
      2570.534                          44.000          23.188
  25094867.577   131874400.636 7     -1214.198    25094868.514   102759278.642 4
      -946.122                          41.438          20.625
 18  2 20  9  2 30.0000000  0 10G07G30G09G05G02G06G23G16G13G29
  20730440.115   108939214.019 9       274.073    20730439.507    84887698.558 8
       213.562                          53.063          45.063
  21035831.849   110544052.184 9      2024.189    21035833.904    86138231.037 8
      1577.289                          53.063          45.938
  21411780.066   112519671.703 9     -2266.551    21411781.791    87677667.693 8
     -1766.141                          53.063          45.375
  21706957.856   114070818.990 9      2467.447    21706957.394    88886358.452 7
      1922.683                          51.625          40.813
  22044080.217   115842417.866 8     -1256.191    22044077.216    90266811.228 7
      -978.849                          50.125          39.250
  23015505.096   120947272.599 8     -3394.526    23015508.455    94244621.651 6
     -2645.085                          48.313          37.250
  24477724.842   128631298.114 8     -2994.954    24477723.083   100232176.319 4
     -2333.738                          45.688          25.313
  24483812.066   128663439.754 7     -1523.762    24483811.709   100257118.345 4
     -1187.340                          42.625          25.375
  24662648.911   129603107.777 7      3296.166    24662649.076   100989432.194 4
      2568.440                          44.063          23.500
  25101845.097   131911067.678 7     -1230.283    25101846.027   102787850.346 3
      -958.655                          42.500          19.938
 18  2 20  9  3  0.0000000  0 10G07G30G09G05G02G06G16G23G13G29
  20728925.823   108931256.374 9       256.545    20728925.217    84881497.797 8
       199.905                          53.125          44.688
  21024321.736   110483566.156 9      2008.373    21024323.780    86091099.082 8
      1564.963                          52.688          46.000
  21424742.161   112587787.994 9     -2274.380    21424743.903    87730745.315 7
     -1772.245                          52.813          44.375
  21692902.370   113996956.931 9      2456.787    21692901.905    88828803.604 7
      1914.379                          51.938          41.000
  22051300.120   115880358.699 8     -1273.103    22051297.115    90296375.497 7
      -992.034                          49.813          39.063
  23034905.270   121049221.010 8     -3401.895    23034908.635    94324061.938 6
     -2650.827                          48.563          37.438
  24492564.864   128709435.892 7     -1542.545    24492564.509   100292959.507 4
     -1201.981                          43.438          24.438
  24494829.125   128721181.371 7     -2997.110    24494827.390   100302215.140 4
     -2335.420                          43.875          24.250
  24643840.216   129504267.503 7      3293.341    24643840.358   100912413.818 4
      2566.237                          42.563          25.438
  25108915.183   131948221.170 7     -1246.436    25108916.109   102816801.145 4
      -971.267                          39.500          20.563
 18  2 20  9  3 30.0000000  0 10G07G30G09G05G02G06G16G23G13G29
  20727511.916   108923826.248 9       238.899    20727511.310    84875708.089 8
       186.156                          52.813          45.063
  21012902.289   110423556.571 9      1992.380    21012904.322    86044338.386 8
      1552.504                          53.813          45.500
  21437749.235   112656140.573 9     -2282.327    21437750.982    87784007.042 8
     -1778.436                          52.813          44.938
  21678908.278   113923417.513 9      2445.933    21678907.814    88771500.165 7
      1905.925                          52.313          41.188
  22058616.594   115918807.015 8     -1290.033    22058613.583    90326335.222 7
     -1005.221                          49.250          38.938
  23054347.378   121151389.832 8     -3409.268    23054350.757    94403673.963 6
     -2656.568                          46.125          36.500
  24501424.880   128755995.494 7     -1561.388    24501424.531   100329239.689 4
     -1216.647                          43.063          24.375
  24511945.986   128811130.724 7     -2999.406    24511944.272   100372305.459 4
     -2337.184                          44.250          25.250
  24625047.881   129405513.284 7      3290.374    24625048.005   100835462.566 4
      2563.932                          41.938          23.500
  25116077.598   131985859.886 7     -1262.684    25116078.530   102846129.997 4
      -983.905                          41.063          20.500
 18  2 20  9  4  0.0000000  0 10G07G30G09G05G02G06G16G23G13G29
  20726198.266   108916922.962 9       221.364    20726197.660    84870328.911 8
       172.491                          52.938          44.750
  21001573.655   110364024.234 9      1976.483    21001575.683    85997949.570 8
      1540.116                          52.813          46.500
  21450800.937   112724727.650 9     -2290.064    21450802.686    87837451.508 8
     -1784.464                          53.063          45.250
  21664975.831   113850202.017 9      2435.114    21664975.359    88714449.145 7
      1897.491                          52.438          41.625
  22066029.232   115957760.667 8     -1306.819    22066026.212    90356688.722 7
     -1018.303                          48.875          39.188
  23073830.733   121253775.411 8     -3416.385    23073834.126    94483454.886 6
     -2662.119                          47.813          36.625
  24510391.682   128803116.260 7     -1579.982    24510391.336   100365957.141 4
     -1231.137                          42.313          23.938
  24529075.075   128901144.360 7     -3001.536    24529073.385   100442445.873 4
     -2338.869                          42.250          23.438
  24606271.877   129306844.935 7      3287.517    24606271.997   100758578.140 4
      2561.705                          40.875          24.375
  25123331.911   132023981.542 7     -1278.704    25123332.849   102875835.172 3
      -996.393                          39.438          19.938
 18  2 20  9  4 30.0000000  0 10G07G30G09G05G02G06G16G23G13G29
  20724984.900   108910546.658 9       203.681    20724984.293    84865360.358 8
       158.714                          54.000          45.125
  20990336.195   110304971.044 9      1960.352    20990338.222    85951934.113 8
      1527.547                          52.813          45.875
  21463897.147   112793548.594 9     -2298.022    21463898.889    87891078.200 8
     -1790.668                          52.813          45.500
  21651105.541   113777313.168 9      2424.076    21651105.057    88657652.627 7
      1888.891                          52.063          41.000
  22073537.807   115997218.468 8     -1323.742    22073534.776    90387435.052 7
     -1031.488                          47.375          39.313
  23093354.858   121356375.210 8     -3423.634    23093358.261    94563402.748 6
     -2667.768                          47.188          36.625
  24519465.158   128850797.632 7     -1598.770    24519464.816   100403111.452 4
     -1245.794                          41.000          22.938
  24546216.370   128991222.122 7     -3003.720    24546214.699   100512636.262 4
     -2340.558                          43.438          24.000
  24587512.610   129208264.510 7      3284.450    24587512.719   100681762.219 4
      2559.320                          41.688          23.875
  25130677.786   132062584.352 7     -1294.769    25130678.731   102905915.258 4
     -1008.904                          41.000          20.750
 18  2 20  9  5  0.0000000  0 10G07G30G09G05G02G06G16G23G13G29
  20723871.744   108904696.965 9       186.250    20723871.137    84860802.154 8
       145.129                          53.500          44.625
  20979190.185   110246398.417 9      1944.399    20979192.209    85906293.126 8
      1515.115                          54.063          46.188
  21477037.654   112862602.319 9     -2305.625    21477039.396    87944886.282 8
     -1796.591                          53.188          44.813
  21637297.700   113704752.481 9      2413.221    21637297.210    88601111.836 7
      1880.432                          52.313          40.875
  22081142.024   116037178.892 8     -1340.355    22081138.987    90418573.034 7
     -1044.431                          48.375          38.813
  23112919.173   121459186.234 8     -3430.520    23112922.589    94643515.186 6
     -2673.130                          46.813          36.125
  24528644.922   128899037.594 7     -1617.251    24528644.592   100440701.003 4
     -1260.195                          39.500          21.688
  24563369.745   129081363.402 7     -3005.724    24563368.099   100582876.130 4
     -2342.123                          42.063          26.188
  24568770.193   129109772.483 7      3281.592    24568770.259   100605015.237 4
      2557.088                          42.938          25.188
  25138114.911   132101666.646 7     -1310.680    25138115.856   102936368.986 4
     -1021.307                          44.125          22.125
 18  2 20  9  5 30.0000000  0 10G07G30G09G05G02G06G16G13G23G29
  20722858.600   108899372.839 9       168.650    20722857.994    84856653.484 8
       131.416                          53.500          44.813
  20968135.752   110188307.036 9      1928.284    20968137.773    85861027.131 8
      1502.559                          52.875          46.063
  21490222.109   112931887.046 9     -2313.381    21490223.856    87998874.360 8
     -1802.635                          51.750          44.750
  21623552.636   113632521.746 9      2402.122    21623552.147    88544828.157 7
      1871.783                          52.125          41.063
  22088841.492   116077639.879 8     -1357.080    22088838.454    90450101.037 7
     -1057.461                          45.375          38.563
  23132522.985   121562204.775 8     -3437.439    23132526.411    94723789.324 6
     -2678.518                          45.875          36.500
  24537930.437   128947833.289 7     -1635.830    24537930.121   100478723.594 4
     -1274.686                          40.500          22.438
  24550044.597   129011368.861 7      3278.596    24550044.632   100528337.155 4
      2554.749                          43.125          24.813
  24580534.965   129171566.926 7     -3007.899    24580533.342   100653164.521 4
     -2343.811                          40.813          24.625
  25145642.790   132141225.831 7     -1326.611    25145643.729   102967194.317 4
     -1033.737                          42.625          22.000
 18  2 20  9  6  0.0000000  0 10G07G30G09G05G02G06G13G16G23G29
  20721945.544   108894574.667 9       151.105    20721944.936    84852914.643 7
       117.746                          53.875          44.375
  20957173.258   110130698.819 9      1912.132    20957175.280    85816137.621 8
      1489.970                          52.750          45.938
  21503450.417   113001402.213 9     -2321.076    21503452.172    88053042.013 7
     -1808.630                          52.500          44.000
  21609870.801   113560623.205 9      2390.992    21609870.306    88488803.319 7
      1863.112                          53.250          41.000
  22096635.966   116118600.106 8     -1373.698    22096632.929    90482018.082 6
     -1070.416                          45.875          38.375
  23152165.824   121665428.424 8     -3444.249    23152169.261    94804223.283 6
     -2683.831                          46.875          35.438
  24531335.998   128913054.696 7      3275.557    24531336.016   100451728.722 4
      2552.383                          42.125          22.063
  24547321.603   128997184.155 7     -1654.306    24547321.297   100517178.773 4
     -1289.087                          42.063          23.500
  24597711.926   129261832.144 7     -3009.938    24597710.323   100723500.989 4
     -2345.405                          42.250          25.750
  25153261.095   132181260.220 7     -1342.426    25153262.030   102998389.925 4
     -1046.036                          41.313          22.625
 18  2 20  9  6 30.0000000  0 10G07G30G09G05G02G06G13G16G23G29
  20721132.688   108890303.059 9       133.618    20721132.080    84849586.133 8
       104.117                          53.438          44.813
  20946303.075   110073575.698 9      1895.988    20946305.101    85771626.109 8
      1477.394                          53.188          46.750
  21516722.466   113071147.257 9     -2328.639    21516724.235    88107388.783 7
     -1814.523                          52.313          44.063
  21596252.735   113489059.763 9      2379.838    21596252.228    88433039.592 7
      1854.420                          52.500          41.500
  22104525.284   116160058.762 8     -1390.239    22104522.259    90514323.513 7
     -1083.304                          46.750          38.563
  23171847.223   121768854.681 8     -3450.903    23171850.670    94884815.116 6
     -2689.014                          47.188          35.813
  24512644.760   128814831.774 7      3272.567    24512644.776   100375191.416 4
      2550.039                          41.875          22.375
  24556818.103   129047088.540 7     -1672.714    24556817.806   100556065.284 4
     -1303.421                          40.875          23.250
  24614900.615   129352158.987 7     -3011.910    24614899.031   100793885.491 5
     -2346.942                          42.125          27.375
  25160969.630   132221768.787 7     -1358.154    25160970.564   103029955.041 4
     -1058.296                          42.875          20.500
 18  2 20  9  7  0.0000000  0 10G07G30G09G05G02G06G13G16G23G29
  20720419.839   108886557.012 9       116.144    20720419.234    84846667.135 7
        90.503                          53.625          44.313
  20935525.445   110016938.941 9      1879.809    20935527.472    85727493.584 8
      1464.786                          53.125          46.688
  21530038.044   113141121.038 9     -2336.235    21530039.822    88161913.788 7
     -1820.442                          52.250          44.000
  21582698.818   113417833.467 9      2368.592    21582698.317    88377538.595 7
      1845.657                          52.000          41.563
  22112509.143   116202014.159 8     -1406.734    22112506.118    90547016.033 7
     -1096.157                          48.063          38.875
  23191566.598   121872480.476 8     -3457.438    23191570.049    94965562.476 6
     -2694.105                          46.313          35.688
  24493970.963   128716700.420 7      3269.508    24493970.958   100298725.443 4
      2547.687                          43.563          23.250
  24566419.616   129097544.763 7     -1691.020    24566419.328   100595381.779 4
     -1317.675                          41.188          23.000
  24632100.904   129442546.849 7     -3013.898    24632099.347   100864317.499 4
     -2348.494                          42.188          26.125
  25168767.950   132262749.190 7     -1373.823    25168768.881   103061887.808 4
     -1070.514                          42.125          24.188
 18  2 20  9  7 30.0000000  0 10G07G30G09G05G02G06G13G16G23G29
  20719806.833   108883335.644 9        98.600    20719806.229    84844156.992 7
        76.829                          52.750          44.375
  20924840.535   109960789.414 9      1863.470    20924842.562    85683740.721 8
      1452.056                          53.375          46.750
  21543396.851   113211321.944 9     -2343.848    21543398.634    88216615.780 8
     -1826.374                          52.875          44.563
  21569209.301   113346945.613 9      2357.233    21569208.804    88322301.317 7
      1836.806                          52.813          41.625
  22120587.099   116244464.046 8     -1423.254    22120584.075    90580093.856 6
     -1109.024                          47.875          38.375
  23211323.270   121976302.364 8     -3463.981    23211326.744    95046462.590 6
     -2699.208                          47.313          36.250
  24475314.632   128618660.870 7      3266.415    24475314.614   100222331.004 4
      2545.270                          41.313          22.563
  24576125.801   129148551.022 7     -1709.405    24576125.521   100635126.866 4
     -1331.998                          40.938          22.250
  24649312.546   129532994.364 7     -3015.955    24649311.013   100934796.018 4
     -2350.098                          41.063          25.813
  25176655.549   132304198.765 7     -1389.492    25176656.479   103094186.143 4
     -1082.738                          43.375          23.250
 18  2 20  9  8  0.0000000  0 10G07G30G05G09G02G06G13G16G23G29
  20719293.806   108880639.706 9        81.069    20719293.210    84842056.270 7
        63.171                          52.438          44.125
  20914248.736   109905129.184 9      1847.122    20914250.760    85640369.123 8
      1439.314                          53.188          46.500
  21555784.704   113276398.936 9      2345.815    21555784.221    88267329.893 7
      1827.908                          51.813          41.688
  21556798.834   113281749.737 9     -2351.414    21556800.616    88271494.566 8
     -1832.269                          52.063          44.688
  22128758.998   116287407.596 8     -1439.711    22128755.971    90613556.349 7
     -1121.853                          46.125          38.625
  23231116.831   122080318.069 8     -3470.439    23231120.320    95127513.756 6
     -2704.239                          46.438          34.438
  24456676.132   128520715.055 7      3263.245    24456676.103   100146009.613 4
      2542.763                          43.000          21.813
  24585936.395   129200105.963 7     -1727.633    24585936.128   100675299.533 4
     -1346.201                          41.125          23.875
  24666535.596   129623501.817 7     -3017.958    24666534.084   101005321.211 4
     -2351.645                          41.188          25.813
  25184632.239   132346116.519 7     -1405.081    25184633.171   103126849.314 4
     -1094.889                          43.625          25.750
 18  2 20  9  8 30.0000000  0 10G07G30G05G09G02G06G13G16G23G29
  20718880.635   108878468.490 9        63.745    20718880.040    84840364.418 7
        49.669                          52.250          44.438
  20903750.253   109849959.329 9      1830.946    20903752.269    85597379.643 8
      1426.710                          53.813          46.813
  21542425.379   113206195.252 9      2334.487    21542424.899    88212625.725 7
      1819.081                          52.563          41.875
  21570243.730   113352403.024 9     -2358.706    21570245.510    88326549.059 8
     -1837.954                          53.125          44.813
  22137024.473   116330842.888 8     -1455.895    22137021.443    90647402.022 7
     -1134.465                          49.438          38.750
  23250946.657   122184524.372 8     -3476.537    23250950.165    95208713.440 6
     -2708.986                          46.375          34.688
  24438055.468   128422862.969 7      3260.286    24438055.454   100069761.253 4
      2540.490                          42.375          22.063
  24595850.898   129252206.930 7     -1745.673    24595850.641   100715897.702 4
     -1360.275                          42.250          23.125
  24683769.852   129714068.142 7     -3019.745    24683768.358   101075892.323 5
     -2353.047                          44.000          27.313
  25192697.531   132388499.837 7     -1420.412    25192698.458   103159875.261 4
     -1106.818                          42.813          22.563
 18  2 20  9  9  0.0000000  0 10G07G30G05G09G02G06G13G16G23G29
  20718567.181   108876821.291 9        46.176    20718566.585    84839080.887 8
        35.983                          52.688          44.625
  20893345.252   109795280.754 9      1814.413    20893347.268    85554772.970 8
      1413.828                          53.375          46.375
  21529131.724   113136336.656 9      2322.860    21529131.249    88158190.453 7
      1810.023                          52.813          41.375
  21583731.263   113423280.403 9     -2366.332    21583733.046    88381778.167 7
     -1843.894                          52.688          44.250
  22145383.093   116374767.653 8     -1472.304    22145380.060    90681629.085 7
     -1147.250                          48.688          39.188
  23270812.121   122288917.937 8     -3482.863    23270815.642    95290059.018 6
     -2713.914                          45.563          33.750
  24419452.799   128325105.437 7      3257.035    24419452.795    99993586.553 4
      2537.939                          42.188          21.500
  24605869.042   129304852.526 7     -1763.923    24605868.795   100756920.199 4
     -1374.472                          40.938          22.938
  24701015.132   129804692.425 7     -3021.783    24701013.659   101146508.588 4
     -2354.639                          42.063          25.563
  25200851.058   132431346.841 7     -1435.938    25200851.984   103193262.516 4
     -1118.907                          42.250          24.125
 18  2 20  9  9 30.0000000  0 10G07G30G05G09G02G06G13G16G23G29
  20718353.419   108875697.946 9        28.678    20718352.816    84838205.557 8
        22.346                          52.625          44.500
  20883034.072   109741095.201 9      1797.911    20883036.089    85512550.474 8
      1400.968                          53.563          46.375
  21515904.212   113066825.588 9      2311.190    21515903.723    88104025.980 7
      1800.925                          52.438          41.688
  21597261.305   113494381.201 9     -2373.784    21597263.094    88437181.359 7
     -1849.701                          52.188          43.625
  22153834.632   116419180.727 8     -1488.612    22153831.601    90716236.645 7
     -1159.955                          46.750          38.938
  23290712.723   122393496.125 8     -3489.009    23290716.253    95371548.470 6
     -2718.710                          45.938          33.625
  24400868.259   128227443.123 7      3253.756    24400868.256    99917486.051 4
      2535.409                          44.063          22.813
  24615990.554   129358041.322 7     -1781.993    24615990.314   100798366.011 4
     -1388.566                          41.188          22.313
  24718271.383   129895374.385 7     -3023.749    24718269.934   101217169.778 5
     -2356.171                          41.500          27.188
  25209092.452   132474655.595 7     -1451.315    25209093.379   103227009.584 4
     -1130.875                          41.375          25.875
 18  2 20  9 10  0.0000000  0 10G07G30G05G09G02G06G13G16G23G29
  20718239.184   108875097.617 9        11.376    20718238.572    84837737.787 8
         8.864                          53.000          44.688
  20872816.886   109687403.592 9      1781.538    20872818.902    85470712.880 8
      1388.210                          53.188          46.563
  21502743.145   112997663.704 9      2299.617    21502742.651    88050133.604 7
      1791.909                          52.625          41.250
  21610833.607   113565704.090 9     -2381.045    21610835.407    88492757.619 7
     -1855.359                          52.250          43.750
  22162378.662   116464079.843 8     -1504.672    22162375.632    90751222.915 6
     -1172.474                          48.375          38.375
  23310647.838   122498255.692 8     -3494.886    23310651.380    95453179.261 6
     -2723.292                          46.000          34.000
  24382302.077   128129877.199 7      3250.665    24382302.055    99841460.690 4
      2532.977                          42.063          21.750
  24626214.910   129411770.573 7     -1799.875    24626214.678   100840232.921 4
     -1402.509                          41.250          22.688
  24735538.397   129986112.881 7     -3025.498    24735536.965   101287875.052 5
     -2357.525                          44.000          27.375
  25217421.286   132518423.804 8     -1466.543    25217422.200   103261114.692 4
     -1142.769                          44.750          25.500
 18  2 20  9 10 30.0000000  0 10G07G30G05G09G02G06G13G16G23G29
  20718224.488   108875020.384 9        -6.034    20718223.869    84837677.612 8
        -4.702                          52.875          44.500
  20862693.997   109634207.511 9      1765.039    20862696.008    85429261.415 8
      1375.354                          53.500          46.000
  21489648.928   112928853.140 9      2287.928    21489648.430    87996514.994 7
      1782.802                          52.313          42.188
  21624448.039   113637248.349 9     -2388.375    21624449.842    88548506.371 7
     -1861.072                          53.563          44.375
  22171014.938   116509463.706 8     -1520.752    22171011.913    90786586.932 7
     -1184.998                          50.125          38.625
  23330616.959   122603194.003 8     -3500.762    23330620.519    95534949.285 6
     -2727.866                          45.938          34.125
  24363754.298   128032408.050 7      3247.468    24363754.270    99765510.727 4
      2530.494                          41.938          23.188
  24636541.925   129466039.311 7     -1817.827    24636541.701   100882520.243 4
     -1416.493                          39.875          22.125
  24752816.158   130076907.808 8     -3027.286    24752814.734   101358624.290 5
     -2358.924                          44.500          26.500
  25225837.208   132562649.703 7     -1481.709    25225838.120   103295576.409 4
     -1154.563                          43.750          23.500
 18  2 20  9 11  0.0000000  0 10G07G30G05G09G02G06G13G16G23G29
  20718309.161   108875465.349 9       -23.531    20718308.538    84838024.351 8
       -18.335                          53.313          44.500
  20852665.583   109581507.909 9      1748.350    20852667.592    85388196.802 8
      1362.348                          53.563          46.750
  21476621.853   112860395.385 9      2276.005    21476621.349    87943171.288 7
      1773.513                          52.938          41.813
  21638104.340   113709012.574 9     -2395.791    21638106.141    88604426.537 7
     -1866.851                          53.563          43.938
  22179743.226   116555331.099 8     -1536.957    22179740.213    90822327.739 6
     -1197.633                          48.563          38.250
  23350619.462   122708307.666 7     -3506.690    23350623.030    95616856.024 6
     -2732.484                          43.813          32.500
  24345225.125   127935036.647 7      3244.086    24345225.083    99689636.931 4
      2527.850                          41.688          22.188
  24646971.177   129520845.320 7     -1835.811    24646970.962   100925226.201 4
     -1430.498                          40.625          22.063
  24770104.399   130167757.813 7     -3029.228    24770102.982   101429416.417 4
     -2360.433                          44.125          25.938
  25234339.724   132607330.658 8     -1496.936    25234340.633   103330392.738 4
     -1166.443                          44.563          25.438
 18  2 20  9 11 30.0000000  0 10G07G30G05G09G02G06G13G16G23G29
  20718493.136   108876432.181 9       -41.002    20718492.512    84838777.746 7
       -31.952                          51.563          44.125
  20842731.884   109529306.007 9      1731.691    20842733.882    85347520.010 8
      1349.368                          53.563          47.000
  21463662.376   112792292.827 9      2264.079    21463661.856    87890104.358 7
      1764.220                          52.813          41.688
  21651802.313   113780995.793 9     -2403.135    21651804.116    88660517.335 7
     -1872.570                          52.188          43.688
  22188563.090   116601679.715 8     -1553.016    22188560.090    90858443.536 6
     -1210.141                          49.000          38.438
  23370654.790   122813593.863 8     -3512.465    23370658.376    95698897.150 6
     -2736.985                          46.438          35.313
  24326714.708   127837763.779 7      3240.706    24326714.680    99613839.899 4
      2525.211                          42.375          24.688
  24657502.236   129576186.274 7     -1853.658    24657502.020   100968349.016 4
     -1444.395                          40.688          23.125
  24787403.074   130258662.658 8     -3031.118    24787401.664   101500251.300 5
     -2361.903                          44.688          26.750
  25242928.422   132652464.553 8     -1512.028    25242929.339   103365561.980 4
     -1178.210                          45.625          24.000
 18  2 20  9 12  0.0000000  0 10G07G30G05G09G02G06G13G16G23G29
  20718776.375   108877920.671 9       -58.545    20718775.754    84839937.617 7
       -45.621                          51.938          44.250
  20832893.134   109477603.071 9      1714.862    20832895.124    85307232.021 8
      1336.255                          53.063          46.938
  21450771.005   112724548.188 9      2251.941    21450770.479    87837316.331 7
      1754.759                          52.375          41.875
  21665541.760   113853196.984 9     -2410.588    21665543.566    88716777.982 7
     -1878.378                          52.063          44.438
  22197474.108   116648507.344 8     -1569.129    22197471.118    90894932.582 6
     -1222.693                          49.063          38.313
  23390722.376   122919049.604 8     -3518.235    23390725.983    95781070.419 6
     -2741.478                          46.563          34.375
  24308223.123   127740589.924 7      3237.235    24308223.109    99538120.019 4
      2522.528                          44.000          26.438
  24668134.754   129632060.456 7     -1871.578    24668134.542   101011887.328 4
     -1458.377                          41.500          23.625
  24804712.008   130349621.429 7     -3033.111    24804710.607   101571128.218 4
     -2363.464                          43.313          25.500
  25251602.896   132698049.179 7     -1527.257    25251603.814   103401082.452 4
     -1190.086                          42.625          24.813
 18  2 20  9 12 30.0000000  0 10G07G30G05G09G02G06G13G16G23G29
  20719158.868   108879930.748 9       -75.687    20719158.248    84841503.916 7
       -58.978                          53.313          44.000
  20823149.657   109426400.816 9      1698.383    20823151.644    85267334.168 8
      1323.414                          52.938          46.688
  21437948.124   112657163.505 9      2240.141    21437947.595    87784808.790 7
      1745.564                          52.438          42.000
  21679322.598   113925615.655 9     -2417.551    21679324.402    88773208.096 7
     -1883.806                          51.313          43.750
  22206476.101   116695813.035 8     -1584.811    22206473.117    90931794.114 6
     -1234.918                          48.000          38.375
  23410821.773   123024672.385 8     -3523.472    23410825.384    95863373.832 6
     -2745.560                          45.313          34.938
  24289750.681   127643516.588 7      3234.136    24289750.664    99462478.481 4
      2520.107                          42.500          22.875
  24678868.430   129688466.215 7     -1889.024    24678868.218   101055839.856 4
     -1471.972                          40.813          21.000
  24822031.180   130440634.041 7     -3034.622    24822029.796   101642047.099 5
     -2364.628                          42.438          27.375
  25260362.937   132744083.477 7     -1541.914    25260363.861   103436953.336 4
     -1201.495                          43.500          24.438
 18  2 20  9 13  0.0000000  0 10G07G30G05G09G02G06G13G16G23G29
  20719640.332   108882460.898 9       -93.202    20719639.713    84843475.463 8
       -72.626                          52.500          45.188
  20813501.521   109375699.578 9      1681.479    20813503.503    85227826.722 8
      1310.246                          52.438          46.750
  21425193.934   112590139.767 9      2227.876    21425193.398    87732582.493 7
      1736.007                          52.875          42.188
  21693144.452   113998249.911 9     -2424.920    21693146.259    88829806.194 7
     -1889.547                          51.125          43.875
  22215568.601   116743594.343 8     -1600.796    22215565.625    90969026.267 6
     -1247.371                          48.000          38.000
  23430952.233   123130458.469 8     -3529.070    23430955.854    95945804.505 6
     -2749.926                          47.375          35.875
  24271297.361   127546543.784 7      3230.655    24271297.342    99386915.243 4
      2517.410                          42.625          24.563
  24689702.783   129745401.073 7     -1906.842    24689702.580   101100204.661 4
     -1485.849                          41.000          22.125
  24839360.314   130531698.998 7     -3036.554    24839358.942   101713006.734 5
     -2366.143                          44.125          27.750
  25269207.913   132790564.109 7     -1556.963    25269208.842   103473172.014 4
     -1213.228                          41.500          22.188
 18  2 20  9 13 30.0000000  0 10G07G30G05G09G02G06G13G16G23G29
  20720220.748   108885511.022 9      -110.234    20720220.126    84845852.187 8
       -85.896                          53.188          45.188
  20803949.045   109325501.034 9      1665.006    20803951.023    85188710.989 8
      1297.407                          52.563          46.625
  21412509.019   112523480.065 9      2216.000    21412508.474    87680639.876 7
      1726.753                          51.625          41.938
  21707007.242   114071099.298 9     -2431.781    21707009.058    88886571.936 7
     -1894.895                          50.875          43.250
  22224751.297   116791849.609 8     -1616.278    22224748.326    91006627.726 6
     -1259.435                          49.250          38.438
  23451113.303   123236405.375 7     -3534.110    23451116.932    96028360.458 6
     -2753.845                          44.063          33.813
  24252863.404   127449672.761 7      3227.423    24252863.395    99311431.374 4
      2514.869                          43.125          24.813
  24700637.544   129802863.568 7     -1924.117    24700637.345   101144980.619 4
     -1499.296                          40.875          21.750
  24856699.454   130622816.533 7     -3038.027    24856698.093   101784007.326 4
     -2367.281                          43.188          26.063
  25278137.450   132837489.119 7     -1571.453    25278138.383   103509736.928 4
     -1224.503                          43.813          23.813
 18  2 20  9 14  0.0000000  0 10G07G30G05G09G02G06G13G16G23G29
  20720899.959   108889080.319 9      -127.535    20720899.335    84848633.469 8
       -99.378                          54.000          45.438
  20794492.385   109275806.010 8      1648.187    20794494.360    85149987.598 8
      1284.301                          50.438          46.813
  21399893.659   112457185.917 9      2203.802    21399893.114    87628982.104 7
      1717.249                          51.750          41.938
  21720910.700   114144162.424 8     -2438.869    21720912.541    88943504.204 7
     -1900.417                          49.438          43.375
  22234023.817   116840576.886 8     -1632.010    22234020.851    91044596.988 7
     -1271.695                          48.938          38.563
  23471304.352   123342509.746 8     -3539.318    23471307.970    96111039.183 6
     -2757.914                          46.438          34.438
  24234448.909   127352904.019 7      3224.011    24234448.909    99236027.169 4
      2512.210                          43.063          26.313
  24711672.215   129860851.102 7     -1941.582    24711672.021   101190165.685 4
     -1512.917                          41.500          22.438
  24874048.332   130713985.259 7     -3039.700    24874046.986   101855047.834 4
     -2368.596                          44.125          26.063
  25287151.132   132884856.314 7     -1586.167    25287152.073   103546646.429 4
     -1235.992                          44.188          23.375
 18  2 20  9 14 30.0000000  0 11G07G30G05G09G02G06G13G16G23G28G29
  20721677.761   108893167.707 9      -144.912    20721677.131    84851818.452 7
      -112.916                          53.750          43.875
  20785131.676   109226615.214 9      1631.219    20785133.651    85111657.120 8
      1271.077                          52.125          46.813
  21387348.018   112391258.165 9      2191.407    21387347.480    87577609.829 7
      1707.592                          52.188          41.563
  21734854.569   114217437.832 9     -2446.061    21734856.417    89000601.917 7
     -1906.020                          50.938          43.813
  22243385.710   116889773.830 8     -1647.749    22243382.753    91082932.250 6
     -1283.961                          47.813          38.125
  23491524.726   123448768.351 8     -3544.539    23491528.364    96193837.977 6
     -2761.975                          46.250          35.375
  24216053.904   127256237.713 7      3220.466    24216053.915    99160702.798 4
      2509.458                          43.000          24.688
  24722806.413   129919361.644 7     -1959.072    24722806.224   101235758.301 4
     -1526.556                          42.125          23.688
  24891406.787   130805204.315 7     -3041.462    24891405.457   101926127.527 5
     -2369.959                          43.000          26.563
  25185379.039   132350059.442 6      3211.060
                                        35.688
  25296248.493   132932663.210 8     -1600.914    25296249.430   103583898.538 4
     -1247.459                          45.375          25.188
 18  2 20  9 15  0.0000000  0 11G07G30G05G09G02G06G13G16G23G28G29
  20722554.306   108897774.006 9      -162.075    20722553.669    84855407.778 7
      -126.291                          53.063          44.188
  20775867.370   109177931.011 9      1614.437    20775869.344    85073721.390 8
      1258.003                          51.625          47.125
  21374873.022   112325701.647 9      2179.126    21374872.488    87526526.837 7
      1698.022                          52.438          41.625
  21748838.885   114290925.789 9     -2453.006    21748840.738    89057865.241 7
     -1911.433                          51.375          43.625
  22252836.843   116939439.728 8     -1663.211    22252833.893    91121632.935 6
     -1296.006                          48.313          38.313
  23511774.105   123555179.333 8     -3549.413    23511777.752    96276755.586 6
     -2765.774                          44.875          34.313
  24197678.636   127159675.158 7      3217.064    24197678.650    99085459.276 4
      2506.802                          42.438          26.063
  24734039.952   129978394.190 7     -1976.312    24734039.759   101281757.700 4
     -1539.982                          42.563          23.125
  24908774.947   130896474.329 7     -3043.089    24908773.627   101997246.922 4
     -2371.240                          43.813          25.250
  25167040.933   132253692.183 6      3213.523
                                        34.688
  25305429.273   132980908.452 7     -1615.366    25305430.201   103621492.245 4
     -1258.713                          44.063          23.875
 18  2 20  9 15 30.0000000  0 11G07G30G05G09G02G06G13G16G23G28G29
  20723529.215   108902897.223 9      -179.382    20723528.576    84859399.899 8
      -139.778                          52.000          44.625
  20766699.464   109129753.386 9      1597.461    20766701.436    85036180.389 8
      1244.774                          54.063          46.875
  21362468.674   112260516.383 9      2166.646    21362468.142    87475733.122 7
      1688.299                          52.688          42.000
  21762863.243   114364624.141 9     -2460.089    21762865.091    89115292.522 7
     -1916.950                          52.625          43.438
  22262376.668   116989571.729 8     -1678.806    22262373.728    91160696.818 6
     -1308.162                          48.125          38.375
  23532051.719   123661738.644 7     -3554.418    23532055.370    96359788.777 6
     -2769.674                          44.313          33.563
  24179323.400   127063217.803 7      3213.488    24179323.395    99010297.698 4
      2504.012                          43.500          25.625
  24745372.241   130037945.690 7     -1993.624    24745372.047   101328161.478 4
     -1553.462                          42.688          23.188
  24926152.456   130987793.451 7     -3044.783    24926151.146   102068404.555 4
     -2372.553                          43.688          25.188
  25148688.942   132157251.736 6      3215.889
                                        36.250
  25314692.887   133029589.005 7     -1629.914    25314693.809   103659425.147 4
     -1270.068                          42.063          23.563
 18  2 20  9 16  0.0000000  0 11G07G30G05G09G02G06G13G16G23G28G29
  20724602.509   108908537.455 9      -196.592    20724601.865    84863794.894 7
      -153.190                          53.375          44.375
  20757628.261   109082083.932 9      1580.544    20757630.233    84999035.374 8
      1231.592                          52.250          46.938
  21350135.511   112195705.230 9      2154.146    21350134.985    87425230.932 7
      1678.555                          52.563          42.000
  21776927.539   114438532.442 9     -2467.057    21776929.392    89172883.382 7
     -1922.380                          51.063          43.313
  22272004.887   117040168.235 8     -1694.254    22272001.955    91200122.642 6
     -1320.200                          47.750          38.438
  23552357.088   123768443.879 8     -3559.225    23552360.754    96442935.659 6
     -2773.427                          45.750          33.063
  24160988.279   126966866.152 8      3209.987    24160988.252    98935218.553 4
      2501.293                          44.938          25.688
  24756802.913   130098014.201 7     -2010.861    24756802.714   101374968.104 4
     -1566.908                          42.750          22.813
  24943539.322   131079161.698 8     -3046.407    24943538.019   102139600.516 4
     -2373.817                          45.125          26.313
  25130323.487   132060740.991 6      3218.228
                                        37.813
  25324038.920   133078702.690 8     -1644.298    25324039.838   103697695.536 4
     -1281.282                          46.063          24.063
 18  2 20  9 16 30.0000000  0 11G07G30G05G09G02G06G13G16G23G28G29
  20725773.943   108914693.440 9      -213.835    20725773.301    84868591.770 7
      -166.625                          53.688          44.000
  20748653.829   109034922.996 9      1563.509    20748655.799    84962286.600 8
      1218.318                          53.438          47.500
  21337873.784   112131269.451 9      2141.530    21337873.261    87375021.240 7
      1668.725                          52.000          41.688
  21791031.446   114512648.909 9     -2474.038    21791033.309    89230636.455 7
     -1927.820                          51.875          43.563
  22281720.990   117091226.580 8     -1709.667    22281718.066    91239908.325 6
     -1332.210                          48.938          37.938
  23572689.521   123875291.301 8     -3563.963    23572693.195    96526193.341 6
     -2777.120                          45.250          33.250
  24142673.194   126870619.817 8      3206.397    24142673.142    98860221.440 5
      2498.481                          44.500          27.563
  24768331.463   130158597.119 7     -2028.000    24768331.268   101422175.584 4
     -1580.283                          41.500          21.063
  24960935.260   131170577.635 7     -3048.048    24960933.973   102210833.612 4
     -2375.088                          44.125          25.313
  25111945.273   131964162.128 7      3220.381
                                        38.500
  25333466.866   133128246.867 8     -1658.660    25333467.786   103736301.399 4
     -1292.464                          45.000          22.500
 18  2 20  9 17  0.0000000  0 11G07G30G05G09G02G06G13G16G23G28G29
  20727043.555   108921365.338 9      -230.855    20727042.913    84873790.641 8
      -179.886                          54.000          45.125
  20739776.462   108988272.172 9      1546.640    20739778.436    84925935.321 8
      1205.174                          53.625          47.188
  21325683.978   112067211.602 9      2129.062    21325683.456    87325106.034 7
      1659.008                          53.250          42.250
  21805174.886   114586973.165 9     -2480.812    21805176.767    89288551.426 7
     -1933.097                          51.438          42.688
  22291524.711   117142745.389 8     -1724.807    22291521.797    91280052.823 6
     -1344.002                          48.563          37.875
  23593048.567   123982278.571 7     -3568.421    23593052.249    96609559.999 6
     -2780.584                          44.250          32.813
  24124378.453   126774480.395 7      3202.980    24124378.388    98785307.650 5
      2495.836                          44.188          27.313
  24779957.629   130219693.017 7     -2044.931    24779957.435   101469782.796 4
     -1593.463                          42.063          22.563
  24978340.281   131262041.279 8     -3049.447    24978339.008   102282103.896 4
     -2376.173                          45.125          24.375
  25093554.575   131867518.099 6      3222.615
                                        37.188
  25342976.432   133178219.972 7     -1672.739    25342977.353   103775241.451 4
     -1303.434                          44.313          24.250
 18  2 20  9 17 30.0000000  0 11G07G30G05G09G02G06G13G16G23G28G29
  20728411.134   108928552.016 9      -248.041    20728410.486    84879390.655 8
      -193.283                          54.313          44.688
  20730996.364   108942132.502 9      1529.575    20730998.342    84889982.348 8
      1191.875                          53.813          47.375
  21313566.435   112003533.520 9      2116.342    21313565.913    87275486.739 7
      1649.098                          52.500          42.188
  21819357.676   114661504.197 9     -2487.731    21819359.571    89346627.524 7
     -1938.492                          52.563          42.563
  22301415.714   117194722.816 8     -1740.120    22301412.798    91320554.694 6
     -1355.939                          47.938          37.750
  23613433.657   124089402.755 8     -3572.984    23613437.358    96693033.328 6
     -2784.142                          44.563          33.563
  24106104.216   126678448.709 7      3199.330    24106104.137    98710477.798 5
      2492.980                          43.563          27.250
  24791681.026   130281299.874 7     -2061.960    24791680.832   101517788.131 4
     -1606.722                          41.688          22.500
  24995754.289   131353552.096 8     -3051.026    24995753.025   102353410.954 4
     -2377.421                          45.188          24.938
  25075151.939   131770811.725 6      3224.626    25075153.054   102678555.197 3
      2512.678                          38.063          15.688
  25352567.113   133228619.333 7     -1686.927    25352568.036   103814513.673 4
     -1314.490                          41.875          22.813
 18  2 20  9 18  0.0000000  0 11G30G07G05G09G02G06G13G16G23G28G29
  20722313.750   108896505.108 9      1512.378    20722315.728    84854428.546 8
      1178.475                          53.875          47.375
  20729876.588   108936253.036 9      -265.285    20729875.937    84885391.450 8
      -206.717                          53.938          44.688
  21301521.655   111940237.798 9      2103.451    21301521.134    87226165.401 7
      1639.053                          51.938          42.313
  21833579.654   114736241.111 9     -2494.677    21833581.556    89404864.057 7
     -1943.905                          51.750          43.250
  22311393.627   117247157.040 8     -1755.407    22311390.728    91361412.517 6
     -1367.853                          47.500          37.938
  23633844.260   124196660.929 7     -3577.495    23633847.965    96776611.121 5
     -2787.657                          42.188          31.875
  24087850.627   126582525.532 7      3195.635    24087850.540    98635732.496 5
      2490.106                          43.125          28.188
  24803501.217   130343415.408 7     -2079.021    24803501.025   101566189.831 4
     -1620.005                          42.625          21.438
  25013177.173   131445109.547 8     -3052.671    25013175.916   102424754.351 4
     -2378.703                          45.375          25.250
  25056737.888   131674045.607 6      3226.526    25056740.459   102603153.086 2
      2514.193                          37.813          13.125
  25362238.554   133279443.062 7     -1701.188    25362239.477   103854116.557 4
     -1325.585                          44.250          22.250
 18  2 20  9 18 30.0000000  0 11G30G07G05G09G02G06G13G16G23G28G29
  20713728.820   108851391.036 9      1495.285    20713730.796    84819274.735 8
      1165.156                          53.625          47.188
  20731439.800   108944467.791 9      -282.334    20731439.150    84891792.561 8
      -220.003                          53.875          44.875
  21289549.946   111877326.045 9      2090.686    21289549.425    87177143.262 7
      1629.107                          52.125          42.938
  21847840.634   114811182.945 9     -2501.391    21847842.536    89463260.280 7
     -1949.135                          52.563          42.500
  22321458.079   117300046.035 8     -1770.471    22321455.199    91402624.683 6
     -1379.589                          47.875          38.188
  23654279.813   124304050.269 8     -3581.771    23654283.532    96860291.039 6
     -2790.988                          46.438          33.938
  24069617.904   126486712.029 8      3192.014    24069617.817    98561072.653 5
      2487.276                          45.250          28.688
  24815417.859   130406037.734 7     -2095.755    24815417.658   101614986.499 4
     -1633.064                          42.375          21.563
  25030608.775   131536712.875 8     -3054.170    25030607.538   102496133.526 4
     -2379.890                          44.500          23.938
  25038312.953   131577222.303 6      3228.397    25038315.127   102527706.402 3
      2515.653                          38.125          15.625
  25371990.281   133330688.711 7     -1715.158    25371991.203   103894048.234 4
     -1336.486                          43.438          21.125
 18  2 20  9 19  0.0000000  0 11G30G07G05G09G02G06G13G16G28G23G29
  20705241.700   108806790.950 9      1478.085    20705243.669    84784521.431 8
      1151.755                          53.313          47.313
  20733100.577   108953195.266 9      -299.461    20733099.933    84898593.192 8
      -233.343                          53.625          44.563
  21277651.678   111814800.202 9      2077.734    21277651.154    87128421.817 7
      1619.014                          52.125          42.438
  21862140.373   114886328.406 9     -2508.231    21862142.264    89521815.164 7
     -1954.465                          52.875          43.125
  22331608.622   117353387.391 8     -1785.568    22331605.752    91444189.338 6
     -1391.351                          48.625          38.375
  23674739.702   124411567.505 7     -3586.032    23674743.432    96944070.670 5
     -2794.314                          42.875          31.875
  24051406.115   126391008.511 8      3188.249    24051406.029    98486498.519 5
      2484.347                          45.938          28.750
  24827430.374   130469163.971 7     -2112.603    24827430.177   101664175.776 4
     -1646.186                          41.000          20.813
  25019877.677   131480344.222 7      3230.174    25019879.487   102452217.087 3
      2516.968                          39.938          17.125
  25048049.011   131628361.571 7     -3055.710    25048047.788   102567548.058 4
     -2381.071                          42.500          23.813
  25381821.812   133382353.711 7     -1729.139    25381822.735   103934306.648 4
     -1347.369                          43.500          22.875
 18  2 20  9 19 30.0000000  0 11G30G07G05G09G02G06G13G16G28G23G29
  20696852.621   108762706.067 9      1460.869    20696854.583    84750169.586 8
      1138.339                          54.063          47.438
  20734858.827   108962434.958 9      -316.549    20734858.190    84905792.945 7
      -246.659                          53.500          44.438
  21265827.311   111752662.754 9      2064.727    21265826.795    87080003.028 7
      1608.878                          52.500          42.250
  21876478.726   114961676.782 9     -2514.989    21876480.603    89580528.162 7
     -1959.731                          51.688          43.000
  22341844.931   117407179.434 8     -1800.579    22341842.066    91486105.177 6
     -1403.044                          47.875          38.188
  23695223.414   124519209.882 7     -3590.140    23695227.148    97027947.809 6
     -2797.514                          44.375          32.625
  24033215.339   126295415.437 7      3184.571    24033215.255    98412010.443 5
      2481.485                          44.000          29.750
  24839538.497   130532792.642 7     -2129.296    24839538.305   101713756.563 4
     -1659.185                          38.813          20.875
  25001432.481   131383414.286 7      3231.788    25001434.238   102376687.335 3
      2518.269                          40.438          16.563
  25065497.735   131720054.931 7     -3057.200    25065496.534   102638997.358 4
     -2382.221                          43.000          24.750
  25391732.665   133434435.535 7     -1743.015    25391733.583   103974889.881 4
     -1358.200                          43.125          20.875
 18  2 20  9 20  0.0000000  0 11G30G07G05G09G02G06G13G16G28G23G29
  20688561.708   108719137.052 9      1443.817    20688563.665    84716219.703 8
      1125.051                          53.438          47.500
  20736714.325   108972185.685 9      -333.411    20736713.692    84913390.912 8
      -259.801                          53.500          44.563
  21254077.200   111690915.518 9      2051.829    21254076.691    87031888.298 7
      1598.828                          52.250          42.500
  21890855.431   115037226.779 9     -2521.569    21890857.305    89639398.263 7
     -1964.858                          51.438          43.063
  22352166.550   117461419.755 8     -1815.307    22352163.685    91528370.341 7
     -1414.524                          48.938          38.688
  23715730.332   124626974.270 8     -3594.034    23715734.078    97111920.050 6
     -2800.547                          45.625          33.000
  24015045.769   126199933.834 8      3180.980    24015045.687    98337609.199 5
      2478.695                          45.438          29.313
  24851741.692   130596920.932 7     -2145.866    24851741.505   101763726.670 3
     -1672.116                          41.750          19.188
  24982977.839   131286434.876 7      3233.570    24982979.607   102301119.025 3
      2519.665                          41.625          18.938
  25082954.771   131811791.991 7     -3058.490    25082953.591   102710480.742 4
     -2383.248                          43.125          24.563
  25401722.462   133486932.227 7     -1756.668    25401723.379   104015796.392 3
     -1368.842                          41.875          18.375
 18  2 20  9 20 30.0000000  0 11G30G07G05G09G02G06G13G16G28G23G29
  20680369.193   108676085.121 9      1426.409    20680371.143    84682672.763 8
      1111.487                          53.688          47.313
  20738667.027   108982447.213 9      -350.586    20738666.392    84921386.909 7
      -273.184                          54.250          44.000
  21242401.736   111629560.535 9      2038.580    21242401.235    86984079.223 7
      1588.504                          52.250          42.063
  21905270.393   115112977.830 9     -2528.378    21905272.269    89698425.020 7
     -1970.165                          51.063          42.500
  22362573.181   117516106.843 8     -1830.345    22362570.325    91570983.647 7
     -1426.243                          48.563          38.688
  23736259.938   124734857.930 8     -3598.077    23736263.702    97195985.165 5
     -2803.694                          44.563          31.438
  23996897.667   126104564.996 8      3177.055    23996897.567    98263295.848 5
      2475.624                          45.813          29.313
  24864039.642   130661547.134 7     -2162.540    24864039.454   101814084.721 4
     -1685.104                          41.688          21.500
  24964514.424   131189409.067 7      3234.908    24964516.053   102225514.590 3
      2520.707                          39.625          18.625
  25100420.101   131903572.635 7     -3060.090    25100418.935   102781998.102 5
     -2384.494                          43.688          26.750
  25411790.701   133539841.128 7     -1770.499    25411791.616   104057024.108 3
     -1379.593                          42.313          18.563
 18  2 20  9 21  0.0000000  0 11G30G07G05G09G02G06G13G16G28G23G29
  20672275.120   108633550.516 9      1409.255    20672277.064    84649528.926 8
      1098.122                          53.500          47.313
  20740716.675   108993218.184 9      -367.470    20740716.033    84929779.875 7
      -286.341                          53.438          44.313
  21230801.134   111568598.955 9      2025.527    21230800.640    86936576.696 7
      1578.332                          52.375          42.313
  21919723.273   115188928.116 9     -2534.964    21919725.151    89757607.030 7
     -1975.296                          51.125          42.750
  22373064.236   117571237.588 8     -1845.030    22373061.386    91613942.645 6
     -1437.684                          49.000          38.438
  23756811.565   124842857.268 7     -3601.874    23756815.336    97280140.493 5
     -2806.655                          43.500          31.688
  23978771.047   126009309.034 8      3173.344    23978770.915    98189070.456 5
      2472.735                          45.813          29.000
  24876431.783   130726668.290 7     -2178.890    24876431.592   101864828.505 3
     -1697.827                          41.438          20.438
  24946042.554   131092338.950 7      3236.377    24946044.075   102149875.567 3
      2521.861                          40.750          18.438
  25117893.476   131995395.611 7     -3061.439    25117892.329   102853548.439 4
     -2385.544                          41.938          24.563
  25421936.906   133593159.772 7     -1784.043    25421937.823   104098571.117 3
     -1390.158                          42.750          17.688
 18  2 20  9 21 30.0000000  0 11G30G07G05G09G02G06G13G16G28G23G29
  20664279.783   108591534.786 9      1391.856    20664281.723    84616789.404 8
      1084.562                          52.500          47.188
  20742863.212   109004498.293 9      -384.496    20742862.562    84938569.559 8
      -299.608                          54.063          44.563
  21219275.947   111508033.693 9      2012.194    21219275.463    86889382.979 7
      1567.941                          52.313          42.375
  21934214.029   115265077.421 9     -2541.619    21934215.908    89816944.120 7
     -1980.482                          50.625          42.875
  22383639.489   117626810.782 8     -1859.802    22383636.638    91657246.404 6
     -1449.191                          48.188          37.938
  23777384.783   124950970.073 8     -3605.644    23777388.562    97364384.156 6
     -2809.593                          45.938          33.938
  23960666.101   125914166.959 8      3169.492    23960665.927    98114933.808 5
      2469.733                          46.750          28.313
  24888917.714   130792282.334 7     -2195.356    24888917.526   101915956.343 4
     -1710.670                          41.875          20.688
  24927562.855   130995227.762 7      3237.698    24927564.495   102074204.570 3
      2522.883                          39.563          18.000
  25135374.918   132087261.025 7     -3062.867    25135373.793   102925131.811 4
     -2386.654                          42.625          25.250
  25432160.707   133646886.184 7     -1797.665    25432161.626   104140435.841 3
     -1400.774                          40.125          18.688
 18  2 20  9 22  0.0000000  0 11G30G07G05G09G02G06G13G16G28G23G29
  20656383.312   108550038.617 9      1374.452    20656385.254    84584454.744 8
      1071.001                          51.375          46.875
  20745106.470   109016286.673 9      -401.472    20745105.811    84947755.310 8
      -312.834                          53.250          44.500
  21207826.555   111447866.747 9      1998.851    21207826.084    86842499.644 7
      1557.547                          52.313          42.563
  21948742.441   115341424.591 8     -2548.274    21948744.323    89876435.404 7
     -1985.669                          49.625          42.875
  22394298.480   117682823.998 8     -1874.475    22394295.622    91700893.051 6
     -1460.630                          48.125          37.938
  23797978.998   125059193.217 7     -3609.289    23797982.784    97448713.821 5
     -2812.432                          41.063          30.438
  23942582.987   125819139.706 8      3165.621    23942582.802    98040886.631 5
      2466.719                          45.188          28.688
  24901497.119   130858387.571 7     -2211.742    24901496.927   101967466.924 4
     -1723.457                          41.813          22.438
  24909075.854   130898078.208 7      3238.897    24909077.470   101998503.708 3
      2523.810                          38.688          20.125
  25152864.268   132179168.006 7     -3064.318    25152863.163   102996747.621 4
     -2387.794                          43.125          25.250
  25442461.521   133701017.284 7     -1811.166    25442462.436   104182615.902 3
     -1411.321                          41.250          16.188
 18  2 20  9 22 30.0000000  0 11G30G07G05G09G02G06G13G28G16G23G29
  20648585.868   108509062.833 9      1357.160    20648587.815    84552525.577 8
      1057.526                          54.000          47.625
  20747446.260   109028582.339 9      -418.300    20747445.596    84957336.345 8
      -325.947                          52.563          44.625
  21196453.299   111388099.879 9      1985.521    21196452.836    86795928.055 7
      1547.158                          52.500          42.938
  21963308.305   115417968.619 8     -2554.724    21963310.194    89936080.068 7
     -1990.693                          49.313          42.875
  22405040.807   117739275.184 8     -1888.984    22405037.949    91744880.961 6
     -1471.931                          48.250          37.938
  23818593.639   125167523.615 7     -3612.769    23818597.418    97533127.098 5
     -2815.139                          43.000          32.125
  23924521.795   125724227.687 8      3161.800    23924521.605    97966929.210 5
      2463.741                          44.688          27.875
  24890582.004   130800892.645 7      3240.079    24890583.616   101922774.759 4
      2524.753                          40.875          20.563
  24914169.460   130924981.204 7     -2227.906    24914169.269   102019358.054 4
     -1736.029                          41.625          20.688
  25170361.395   132271115.867 7     -3065.575    25170360.306   103068395.261 4
     -2388.758                          44.188          24.938
  25452838.986   133755551.242 7     -1824.500    25452839.914   104225109.884 2
     -1421.702                          39.438          13.125
 18  2 20  9 23  0.0000000  0 11G30G07G05G09G02G06G13G28G16G23G29
  20640887.605   108468608.221 9      1339.821    20640889.551    84521002.514 8
      1044.017                          53.313          47.375
  20749882.397   109041384.326 9      -435.121    20749881.731    84967311.923 8
      -339.057                          51.250          44.750
  21185156.589   111328735.247 9      1972.150    21185156.128    86749669.905 7
      1536.741                          51.938          42.875
  21977911.431   115494708.444 9     -2561.194    21977913.319    89995877.330 7
     -1995.736                          50.500          42.438
  22415866.058   117796162.173 8     -1903.406    22415863.208    91789208.449 6
     -1483.171                          47.750          37.500
  23839228.133   125275958.432 7     -3616.158    23839231.920    97617621.704 6
     -2817.788                          43.938          33.188
  23906482.694   125629431.708 8      3157.990    23906482.497    97893062.233 5
      2460.765                          45.313          27.563
  24872081.872   130703674.112 7      3241.156    24872083.490   101847020.132 3
      2525.563                          40.438          19.188
  24926934.401   130992061.446 7     -2244.055    24926934.209   102071628.355 4
     -1748.620                          41.625          21.063
  25187866.237   132363104.215 7     -3066.913    25187865.152   103140074.483 4
     -2389.804                          43.063          23.188
  25463292.598   133810485.324 6     -1837.736    25463293.532   104267915.72713
     -1432.006                          36.688          15.063
 18  2 20  9 23 30.0000000  0 11G30G07G05G09G02G06G13G28G16G23G29
  20633288.671   108428675.570 9      1322.305    20633290.612    84489886.169 8
      1030.368                          53.688          47.688
  20752414.783   109054692.122 9      -452.096    20752414.120    84977681.630 7
      -352.282                          53.188          43.875
  21173936.751   111269774.573 9      1958.512    21173936.288    86703726.514 7
      1526.116                          52.313          43.250
  21992551.639   115571643.181 9     -2567.805    21992553.536    90055826.434 7
     -2000.882                          50.875          42.375
  22426773.833   117853482.820 8     -1917.984    22426770.990    91833873.856 6
     -1494.532                          47.688          37.875
  23859881.925   125384494.643 7     -3619.627    23859885.719    97702195.306 5
     -2820.483                          41.063          30.625
  23888465.840   125534752.650 7      3153.946    23888465.645    97819286.376 5
      2457.611                          44.063          27.375
  24853575.980   130606425.261 7      3242.021    24853577.586   101771241.877 4
      2526.245                          41.375          21.625
  24939791.416   131059625.541 7     -2260.274    24939791.226   102124275.703 3
     -1761.254                          40.625          19.063
  25205378.633   132455132.313 7     -3068.351    25205377.556   103211784.621 4
     -2390.911                          42.938          22.250
  25473821.881   133865817.077 6     -1851.134
     -1442.474                          37.500
 18  2 20  9 24  0.0000000  0 11G30G07G05G09G02G13G06G28G16G23G29
  20625789.269   108389265.960 9      1305.012    20625791.205    84459177.395 8
      1016.892                          53.000          47.813
  20755043.240   109068504.788 9      -468.767    20755042.584    84988444.746 8
      -365.275                          51.000          44.500
  21162794.224   111211220.199 9      1945.080    21162793.770    86658099.730 7
      1515.645                          52.125          42.938
  22007228.799   115648772.068 8     -2574.106    22007230.702    90115926.839 7
     -2005.797                          50.438          42.563
  22437763.745   117911235.078 8     -1932.178    22437760.905    91878875.595 6
     -1505.593                          47.750          37.813
  23870471.470   125440191.749 7      3150.118    23870471.277    97745602.565 5
      2454.643                          43.438          26.500
  23880554.515   125493129.594 7     -3622.667    23880558.309    97786845.904 5
     -2822.861                          41.875          31.938
  24835064.870   130509149.031 7      3243.049    24835066.496   101695442.275 4
      2527.038                          40.000          20.625
  24952740.067   131127671.186 7     -2276.109    24952739.881   102177298.266 4
     -1773.601                          41.625          21.438
  25222898.533   132547199.882 7     -3069.510    25222897.472   103283525.536 4
     -2391.830                          41.875          22.313
  25484426.442   133921544.416 6     -1864.091
     -1452.542                          37.625
 18  2 20  9 24 30.0000000  0 11G30G07G05G09G02G13G06G28G16G23G29
  20618389.478   108350379.818 9      1287.584    20618391.408    84428876.515 8
      1003.309                          53.875          47.500
  20757767.542   109082821.110 9      -485.490    20757766.892    84999600.313 8
      -378.305                          52.563          44.750
  21151729.405   111153074.174 9      1931.474    21151728.958    86612791.132 7
      1505.045                          52.188          43.063
  22021942.657   115726093.833 9     -2580.533    22021944.571    90176177.525 7
     -2010.806                          50.875          42.438
  22448835.340   117969416.589 8     -1946.412    22448832.505    91924211.805 6
     -1516.681                          47.188          37.438
  23852499.618   125345749.123 7      3146.200    23852499.415    97672010.936 4
      2451.591                          43.563          26.375
  23901245.276   125601860.098 8     -3625.798    23901249.084    97871570.869 6
     -2825.302                          45.063          33.375
  24816549.017   130411847.820 7      3243.801    24816550.627   101619623.192 3
      2527.627                          40.750          18.750
  24965779.888   131196195.923 7     -2292.016    24965779.708   102230694.145 4
     -1786.003                          41.750          20.813
  25240425.752   132639305.903 7     -3070.713    25240424.704   103355296.441 4
     -2392.761                          43.125          24.688
  25495105.712   133977664.355 6     -1877.042
     -1462.590                          36.313
 18  2 20  9 25  0.0000000  0 11G30G07G05G09G02G13G06G28G16G23G29
  20611089.457   108312017.974 9      1269.999    20611091.382    84398984.182 8
       989.609                          53.438          47.563
  20760587.535   109097640.279 9      -502.346    20760586.889    85011147.717 7
      -391.440                          52.500          44.313
  21140742.625   111095338.237 9      1917.667    21140742.182    86567802.097 7
      1494.284                          52.563          42.688
  22036693.054   115803607.556 9     -2586.982    22036694.970    90236577.807 7
     -2015.832                          50.750          42.625
  22459988.179   118028025.037 8     -1960.703    22459985.351    91969880.709 6
     -1527.815                          47.813          37.313
  23834550.473   125251425.824 7      3142.083    23834550.266    97598512.284 5
      2448.371                          44.063          27.813
  23921953.661   125710683.179 7     -3628.964    23921957.477    97956368.046 5
     -2827.759                          42.688          31.063
  24798028.894   130314524.304 6      3244.444    24798030.561   101543786.704 3
      2528.126                          36.813          17.313
  24978910.484   131265197.678 7     -2307.982    24978910.311   102284461.724 4
     -1798.435                          41.188          20.563
  25257960.245   132731450.157 7     -3072.066    25257959.210   103427097.169 5
     -2393.817                          44.125          26.750
  25505859.255   134034174.589 6     -1890.133
                                        35.813
 18  2 20  9 25 30.0000000  0 11G30G07G05G09G02G13G06G28G16G23G29
  20603889.408   108274181.496 9      1252.505    20603891.330    84369501.217 8
       975.977                          53.688          46.750
  20763503.115   109112961.729 9      -519.047    20763502.466    85023086.501 7
      -404.453                          52.125          44.125
  21129834.286   111038014.523 9      1903.936    21129833.847    86523134.268 7
      1483.584                          52.313          42.938
  22051479.862   115881312.650 9     -2593.340    22051481.788    90297127.201 7
     -2020.785                          50.500          42.438
  22471221.922   118087058.685 8     -1974.802    22471219.107    92015880.926 6
     -1538.805                          46.500          37.250
  23816624.227   125157222.847 8      3138.116    23816624.011    97525107.377 5
      2445.289                          45.250          27.313
  23942679.176   125819596.303 7     -3631.858    23942683.008    98041235.366 5
     -2830.018                          42.875          32.313
  24779505.187   130217181.898 7      3245.092    24779506.827   101467935.518 2
      2528.634                          38.500          13.188
  24992131.389   131334673.970 7     -2323.717    24992131.218   102338599.097 3
     -1810.692                          41.188          20.313
  25275501.949   132823632.300 7     -3073.299    25275500.922   103498927.422 4
     -2394.774                          43.938          25.938
  25516686.640   134091072.853 6     -1902.973
                                        36.063
 18  2 20  9 26  0.0000000  0 11G30G07G05G09G02G13G06G28G16G23G29
  20596789.409   108236870.802 9      1234.778    20596791.331    84340427.963 8
       962.163                          53.813          47.438
  20766514.071   109128784.375 9      -535.932    20766513.418    85035415.845 7
      -417.624                          51.188          44.313
  21119004.724   110981104.794 9      1889.910    21119004.293    86478789.027 7
      1472.658                          50.750          42.563
  22066302.855   115959207.843 9     -2599.816    22066304.779    90357824.734 7
     -2025.829                          51.563          42.250
  22482536.087   118146514.928 8     -1989.046    22482533.281    92062210.439 6
     -1549.909                          47.750          37.313
  23798720.991   125063140.731 8      3133.917    23798720.757    97451796.677 5
      2442.002                          44.875          27.563
  23963421.226   125928596.320 7     -3634.888    23963425.072    98126170.387 5
     -2832.375                          43.063          31.625
  24760978.323   130119822.923 7      3245.329    24760979.967   101392071.390 3
      2528.827                          39.125          14.563
  25005442.226   131404622.888 7     -2339.632    25005442.066   102393104.783 4
     -1823.082                          41.563          20.875
  25293050.643   132915851.190 7     -3074.718    25293049.619   103570786.301 5
     -2395.886                          43.688          26.813
  25527587.334   134148356.362 6     -1916.073
                                        35.063
 18  2 20  9 26 30.0000000  0 11G30G07G05G09G02G13G06G28G16G23G29
  20589789.523   108200086.214 9      1217.276    20589791.447    84311764.661 8
       948.526                          54.000          47.313
  20769620.131   109145106.782 9      -552.474    20769619.473    85048134.611 7
      -430.499                          52.125          44.188
  21108254.253   110924610.712 9      1876.085    21108253.833    86434767.662 7
      1461.884                          51.313          42.625
  22081161.774   116037291.806 9     -2606.028    22081163.689    90418669.362 7
     -2030.669                          51.625          42.000
  22493930.159   118206391.078 8     -2002.927    22493927.359    92108867.161 6
     -1560.721                          47.563          37.625
  23780840.813   124969179.824 7      3129.931    23780840.570    97378580.401 5
      2438.913                          43.688          27.813
  23984179.173   126037679.816 7     -3637.594    23984183.023    98211170.480 5
     -2834.484                          43.750          31.250
  24742448.778   130022449.832 6      3245.885    24742450.431   101316196.244 3
      2529.248                          38.438          19.688
  25018842.408   131475041.320 7     -2355.179    25018842.254   102447976.285 3
     -1835.215                          40.125          17.563
  25310606.158   133008105.964 7     -3075.855    25310605.140   103642673.176 4
     -2396.780                          43.000          25.438
  25538560.813   134206022.366 6     -1928.607
                                        33.813
 18  2 20  9 27  0.0000000  0 11G30G07G05G09G02G13G06G28G16G23G29
  20582890.024   108163829.162 9      1199.809    20582891.947    84283512.419 8
       934.914                          53.875          47.438
  20772821.224   109161928.604 9      -569.000    20772820.559    85061242.519 8
      -443.377                          52.500          44.688
  21097583.401   110868534.996 9      1862.253    21097582.984    86391072.296 7
      1451.105                          52.188          43.188
  22096056.568   116115564.354 9     -2612.174    22096058.483    90479660.928 7
     -2035.460                          51.938          41.750
  22505403.857   118266685.684 8     -2016.735    22505401.067    92155849.950 6
     -1571.478                          47.438          36.625
  23762983.971   124875341.582 7      3125.945    23762983.724    97305459.698 5
      2435.793                          43.438          28.000
  24004952.601   126146844.726 7     -3640.130    24004956.465    98296233.989 5
     -2836.462                          43.125          32.125
  24723917.216   129925066.022 6      3246.325    24723918.871   101240312.743 4
      2529.596                          37.938          20.563
  25032331.476   131545926.875 7     -2370.571    25032331.335   102503211.773 3
     -1847.193                          40.813          19.250
  25328168.589   133100397.132 7     -3076.929    25328167.578   103714588.376 4
     -2397.600                          41.500          24.063
  25549606.725   134264069.014 6     -1941.006
                                        34.625
 18  2 20  9 27 30.0000000  0 11G30G07G05G09G02G13G06G28G16G23G29
  20576090.944   108128099.804 9      1182.236    20576092.866    84255671.366 8
       921.224                          54.625          47.313
  20776117.137   109179248.709 9      -585.577    20776116.466    85074738.700 8
      -456.294                          53.000          44.500
  21086992.472   110812879.296 9      1848.227    21086992.058    86347704.215 7
      1440.176                          51.563          43.125
  22110986.961   116194024.024 9     -2618.364    22110988.884    90540798.294 7
     -2040.284                          51.500          41.625
  22516956.651   118327395.971 8     -2030.507    22516953.877    92203156.636 6
     -1582.207                          46.750          37.438
  23745150.566   124781626.478 7      3121.832    23745150.310    97232434.971 5
      2432.601                          43.563          27.938
  24025740.863   126256087.569 7     -3642.628    24025744.738    98381358.230 5
     -2838.398                          42.625          31.938
  24705384.112   129827674.022 7      3246.536    24705385.745   101164422.862 4
      2529.784                          41.188          21.375
  25045908.980   131617277.158 7     -2386.040    25045908.845   102558809.418 4
     -1859.241                          40.875          21.063
  25345737.705   133192723.474 7     -3078.070    25345736.702   103786530.983 4
     -2398.509                          42.125          23.813
  25560724.468   134322493.155 6     -1953.685
                                        33.250
 18  2 20  9 28  0.0000000  0 11G30G07G05G09G02G13G06G28G16G23G29
  20569392.431   108092898.893 9      1164.518    20569394.343    84228242.094 8
       907.419                          55.188          47.625
  20779507.629   109197065.841 9      -602.218    20779506.954    85088622.171 7
      -469.262                          51.938          44.438
  21076481.812   110757645.420 9      1834.063    21076481.403    86304664.829 7
      1429.140                          51.063          42.625
  22125952.812   116272669.982 9     -2624.619    22125954.738    90602080.829 7
     -2045.158                          51.813          41.625
  22528588.129   118388519.714 8     -2044.327    22528585.365    92250785.497 6
     -1592.980                          47.000          37.313
  23727340.767   124688035.438 7      3117.623    23727340.501    97159506.951 5
      2429.327                          44.188          28.063
  24046543.426   126365405.569 8     -3645.151    24046547.314    98466541.044 5
     -2840.376                          45.938          31.625
  24686849.995   129730276.647 7      3246.648    24686851.604   101088528.858 4
      2529.854                          38.938          20.875
  25059574.499   131689089.965 7     -2401.447    25059574.371   102614767.495 3
     -1871.264                          40.938          19.125
  25363313.382   133285084.265 7     -3079.267    25363312.378   103858500.437 4
     -2399.430                          42.500          24.313
  25571913.570   134381292.290 5     -1966.234
                                        31.750
 18  2 20  9 28 30.0000000  0 11G30G07G05G09G02G13G06G28G16G23G29
  20562794.617   108058227.163 9      1146.781    20562796.523    84201225.160 8
       893.596                          54.563          48.063
  20782992.577   109215379.347 9      -618.815    20782991.899    85102892.430 8
      -482.192                          52.688          44.500
  21066051.800   110702835.329 9      1819.816    21066051.396    86261955.671 7
      1418.039                          52.438          43.250
  22140953.943   116351501.347 9     -2630.909    22140955.879    90663507.831 7
     -2050.057                          52.250          42.000
  22540297.876   118450054.768 8     -2058.109    22540295.125    92298734.862 6
     -1603.719                          48.500          37.625
  23709554.613   124594568.713 7      3113.344    23709554.349    97086675.762 5
      2425.981                          44.438          27.875
  24067359.751   126474795.955 8     -3647.616    24067363.662    98551780.234 5
     -2842.301                          45.063          31.563
  24668315.352   129632876.416 7      3246.555    24668316.913   101012632.598 4
      2529.785                          41.313          23.563
  25073327.616   131761363.121 7     -2416.830    25073327.495   102671084.232 4
     -1883.240                          42.250          22.813
  25380895.527   133377479.095 7     -3080.513    25380894.528   103930496.417 3
     -2400.411                          40.063          20.438
  25583173.616   134440464.221 6     -1978.630
                                        33.250
 18  2 20  9 29  0.0000000  0 11G30G07G05G09G02G13G06G28G16G23G29
  20556297.540   108024084.779 9      1129.316    20556299.436    84174620.718 8
       879.989                          55.000          47.313
  20786571.633   109234187.397 9      -635.119    20786570.954    85117548.055 7
      -494.899                          53.688          44.438
  21055702.725   110648450.580 9      1805.774    21055702.330    86219577.942 7
      1407.096                          53.063          43.063
  22155990.107   116430516.767 9     -2636.849    22155992.045    90725078.262 7
     -2054.689                          52.875          42.250
  22552085.381   118511998.438 8     -2071.510    22552082.641    92347002.623 6
     -1614.164                          48.375          37.938
  23691792.324   124501227.375 7      3109.358    23691792.059    97013942.270 5
      2422.875                          43.250          28.188
  24088189.213   126584255.315 8     -3649.725    24088193.138    98637073.201 5
     -2843.932                          44.688          30.063
  24649780.780   129535476.499 7      3246.703    24649782.287   100936736.603 3
      2529.895                          40.875          20.375
  25087167.707   131834093.319 7     -2431.873    25087167.586   102727757.184 4
     -1894.984                          42.125          21.313
  25398484.027   133469907.311 7     -3081.442    25398483.028   104002518.388 3
     -2401.144                          39.438          17.000
  25594504.064   134500006.123 6     -1990.889
                                        32.563
 18  2 20  9 29 30.0000000  0 11G30G07G05G09G02G13G06G28G16G23G29
  20549901.427   107990472.972 9      1111.737    20549903.315    84148429.703 8
       866.287                          53.500          47.313
  20790244.798   109253489.975 9      -651.440    20790244.116    85132589.018 8
      -507.616                          53.125          44.500
  21045435.076   110594493.738 9      1791.597    21045434.689    86177533.652 7
      1396.049                          52.250          43.125
  22171061.245   116509715.974 9     -2642.808    22171063.183    90786791.901 7
     -2059.328                          51.938          41.750
  22563950.305   118574348.890 8     -2084.906    22563947.564    92395587.351 6
     -1624.598                          48.688          37.625
  23674054.066   124408012.380 7      3105.252    23674053.811    96941307.274 5
      2419.667                          43.250          27.750
  24109031.385   126693781.502 8     -3651.825    24109035.328    98722418.233 5
     -2845.570                          46.438          31.313
  24631246.801   129438079.715 7      3246.660    24631248.255   100860843.016 4
      2529.865                          40.438          20.750
  25101094.363   131907278.463 7     -2446.808    25101094.245   102784784.627 4
     -1906.593                          42.125          20.500
  25416078.807   133562368.550 7     -3082.484    25416077.812   104074565.986 3
     -2401.931                          39.438          18.375
  25605904.490   134559915.748 6     -2002.798
                                        34.438
 18  2 20  9 30  0.0000000  0 12G30G07G05G09G02G13G06G28G16G23G20G29
  20543606.309   107957391.913 9      1093.996    20543608.193    84122652.261 8
       852.464                          54.625          47.375
  20794011.746   109273285.372 9      -667.942    20794011.059    85148014.003 8
      -520.475                          53.063          44.938
  21035249.172   110540966.450 9      1777.172    21035248.784    86135824.082 7
      1384.808                          52.500          43.188
  22186167.101   116589097.644 9     -2648.985    22186169.041    90848647.720 7
     -2064.143                          51.813          41.813
  22575892.131   118637103.453 8     -2098.414    22575889.387    92444486.982 6
     -1635.127                          48.500          38.000
  23656339.999   124314924.523 8      3100.876    23656339.755    96868771.287 5
      2416.257                          45.188          28.625
  24129885.633   126803371.134 7     -3653.871    24129889.594    98807812.677 5
     -2847.164                          44.250          28.500
  24612713.940   129340688.966 7      3246.329    24612715.381   100784954.166 4
      2529.606                          39.250          20.750
  25115107.094   131980915.943 7     -2461.953    25115106.972   102842164.483 3
     -1918.444                          42.625          18.938
  25433679.803   133654862.400 7     -3083.531    25433678.809   104146639.046 3
     -2402.719                          40.875          17.250
  25519318.699   134104931.038 5      3689.070
                                        31.813
  25617374.309   134620190.028 6     -2015.043
                                        33.000
 18  2 20  9 30 30.0000000  0 12G30G07G05G09G02G13G06G28G16G23G20G29
  20537412.194   107924841.645 9      1076.198    20537414.075    84097288.427 8
       838.595                          54.000          47.000
  20797872.248   109293572.410 9      -684.380    20797871.559    85163822.083 8
      -533.282                          53.125          44.500
  21025145.266   110487870.069 9      1762.693    21025144.877    86094450.272 7
      1373.529                          52.875          43.000
  22201307.391   116668660.336 9     -2655.088    22201309.352    90910644.581 7
     -2068.897                          51.063          41.188
  22587910.333   118700259.379 8     -2111.816    22587907.589    92493699.361 6
     -1645.570                          48.375          37.563
  23638650.171   124221964.034 8      3096.563    23638649.930    96796334.568 5
      2412.904                          45.625          28.375
  24150751.316   126913020.840 8     -3655.889    24150755.291    98893253.972 5
     -2848.742                          45.500          31.313
  24594182.599   129243306.188 6      3245.971    24594184.048   100709071.514 3
      2529.363                          38.063          20.438
  25129205.326   132055002.765 7     -2476.962    25129205.202   102899894.525 4
     -1930.117                          42.313          20.688
  25451286.791   133747387.710 7     -3084.671    25451285.806   104218736.591 3
     -2403.654                          38.563          16.125
  25498261.329   133994275.810 5      3688.142
                                        29.563
  25628912.974   134680826.090 5     -2027.167
                                        29.500
 18  2 20  9 31  0.0000000  0 11G30G07G05G09G02G13G06G28G16G23G20
  20531319.451   107892824.103 9      1058.358    20531321.333    84072339.703 8
       824.694                          53.563          47.500
  20801826.320   109314351.172 9      -700.820    20801825.631    85180013.315 8
      -546.093                          53.125          45.000
  21015124.058   110435208.243 9      1748.125    21015123.665    86053415.069 7
      1362.176                          52.563          43.188
  22216482.213   116748404.525 8     -2661.175    22216484.196    90972782.860 7
     -2073.641                          50.438          40.875
  22600004.705   118763815.581 8     -2125.204    22600001.963    92543223.645 6
     -1656.004                          48.000          37.125
  23620984.921   124129132.665 7      3092.192    23620984.678    96723998.466 5
      2409.503                          43.938          29.375
  24171628.157   127022729.177 8     -3657.903    24171632.147    98978740.910 5
     -2850.319                          44.563          29.375
  24575653.613   129145935.817 7      3245.388    24575655.060   100633198.533 3
      2528.850                          38.750          18.625
  25143388.876   132129537.991 7     -2491.984    25143388.755   102957973.923 3
     -1941.781                          41.313          19.250
  25468899.886   133839945.061 6     -3085.774
                                        38.188
  25477209.495   133883648.869 6      3687.012
                                        33.688
 18  2 20  9 31 30.0000000  0 11G30G07G05G09G02G13G06G28G16G20G23
  20525328.004   107861338.889 9      1040.613    20525329.890    84047805.777 8
       810.868                          53.688          47.250
  20805873.570   109335619.612 9      -717.117    20805872.887    85196586.112 7
      -558.790                          53.563          44.250
  21005185.601   110382981.273 9      1733.619    21005185.207    86012718.730 7
      1350.871                          52.125          43.000
  22231691.230   116828328.317 9     -2667.146    22231693.225    91035061.116 7
     -2078.295                          51.188          41.563
  22612174.607   118827768.731 8     -2138.383    22612171.877    92593057.213 6
     -1666.274                          48.250          36.875
  23603344.239   124036430.356 7      3087.906    23603343.982    96651762.955 5
      2406.166                          43.563          29.250
  24192515.426   127132492.336 7     -3659.648    24192519.434    99064270.599 5
     -2851.667                          42.625          29.688
  24557127.306   129048579.570 7      3244.933    24557128.775   100557336.623 4
      2528.505                          38.750          22.000
  25157657.076   132204518.054 7     -2506.739    25157656.958   103016399.914 3
     -1953.324                          40.813          18.938
  25456163.568   133773051.259 5      3686.025
                                        32.063
  25486518.837   133932533.126 6     -3086.769
                                        32.563
 18  2 20  9 32  0.0000000  0 11G30G07G05G09G02G13G06G28G16G20G23
  20519437.879   107830386.100 9      1022.821    20519439.763    84023686.724 8
       797.003                          53.688          47.438
  20810013.682   109357376.025 9      -733.406    20810013.003    85213539.164 7
      -571.486                          52.938          44.000
  20995330.189   110331190.760 9      1718.994    20995329.806    85972362.490 7
      1339.476                          51.938          42.875
  22246934.194   116908430.456 9     -2673.096    22246936.194    91097478.338 7
     -2082.931                          51.250          42.000
  22624419.552   118892116.175 8     -2151.500    22624416.820    92643198.042 6
     -1676.493                          48.063          36.875
  23585728.258   123943857.868 8      3083.509    23585727.992    96579628.628 5
      2402.730                          45.500          29.563
  24213412.503   127242306.988 7     -3661.366    24213416.524    99149840.396 5
     -2853.008                          44.000          29.125
  24538604.189   128951240.030 7      3244.268    24538605.623   100481487.687 4
      2528.011                          40.688          23.000
  25172009.338   132279939.848 7     -2521.456    25172009.223   103075170.151 4
     -1964.743                          40.750          21.063
  25435123.318   133662484.249 6      3684.934
                                        34.688
  25504143.426   134025151.248 5     -3087.809
                                        31.750
 18  2 20  9 32 30.0000000  0 11G30G07G05G09G02G13G06G28G16G20G23
  20513649.271   107799966.798 9      1005.051    20513651.156    83999983.378 8
       783.156                          54.938          47.625
  20814246.619   109379620.247 9      -749.630    20814245.944    85230872.324 7
      -584.128                          51.125          44.375
  20985558.393   110279839.670 9      1704.318    20985558.019    85932348.659 7
      1328.041                          52.500          43.000
  22262211.019   116988710.570 8     -2678.965    22262213.032    91160034.242 7
     -2087.504                          48.625          41.750
  22636739.136   118956855.873 8     -2164.552    22636736.408    92693644.542 6
     -1686.661                          48.188          37.313
  23568137.201   123851416.404 7      3079.131    23568136.933    96507596.347 5
      2399.320                          43.938          29.688
  24234318.952   127352170.914 8     -3662.963    24234322.990    99235448.569 5
     -2854.266                          45.000          29.188
  24520084.890   128853920.490 7      3243.595    24520086.258   100405654.296 4
      2527.468                          42.563          22.375
  25186445.310   132355801.527 7     -2536.069    25186445.200   103134283.148 3
     -1976.177                          40.938          19.625
  25414090.260   133551950.222 6      3683.784
                                        37.438
  25521773.702   134117799.459 5     -3088.769
                                        30.188
 18  2 20  9 33  0.0000000  0 11G30G07G05G09G02G13G06G28G16G20G23
  20507962.323   107770081.705 9       987.221    20507964.207    83976696.290 8
       769.263                          53.125          47.375
  20818572.167   109402351.160 9      -765.869    20818571.498    85248584.717 7
      -596.782                          50.750          44.188
  20975870.640   110228930.193 9      1689.565    20975870.270    85892678.925 7
      1316.545                          52.875          43.250
  22277521.591   117069168.030 8     -2684.908    22277523.618    91222728.334 7
     -2092.136                          49.000          41.500
  22649133.021   119021986.025 8     -2177.565    22649130.300    92744395.262 6
     -1696.801                          47.625          37.063
  23550571.208   123759106.615 7      3074.721    23550570.919    96435666.700 5
      2395.885                          43.500          29.125
  24255234.275   127462081.438 7     -3664.493    24255238.325    99321093.077 5
     -2855.451                          41.000          28.000
  24501570.008   128756624.149 7      3242.723    24501571.288   100329838.958 4
      2526.792                          41.813          20.875
  25200964.613   132432101.069 7     -2550.653    25200964.502   103193737.284 3
     -1987.544                          41.188          19.813
  25393063.232   133441450.833 6      3682.593
                                        37.063
  25539410.848   134210477.401 6     -3089.855
                                        33.750
 18  2 20  9 33 30.0000000  0 10G30G07G05G09G02G13G06G28G16G20
  20502376.944   107740730.370 9       969.550    20502378.830    83953825.122 8
       755.493                          53.500          47.438
  20822989.956   109425566.815 9      -781.834    20822989.298    85266674.839 7
      -609.220                          51.188          43.875
  20966267.068   110178463.061 9      1674.925    20966266.700    85853353.887 7
      1305.138                          52.625          43.500
  22292865.566   117149801.036 8     -2690.606    22292867.605    91285559.209 7
     -2096.573                          49.500          41.563
  22661600.560   119087503.235 8     -2190.246    22661597.846    92795447.588 6
     -1706.682                          48.063          36.938
  23533030.333   123666928.864 7      3070.464    23533030.023    96363839.952 5
      2392.556                          44.000          29.250
  24276157.759   127572034.863 7     -3665.710    24276161.827    99406771.032 5
     -2856.402                          43.875          29.250
  24483059.851   128659352.707 7      3242.022    24483061.090   100254043.043 4
      2526.260                          41.313          21.500
  25215566.587   132508835.014 7     -2564.895    25215566.476   103253529.982 4
     -1998.604                          42.000          20.563
  25372042.441   133330987.585 6      3681.611
                                        37.063
 18  2 20  9 34  0.0000000  0 10G30G07G05G09G02G13G06G28G16G20
  20496893.372   107711914.038 9       951.613    20496895.265    83931370.842 8
       741.517                          53.188          47.563
  20827499.940   109449266.932 9      -798.076    20827499.292    85285142.459 7
      -621.877                          52.875          44.438
  20956748.149   110128440.788 9      1659.968    20956747.787    85814375.491 7
      1293.484                          52.125          43.188
  22308242.937   117230609.509 9     -2696.521    22308244.985    91348526.805 7
     -2101.185                          50.813          41.000
  22674141.420   119153405.705 8     -2203.144    22674138.708    92846800.150 6
     -1716.734                          48.188          37.375
  23515514.855   123574884.582 7      3065.894    23515514.521    96292117.169 5
      2389.009                          44.250          29.063
  24297089.023   127682029.190 7     -3667.112    24297093.110    99492480.790 5
     -2857.482                          41.750          27.813
  24464555.205   128562110.302 7      3240.930    24464556.422   100178269.720 3
      2525.422                          41.313          18.250
  25230250.783   132586001.007 7     -2579.384    25230250.673   103313659.299 4
     -2009.904                          39.250          20.750
  25351028.886   133220563.116 6      3680.208    25351028.848   103808227.290 2
      2867.714                          37.250          13.438
 18  2 20  9 34 30.0000000  0 10G30G07G05G09G02G13G06G28G16G20
  20491511.599   107683632.666 9       933.793    20491513.498    83909333.418 8
       727.631                          53.375          47.188
  20832101.822   109473449.984 9      -814.140    20832101.180    85303986.394 7
      -634.395                          51.875          44.125
  20947314.127   110078864.646 9      1645.063    20947313.765    85775744.727 7
      1281.867                          52.375          43.063
  22323653.437   117311592.081 9     -2702.300    22323655.492    91411630.078 7
     -2105.686                          50.688          41.125
  22686755.033   119219690.487 8     -2215.846    22686752.322    92898450.614 6
     -1726.634                          48.438          37.563
  23498024.821   123482974.051 7      3061.442    23498024.477    96220498.591 5
      2385.546                          44.250          29.438
  24318027.432   127792061.006 7     -3668.298    24318031.532    99578219.827 5
     -2858.410                          43.750          28.688
  24446056.565   128464899.391 7      3239.831    24446057.765   100102521.003 4
      2524.540                          39.563          22.938
  25245016.628   132663596.053 7     -2593.596    25245016.521   103374122.992 4
     -2020.978                          41.063          20.875
  25330023.234   133110178.848 6      3678.794    25330024.668   103722213.610 2
      2866.573                          37.813          13.563
 18  2 20  9 35  0.0000000  0 10G30G07G05G09G02G13G06G28G16G20
  20486231.679   107655886.563 9       915.986    20486233.588    83887713.080 8
       713.754                          53.313          47.375
  20836795.307   109498114.418 9      -830.151    20836794.674    85323205.427 8
      -646.872                          53.125          44.750
  20937965.369   110029736.582 9      1630.121    20937965.009    85737463.114 7
      1270.222                          52.563          43.063
  22339096.880   117392747.766 9     -2708.043    22339098.941    91474868.240 7
     -2110.164                          51.563          41.313
  22699440.906   119286355.082 8     -2228.433    22699438.209    92950397.011 6
     -1736.442                          46.938          36.500
  23480560.349   123391197.830 8      3056.980    23480559.990    96148984.649 5
      2382.062                          45.938          29.813
  24338972.425   127902127.483 7     -3669.437    24338976.548    99663985.822 5
     -2859.298                          42.188          28.063
  24427564.349   128367722.263 6      3238.708    24427565.543   100026798.634 4
      2523.680                          37.938          21.813
  25259863.661   132741617.749 7     -2607.808    25259863.557   103434919.137 4
     -2032.055                          42.125          23.188
  25309025.781   132999836.177 6      3677.456    25309026.626   103636232.217 3
      2865.558                          38.000          15.375
