     2.11           OBSERVATION DATA    G (GPS)             RINEX VERSION / TYPE
teqc  2016Nov7                          20180403 09:55:33UTCPGM / RUN BY / DATE
PANA                                                        MARKER NAME
10001M008                                                   MARKER NUMBER
Automatic           Lycee Dorian - Paris 11                 OBSERVER / AGENCY
1700671             LEICA GR10          2.00/4.007          REC # / TYPE / VERS
11311010            LEIAS10         NONE                    ANT # / TYPE
  4201030.6950   175603.7930  4780030.2550                  APPROX POSITION XYZ
        0.0000        0.0000        0.0000                  ANTENNA: DELTA H/E/N
     1     1                                                WAVELENGTH FACT L1/2
     6    C1    L1    D1    P2    L2    D2                  # / TYPES OF OBSERV
    30.0000                                                 INTERVAL
Linux 2.4.21-27.ELsmp|Opteron|gcc|Linux x86_64|=+           COMMENT
teqc  2016Nov7                          20180403 09:55:32UTCCOMMENT
     2.11           OBSERVATION DATA    M (MIXED)           COMMENT
teqc  2016Nov7                          20180403 09:55:31UTCCOMMENT
teqc  2016Nov7      IGN-RGP             20180220 09:04:33UTCCOMMENT
GR10 V2.00                              2018 02 20 08:59    COMMENT
                                                            COMMENT
                                                            COMMENT
    18                                                      LEAP SECONDS
BIT 2 OF LLI FLAGS DATA COLLECTED UNDER A/S CONDITION       COMMENT
SNR is mapped to RINEX snr flag value [2-9]                 COMMENT
LX:     = 25dBHz -> 1; 26-27dBHz -> 2; 28-31dBHz -> 3       COMMENT
       32-35dBHz -> 4; 36-38dBHz -> 5; 39-41dBHz -> 6       COMMENT
       42-44dBHz -> 7; 45-48dBHz -> 8; >= 49dBHz -> 9       COMMENT
teqc_2016 edited: GLONASS # 25 - 30 excluded                COMMENT
Forced Modulo Decimation to 30 seconds                      COMMENT
teqc_2016 edited: all GLONASS satellites excluded           COMMENT
teqc_2016 edited: all SBAS satellites excluded              COMMENT
teqc_2016 edited: all Galileo satellites excluded           COMMENT
  2018     2    20     8     0    0.0000000     GPS         TIME OF FIRST OBS
                                                            END OF HEADER
 18  2 20  8  0  0.0000000  0  8G02G05G06G07G09G16G23G30
  21932134.482   115254142.544 8       988.314    21932128.577    89808395.55447
       770.114
  23788199.647   125007833.215 8      3295.039    23788195.968    97408679.56145
      2567.561
  21107671.960   110921555.883 9     -1776.408    21107672.209    86432373.91748
     -1384.214
  21712823.462   114101667.287 9      2340.499    21712820.316    88910377.88147
      1823.765
  20217645.347   106244459.509 9      -978.765    20217644.521    82787889.52149
      -762.674
  24283926.089   127612890.812 6       993.124    24283923.545    99438600.96444
       773.861
  22493383.938   118203538.695 8     -2504.501    22493378.635    92106645.19146
     -1951.560
  23100612.401   121394537.450 8      3495.575    23100612.426    94593147.90847
      2723.825
 18  2 20  8  0 30.0000000  0  8G02G05G06G07G09G16G23G30
  21926542.999   115224758.906 8       970.415    21926537.069    89785499.19447
       756.166
  23769397.911   124909029.412 8      3291.716    23769394.252    97331689.58945
      2564.975
  21117864.952   110975120.785 9     -1794.624    21117865.247    86474112.79348
     -1398.408
  21699501.278   114031658.698 9      2326.505    21699498.144    88855825.74247
      1812.862
  20223270.046   106274017.442 9      -991.961    20223269.203    82810921.67249
      -772.957
  24278311.039   127583383.530 7       973.837    24278308.488    99415608.28344
       758.833
  22507699.587   118278767.991 8     -2510.983    22507694.331    92165265.39146
     -1956.611
  23080676.475   121289773.688 8      3488.634    23080676.513    94511513.84847
      2718.416
 18  2 20  8  1  0.0000000  0  8G02G05G06G07G09G16G23G30
  21921050.998   115195898.138 9       953.437    21921045.034    89763010.28047
       742.938
  23750613.967   124810319.112 8      3288.936    23750610.295    97254772.47645
      2562.808
  21128159.385   111029218.727 9     -1812.166    21128159.704    86516267.03048
     -1412.077
  21686256.855   113962058.820 9      2313.283    21686253.740    88801592.09747
      1802.561
  20228967.777   106303959.178 9     -1004.231    20228966.908    82834252.90049
      -782.518
  24272802.654   127554436.761 7       955.483    24272800.088    99393052.38144
       744.534
  22522050.069   118354180.461 8     -2516.722    22522044.853    92224028.34546
     -1961.082
  23060779.078   121185212.387 8      3482.187    23060779.110    94430037.56147
      2713.395
 18  2 20  8  1 30.0000000  0  8G02G05G06G07G09G16G23G30
  21915659.757   115167566.839 8       935.421    21915653.745    89740933.92848
       728.899
  23731849.055   124711708.881 8      3284.997    23731845.368    97177933.33545
      2559.736
  21138555.952   111083853.318 9     -1830.407    21138556.262    86558839.45148
     -1426.290
  21673091.640   113892875.169 9      2298.923    21673088.551    88747682.77948
      1791.370
  20234739.367   106334289.030 9     -1017.752    20234738.470    82857886.54749
      -793.054
  24267402.317   127526057.728 7       936.504    24267399.743    99370938.86544
       729.749
  22536436.192   118429780.219 8     -2523.324    22536431.005    92282937.23346
     -1966.228
  23040921.715   121080861.474 8      3474.604    23040921.742    94348725.20447
      2707.486
 18  2 20  8  2  0.0000000  0  8G02G05G06G07G09G16G23G30
  21910368.944   115139763.360 8       917.880    21910362.914    89719268.87648
       715.230
  23713103.060   124613198.139 8      3281.878    23713099.371    97101171.71245
      2557.308
  21149053.923   111139020.536 9     -1847.960    21149054.211    86601826.88148
     -1439.971
  21660005.501   113824107.089 9      2285.279    21660002.440    88694097.27748
      1780.737
  20240584.144   106365003.496 9     -1030.245    20240583.225    82881819.89149
      -802.788
  24262109.952   127498246.036 7       917.521    24262107.384    99349267.41745
       714.960
  22550857.319   118505563.858 8     -2529.287    22550852.154    92341989.39247
     -1970.874
  23021104.453   120976721.172 8      3467.727    23021104.485    94267576.91947
      2702.124
 18  2 20  8  2 30.0000000  0  8G02G05G06G07G09G16G23G30
  21905178.686   115112488.292 8       900.163    21905172.662    89698015.56547
       701.425
  23694376.250   124514788.243 8      3278.323    23694372.588    97024488.65846
      2554.537
  21159652.743   111194717.587 9     -1865.568    21159653.010    86645227.15848
     -1453.691
  21646998.626   113755755.626 9      2271.237    21646995.591    88640836.41547
      1769.796
  20246501.712   106396100.460 9     -1043.114    20246500.798    82906051.27549
      -812.817
  24256925.639   127471002.108 6       898.431    24256923.069    99328038.36245
       700.076
  22565312.997   118581529.058 8     -2535.368    22565307.848    92401183.03246
     -1975.613
  23001327.556   120872793.051 8      3460.484    23001327.592    94186593.98247
      2696.481
 18  2 20  8  3  0.0000000  0  8G02G05G06G07G09G16G23G30
  21900089.181   115085742.673 8       883.117    21900083.172    89677174.80747
       688.143
  23675668.787   124416480.080 8      3275.511    23675665.189    96947884.88046
      2552.345
  21170352.013   111250942.494 9     -1882.611    21170352.255    86689038.76848
     -1466.970
  21634071.376   113687822.589 9      2257.763    21634068.356    88587901.59447
      1759.295
  20252491.805   106427578.577 9     -1055.277    20252490.921    82930579.66949
      -822.295
  24251849.597   127444327.357 7       879.875    24251846.998    99307252.86244
       685.619
  22579802.998   118657674.556 8     -2540.870    22579797.866    92460517.15647
     -1979.900
  22981591.475   120769079.439 8      3453.921    22981591.517    94105778.19547
      2691.366
 18  2 20  8  3 30.0000000  0  8G02G05G06G07G09G16G23G30
  21895099.913   115059523.880 8       864.703    21895093.907    89656744.57947
       673.795
  23656980.323   124318271.919 8      3271.389    23656976.811    96871359.06146
      2549.135
  21181150.807   111307690.240 9     -1900.639    21181151.015    86733257.76448
     -1481.019
  21621223.445   113620306.406 9      2243.152    21621220.414    88535291.60947
      1747.912
  20258553.600   106459433.509 9     -1068.587    20258552.758    82955401.69449
      -832.665
  24246881.519   127418219.836 7       860.226    24246878.895    99286909.32944
       670.305
  22594326.463   118733995.917 8     -2547.417    22594321.349    92519988.32847
     -1985.002
  22961896.064   120665579.653 8      3445.956    22961896.117    94025129.05447
      2685.162
 18  2 20  8  4  0.0000000  0  8G02G05G06G07G09G16G23G30
  21890211.952   115033837.461 8       847.278    21890205.939    89636729.18347
       660.217
  23638311.905   124220169.018 8      3268.400    23638308.516    96794915.23346
      2546.806
  21192049.587   111364963.382 9     -1917.894    21192049.754    86777886.15548
     -1494.464
  21608456.038   113553213.306 9      2229.372    21608453.001    88483011.28647
      1737.173
  20264687.710   106491668.441 9     -1080.744    20264686.920    82980519.81749
      -842.139
  24242022.489   127392685.427 7       841.724    24242019.815    99267012.40944
       655.893
  22608883.982   118810496.159 8     -2552.900    22608878.894    92579598.87347
     -1989.275
  22942242.661   120562300.560 8      3439.013    22942242.749    93944651.87548
      2679.751
 18  2 20  8  4 30.0000000  0  8G02G05G06G07G09G16G23G30
  21885425.151   115008682.752 8       829.406    21885419.124    89617128.12548
       646.291
  23619663.526   124122171.453 8      3264.763    23619660.268    96718553.49246
      2543.972
  21203047.652   111422758.320 9     -1935.393    21203047.791    86822921.14548
     -1508.098
  21595769.194   113486543.496 9      2215.024    21595766.147    88431060.79547
      1725.993
  20270893.574   106524280.516 9     -1093.565    20270892.832    83005931.82949
      -852.128
  24237272.567   127367724.303 7       822.246    24237269.836    99247562.19944
       640.714
  22623474.999   118887172.489 8     -2558.971    22623469.936    92639346.64247
     -1994.003
  22922631.418   120459243.005 8      3431.279    22922631.545    93864347.33648
      2673.728
 18  2 20  8  5  0.0000000  0  8G02G05G06G07G09G16G23G30
  21880739.977   114984061.991 8       811.810    21880733.950    89597943.10747
       632.579
  23601035.766   124024282.237 8      3261.226    23601032.647    96642276.18345
      2541.215
  21214144.865   111481074.260 9     -1952.390    21214144.993    86868362.09948
     -1521.344
  21583163.470   113420299.793 9      2201.159    21583160.385    88379442.31147
      1715.189
  20277171.180   106557269.605 9     -1105.763    20277170.481    83031637.60949
      -861.633
  24232632.236   127343338.959 7       803.349    24232629.433    99228560.62744
       625.985
  22638099.468   118964024.574 8     -2564.369    22638094.430    92699231.34747
     -1998.211
  22903063.044   120356410.537 8      3423.973    22903063.205    93784218.16548
      2668.031
 18  2 20  8  5 30.0000000  0  8G02G05G06G07G09G16G23G30
  21876156.727   114959976.797 8       793.763    21876150.722    89579175.40748
       618.517
  23582429.041   123926503.505 8      3257.387    23582426.055    96566084.95746
      2538.224
  21225340.988   111539910.011 9     -1969.863    21225341.116    86914208.10348
     -1534.960
  21570639.313   113354484.741 9      2186.586    21570636.165    88328157.85247
      1703.834
  20283520.442   106590635.302 9     -1118.562    20283519.770    83057636.85349
      -871.607
  24228101.837   127319531.339 7       783.897    24228098.959    99210009.23444
       610.828
  22652757.347   119041052.216 8     -2570.594    22652752.329    92759252.84547
     -2003.062
  22883538.123   120253806.432 8      3416.178    22883538.303    93704266.95147
      2661.958
 18  2 20  8  6  0.0000000  0  8G02G05G06G07G09G16G23G30
  21871675.541   114936427.961 8       775.842    21871669.556    89560825.65647
       604.551
  23563843.467   123828835.891 8      3253.501    23563840.588    96489980.31946
      2535.196
  21236635.592   111599263.298 9     -1987.211    21236635.721    86960457.38348
     -1548.478
  21558196.982   113289099.650 9      2172.127    21558193.770    88277208.42347
      1692.566
  20289941.081   106624376.056 9     -1131.115    20289940.417    83083928.34249
      -881.389
  24223681.586   127296302.595 7       764.410    24223678.648    99191908.91244
       595.642
  22667448.334   119118253.861 8     -2576.504    22667443.324    92819409.93847
     -2007.666
  22864057.091   120151432.813 8      3408.426    22864057.277    93624495.30847
      2655.915
 18  2 20  8  6 30.0000000  0  8G02G05G06G07G09G16G23G30
  21867296.471   114913415.711 8       758.244    21867290.472    89542894.02547
       590.840
  23545279.432   123731281.507 8      3250.083    23545276.635    96413963.93446
      2532.533
  21248028.242   111659131.907 9     -2004.119    21248028.360    87007108.22948
     -1561.651
  21545836.754   113224146.083 9      2158.077    21545833.462    88226595.26147
      1681.618
  20296432.801   106658490.346 9     -1143.191    20296432.128    83110510.89949
      -890.799
  24219371.705   127273653.836 7       745.357    24219368.731    99174260.50044
       580.795
  22682172.148   119195628.005 8     -2581.839    22682167.136    92879701.45047
     -2011.823
  22844620.336   120049291.874 8      3400.906    22844620.510    93544904.98247
      2650.058
 18  2 20  8  7  0.0000000  0  8G02G05G06G07G09G16G23G30
  21863019.095   114890937.878 8       740.119    21863013.056    89525378.81647
       576.716
  23526736.525   123633838.102 8      3245.933    23526733.778    96338034.02646
      2529.299
  21259517.957   111719510.564 9     -2021.374    21259518.056    87054156.50548
     -1575.099
  21533558.285   113159622.169 9      2143.317    21533554.912    88176316.88947
      1670.118
  20302994.757   106692973.718 9     -1155.870    20302994.060    83137381.05949
      -900.679
  24215171.788   127251583.053 7       725.895    24215168.794    99157062.48344
       565.633
  22696927.884   119273169.894 8     -2587.737    22696922.859    92940123.68246
     -2016.420
  22825227.715   119947382.808 8      3392.682    22825227.849    93465495.33547
      2643.648
 18  2 20  8  7 30.0000000  0  8G02G05G06G07G09G16G23G30
  21858844.980   114869002.834 8       722.254    21858838.909    89508286.58047
       562.796
  23508216.556   123536515.113 8      3242.097    23508213.831    96262197.93346
      2526.310
  21271105.786   111780404.830 9     -2038.267    21271105.867    87101606.55948
     -1588.261
  21521363.392   113095537.574 9      2128.922    21521359.977    88126380.85747
      1658.901
  20309628.171   106727832.538 9     -1168.144    20309627.442    83164543.77449
      -910.242
  24211083.561   127230099.280 7       706.336    24211080.568    99140321.89745
       550.393
  22711716.758   119350885.878 9     -2593.285    22711711.720    93000681.56246
     -2020.743
  22805881.148   119845715.683 8      3384.871    22805881.237    93386274.20547
      2637.562
 18  2 20  8  8  0.0000000  0  8G02G05G06G07G09G16G23G30
  21854773.138   114847605.107 9       704.689    21854767.039    89491613.00847
       549.106
  23489718.523   123439307.419 8      3238.656    23489715.796    96186451.68345
      2523.629
  21282790.148   111841806.330 9     -2054.638    21282790.236    87149451.84948
     -1601.017
  21509251.220   113031887.788 9      2114.773    21509247.812    88076783.63647
      1647.876
  20316331.583   106763059.125 9     -1179.859    20316330.819    83191993.05849
      -919.370
  24207106.025   127209197.172 7       687.614    24207103.021    99124034.55444
       535.802
  22726537.367   119428768.596 8     -2598.394    22726532.318    93061369.36246
     -2024.723
  22786579.857   119744286.523 9      3377.387    22786579.885    93307238.51447
      2631.730
 18  2 20  8  8 30.0000000  0  8G02G05G06G07G09G16G23G30
  21850804.139   114826747.767 9       686.535    21850798.008    89475360.51547
       534.963
  23471242.915   123342217.646 8      3234.753    23471240.169    96110797.32445
      2520.587
  21294571.005   111903714.963 9     -2071.734    21294571.119    87197692.31348
     -1614.338
  21497222.383   112968675.999 9      2100.072    21497219.012    88027527.70147
      1636.420
  20323105.137   106798654.268 9     -1192.292    20323104.348    83219729.52549
      -929.059
  24203239.822   127188880.033 7       667.851    24203236.787    99108203.01144
       520.402
  22741389.913   119506819.145 8     -2604.217    22741384.863    93122187.93246
     -2029.261
  22767324.716   119643099.769 9      3369.188    22767324.683    93228391.69347
      2625.343
 18  2 20  8  9  0.0000000  0  8G02G05G06G07G09G16G23G30
  21846937.778   114806429.810 8       667.935    21846931.609    89459528.32947
       520.468
  23452789.946   123245246.800 8      3230.180    23452787.170    96035235.62046
      2517.023
  21306447.655   111966127.048 9     -2089.044    21306447.782    87246325.09348
     -1627.827
  21485276.937   112905902.535 9      2084.786    21485273.624    87978613.32748
      1624.508
  20329948.269   106834615.098 9     -1205.130    20329947.471    83247750.95449
      -939.063
  24199484.860   127169147.458 7       647.722    24199481.755    99092826.97544
       504.716
  22756273.726   119585034.160 8     -2610.148    22756268.681    93183134.68347
     -2033.883
  22748115.867   119542156.292 9      3360.290    22748115.767    93149734.44848
      2618.408
 18  2 20  8  9 30.0000000  0  8G02G05G06G07G09G16G23G30
  21843175.024   114786656.323 8       650.261    21843168.827    89444120.41247
       506.697
  23434360.874   123148401.402 8      3226.096    23434358.052    95959771.65146
      2513.843
  21318420.586   112029045.102 9     -2105.651    21318420.692    87295352.13648
     -1640.767
  21473416.051   112843573.376 9      2070.305    21473412.805    87930045.16048
      1613.226
  20336861.632   106870944.982 9     -1216.993    20336860.842    83276059.94449
      -948.306
  24195842.221   127150005.217 7       628.253    24195839.041    99077910.95344
       489.550
  22771189.456   119663416.968 8     -2615.459    22771184.425    93244212.18446
     -2038.019
  22728954.627   119441463.054 8      3352.405    22728954.476    93071272.20348
      2612.266
 18  2 20  8 10  0.0000000  0  8G02G05G06G07G09G16G23G30
  21839515.269   114767424.149 8       632.067    21839509.081    89429134.29747
       492.520
  23415954.980   123051677.868 8      3221.982    23415952.113    95884402.66945
      2510.638
  21330488.620   112092462.878 9     -2122.284    21330488.718    87344768.55248
     -1653.729
  21461639.296   112781686.264 9      2055.526    21461636.109    87881821.44647
      1601.709
  20343844.204   106907638.551 9     -1229.169    20343843.430    83304652.31348
      -957.795
  24192311.396   127131450.572 7       608.618    24192308.189    99063452.79044
       474.250
  22786136.129   119741962.410 8     -2620.949    22786131.125    93305416.40745
     -2042.299
  22709840.668   119341018.382 8      3343.982    22709840.483    92993003.64647
      2605.702
 18  2 20  8 10 30.0000000  0  8G02G05G06G07G09G16G23G30
  21835959.218   114748736.981 8       613.696    21835953.097    89414572.84447
       478.204
  23397573.214   122955081.002 8      3217.610    23397570.335    95809132.36545
      2507.228
  21342651.891   112156381.198 9     -2139.034    21342651.991    87394575.01148
     -1666.781
  21449947.484   112720245.535 9      2040.421    21449944.345    87833945.57447
      1589.939
  20350896.290   106944697.494 9     -1241.526    20350895.524    83333529.40549
      -967.424
  24188893.136   127113487.544 7       588.598    24188889.931    99049455.64444
       458.651
  22801114.097   119820672.297 8     -2626.681    22801109.139    93366748.76246
     -2046.766
  22690775.017   119240827.697 8      3335.271    22690774.828    92914932.99947
      2598.912
 18  2 20  8 11  0.0000000  0  8G02G05G06G07G09G16G23G30
  21832506.328   114730592.068 8       595.710    21832500.289    89400433.94948
       464.190
  23379215.059   122858608.193 8      3213.514    23379212.175    95733958.74346
      2504.037
  21354909.354   112220794.475 9     -2155.461    21354909.467    87444767.13548
     -1679.579
  21438340.291   112659249.410 9      2025.742    21438337.196    87786416.13748
      1578.501
  20358016.996   106982117.057 9     -1253.427    20358016.226    83362687.50849
      -976.695
  24185586.977   127096113.630 7       569.132    24185583.783    99035917.56044
       443.483
  22816122.443   119899541.829 8     -2631.746    22816117.545    93428205.51846
     -2050.712
  22671757.473   119140889.926 8      3326.951    22671757.296    92837059.43647
      2592.430
 18  2 20  8 11 30.0000000  0  8G02G05G06G07G09G16G23G30
  21829157.451   114712993.840 8       577.929    21829151.482    89386721.05648
       450.336
  23360881.798   122762266.154 8      3209.726    23360878.908    95658887.02246
      2501.086
  21367261.309   112285704.413 9     -2171.341    21367261.433    87495346.28748
     -1691.953
  21426818.766   112598703.427 9      2011.180    21426815.691    87739237.46147
      1567.153
  20365206.843   107019899.908 9     -1265.016    20365206.055    83392128.68949
      -985.726
  24182393.883   127079333.802 7       549.834    24182390.697    99022842.40044
       428.447
  22831161.708   119978573.803 8     -2636.571    22831156.880    93489788.85046
     -2054.472
  22652789.264   119041211.391 8      3318.803    22652789.101    92759387.86247
      2586.082
 18  2 20  8 12  0.0000000  0  8G02G05G06G07G09G16G23G30
  21825912.347   114695940.816 8       559.605    21825906.427    89373432.98047
       436.057
  23342573.205   122666053.751 8      3205.077    23342570.307    95583916.32246
      2497.464
  21379706.914   112351106.475 9     -2187.977    21379707.056    87546308.91248
     -1704.917
  21415382.745   112538606.718 9      1996.008    21415379.657    87692408.86447
      1555.331
  20372465.124   107058042.345 9     -1277.146    20372464.308    83421850.06449
      -995.180
  24179313.597   127063146.640 7       529.810    24179310.376    99010229.04444
       412.841
  22846231.206   120057764.525 8     -2642.000    22846226.440    93551495.87046
     -2058.702
  22633870.404   118941792.103 8      3309.875    22633870.240    92681918.28147
      2579.123
 18  2 20  8 12 30.0000000  0  8G02G05G06G07G09G16G23G30
  21822771.027   114679433.150 8       541.113    21822765.138    89360569.86347
       421.648
  23324289.465   122569971.939 8      3200.480    23324286.569    95509047.37346
      2493.880
  21392245.652   112416997.972 9     -2204.594    21392245.801    87597652.93048
     -1717.865
  21404032.405   112478960.347 9      1980.577    21404029.301    87645931.19347
      1543.309
  20379791.504   107096542.669 9     -1289.354    20379790.663    83451850.31549
     -1004.690
  24176346.240   127047552.945 7       509.786    24176342.942    98998078.14744
       397.240
  22861330.640   120137112.495 8     -2647.560    22861325.923    93613325.42346
     -2063.035
  22615001.236   118842634.001 8      3300.843    22615001.054    92604652.23547
      2572.085
 18  2 20  8 13  0.0000000  0  8G02G05G06G07G09G16G23G30
  21819734.166   114663474.337 8       523.090    21819728.307    89348134.41548
       407.603
  23306031.331   122474024.784 8      3196.226    23306028.427    95434283.36346
      2490.566
  21404877.677   112483379.593 9     -2220.676    21404877.823    87649378.84448
     -1730.398
  21392768.575   112419768.587 9      1965.690    21392765.462    87599807.75447
      1531.707
  20387186.303   107135402.519 9     -1301.042    20387185.454    83482130.70349
     -1013.800
  24173492.529   127032556.390 7       490.107    24173489.135    98986392.54144
       381.904
  22876460.308   120216619.308 8     -2652.675    22876455.630    93675278.75646
     -2067.020
  22596182.784   118743742.386 8      3292.191    22596182.577    92527593.83047
      2565.342
 18  2 20  8 13 30.0000000  0  8G02G05G06G07G09G16G23G30
  21816801.931   114648065.352 8       504.418    21816796.094    89336127.40948
       393.053
  23287799.250   122378214.649 8      3191.247    23287796.348    95359626.12746
      2486.687
  21417602.592   112550249.375 8     -2237.047    21417602.745    87701485.12948
     -1743.154
  21381591.606   112361033.384 9      1950.147    21381588.467    87554040.09247
      1519.598
  20394649.312   107174620.867 9     -1313.305    20394648.470    83512690.44649
     -1023.353
  24170752.727   127018158.374 7       469.989    24170749.270    98975173.30344
       366.229
  22891620.029   120296283.972 8     -2658.138    22891615.375    93737355.08046
     -2071.277
  22577415.514   118645119.919 8      3282.685    22577415.298    92450745.18348
      2557.937
 18  2 20  8 14  0.0000000  0  8G02G05G06G07G09G16G23G30
  21813974.377   114633206.410 8       486.327    21813968.551    89324548.99748
       378.955
  23269593.367   122282542.190 8      3186.989    23269590.482    95285076.15947
      2483.367
  21430419.933   112617604.936 9     -2253.113    21430420.136    87753969.93048
     -1755.675
  21370501.782   112302756.120 9      1935.167    21370498.622    87508629.24747
      1507.922
  20402180.274   107214196.281 9     -1324.885    20402179.452    83543528.40949
     -1032.380
  24168126.960   127004359.707 7       450.101    24168123.499    98964421.09544
       350.729
  22906809.562   120376105.265 9     -2663.103    22906804.915    93799553.46046
     -2075.146
  22558699.868   118546768.798 8      3273.995    22558699.692    92374107.96348
      2551.166
 18  2 20  8 14 30.0000000  0  8G02G05G06G07G09G16G23G30
  21811251.299   114618896.481 8       467.580    21811245.468    89313398.39647
       364.348
  23251413.664   122187007.340 8      3181.997    23251410.795    95210633.42546
      2479.479
  21443328.902   112685441.997 9     -2269.382    21443329.182    87806829.91448
     -1768.353
  21359498.993   112244936.389 9      1919.456    21359495.813    87463574.94647
      1495.682
  20409778.540   107254125.489 9     -1337.050    20409777.726    83574642.08149
     -1041.857
  24165615.027   126991159.278 7       429.658    24165611.593    98954135.04344
       334.798
  22922028.293   120456079.978 8     -2668.639    22922023.633    93861871.39846
     -2079.461
  22540035.906   118448689.468 8      3264.578    22540035.790    92297682.54548
      2543.826
 18  2 20  8 15  0.0000000  0  8G02G05G06G07G09G16G23G30
  21808632.297   114605133.388 8       450.109    21808626.460    89302673.89247
       350.733
  23233260.231   122091610.469 8      3177.959    23233257.379    95136298.20346
      2476.332
  21456328.676   112753756.268 9     -2284.627    21456328.996    87860061.77548
     -1780.229
  21348583.120   112187573.439 9      1904.870    21348579.927    87418876.57647
      1484.315
  20417443.508   107294405.167 9     -1348.034    20417442.699    83606028.83849
     -1050.417
  24163216.723   126978555.901 7       410.674    24163213.308    98944314.19043
       320.000
  22937275.599   120536204.808 9     -2672.894    22937270.912    93924306.30946
     -2082.775
  22521423.743   118350882.264 8      3256.173    22521423.689    92221469.15047
      2537.277
 18  2 20  8 15 30.0000000  0  8G02G05G06G07G09G16G23G30
  21806118.212   114591921.677 9       431.584    21806112.365    89292379.03847
       336.299
  23215133.862   121996355.744 8      3173.136    23215131.025    95062073.73946
      2472.571
  21469419.529   112822549.133 9     -2300.800    21469419.839    87913666.58448
     -1792.833
  21337755.153   112130672.480 9      1889.356    21337751.967    87374538.19547
      1472.226
  20425175.644   107335037.787 9     -1359.944    20425174.841    83637690.60349
     -1059.698
  24160932.852   126966554.154 7       390.235    24160929.412    98934962.19844
       304.080
  22952551.946   120616482.206 8     -2678.162    22952547.224    93986860.10246
     -2086.881
  22502864.536   118253353.270 8      3246.691    22502864.525    92145472.52747
      2529.889
 18  2 20  8 16  0.0000000  0  8G02G05G06G07G09G16G23G30
  21803709.033   114579261.280 9       412.644    21803703.160    89282513.78747
       321.540
  23197034.807   121901244.644 8      3167.800    23197031.972    94987961.21946
      2468.416
  21482600.867   112891817.408 9     -2317.058    21482601.153    87967641.84148
     -1805.499
  21327015.155   112074233.824 9      1873.444    21327011.980    87330560.05547
      1459.828
  20432974.504   107376021.100 9     -1372.065    20432973.706    83669625.64549
     -1069.143
  24158763.479   126955154.011 7       370.036    24158760.048    98926078.95644
       288.340
  22967856.972   120696910.366 8     -2683.471    22967852.209    94049531.38546
     -2091.017
  22484358.542   118156103.962 8      3236.806    22484358.577    92069693.84247
      2522.186
 18  2 20  8 16 30.0000000  0  8G02G05G06G07G09G16G23G30
  21801405.141   114567154.020 8       394.126    21801399.229    89273079.53247
       307.109
  23178963.740   121806280.551 8      3162.868    23178960.896    94913963.23146
      2464.571
  21495872.602   112961560.613 9     -2332.826    21495872.869    88021987.16548
     -1817.788
  21316363.818   112018260.878 9      1857.775    21316360.647    87286944.77447
      1447.617
  20440840.216   107417355.679 9     -1383.915    20440839.425    83701834.39449
     -1078.376
  24156709.095   126944358.003 7       349.634    24156705.690    98917666.43544
       272.435
  22983190.778   120777489.687 8     -2688.652    22983185.979    94112320.43846
     -2095.056
  22465906.512   118059138.481 8      3227.185    22465906.620    91994136.34747
      2514.690
 18  2 20  8 17  0.0000000  0  8G02G05G06G07G09G16G23G30
  21799206.136   114555598.136 8       375.982    21799200.200    89264074.95547
       292.974
  23160920.324   121711461.692 8      3158.249    23160917.459    94840078.40146
      2460.972
  21509233.774   113031773.859 9     -2348.231    21509234.013    88076698.78148
     -1829.792
  21305800.879   111962752.404 9      1842.598    21305797.713    87243691.42848
      1435.790
  20448772.047   107459037.725 9     -1395.211    20448771.263    83734313.90449
     -1087.178
  24154769.356   126934164.696 7       329.644    24154765.964    98909723.61044
       256.864
  22998552.706   120858216.838 8     -2693.312    22998547.874    94175224.69746
     -2098.688
  22447508.445   117962456.746 8      3217.958    22447508.655    91918799.96847
      2507.500
 18  2 20  8 17 30.0000000  0  8G02G05G06G07G09G16G23G30
  21797111.966   114544593.215 8       357.991    21797106.041    89255499.69448
       278.954
  23142904.813   121616789.422 8      3153.462    23142901.917    94766307.80346
      2457.243
  21522683.771   113102453.805 9     -2363.486    21522683.992    88131774.04548
     -1841.679
  21295326.452   111907709.000 9      1827.267    21295323.299    87200800.47448
      1423.844
  20456769.577   107501064.934 9     -1406.459    20456768.796    83767062.36749
     -1095.943
  24152944.221   126924573.478 7       309.863    24152940.817    98902249.91144
       241.452
  23013942.373   120939089.677 8     -2697.939    23013937.526    94238242.45846
     -2102.292
  22429164.655   117866060.057 8      3208.700    22429164.964    91843685.68247
      2500.284
 18  2 20  8 18  0.0000000  0  8G02G05G06G07G09G16G23G30
  21795123.095   114534141.624 8       338.671    21795117.187    89247355.59548
       263.900
  23124918.022   121522268.016 8      3147.758    23124915.095    94692654.76147
      2452.798
  21536222.554   113173600.377 8     -2379.658    21536222.778    88187212.90848
     -1854.281
  21284941.276   111853134.489 9      1810.922    21284938.134    87158274.87348
      1411.107
  20464832.996   107543438.324 9     -1418.743    20464832.200    83800080.58449
     -1105.515
  24151234.263   126915587.543 7       289.062    24151230.842    98895247.86244
       225.242
  23029359.872   121020108.800 8     -2703.469    23029355.023    94301374.20846
     -2106.601
  22410876.056   117769953.138 8      3198.233    22410876.427    91768797.17847
      2492.130
 18  2 20  8 18 30.0000000  0  8G02G05G06G07G09G16G23G30
  21793239.576   114524243.663 8       320.666    21793233.688    89239642.89248
       249.869
  23106960.093   121427898.317 9      3143.168    23106957.133    94619119.95246
      2449.224
  21549849.566   113245210.761 9     -2394.711    21549849.813    88243013.18948
     -1866.009
  21274645.441   111799029.480 9      1795.768    21274642.292    87116115.14248
      1399.300
  20472961.967   107586156.155 9     -1429.523    20472961.132    83833367.20649
     -1113.913
  24149639.491   126907207.002 7       269.412    24149636.069    98888717.56644
       209.934
  23044804.947   121101272.881 8     -2707.840    23044800.098    94364618.91346
     -2110.006
  22392642.980   117674137.827 8      3189.069    22392643.361    91694135.90647
      2484.989
 18  2 20  8 19  0.0000000  0  8G02G05G06G07G09G16G23G30
  21791461.566   114514900.165 8       302.267    21791455.717    89232362.22848
       235.533
  23089031.528   121333682.870 9      3138.069    23089028.538    94545705.33047
      2445.250
  21563564.517   113317283.373 9     -2409.903    21563564.785    88299173.65348
     -1877.847
  21264439.400   111745396.288 9      1779.997    21264436.237    87074323.06548
      1387.012
  20481156.404   107629217.978 9     -1440.984    20481155.515    83866921.86549
     -1122.844
  24148160.277   126899433.496 7       249.026    24148156.906    98882660.23144
       194.042
  23060277.560   121182581.714 8     -2712.544    23060272.722    94427976.41146
     -2113.670
  22374466.029   117578617.326 8      3179.249    22374466.393    91619704.35547
      2477.338
 18  2 20  8 19 30.0000000  0  8G02G05G06G07G09G16G23G30
  21789788.962   114506110.598 8       283.618    21789783.145    89225513.20848
       221.001
  23071132.373   121239621.908 9      3132.568    23071129.359    94472411.07446
      2440.962
  21577366.794   113389814.878 9     -2425.523    21577367.084    88355691.69548
     -1890.018
  21254323.212   111692235.327 9      1764.018    21254320.041    87032898.96648
      1374.560
  20489415.871   107672621.544 9     -1452.668    20489414.932    83900742.81049
     -1131.950
  24146796.503   126892266.776 7       228.530    24146793.180    98877075.75944
       178.070
  23075777.305   121264033.134 8     -2717.623    23075772.484    94491445.00546
     -2117.629
  22356345.440   117483393.022 8      3169.024    22356345.783    91545503.60947
      2469.371
 18  2 20  8 20  0.0000000  0  8G02G05G06G07G09G16G23G30
  21788222.069   114497876.601 8       264.931    21788216.259    89219097.11947
       206.439
  23053263.031   121145717.687 9      3127.193    23053259.993    94399238.96846
      2436.774
  21591256.141   113462803.815 9     -2440.938    21591256.449    88412566.16148
     -1902.030
  21244297.307   111639548.970 9      1747.953    21244294.149    86991844.69848
      1362.042
  20497740.303   107716366.554 9     -1464.205    20497739.323    83934829.82249
     -1140.940
  24145548.483   126885708.347 7       208.231    24145545.186    98871965.29544
       162.259
  23091304.177   121345627.177 8     -2722.469    23091299.387    94555024.74446
     -2121.405
  22338281.841   117388468.232 8      3158.862    22338282.166    91471536.25547
      2461.451
 18  2 20  8 20 30.0000000  0  8G02G05G06G07G09G16G23G30
  21786760.763   114490197.470 8       247.042    21786754.959    89213113.38947
       192.501
  23035423.767   121051971.512 8      3122.426    23035420.704    94326190.00246
      2433.059
  21605231.931   113536246.930 9     -2455.384    21605232.250    88469794.52948
     -1913.286
  21234361.760   111587337.475 9      1732.646    21234358.632    86951160.43848
      1350.114
  20506129.293   107760450.849 9     -1474.859    20506128.291    83969181.21749
     -1149.240
  24144416.179   126879757.992 7       188.204    24144412.865    98867328.65944
       146.651
  23106857.783   121427361.720 8     -2726.651    23106853.032    94618713.96646
     -2124.664
  22320275.540   117293844.458 9      3149.235    22320275.844    91397803.45648
      2453.950
 18  2 20  8 21  0.0000000  0  8G02G05G06G07G09G16G23G30
  21785405.341   114483074.677 8       227.674    21785399.561    89207563.15248
       177.408
  23017615.313   120958387.289 9      3116.380    23017612.228    94253267.23946
      2428.348
  21619293.910   113610143.020 9     -2471.109    21619294.226    88527375.88848
     -1925.539
  21224517.087   111535603.427 9      1716.083    21224513.972    86910848.19747
      1337.208
  20514582.849   107804874.418 9     -1486.744    20514581.849    84003796.97049
     -1158.503
  24143399.948   126874417.670 7       167.304    24143396.633    98863167.37944
       130.367
  23122438.136   121509236.757 8     -2731.912    23122433.420    94682512.65746
     -2128.765
  22302327.201   117199525.223 9      3138.492    22302327.482    91324307.96948
      2445.579
 18  2 20  8 21 30.0000000  0  8G02G05G06G07G09G16G23G30
  21784155.536   114476506.889 8       209.555    21784149.799    89202445.38548
       163.289
  22999837.595   120864964.493 9      3111.345    22999834.483    94180470.23946
      2424.425
  21633441.314   113684487.933 8     -2485.558    21633441.635    88585306.96048
     -1936.799
  21214763.196   111484346.376 9      1700.590    21214760.078    86870907.63747
      1325.137
  20523100.401   107849634.314 9     -1497.608    20523099.428    84038674.78649
     -1166.968
  24142499.577   126869686.262 7       147.409    24142496.282    98859480.58243
       114.865
  23138044.691   121591249.479 8     -2736.063    23138039.991    94746418.64146
     -2131.998
  22284436.981   117105511.265 9      3128.668    22284437.239    91251050.34348
      2437.924
 18  2 20  8 22  0.0000000  0  8G02G05G06G07G09G16G23G30
  21783011.448   114470494.666 8       190.729    21783005.733    89197760.53248
       148.620
  22982090.938   120771705.013 8      3105.402    22982087.792    94107800.51846
      2419.796
  21647673.722   113759279.611 8     -2500.822    21647674.078    88643586.14648
     -1948.693
  21205100.353   111433568.038 9      1684.207    21205097.240    86831340.14247
      1312.370
  20531681.740   107894729.544 9     -1509.196    20531680.814    84073813.90849
     -1175.997
  24141715.231   126865564.593 7       126.615    24141711.927    98856268.91343
        98.665
  23153677.310   121673399.173 8     -2740.906    23153672.607    94810431.35946
     -2135.770
  22266605.354   117011805.183 9      3117.963    22266605.580    91178032.62748
      2429.583
 18  2 20  8 22 30.0000000  0  8G02G05G06G07G09G16G23G30
  21781973.778   114465041.644 8       172.313    21781968.055    89193511.41048
       134.271
  22964376.195   120678613.323 8      3100.063    22964373.025    94035261.55446
      2415.635
  21661991.289   113834519.030 8     -2515.746    21661991.718    88702214.21648
     -1960.322
  21195529.475   111383273.050 9      1668.214    21195526.399    86792149.26948
      1299.907
  20540327.303   107940162.368 9     -1520.262    20540326.424    84109216.10149
     -1184.619
  24141047.612   126862056.381 7       106.810    24141044.243    98853535.26844
        83.230
  23169336.479   121755688.375 8     -2745.494    23169331.769    94874552.77246
     -2139.346
  22248833.426   116918412.811 9      3107.691    22248833.610    91105259.36248
      2421.579
 18  2 20  8 23  0.0000000  0  8G02G05G06G07G09G16G23G30
  21781042.424   114460147.391 8       153.647    21781036.682    89189697.70247
       119.726
  22946693.619   120585690.617 8      3094.367    22946690.432    93962854.24046
      2411.195
  21676393.367   113910202.782 9     -2530.240    21676393.850    88761188.56048
     -1971.616
  21186050.674   111333461.856 9      1652.064    21186047.648    86753335.35848
      1287.322
  20549036.689   107985930.590 9     -1531.389    20549035.838    84144879.65049
     -1193.290
  24140496.768   126859161.729 7        86.271    24140493.330    98851279.69044
        67.224
  23185021.814   121838115.178 8     -2750.066    23185017.098    94938781.41446
     -2142.908
  22231121.441   116825335.557 8      3097.149    22231121.583    91032731.66148
      2413.364
 18  2 20  8 23 30.0000000  0  8G02G05G06G07G09G16G23G30
  21780217.322   114455811.498 8       135.268    21780211.556    89186319.08447
       105.404
  22929043.607   120492939.128 9      3089.137    22929040.397    93890580.35546
      2407.120
  21690879.473   113986327.951 9     -2544.599    21690879.993    88820506.85948
     -1982.805
  21176664.078   111284135.151 9      1636.386    21176661.086    86714898.97647
      1275.105
  20557809.582   108032032.462 9     -1542.017    20557808.744    84180803.18149
     -1201.571
  24140062.550   126856880.147 7        65.866    24140059.061    98849501.87844
        51.328
  23200733.011   121920677.855 8     -2754.113    23200728.298    95003115.90246
     -2146.066
  22213469.738   116732575.266 8      3087.024    22213469.853    90960450.96448
      2405.476
 18  2 20  8 24  0.0000000  0  8G02G05G06G07G09G16G23G30
  21779498.212   114452032.565 8       116.628    21779492.413    89183374.45948
        90.879
  22911425.970   120400357.876 9      3083.264    22911422.750    93818439.13846
      2402.545
  21705448.779   114062890.173 9     -2559.436    21705449.320    88880165.72348
     -1994.364
  21167369.612   111235292.473 9      1620.015    21167366.618    86676839.75747
      1262.350
  20566645.389   108078464.899 9     -1553.137    20566644.566    84216984.29049
     -1210.235
  24139744.738   126855210.152 7        45.559    24139741.234    98848200.59544
        35.503
  23216469.451   122003373.373 8     -2758.708    23216464.737    95067553.92846
     -2149.643
  22195878.445   116640132.457 8      3076.104    22195878.552    90888417.64548
      2396.966
 18  2 20  8 24 30.0000000  0  8G02G05G06G07G09G16G23G30
  21778885.058   114448810.348 9        98.355    21778879.237    89180863.62248
        76.641
  22893841.059   120307948.611 8      3077.636    22893837.849    93746431.92246
      2398.159
  21720100.842   114139887.081 9     -2573.532    21720101.382    88940163.29648
     -2005.351
  21158167.538   111186935.243 9      1603.968    21158164.517    86639158.80247
      1249.846
  20575543.889   108125226.756 9     -1564.020    20575543.093    84253422.08249
     -1218.717
  24139543.484   126854152.621 7        25.243    24139539.997    98847376.55144
        19.669
  23232231.048   122086201.088 8     -2762.902    23232226.328    95132094.95145
     -2152.913
  22178348.022   116548009.544 8      3065.459    22178348.132    90816633.59048
      2388.671
 18  2 20  8 25  0.0000000  0  8G02G05G06G07G09G16G23G30
  21778377.698   114446144.069 9        79.322    21778371.855    89178785.99848
        61.810
  22876288.846   120215711.185 9      3071.166    22876285.651    93674558.59946
      2393.117
  21734834.907   114217314.892 9     -2588.435    21734835.417    89000496.64148
     -2016.962
  21149057.688   111139062.681 9      1587.347    21149054.625    86601855.51847
      1236.895
  20584504.583   108172315.471 9     -1575.324    20584503.812    84290114.57549
     -1227.525
  24139458.665   126853706.947 7         4.166    24139455.230    98847029.27444
         3.247
  23248017.357   122169158.633 8     -2767.680    23248012.623    95196737.13745
     -2156.637
  22160878.661   116456207.527 9      3054.328    22160878.771    90745099.58848
      2379.998
 18  2 20  8 25 30.0000000  0  8G02G05G06G07G09G16G23G30
  21777977.046   114444038.392 8        60.508    21777971.163    89177145.18848
        47.147
  22858770.887   120123653.850 8      3065.277    22858767.705    93602825.63347
      2388.528
  21749651.363   114295175.739 8     -2602.865    21749651.837    89061167.40848
     -2028.209
  21140041.309   111091681.290 9      1570.892    21140038.190    86564934.96148
      1224.071
  20593528.135   108219734.491 9     -1586.418    20593527.371    84327064.45149
     -1236.170
  24139491.172   126853877.833 7       -16.060    24139487.800    98847162.42443
       -12.514
  23263829.009   122252249.375 8     -2772.197    23263824.254    95261483.12945
     -2160.155
  22143471.742   116364733.464 9      3043.255    22143471.840    90673821.10948
      2371.367
 18  2 20  8 26  0.0000000  0  8G02G05G06G07G09G16G23G30
  21777682.276   114442489.126 9        42.204    21777676.323    89175937.95647
        32.886
  22841286.357   120031772.116 8      3059.518    22841283.185    93531229.49446
      2384.041
  21764548.834   114373462.433 8     -2616.803    21764549.294    89122170.00448
     -2039.066
  21131117.716   111044787.434 9      1554.878    21131114.537    86528394.29547
      1211.594
  20602613.418   108267477.894 9     -1596.943    20602612.640    84364267.09448
     -1244.371
  24139640.120   126854660.759 7       -36.536    24139636.785    98847772.51743
       -28.469
  23279664.973   122335467.768 8     -2776.220    23279660.206    95326328.58045
     -2163.290
  22126126.782   116273584.952 9      3032.550    22126126.837    90602796.31748
      2363.027
 18  2 20  8 26 30.0000000  0  8G02G05G06G07G09G16G23G30
  21777494.519   114441502.294 8        23.524    21777488.506    89175169.00548
        18.331
  22823836.973   119940075.026 8      3053.663    22823833.798    93459777.22646
      2379.480
  21779528.010   114452178.484 8     -2630.926    21779528.493    89183507.14248
     -2050.072
  21122288.284   110998388.435 9      1538.450    21122285.046    86492239.25148
      1198.794
  20611761.328   108315550.430 9     -1607.805    20611760.512    84401726.22049
     -1252.834
  24139906.747   126856062.109 7       -57.276    24139903.443    98848864.48444
       -44.629
  23295526.194   122418818.873 8     -2780.476    23295521.417    95391277.46145
     -2166.604
  22108845.358   116182770.304 9      3021.565    22108845.352    90532031.67948
      2354.467
 18  2 20  8 27  0.0000000  0  8G02G05G06G07G09G16G23G30
  21777412.480   114441070.994 8         5.478    21777406.461    89174832.90848
         4.266
  22806421.648   119848556.963 8      3047.826    22806418.472    93388464.47247
      2374.930
  21794587.066   114531314.449 8     -2644.538    21794587.593    89245171.49748
     -2060.681
  21113551.911   110952478.367 9      1522.514    21113548.631    86456465.18048
      1186.374
  20620970.342   108363944.010 9     -1618.118    20620969.489    84439435.49049
     -1260.873
  24140289.906   126858075.734 7       -76.914    24140286.635    98850433.51443
       -59.934
  23311411.144   122502294.578 8     -2784.329    23311406.354    95456323.42446
     -2169.608
  22091626.593   116092284.923 9      3010.947    22091626.530    90461523.60648
      2346.193
 18  2 20  8 27 30.0000000  0  8G02G05G06G07G09G16G23G30
  21777436.618   114441197.882 8       -13.341    21777430.590    89174931.78847
       -10.395
  22789041.146   119757221.840 9      3041.699    22789037.974    93317294.25446
      2370.154
  21809726.035   114610870.479 9     -2658.611    21809726.593    89307163.19847
     -2071.647
  21104909.298   110907060.961 9      1505.956    21104905.986    86421075.00248
      1173.472
  20630240.717   108412660.096 9     -1628.996    20630239.839    84477396.07149
     -1269.349
  24140790.075   126860704.255 7       -97.558    24140786.831    98852481.69043
       -76.022
  23327320.190   122585896.811 8     -2788.629    23327315.379    95521467.97045
     -2172.960
  22074471.420   116002133.835 9      2999.725    22074471.315    90391276.04048
      2337.449
 18  2 20  8 28  0.0000000  0  8G02G05G06G07G09G16G23G30
  21777566.749   114441881.747 8       -31.910    21777560.699    89175464.66747
       -24.865
  22771695.672   119666070.743 9      3035.365    22771692.502    93246267.42146
      2365.220
  21824944.200   114690842.602 9     -2672.455    21824944.769    89369479.13848
     -2082.433
  21096360.401   110862136.038 9      1489.524    21096357.065    86386068.57948
      1160.668
  20639571.954   108461696.009 9     -1639.642    20639571.062    84515605.86349
     -1277.644
  24141406.988   126863946.255 7      -118.200    24141403.771    98855007.90544
       -92.107
  23343252.809   122669622.958 8     -2792.806    23343247.975    95586709.08846
     -2176.215
  22057380.032   115912317.951 9      2988.529    22057379.904    90321289.66148
      2328.725
 18  2 20  8 28 30.0000000  0  8G02G05G06G07G09G16G23G30
  21777803.312   114443124.917 8       -50.788    21777797.245    89176433.36348
       -39.575
  22754386.017   119575107.876 9      3028.857    22754382.847    93175387.26547
      2360.150
  21840241.519   114771230.485 9     -2686.562    21840242.091    89432119.04348
     -2093.423
  21087905.889   110817707.236 9      1472.518    21087902.537    86351448.75948
      1147.418
  20648964.250   108511052.808 9     -1650.711    20648963.347    84554065.70049
     -1286.267
  24142141.183   126867804.591 7      -138.927    24142137.974    98858014.40544
      -108.255
  23359209.305   122753474.527 8     -2797.302    23359204.458    95652047.92846
     -2179.717
  22040353.270   115822841.773 9      2976.741    22040353.116    90251567.99948
      2319.541
 18  2 20  8 29  0.0000000  0  8G02G05G06G07G09G16G23G30
  21778146.193   114444926.829 8       -69.298    21778140.138    89177837.44447
       -53.999
  22737112.252   119484333.592 8      3022.737    22737109.100    93104654.05146
      2355.380
  21855617.396   114852030.972 9     -2700.085    21855617.967    89495080.43948
     -2103.963
  21079545.773   110773774.485 9      1456.275    21079542.421    86317215.45548
      1134.761
  20658417.241   108560728.603 9     -1661.061    20658416.336    84592774.10448
     -1294.333
  24142992.592   126872278.665 7      -159.230    24142989.400    98861500.65344
      -124.077
  23375189.341   122837449.744 8     -2801.031    23375184.500    95717483.10746
     -2182.623
  22023391.465   115733706.968 9      2965.625    22023391.285    90182112.33348
      2310.879
 18  2 20  8 29 30.0000000  0  8G02G05G06G07G09G16G23G30
  21778595.259   114447286.650 8       -87.907    21778589.239    89179676.24748
       -68.500
  22719874.777   119393750.012 9      3016.226    22719871.646    93034069.43547
      2350.307
  21871071.201   114933240.953 8     -2713.755    21871071.755    89558360.92348
     -2114.615
  21071280.206   110730338.558 9      1439.594    21071276.850    86283369.27648
      1121.762
  20667930.607   108610721.705 9     -1671.755    20667929.706    84631729.75348
     -1302.667
  24143961.125   126877368.375 7      -179.825    24143957.974    98865466.65644
      -140.123
  23391192.589   122921546.907 8     -2805.250    23391187.758    95783013.29846
     -2185.911
  22006494.944   115644915.319 9      2954.032    22006494.749    90112924.06848
      2301.845
 18  2 20  8 30  0.0000000  0  8G02G05G06G07G09G16G23G30
  21779151.256   114450208.429 8      -106.880    21779145.292    89181952.94448
       -83.283
  22702674.683   119303362.840 8      3009.602    22702671.579    92963637.86446
      2345.145
  21886603.147   115014861.672 8     -2727.588    21886603.686    89621961.46148
     -2125.393
  21063110.128   110687404.480 9      1422.769    21063106.756    86249914.16548
      1108.651
  20677504.856   108661034.802 9     -1682.453    20677503.962    84670934.75348
     -1311.002
  24145047.572   126883077.679 6      -200.866    24145044.475    98869915.44945
      -156.519
  23407219.683   123005769.455 8     -2809.517    23407214.852    95848641.21346
     -2189.234
  21989664.908   115556473.048 9      2942.176    21989664.706    90044008.04248
      2292.606
 18  2 20  8 30 30.0000000  0  8G02G05G06G07G09G16G23G30
  21779813.504   114453688.723 8      -125.454    21779807.602    89184664.85948
       -97.756
  22685511.576   119213170.138 8      3002.917    22685508.503    92893357.84547
      2339.936
  21902212.104   115096887.279 8     -2741.225    21902212.647    89685877.49448
     -2136.020
  21055035.075   110644969.714 9      1406.000    21055031.688    86216848.11748
      1095.585
  20687139.105   108711663.193 9     -1693.032    20687138.226    84710385.43849
     -1319.246
  24146251.248   126889403.060 7      -221.164    24146248.190    98874844.29944
      -172.335
  23423269.753   123090112.643 8     -2813.572    23423264.917    95914363.11046
     -2192.397
  21972901.149   115468378.948 9      2930.462    21972900.920    89975363.30448
      2283.479
 18  2 20  8 31  0.0000000  0  8G02G05G06G07G09G16G23G30
  21780581.776   114457726.199 8      -144.389    21780575.943    89187810.93048
      -112.512
  22668385.601   119123172.561 8      2996.066    22668382.561    92823229.85647
      2334.597
  21917897.372   115179313.919 9     -2754.787    21917897.941    89750106.00848
     -2146.588
  21047055.104   110603034.583 9      1388.911    21047051.706    86184171.38848
      1082.269
  20696832.921   108762604.550 9     -1703.799    20696832.072    84750079.98349
     -1327.636
  24147572.108   126896344.076 7      -242.226    24147569.074    98880252.82844
      -188.749
  23439342.385   123174574.453 8     -2817.872    23439337.544    95980177.44646
     -2195.746
  21956203.866   115380634.162 9      2918.422    21956203.587    89906990.76748
      2274.097
 18  2 20  8 31 30.0000000  0  8G02G05G06G07G09G16G23G30
  21781455.996   114462320.400 8      -162.439    21781450.239    89191390.81747
      -126.576
  22651297.132   119033372.179 8      2990.045    22651294.121    92753255.54546
      2329.906
  21933658.374   115262138.464 9     -2767.532    21933658.942    89814644.59448
     -2156.519
  21039170.215   110561599.280 9      1372.718    21039166.820    86151884.15748
      1069.650
  20706585.968   108813857.145 9     -1713.581    20706585.156    84790017.05648
     -1335.258
  24149009.930   126903899.879 7      -262.262    24149006.871    98886140.45443
      -204.357
  23455437.265   123259153.232 8     -2821.237    23455432.415    96046082.93246
     -2198.369
  21939573.377   115293240.429 9      2907.212    21939573.061    89838891.78248
      2265.361
 18  2 20  8 32  0.0000000  0  8G02G05G06G07G09G16G23G30
  21782436.299   114467472.017 9      -181.059    21782430.587    89195405.06347
      -141.085
  22634246.607   118943771.168 8      2983.346    22634243.636    92683436.57746
      2324.684
  21949494.785   115345359.087 9     -2780.754    21949495.321    89879491.81048
     -2166.822
  21031380.764   110520665.623 9      1355.917    21031377.405    86119987.81948
      1056.559
  20716398.166   108865420.554 9     -1724.081    20716397.384    84830196.32649
     -1343.440
  24150564.874   126912071.076 7      -282.766    24150561.760    98892507.60244
      -220.339
  23471554.383   123343848.933 8     -2825.253    23471549.522    96112079.53746
     -2201.498
  21923010.275   115206200.809 9      2895.266    21923009.953    89771068.71648
      2256.053
 18  2 20  8 32 30.0000000  0  8G02G05G06G07G09G16G23G30
  21783523.168   114473183.520 9      -199.896    21783517.451    89199855.58247
      -155.762
  22617234.856   118854373.971 8      2976.424    22617231.920    92613776.43846
      2319.291
  21965406.591   115428975.714 9     -2793.957    21965407.082    89944647.57848
     -2177.111
  21023687.534   110480237.579 9      1339.046    21023684.219    86088485.44548
      1043.412
  20726269.790   108917296.231 9     -1734.438    20726269.030    84870618.92048
     -1351.510
  24152237.470   126920860.517 7      -303.366    24152234.305    98899356.49843
      -236.389
  23487694.096   123428663.334 8     -2829.219    23487689.219    96178168.62846
     -2204.589
  21906515.497   115119520.212 9      2883.402    21906515.182    89703525.39247
      2246.807
 18  2 20  8 33  0.0000000  0  8G02G05G06G07G09G16G23G30
  21784717.318   114479458.669 8      -218.198    21784711.574    89204745.30348
      -170.025
  22600262.996   118765186.420 8      2969.734    22600260.094    92544279.66246
      2314.079
  21981394.000   115512989.792 8     -2806.663    21981394.436    90010113.08648
     -2187.011
  21016091.413   110440319.849 9      1322.415    21016088.114    86057380.73748
      1030.454
  20736201.338   108969486.836 9     -1744.606    20736200.590    84911286.91848
     -1359.433
  24154028.472   126930272.291 7      -323.616    24154025.286    98906690.33643
      -252.170
  23503856.990   123513599.571 8     -2832.831    23503852.082    96244352.66446
     -2207.402
  21890090.172   115033204.720 9      2871.449    21890089.858    89636266.58248
      2237.493
 18  2 20  8 33 30.0000000  0  8G02G05G06G07G09G16G23G30
  21786016.813   114486287.209 9      -237.012    21786011.057    89210066.20348
      -184.686
  22583329.538   118676200.519 9      2962.734    22583326.656    92474939.98046
      2308.623
  21997454.622   115597388.500 8     -2819.840    21997455.031    90075878.25948
     -2197.280
  21008590.622   110400902.921 9      1305.396    21008587.325    86026666.24148
      1017.191
  20746190.674   109021981.080 9     -1754.970    20746189.935    84952191.50248
     -1367.510
  24155935.982   126940296.292 7      -344.503    24155932.791    98914501.21944
      -268.445
  23520040.941   123598646.395 8     -2836.811    23520035.989    96310622.86146
     -2210.505
  21873732.836   114947246.495 9      2859.125    21873732.537    89569286.14648
      2227.890
 18  2 20  8 34  0.0000000  0  8G02G05G06G07G09G16G23G30
  21787422.625   114493674.530 9      -255.429    21787416.832    89215822.54748
      -199.036
  22566435.868   118587423.781 9      2955.856    22566432.977    92405763.30847
      2303.266
  22013588.968   115682174.924 8     -2832.511    22013589.377    90141945.57848
     -2207.152
  21001186.401   110361993.584 9      1288.603    21001183.101    85996347.29948
      1004.108
  20756238.636   109074783.508 9     -1765.062    20756237.895    84993336.25148
     -1375.373
  24157960.989   126950937.705 7      -364.802    24157957.791    98922793.21143
      -284.264
  23536246.844   123683808.615 8     -2840.579    23536241.837    96376982.99145
     -2213.439
  21857444.992   114861653.538 9      2847.089    21857444.723    89502590.35648
      2218.512
 18  2 20  8 34 30.0000000  0  8G02G05G06G07G09G16G23G30
  21788934.414   114501618.754 9      -274.319    21788928.584    89222012.83748
      -213.755
  22549582.000   118498856.112 9      2948.433    22549579.104    92336749.52146
      2297.479
  22029796.235   115767344.679 8     -2845.654    22029796.680    90208311.58048
     -2217.392
  20993878.604   110323590.962 9      1271.440    20993875.310    85966423.18848
       990.734
  20766344.690   109127891.183 9     -1775.661    20766343.944    85034718.85148
     -1383.632
  24160103.210   126962195.060 7      -385.546    24160100.032    98931565.16643
      -300.427
  23552474.271   123769083.831 8     -2844.606    23552469.213    96443431.14845
     -2216.579
  21841226.761   114776426.335 9      2834.531    21841226.518    89436179.55948
      2208.727
 18  2 20  8 35  0.0000000  0  8G02G05G06G07G09G16G23G30
  21790552.385   114510120.944 9      -292.881    21790546.546    89228637.88947
      -228.221
  22532768.496   118410500.631 8      2941.483    22532765.600    92267901.09646
      2292.064
  22046076.130   115852896.170 8     -2858.327    22046076.605    90274975.05147
     -2227.270
  20986667.652   110285697.217 9      1254.490    20986664.370    85936895.59047
       977.525
  20776508.829   109181304.036 9     -1785.716    20776508.069    85076339.24148
     -1391.468
  24162362.871   126974069.622 7      -406.181    24162359.746    98940818.07144
      -316.504
  23568723.151   123854471.790 8     -2848.201    23568718.043    96509967.15946
     -2219.380
  21825078.787   114691568.201 9      2822.233    21825078.555    89370056.32548
      2199.142
 18  2 20  8 35 30.0000000  0  8G02G05G06G07G09G16G23G30
  21792276.297   114519179.960 9      -311.702    21792270.451    89235696.85347
      -242.885
  22515995.716   118322359.235 8      2934.024    22515992.835    92199219.49746
      2286.253
  22062428.016   115938825.955 9     -2871.071    22062428.487    90341933.31547
     -2237.197
  20979553.614   110248312.721 9      1237.187    20979550.331    85907764.81047
       964.041
  20786730.661   109235020.097 9     -1796.043    20786729.878    85118195.90848
     -1399.515
  24164739.796   126986560.510 7      -427.117    24164736.716    98950551.24944
      -332.817
  23584993.186   123939970.981 8     -2852.263    23584988.037    96576589.85245
     -2222.544
  21809001.295   114607080.523 9      2809.541    21809001.064    89304221.78048
      2189.254
 18  2 20  8 36  0.0000000  0  8G02G05G06G07G09G16G23G30
  21794106.181   114528795.918 8      -329.766    21794100.303    89243189.80547
      -256.960
  22499263.897   118234433.209 8      2927.188    22499261.032    92130705.73146
      2280.928
  22078851.477   116025131.749 9     -2883.147    22078851.902    90409184.57547
     -2246.608
  20972536.684   110211438.542 9      1220.680    20972533.377    85879031.69747
       951.181
  20797010.041   109289038.554 9     -1805.610    20797009.241    85160288.20048
     -1406.969
  24167233.952   126999667.407 7      -447.132    24167230.912    98960764.40943
      -348.410
  23601284.308   124025581.024 8     -2855.494    23601279.131    96643298.91945
     -2225.061
  21792994.793   114522965.906 9      2797.625    21792994.587    89238677.92648
      2179.969
 18  2 20  8 36 30.0000000  0  8G02G05G06G07G09G16G23G30
  21796041.863   114538967.828 8      -348.161    21796035.960    89251115.94047
      -271.296
  22482573.430   118146724.417 8      2920.072    22482570.594    92062361.20846
      2275.382
  22095345.878   116111810.212 8     -2895.357    22095346.246    90476726.21347
     -2256.124
  20965616.903   110175074.760 9      1203.733    20965613.562    85850696.28348
       937.974
  20807346.610   109343357.543 9     -1815.529    20807345.807    85202614.66048
     -1414.699
  24169845.185   127013389.668 7      -467.490    24169842.182    98971457.08844
      -364.277
  23617596.214   124111300.330 8     -2859.019    23617591.026    96710093.11745
     -2227.808
  21777059.588   114439225.930 9      2785.221    21777059.430    89173425.99348
      2170.302
 18  2 20  8 37  0.0000000  0  8G02G05G06G07G09G16G23G30
  21798083.543   114549696.860 8      -366.602    21798077.631    89259476.20648
      -285.665
  22465924.967   118059236.401 8      2912.846    22465922.149    91994188.72447
      2269.749
  22111910.905   116198859.835 8     -2907.391    22111911.220    90544557.06847
     -2265.499
  20958794.625   110139223.400 9      1186.814    20958791.243    85822760.16948
       924.790
  20817740.350   109397977.084 9     -1825.259    20817739.545    85245175.33548
     -1422.280
  24172573.788   127027728.629 7      -488.123    24172570.801    98982630.28444
      -380.359
  23633928.954   124197129.250 8     -2862.441    23633923.763    96776972.75145
     -2230.476
  21761196.294   114355863.944 9      2772.669    21761196.184    89108468.62248
      2160.521
 18  2 20  8 37 30.0000000  0  8G02G05G06G07G09G16G23G30
  21800230.845   114560981.009 8      -385.100    21800224.947    89268269.03948
      -300.078
  22449318.554   117971969.319 9      2905.487    22449315.754    91926188.40247
      2264.016
  22128545.794   116286276.693 8     -2919.752    22128546.080    90612674.08248
     -2275.131
  20952069.800   110103884.248 9      1169.680    20952066.374    85795223.18848
       911.439
  20828190.820   109452894.756 9     -1835.212    20828190.010    85287968.32248
     -1430.035
  24175419.400   127042682.476 7      -508.397    24175416.424    98994282.61844
      -396.156
  23650282.117   124283065.526 8     -2866.184    23650276.939    96843936.03745
     -2233.392
  21745405.114   114272880.896 9      2760.005    21745405.041    89043806.52548
      2150.654
 18  2 20  8 38  0.0000000  0  8G02G05G06G07G09G16G23G30
  21802483.530   114572819.037 8      -403.961    21802477.660    89277493.46347
      -314.774
  22432754.426   117884924.292 9      2897.618    22432751.633    91858361.09046
      2257.885
  22145249.888   116374057.287 8     -2932.227    22145250.186    90681074.51647
     -2284.852
  20945442.478   110069057.499 9      1152.197    20945439.013    85768085.47647
       897.817
  20838697.668   109508108.638 9     -1845.509    20838696.849    85330992.11048
     -1438.060
  24178381.782   127058250.040 7      -529.460    24178378.788    99006413.21944
      -412.562
  23666655.356   124369107.283 8     -2869.863    23666650.208    96910981.50945
     -2236.259
  21729686.340   114190278.208 9      2746.970    21729686.291    88979440.79548
      2140.497
 18  2 20  8 38 30.0000000  0  8G02G05G06G07G09G16G23G30
  21804842.060   114585213.351 8      -422.891    21804836.189    89287151.36947
      -329.525
  22416233.294   117798105.228 9      2889.752    22416230.504    91790709.86546
      2251.755
  22162023.097   116462201.242 8     -2944.560    22162023.434    90749758.11147
     -2294.463
  20938913.268   110034746.301 9      1134.613    20938909.763    85741349.48548
       884.115
  20849261.096   109563619.835 9     -1855.755    20849260.255    85374247.57448
     -1446.043
  24181461.486   127074433.829 7      -550.313    24181458.473    99019023.94243
      -428.816
  23683049.032   124455256.500 8     -2873.936    23683043.927    96978110.73045
     -2239.432
  21714040.800   114108060.387 9      2733.580    21714040.763    88915374.98048
      2130.063
 18  2 20  8 39  0.0000000  0  8G02G05G06G07G09G16G23G30
  21807306.000   114598161.485 9      -441.399    21807300.119    89297240.81447
      -343.947
  22399755.351   117711513.127 9      2882.059    22399752.556    91723235.50446
      2245.762
  22178864.603   116550704.074 8     -2956.552    22178865.002    90818721.34047
     -2303.807
  20932481.866   110000949.058 9      1117.427    20932478.306    85715013.98347
       870.723
  20859880.555   109619425.437 9     -1865.701    20859879.688    85417732.44048
     -1453.793
  24184657.977   127091231.300 7      -570.728    24184654.949    99032112.87144
      -444.722
  23699462.607   124541510.243 8     -2877.431    23699457.561    97045321.38845
     -2242.156
  21698468.554   114026227.735 9      2720.655    21698468.526    88851609.29148
      2119.992
 18  2 20  8 39 30.0000000  0  8G02G05G06G07G09G16G23G30
  21809875.570   114611664.649 8      -459.688    21809869.682    89307762.74147
      -358.198
  22383321.019   117625150.108 8      2874.576    22383318.215    91655939.64047
      2239.928
  22195774.184   116639564.569 8     -2968.319    22195774.653    90887963.25247
     -2312.978
  20926148.773   109967668.421 9      1100.375    20926145.157    85689081.03448
       857.436
  20870556.107   109675525.773 9     -1875.264    20870555.225    85461446.96148
     -1461.245
  24187971.523   127108643.907 7      -590.987    24187968.479    99045681.12845
      -460.511
  23715896.246   124627869.418 8     -2880.907    23715891.266    97112614.20245
     -2244.865
  21682970.296   113944783.942 9      2708.064    21682970.263    88788146.60548
      2110.181
 18  2 20  8 40  0.0000000  0  8G02G05G06G07G09G16G23G30
  21812550.691   114625722.517 9      -477.768    21812544.778    89318716.92747
      -372.287
  22366931.019   117539020.161 8      2867.150    22366928.201    91588825.41747
      2234.143
  22212751.320   116728780.074 8     -2979.744    22212751.827    90957481.80447
     -2321.881
  20919914.120   109934905.104 9      1083.596    20919910.478    85663551.19348
       844.360
  20881287.526   109731919.745 9     -1884.609    20881286.625    85505390.31448
     -1468.527
  24191402.112   127126671.653 7      -611.130    24191399.043    99059728.71644
      -476.204
  23732349.765   124714333.065 8     -2883.713    23732344.849    97179988.41945
     -2247.052
  21667546.467   113863731.292 9      2695.205    21667546.407    88724988.70047
      2100.160
 18  2 20  8 40 30.0000000  0  8G02G05G06G07G09G16G23G30
  21815330.434   114640330.142 8      -495.887    21815324.490    89330099.49347
      -386.405
  22350584.724   117453119.908 8      2859.729    22350581.902    91521890.16847
      2228.361
  22229794.603   116818343.146 8     -2991.032    22229795.099    91027271.19747
     -2330.675
  20913777.180   109902655.230 9      1066.621    20913773.536    85638421.43348
       831.134
  20892073.731   109788601.527 9     -1894.072    20892072.808    85549557.92848
     -1475.900
  24194948.698   127145309.036 7      -631.162    24194945.609    99074251.35244
      -491.813
  23748822.077   124800895.509 8     -2886.795    23748817.207    97247439.63045
     -2249.452
  21652196.585   113783067.149 9      2682.463    21652196.486    88662133.52048
      2090.230
 18  2 20  8 41  0.0000000  0  8G02G05G06G07G09G16G23G30
  21818215.030   114655488.730 8      -514.340    21818209.088    89341911.35447
      -400.785
  22334282.839   117367453.061 9      2851.750    22334280.016    91455136.79346
      2222.143
  22246903.891   116908252.998 8     -3002.549    22246904.335    91097330.80847
     -2339.648
  20907738.412   109870921.245 9      1049.387    20907734.777    85613693.66748
       817.704
  20902914.847   109845571.884 9     -1903.658    20902913.905    85593950.41448
     -1483.370
  24198611.613   127164557.760 7      -651.700    24198608.498    99089250.36444
      -507.820
  23765313.429   124887558.041 8     -2890.354    23765308.575    97314968.84145
     -2252.226
  21636921.422   113702795.604 9      2669.319    21636921.274    88599584.27048
      2079.989
 18  2 20  8 41 30.0000000  0  8G02G05G06G07G09G16G23G30
  21821204.794   114671200.067 8      -532.842    21821198.886    89354153.94247
      -415.201
  22318026.112   117282023.426 9      2843.700    22318023.281    91388568.24046
      2215.870
  22264079.061   116998509.016 8     -3014.163    22264079.441    91167660.16247
     -2348.697
  20901798.414   109839706.314 9      1031.886    20901794.800    85589370.35648
       804.067
  20913811.073   109902831.823 9     -1913.406    20913810.111    85638568.54448
     -1490.966
  24202391.160   127184419.338 7      -672.349    24202388.056    99104726.91244
      -523.907
  23781824.074   124974321.980 8     -2893.753    23781819.211    97382577.07645
     -2254.873
  21621721.795   113622920.944 9      2655.896    21621721.592    88537344.27748
      2069.527
 18  2 20  8 42  0.0000000  0  8G02G05G06G07G09G16G23G30
  21824299.671   114687463.829 8      -551.082    21824293.769    89366827.00947
      -429.414
  22301814.988   117196833.455 9      2835.865    22301812.144    91322186.44447
      2209.765
  22281319.635   117089108.654 8     -3025.486    22281319.982    91238257.26448
     -2357.523
  20895957.339   109809011.276 9      1014.746    20895953.748    85565452.16148
       790.712
  20924762.223   109960380.368 9     -1922.935    20924761.228    85683411.56648
     -1498.391
  24206287.245   127204893.371 7      -692.419    24206284.146    99120680.72044
      -539.548
  23798353.856   125061186.407 8     -2896.945    23798348.983    97450263.59445
     -2257.361
  21606598.097   113543445.419 9      2642.654    21606597.844    88475415.32648
      2059.212
 18  2 20  8 42 30.0000000  0  8G02G05G06G07G09G16G23G30
  21827499.307   114704277.983 8      -569.541    21827493.404    89379928.92647
      -443.800
  22285649.781   117111884.761 9      2827.603    22285646.922    91255992.65747
      2203.327
  22298624.865   117180047.950 8     -3036.956    22298625.215    91309119.01048
     -2366.461
  20890215.071   109778835.475 9       997.200    20890211.501    85541938.55848
       777.040
  20935767.855   110018215.157 9     -1932.467    20935766.818    85728477.62848
     -1505.818
  24210299.714   127225978.744 7      -712.971    24210296.621    99137110.84244
      -555.563
  23814902.428   125148149.606 8     -2900.359    23814897.542    97518027.08645
     -2260.023
  21591550.509   113464369.931 9      2629.194    21591550.253    88413798.08748
      2048.724
 18  2 20  8 43  0.0000000  0  8G02G05G06G07G09G16G23G30
  21830804.110   114721644.824 9      -588.046    21830798.200    89393461.52647
      -458.216
  22269531.200   117027181.130 9      2819.396    22269528.335    91189989.84447
      2196.935
  22315994.709   117271326.823 8     -3048.200    22315995.071    91380245.37648
     -2375.221
  20884572.256   109749182.284 9       979.855    20884568.703    85518832.17848
       763.523
  20946828.252   110076337.752 9     -1942.141    20946827.167    85773767.95748
     -1513.356
  24214428.819   127247677.232 7      -733.516    24214425.715    99154018.75944
      -571.568
  23831470.141   125235213.434 8     -2903.644    23831465.234    97585869.00545
     -2262.578
  21576579.938   113385699.305 9      2615.607    21576579.719    88352496.33348
      2038.137
 18  2 20  8 43 30.0000000  0  8G02G05G06G07G09G16G23G30
  21834213.191   114739559.558 8      -606.054    21834207.260    89407421.04647
      -472.249
  22253458.888   116942720.584 9      2811.531    22253456.027    91124176.44247
      2190.805
  22333427.808   117362938.103 8     -3059.040    22333428.177    91451630.77348
     -2383.667
  20879028.159   109720047.916 9       962.706    20879024.625    85496130.09348
       750.162
  20957942.360   110134742.610 9     -1951.363    20957941.237    85819278.22448
     -1520.542
  24218673.681   127269984.111 7      -753.430    24218670.570    99171400.75544
      -587.089
  23848056.070   125322372.850 8     -2906.634    23848051.141    97653785.37845
     -2264.911
  21561685.962   113307431.190 9      2602.419    21561685.788    88291508.21248
      2027.861
 18  2 20  8 44  0.0000000  0  8G02G05G06G07G09G16G23G30
  21837726.491   114758022.008 8      -624.270    21837720.550    89421807.37647
      -486.442
  22237433.372   116858505.843 9      2803.326    22237430.507    91058554.55947
      2184.411
  22350923.809   117454879.851 8     -3070.017    22350924.184    91523273.66147
     -2392.222
  20873583.096   109691433.927 9       945.387    20873579.590    85473833.48948
       736.666
  20969110.097   110193429.362 9     -1960.643    20969108.947    85865008.15048
     -1527.772
  24223034.353   127292899.484 7      -773.839    24223031.214    99189256.86744
      -602.990
  23864660.093   125409627.444 8     -2909.559    23864655.138    97721775.93445
     -2267.189
  21546869.149   113229568.451 9      2588.948    21546868.999    88230835.95048
      2017.362
 18  2 20  8 44 30.0000000  0  8G02G05G06G07G09G16G23G30
  21841343.865   114777031.237 9      -642.747    21841337.876    89436619.73147
      -500.844
  22221454.690   116774537.281 9      2794.838    22221451.828    90993124.52347
      2177.796
  22368482.050   117547148.721 8     -3080.897    22368482.428    91595171.45647
     -2400.700
  20868237.080   109663340.479 9       927.824    20868233.603    85451942.50048
       722.980
  20980331.155   110252396.349 9     -1970.173    20980329.981    85910956.43948
     -1535.200
  24227510.642   127316422.502 7      -794.262    24227507.478    99207586.48845
      -618.908
  23881281.957   125496975.742 8     -2913.161    23881276.998    97789839.48145
     -2269.998
  21532129.764   113152112.613 9      2575.159    21532129.622    88170480.77648
      2006.618
 18  2 20  8 45  0.0000000  0  8G02G05G06G07G09G16G23G30
  21845065.714   114796589.596 8      -660.931    21845059.713    89451860.00748
      -515.012
  22205524.146   116690821.644 9      2786.520    22205521.290    90927891.56047
      2171.314
  22386102.597   117639744.926 8     -3091.637    22386102.969    91667324.29248
     -2409.069
  20862990.690   109635770.621 9       910.523    20862987.245    85430459.50048
       709.499
  20991605.876   110311645.376 9     -1979.438    20991604.675    85957124.50848
     -1542.420
  24232102.941   127340555.141 7      -814.289    24232099.776    99226391.13945
      -634.513
  23897922.131   125584420.265 8     -2916.107    23897917.187    97857978.00146
     -2272.295
  21517468.768   113075068.648 9      2561.476    21517468.642    88110446.54448
      1995.957
 18  2 20  8 45 30.0000000  0  8G02G05G06G07G09G16G23G30
  21848892.049   114816697.096 9      -679.356    21848886.027    89467528.19347
      -529.366
  22189642.292   116607361.859 9      2777.686    22189639.418    90862857.96347
      2164.431
  22403785.029   117732666.468 8     -3102.586    22403785.366    91739730.67048
     -2417.600
  20857844.228   109608725.977 9       892.608    20857840.805    85409385.77348
       695.539
  21002934.215   110371176.194 9     -1988.988    21002932.983    86003512.16348
     -1549.861
  24236811.234   127365297.551 7      -834.972    24236808.078    99245670.97844
      -650.626
  23914580.622   125671961.176 8     -2919.667    23914575.716    97926191.64545
     -2275.068
  21502886.711   112998439.498 9      2547.371    21502886.596    88050735.55348
      1984.965
 18  2 20  8 46  0.0000000  0  8G02G05G06G07G09G16G23G30
  21852822.151   114837349.793 8      -697.522    21852816.161    89483621.18348
      -543.526
  22173808.718   116524155.758 9      2769.222    22173805.820    90798022.04047
      2157.835
  22421528.226   117825907.308 9     -3113.385    22421528.517    91812385.85448
     -2426.016
  20852797.226   109582203.877 9       875.370    20852793.799    85388719.19848
       682.106
  21014315.345   110430984.370 9     -1998.264    21014314.096    86050115.91848
     -1557.090
  24241634.880   127390646.058 7      -855.323    24241631.732    99265423.04744
      -666.488
  23931256.661   125759594.384 8     -2922.662    23931251.792    97994477.22145
     -2277.403
  21488383.357   112922223.882 9      2533.558    21488383.238    87991346.78348
      1974.200
 18  2 20  8 46 30.0000000  0  8G02G05G06G07G09G16G23G30
  21856856.034   114858548.028 9      -715.766    21856850.070    89500139.30448
      -557.738
  22158024.014   116441206.508 9      2760.656    22158021.106    90733386.26547
      2151.160
  22439331.843   117919465.627 8     -3123.933    22439332.107    91885288.41548
     -2434.234
  20847849.969   109556205.887 9       857.866    20847846.518    85368461.02048
       668.467
  21025749.216   110491069.775 9     -2007.527    21025747.949    86096935.71448
     -1564.307
  24246573.877   127416600.928 7      -875.304    24246570.713    99285647.64844
      -682.054
  23947950.266   125847319.907 8     -2925.685    23947945.426    98062834.73045
     -2279.756
  21473959.265   112846424.830 9      2519.680    21473959.139    87932282.60848
      1963.388
 18  2 20  8 47  0.0000000  0  8G02G05G06G07G09G16G23G30
  21860993.543   114880290.598 8      -733.954    21860987.631    89517081.52147
      -571.913
  22142288.396   116358515.264 9      2751.833    22142285.484    90668951.54447
      2144.287
  22457195.227   118013338.133 8     -3134.486    22457195.482    91958435.80447
     -2442.455
  20843002.404   109530731.816 9       840.237    20842998.934    85348611.10748
       654.732
  21037235.536   110551430.768 9     -2016.794    21037234.246    86143970.25448
     -1571.526
  24251628.057   127443160.923 7      -895.567    24251624.890    99306343.76044
      -697.844
  23964661.140   125935136.253 8     -2928.972    23964656.311    98131263.03145
     -2282.315
  21459614.689   112771043.821 9      2505.580    21459614.569    87873544.20048
      1952.402
 18  2 20  8 47 30.0000000  0  8G02G05G06G07G09G16G23G30
  21865234.268   114902575.958 8      -751.997    21865228.413    89534446.74547
      -585.971
  22126602.170   116276083.480 9      2743.335    22126599.256    90604718.97847
      2137.664
  22475117.679   118107521.186 8     -3144.619    22475117.920    92031825.18847
     -2450.354
  20838254.499   109505781.451 9       822.802    20838251.037    85329169.26948
       641.145
  21048773.952   110612065.451 9     -2025.703    21048772.645    86191218.05148
     -1578.471
  24256797.075   127470324.327 7      -915.854    24256793.932    99327510.06944
      -713.653
  23981389.088   126023042.161 8     -2931.753    23981384.280    98199761.08245
     -2284.484
  21445349.918   112696082.075 9      2491.682    21445349.812    87815132.46048
      1941.570
 18  2 20  8 48  0.0000000  0  8G02G05G06G07G09G16G23G30
  21869578.246   114925403.761 8      -769.885    21869572.438    89552234.60947
      -599.910
  22110965.983   116193914.692 9      2734.637    22110963.067    90540691.35947
      2130.887
  22493098.739   118202012.217 8     -3154.807    22493098.974    92105454.54547
     -2458.291
  20833606.404   109481355.663 9       805.504    20833602.971    85310136.20348
       627.667
  21060364.272   110672972.891 9     -2034.724    21060362.951    86238678.39448
     -1585.499
  24262080.935   127498091.054 7      -935.496    24262077.845    99349146.46244
      -728.959
  23998133.948   126111037.033 8     -2934.572    23998129.157    98268328.48445
     -2286.680
  21431165.357   112621541.751 9      2477.776    21431165.242    87757049.10348
      1930.735
 18  2 20  8 48 30.0000000  0  8G02G05G06G07G09G16G23G30
  21874025.803   114948775.904 8      -787.771    21874020.020    89570446.66948
      -613.849
  22095380.584   116112012.731 9      2725.988    22095377.674    90476871.64148
      2124.147
  22511138.397   118296811.115 8     -3164.695    22511138.640    92179323.78348
     -2465.999
  20829058.716   109457457.419 9       788.236    20829055.326    85291514.19448
       614.210
  21072006.810   110734154.684 9     -2043.523    21072005.486    86286352.50348
     -1592.356
  24267479.947   127526463.007 7      -955.300    24267476.930    99371254.46245
      -744.390
  24014896.173   126199123.005 8     -2937.261    24014891.410    98336966.84246
     -2288.776
  21417061.916   112547427.589 9      2463.689    21417061.764    87699297.81148
      1919.757
 18  2 20  8 49  0.0000000  0  8G02G05G06G07G09G16G23G30
  21878576.048   114972687.606 8      -805.920    21878570.293    89589079.14948
      -627.989
  22079845.688   116030376.262 9      2716.915    22079842.795    90413258.81548
      2117.076
  22529235.427   118391911.527 8     -3175.005    22529235.692    92253427.97748
     -2474.030
  20824610.880   109434083.868 9       770.491    20824607.522    85273301.04048
       600.383
  21083700.661   110795606.188 9     -2052.764    21083699.339    86334236.78948
     -1599.557
  24272993.194   127555435.378 7      -975.798    24272990.234    99393830.34044
      -760.360
  24031674.787   126287295.151 8     -2940.301    24031670.050    98405672.36945
     -2291.145
  21403039.270   112473737.982 9      2449.330    21403039.067    87641877.34248
      1908.568
 18  2 20  8 49 30.0000000  0  8G02G05G06G07G09G16G23G30
  21883228.998   114997139.031 8      -824.152    21883223.336    89608132.17548
      -642.198
  22064361.753   115949007.645 9      2707.801    22064358.869    90349854.71447
      2109.975
  22547389.486   118487311.503 8     -3185.073    22547389.794    92327765.56247
     -2481.876
  20820263.056   109411235.854 9       752.775    20820259.713    85255497.39948
       586.578
  21095445.778   110857327.116 9     -2061.974    21095444.464    86382331.02048
     -1606.731
  24278620.751   127585008.408 7      -995.905    24278617.818    99416874.25244
      -776.027
  24048469.883   126375553.929 8     -2943.528    24048465.172    98474445.41645
     -2293.661
  21389097.904   112400475.688 9      2434.829    21389097.667    87584789.87748
      1897.270
 18  2 20  8 50  0.0000000  0  8G02G05G06G07G09G16G23G30
  21887984.532   115022129.791 8      -841.867    21887978.953    89627605.50348
      -656.000
  22048929.369   115867909.909 9      2698.990    22048926.484    90286661.68347
      2103.110
  22565600.115   118583008.768 8     -3194.663    22565600.458    92402334.80047
     -2489.350
  20816015.480   109388914.620 9       735.550    20816012.133    85238104.23448
       573.156
  21107242.078   110919316.957 9     -2070.521    21107240.772    86430634.78648
     -1613.392
  24284362.548   127615181.787 7     -1015.410    24284359.603    99440385.97344
      -791.226
  24065281.506   126463899.430 8     -2945.888    24065276.836    98543286.01645
     -2295.498
  21375238.328   112327643.261 9      2420.854    21375238.114    87528037.35348
      1886.382
 18  2 20  8 50 30.0000000  0  8G02G05G06G07G09G16G23G30
  21892842.471   115047658.640 8      -859.803    21892836.986    89647498.09448
      -669.975
  22033548.739   115787084.126 9      2689.612    22033545.852    90223680.55447
      2095.802
  22583866.627   118678999.834 8     -3204.665    22583866.973    92477133.00347
     -2497.141
  20811868.096   109367119.873 9       717.742    20811864.741    85221121.30848
       559.280
  21119089.229   110981573.972 9     -2079.744    21119087.931    86479146.72948
     -1620.581
  24290218.260   127645953.758 7     -1035.689    24290215.260    99464364.12544
      -807.028
  24082109.337   126552330.050 8     -2949.047    24082104.698    98612192.93545
     -2297.962
  21361460.780   112255242.002 9      2406.211    21361460.621    87471620.81048
      1874.971
 18  2 20  8 51  0.0000000  0  8G02G05G06G07G09G16G23G30
  21897802.624   115073724.704 8      -877.479    21897797.208    89667809.31448
      -683.751
  22018220.499   115706533.689 9      2680.737    22018217.593    90160913.98847
      2088.885
  22602188.507   118775281.969 8     -3213.872    22602188.835    92552158.02847
     -2504.317
  20807820.955   109345851.990 9       700.381    20807817.594    85204548.94048
       545.751
  21130987.007   111044097.157 9     -2088.249    21130985.722    86527866.09648
     -1627.207
  24296187.821   127677323.960 7     -1055.209    24296184.782    99488808.41345
      -822.244
  24098953.253   126640845.229 8     -2951.582    24098948.627    98681165.76145
     -2299.935
  21347765.659   112183273.934 9      2392.046    21347765.562    87415541.83048
      1863.933
 18  2 20  8 51 30.0000000  0  8G02G05G06G07G09G16G23G30
  21902864.479   115100325.218 8      -895.882    21902859.129    89688537.00047
      -698.089
  22002944.634   115626258.435 9      2670.945    22002941.691    90098361.84147
      2081.256
  22620564.913   118871850.658 8     -3224.015    22620565.244    92627406.32947
     -2512.219
  20803873.815   109325109.732 9       682.411    20803870.470    85188386.16448
       531.750
  21142934.889   111106883.698 9     -2097.609    21142933.632    86576790.67448
     -1634.501
  24302270.629   127709289.366 7     -1075.558    24302267.580    99513716.53244
      -838.095
  24115812.768   126729442.327 8     -2954.891    24115808.129    98750202.41545
     -2302.514
  21334153.016   112111739.223 9      2376.984    21334152.980    87359800.52948
      1852.196
 18  2 20  8 52  0.0000000  0  8G02G05G06G07G09G16G23G30
  21908028.209   115127460.889 8      -913.660    21908022.896    89709681.65248
      -711.944
  21987721.699   115546261.374 9      2661.846    21987718.726    90036026.47847
      2074.166
  22638995.563   118968704.356 8     -3233.460    22638995.918    92702876.70447
     -2519.580
  20800027.021   109304894.746 9       664.757    20800023.708    85172634.23548
       517.993
  21154932.918   111169933.818 9     -2106.201    21154931.709    86625920.62948
     -1641.195
  24308466.903   127741850.864 7     -1095.512    24308463.848    99539089.11844
      -853.648
  24132688.048   126818122.177 8     -2957.635    24132683.396    98819303.53446
     -2304.652
  21320623.467   112040641.123 9      2362.396    21320623.480    87304399.44848
      1840.829
 18  2 20  8 52 30.0000000  0  8G02G05G06G07G09G16G23G30
  21913294.007   115155132.978 8      -931.207    21913288.744    89731244.31147
      -725.616
  21972552.596   115466547.250 9      2652.586    21972549.612    89973911.58247
      2066.950
  22657480.322   119065842.378 8     -3242.518    22657480.693    92778568.65347
     -2526.638
  20796281.065   109285209.643 9       647.400    20796277.774    85157295.20248
       504.468
  21166981.296   111233248.611 9     -2114.705    21166980.130    86675256.83648
     -1647.822
  24314776.660   127775008.722 7     -1115.047    24314773.607    99564926.40544
      -868.868
  24149579.311   126906886.243 8     -2960.173    24149574.632    98888470.32645
     -2306.628
  21307177.775   111969983.653 9      2348.050    21307177.823    87249341.71648
      1829.650
 18  2 20  8 53  0.0000000  0  8G02G05G06G07G09G16G23G30
  21918660.708   115183335.264 8      -949.013    21918655.453    89753220.12247
      -739.488
  21957436.698   115387112.706 9      2643.058    21957433.708    89912014.53747
      2059.526
  22676017.782   119163257.188 8     -3251.840    22676018.142    92854476.28147
     -2533.901
  20792635.045   109266049.705 9       629.917    20792631.764    85142365.38948
       490.845
  21179078.940   111296822.243 9     -2123.469    21179077.794    86724794.72748
     -1654.650
  24321198.982   127808757.942 7     -1134.982    24321195.922    99591224.45644
      -884.404
  24166485.511   126995728.668 7     -2962.810    24166480.824    98957698.12945
     -2308.684
  21293815.401   111899763.988 9      2333.280    21293815.477    87194625.12648
      1818.144
 18  2 20  8 53 30.0000000  0  8G02G05G06G07G09G16G23G30
  21924129.672   115212074.819 8      -967.227    21924124.417    89775614.58447
      -753.682
  21942375.955   115307968.036 9      2632.992    21942372.961    89850343.38047
      2051.684
  22694608.854   119260953.666 8     -3261.487    22694609.188    92930603.39647
     -2541.417
  20789090.518   109247423.103 9       611.741    20789087.228    85127851.16148
       476.683
  21191227.121   111360661.371 9     -2132.694    21191225.967    86774539.48948
     -1661.840
  24327735.089   127843105.353 7     -1155.170    24327732.011    99617988.68244
      -900.129
  24183407.968   127084656.725 7     -2965.847    24183403.285    99026992.67945
     -2311.050
  21280538.165   111829991.728 9      2317.929    21280538.267    87140257.16048
      1806.180
 18  2 20  8 54  0.0000000  0  8G02G05G06G07G09G16G23G30
  21929700.021   115241347.103 8      -984.906    21929694.765    89798424.13447
      -767.461
  21927370.187   115229112.209 9      2623.360    21927367.191    89788897.28747
      2044.177
  22713252.366   119358925.591 8     -3270.665    22713252.692    93006945.12147
     -2548.570
  20785646.883   109229326.655 9       594.005    20785643.572    85113750.03548
       462.862
  21203425.002   111424761.552 9     -2141.392    21203423.823    86824487.65248
     -1668.617
  24334384.212   127878046.483 7     -1174.978    24334381.138    99645215.47844
      -915.570
  24200345.961   127173666.471 7     -2968.693    24200341.308    99096350.86245
     -2313.268
  21267345.782   111760665.327 9      2302.969    21267345.893    87086236.60648
      1794.522
 18  2 20  8 54 30.0000000  0  8G02G05G06G07G09G16G23G30
  21935370.846   115271147.445 8     -1002.186    21935365.643    89821645.13747
      -780.924
  21912418.952   115150542.981 9      2614.089    21912415.951    89727674.52847
      2036.953
  22731947.002   119457166.199 8     -3279.097    22731947.344    93083496.20948
     -2555.141
  20782303.420   109211756.662 9       576.916    20782300.097    85100059.14048
       449.545
  21215671.598   111489117.762 9     -2149.525    21215670.390    86874635.33248
     -1674.955
  24341145.170   127913575.578 7     -1193.901    24341142.052    99672900.48543
      -930.315
  24217298.571   127262753.143 7     -2970.865    24217293.949    99165769.00745
     -2314.961
  21254237.858   111691782.703 9      2288.564    21254237.947    87032561.85148
      1783.298
 18  2 20  8 55  0.0000000  0  8G02G05G06G07G09G16G23G30
  21941141.673   115301473.403 8     -1019.564    21941136.517    89845275.73748
      -794.466
  21897522.545   115072261.807 9      2604.628    21897519.526    89666676.21947
      2029.581
  22750692.010   119555671.552 8     -3287.802    22750692.381    93160253.58848
     -2561.923
  20779059.977   109194712.330 9       559.343    20779056.662    85086777.85348
       435.853
  21227966.504   111553727.853 9     -2157.880    21227965.282    86924980.84148
     -1681.464
  24348017.771   127949691.287 7     -1213.450    24348014.580    99701042.58444
      -945.547
  24234265.455   127351914.728 7     -2973.377    24234260.861    99235245.50945
     -2316.920
  21241214.519   111623344.519 9      2273.899    21241214.568    86979233.40648
      1771.871
 18  2 20  8 55 30.0000000  0  8G02G05G06G07G09G16G23G30
  21947013.052   115332327.656 8     -1037.359    21947007.930    89869318.00247
      -808.332
  21882681.961   114994273.899 9      2594.718    21882678.899    89605906.41847
      2021.858
  22769487.552   119654442.450 8     -3296.845    22769487.960    93237217.86348
     -2568.971
  20775917.317   109178197.635 9       541.578    20775914.024    85073909.26748
       422.010
  21240310.199   111618594.405 9     -2166.454    21240308.990    86975526.19448
     -1688.145
  24355002.396   127986395.595 7     -1233.339    24354999.182    99729643.31244
      -961.044
  24251247.253   127441154.616 7     -2976.054    24251242.685    99304783.02745
     -2319.004
  21228276.814   111555356.367 9      2258.648    21228276.823    86926255.64048
      1759.985
 18  2 20  8 56  0.0000000  0  8G02G05G06G07G09G16G23G30
  21952984.993   115363710.310 8     -1054.958    21952979.885    89893772.00548
      -822.046
  21867897.950   114916583.286 9      2584.693    21867894.832    89545368.28548
      2014.048
  22788333.346   119753477.493 8     -3305.600    22788333.789    93314387.96748
     -2575.793
  20772875.810   109162214.479 9       523.821    20772872.534    85061454.86648
       408.174
  21252702.774   111683717.869 9     -2175.119    21252701.606    87026271.73548
     -1694.898
  24362099.145   128023689.218 7     -1253.066    24362095.927    99758703.28444
      -976.410
  24268244.067   127530473.363 7     -2978.638    24268239.525    99374381.99145
     -2321.018
  21215425.360   111487821.466 9      2243.521    21215425.333    86873631.04548
      1748.198
 18  2 20  8 56 30.0000000  0  8G02G05G06G07G09G16G23G30
  21959056.777   115395617.603 8     -1072.113    21959051.667    89918634.80747
      -835.413
  21853170.357   114839189.210 9      2575.093    21853167.188    89485061.22747
      2006.566
  22807228.302   119852770.991 8     -3313.727    22807228.767    93391759.48147
     -2582.126
  20769934.810   109146759.493 9       506.671    20769931.541    85049412.03048
       394.809
  21265143.470   111749094.230 9     -2183.061    21265142.357    87077214.34048
     -1701.088
  24369307.325   128061568.197 7     -1272.167    24369304.122    99788219.33944
      -991.299
  24285255.230   127619867.455 7     -2980.857    24285250.715    99444039.66145
     -2322.746
  21202659.920   111420738.723 9      2228.856    21202659.863    86821358.79248
      1736.771
 18  2 20  8 57  0.0000000  0  8G02G05G06G07G09G16G23G30
  21965228.607   115428050.781 8     -1089.726    21965223.478    89943907.42547
      -849.136
  21838499.941   114762095.630 9      2564.855    21838496.738    89424988.31347
      1998.589
  22826172.241   119952321.913 8     -3322.536    22826172.726    93469331.58147
     -2588.990
  20767094.804   109131835.200 9       488.747    20767091.532    85037782.71548
       380.842
  21277632.480   111814724.447 9     -2191.785    21277631.423    87128354.74548
     -1707.885
  24376626.973   128100032.970 7     -1291.920    24376623.769    99818191.85544
     -1006.689
  24302280.918   127709337.868 7     -2983.463    24302276.426    99513756.79946
     -2324.777
  21189981.215   111354111.870 9      2213.396    21189981.150    86769441.77948
      1724.725
 18  2 20  8 57 30.0000000  0  8G02G05G06G07G09G16G23G30
  21971499.961   115461006.829 9     -1107.084    21971494.796    89969587.45948
      -862.663
  21823886.924   114685303.702 9      2554.897    21823883.695    89365150.44547
      1990.829
  22845164.356   120052126.080 8     -3330.663    22845164.865    93547101.02347
     -2595.323
  20764355.552   109117440.331 9       471.161    20764352.260    85026565.93848
       367.138
  21290169.310   111880606.004 9     -2200.110    21290168.308    87179691.00948
     -1714.372
  24384057.604   128139080.903 7     -1311.099    24384054.385    99848618.74144
     -1021.641
  24319320.812   127798882.892 7     -2985.853    24319316.362    99583532.05845
     -2326.642
  21177389.329   111287941.262 9      2198.284    21177389.278    86717880.27648
      1712.947
 18  2 20  8 58  0.0000000  0  8G02G05G06G07G09G16G23G30
  21977870.202   115494482.435 9     -1124.503    21977865.008    89995672.34648
      -876.236
  21809331.234   114608813.046 9      2544.673    21809327.993    89305547.33448
      1982.861
  22864203.724   120152178.589 8     -3339.196    22864204.249    93625063.97647
     -2601.973
  20761716.647   109103572.774 9       453.464    20761713.333    85015760.05748
       353.348
  21302753.390   111946735.846 9     -2208.444    21302752.434    87231220.74548
     -1720.866
  24391598.566   128178708.857 7     -1330.602    24391595.312    99879497.64444
     -1036.838
  24336374.399   127888499.852 8     -2988.338    24336370.006    99653363.37045
     -2328.578
  21164884.194   111222226.587 9      2182.938    21164884.167    86666674.05848
      1700.990
 18  2 20  8 58 30.0000000  0  8G02G05G06G07G09G16G23G30
  21984339.678   115528479.430 9     -1141.759    21984334.456    90022163.50148
      -889.682
  21794833.892   114532629.018 9      2534.479    21794830.655    89246183.15947
      1974.918
  22883290.325   120252479.402 8     -3347.371    22883290.861    93703220.43347
     -2608.342
  20759178.677   109090235.567 9       435.775    20759175.347    85005367.42348
       339.565
  21315385.066   112013115.762 9     -2216.733    21315384.142    87282945.34348
     -1727.325
  24399250.214   128218918.597 7     -1350.148    24399246.928    99910829.92344
     -1052.065
  24353442.043   127978190.693 8     -2990.898    24353437.718    99723252.26745
     -2330.572
  21152466.726   111156972.481 9      2167.553    21152466.718    86615826.71348
      1689.002
 18  2 20  8 59  0.0000000  0  8G02G05G06G07G09G16G23G30
  21990907.834   115562994.855 8     -1159.175    21990902.593    90049058.59048
      -903.256
  21780394.909   114456751.644 9      2524.115    21780391.668    89187057.93947
      1966.843
  22902423.323   120353023.898 8     -3355.527    22902423.890    93781566.74747
     -2614.698
  20756741.311   109077427.107 9       418.199    20756737.959    84995386.81048
       325.870
  21328063.801   112079742.907 9     -2224.977    21328062.898    87334862.57848
     -1733.749
  24407011.907   128259706.569 6     -1369.191    24407008.607    99942612.74845
     -1066.903
  24370523.322   128067953.018 8     -2993.181    24370519.066    99793196.84645
     -2332.352
  21140136.912   111092178.866 9      2152.154    21140136.896    86565338.19648
      1677.004
 18  2 20  8 59 30.0000000  0  8G02G05G06G07G09G16G23G30
  21997574.702   115598029.196 8     -1176.321    21997569.440    90076358.05247
      -916.615
  21766015.030   114381184.865 9      2513.771    21766011.775    89128174.74747
      1958.783
  22921602.488   120453811.049 8     -3363.651    22921603.105    93860102.16247
     -2621.028
  20754404.917   109065149.294 9       400.428    20754401.547    84985819.69248
       312.021
  21340789.747   112146618.123 9     -2233.267    21340788.857    87386973.11548
     -1740.210
  24414883.838   128301073.795 7     -1388.409    24414880.555    99974846.90844
     -1081.880
  24387618.413   128157787.915 8     -2995.608    24387614.227    99863197.98445
     -2334.242
  21127895.425   111027849.288 9      2136.654    21127895.372    86515211.26748
      1664.926
                            4  1
RINEX FILE SPLICE; other post-header comments skipped       COMMENT
 18  2 20  9  0  0.0000000  0  8G02G05G06G07G09G16G23G30
  22004339.964   115633580.709 8     -1193.614    22004334.674    90104060.51447
      -930.089
  21751694.579   114305930.335 9      2503.317    21751691.284    89069534.85747
      1950.638
  22940827.168   120554837.348 8     -3371.396    22940827.849    93938823.91647
     -2627.061
  20752169.409   109053401.668 9       382.776    20752166.033    84976665.70548
       298.268
  21353562.579   112213739.737 9     -2241.374    21353561.695    87439275.65748
     -1746.525
  24422865.549   128343018.235 7     -1407.743    24422862.262   100007530.92244
     -1096.937
  24404727.103   128247694.233 8     -2997.995    24404722.993    99933254.77246
     -2336.101
  21115742.453   110963984.821 9      2121.034    21115742.340    86465446.76648
      1652.754
 18  2 20  9  0 30.0000000  0  8G02G05G06G07G09G16G23G30
  22011203.289   115669647.739 8     -1210.500    22011197.991    90132164.70747
      -943.247
  21737433.845   114230989.637 9      2492.995    21737430.487    89011139.50847
      1942.595
  22960096.767   120656099.656 8     -3379.130    22960097.499    94017729.56047
     -2633.090
  20750034.700   109042183.783 9       365.379    20750031.321    84967924.51148
       284.712
  21366382.052   112281106.409 9     -2249.359    21366381.173    87491769.14248
     -1752.748
  24430956.889   128385538.595 7     -1426.612    24430953.565   100040663.67444
     -1111.644
  24421849.178   128337670.921 8     -3000.130    24421845.149   100003366.38945
     -2337.765
  21103678.236   110900586.852 9      2105.645    21103678.063    86416045.78148
      1640.763
 18  2 20  9  1  0.0000000  0  9G02G05G06G07G09G13G16G23G30
  22018164.044   115706226.806 8     -1228.256    22018158.724    90160667.89248
      -957.081
  21723232.887   114156363.176 9      2481.875    21723229.460    88952989.02747
      1933.929
  22979410.256   120757592.749 8     -3387.412    22979411.023    94096815.05847
     -2639.544
  20748000.347   109031493.304 9       347.120    20747996.962    84959594.28248
       270.483
  21379247.509   112348714.790 9     -2257.982    21379246.625    87544450.98848
     -1759.466
  24707691.707   129839797.489 7      3318.219

  24439156.987   128428630.383 6     -1446.472    24439153.624   100074241.68044
     -1127.121
  24438984.102   128427715.129 8     -3003.046    24438980.152   100073530.60646
     -2340.039
  21091702.664   110837654.720 9      2089.556    21091702.437    86367007.78348
      1628.226
 18  2 20  9  1 30.0000000  0  9G02G05G06G07G09G13G16G23G30
  22025221.091   115743311.843 8     -1245.016    22025215.784    90189565.32447
      -970.142
  21709091.264   114082048.537 9      2471.493    21709087.768    88895081.51647
      1925.840
  22998766.279   120859309.339 8     -3394.731    22998767.073    94176074.70647
     -2645.247
  20746065.510   109021325.746 9       329.768    20746062.108    84951671.51548
       256.962
  21392157.925   112416559.421 9     -2265.846    21392157.033    87597316.92648
     -1765.594
  24688753.791   129740277.091 7      3315.510    24688749.401   101096301.08345
      2583.515
  24447464.785   128472288.095 6     -1465.050    24447461.449   100108260.64045
     -1141.599
  24456130.915   128517821.882 8     -3005.099    24456127.033   100143743.56645
     -2341.639
  21079815.197   110775185.633 9      2074.167    21079814.925    86318330.60148
      1616.236
 18  2 20  9  2  0.0000000  0  9G02G05G06G07G09G13G16G23G30
  22032377.108   115780916.953 8     -1262.165    22032371.811    90218867.99748
      -983.506
  21695012.165   114008062.441 9      2460.670    21695008.602    88837430.00747
      1917.405
  23018167.173   120961261.615 8     -3402.354    23018167.966    94255518.00747
     -2651.187
  20744233.117   109011696.456 9       311.941    20744229.683    84944168.17448
       243.071
  21405115.973   112484654.357 9     -2274.062    21405115.072    87650377.91148
     -1771.996
  24669833.528   129640850.065 7      3312.587    24669829.265   101018825.49544
      2581.241
  24455882.886   128516525.649 6     -1484.523    24455879.616   100142731.44346
     -1156.772
  24473292.352   128608005.459 8     -3007.416    24473288.550   100214016.36945
     -2343.444
  21068019.031   110713196.360 9      2058.312    21068018.732    86270027.29648
      1603.882
 18  2 20  9  2 30.0000000  0  9G02G05G06G07G09G13G16G23G30
  22039629.545   115819028.733 8     -1278.992    22039624.240    90248565.48447
      -996.617
  21680993.816   113934395.538 9      2450.178    21680990.190    88780027.22147
      1909.230
  23037610.145   121063434.888 8     -3409.574    23037610.901    94335133.52147
     -2656.812
  20742500.945   109002593.770 9       294.608    20742497.480    84937075.17248
       229.565
  21418119.207   112552986.739 9     -2281.788    21418118.303    87703623.91348
     -1778.017
  24650928.949   129541505.797 7      3310.193    24650924.804   100941414.41044
      2579.374
  24464408.805   128561329.774 6     -1502.961    24464405.646   100177643.71745
     -1171.139
  24490466.043   128698253.483 8     -3009.430    24490462.313   100284339.39846
     -2345.013
  21056312.225   110651676.695 9      2042.750    21056311.907    86222089.91548
      1591.755
 18  2 20  9  3  0.0000000  0  9G02G05G06G07G09G13G16G23G30
  22046978.170   115857645.928 9     -1295.668    22046972.806    90278656.79747
     -1009.611
  21667036.589   113861049.815 9      2439.363    21667032.905    88722874.71647
      1900.803
  23057094.642   121165826.257 8     -3416.839    23057095.349    94414918.97247
     -2662.474
  20740868.837   108994016.911 9       277.138    20740865.349    84930391.91248
       215.951
  21431167.420   112621555.519 9     -2289.595    21431166.519    87757054.12348
     -1784.100
  24632040.257   129442245.164 7      3307.223    24632036.206   100864068.53844
      2577.059
  24473042.214   128606698.744 7     -1521.762    24473039.138   100212996.14546
     -1185.789
  24507651.830   128788565.041 8     -3011.353    24507648.160   100354711.93045
     -2346.514
  21044695.070   110590628.162 9      2027.061    21044694.717    86174519.64648
      1579.528
 18  2 20  9  3 30.0000000  0  9G02G05G06G07G09G13G16G23G30
  22054423.505   115896771.283 8     -1312.559    22054418.081    90309144.07647
     -1022.772
  21653141.754   113788031.893 9      2428.522    21653138.037    88665977.63247
      1892.355
  23076620.905   121268437.028 8     -3423.897    23076621.569    94494875.36747
     -2667.975
  20739337.633   108985970.272 9       259.561    20739334.138    84924121.79948
       202.255
  21444261.232   112690363.845 9     -2297.572    21444260.347    87810670.96648
     -1790.316
  24613168.401   129343072.868 7      3304.598    24613164.347   100786791.43644
      2575.010
  24481783.660   128652635.177 7     -1540.452    24481780.638   100248790.71544
     -1200.355
  24524850.481   128878944.183 8     -3013.598    24524846.864   100425137.12345
     -2348.261
  21033168.693   110530056.558 9      2011.228    21033168.276    86127320.98948
      1567.190
 18  2 20  9  4  0.0000000  0  9G02G05G06G07G09G13G16G23G30
  22061965.089   115936402.470 8     -1329.460    22061959.607    90340025.52647
     -1035.943
  21639309.498   113715342.887 9      2417.411    21639305.758    88609336.86647
      1883.697
  23096188.171   121371263.379 8     -3431.228    23096188.812    94574999.76247
     -2673.686
  20737907.140   108978453.033 9       241.712    20737903.643    84918264.23148
       188.349
  21457400.234   112759409.782 9     -2305.554    21457399.371    87864472.98048
     -1796.536
  24594313.278   129243988.622 8      3301.168    24594309.244   100709582.97444
      2572.339
  24490632.601   128699136.605 6     -1559.456    24490629.613   100285025.57545
     -1215.162
  24542061.608   128969388.872 8     -3016.041    24542058.019   100495613.39545
     -2350.166
  21021733.190   110469962.537 9      1995.094    21021732.680    86080494.49648
      1554.618
 18  2 20  9  4 30.0000000  0  9G02G05G06G07G09G13G16G23G30
  22069602.427   115976536.807 8     -1346.059    22069596.909    90371299.03647
     -1048.877
  21625540.076   113642984.023 9      2406.564    21625536.333    88552953.33847
      1875.245
  23115795.714   121474301.324 8     -3437.960    23115796.354    94655289.01547
     -2678.930
  20736577.127   108971463.875 9       224.268    20736573.645    84912818.14248
       174.754
  21470584.031   112828691.163 9     -2313.229    21470583.203    87918458.45248
     -1802.517
  24575475.019   129144992.969 8      3298.498    24575471.019   100632443.52045
      2570.259
  24499588.691   128746201.039 7     -1577.847    24499585.731   100321699.12744
     -1229.490
  24559284.910   129059897.480 8     -3018.101    24559281.326   100566139.46545
     -2351.769
  21010388.656   110410346.514 9      1979.318    21010388.057    86034040.45648
      1542.326
 18  2 20  9  5  0.0000000  0  9G02G05G06G07G09G13G16G23G30
  22077335.135   116017172.241 8     -1363.039    22077329.587    90402962.99248
     -1062.108
  21611833.669   113570956.289 9      2395.186    21611829.929    88496827.82548
      1866.377
  23135442.836   121577547.366 7     -3445.150    23135443.489    94735740.42447
     -2684.534
  20735347.440   108965001.955 9       206.416    20735343.981    84907782.87848
       160.843
  21483812.327   112898206.404 9     -2321.289    21483811.545    87972626.14748
     -1808.799
  24556653.566   129046085.954 7      3295.198    24556649.579   100555373.17345
      2567.687
  24508651.474   128793825.962 7     -1596.857    24508648.548   100358809.39544
     -1244.308
  24576520.148   129150468.813 8     -3020.145    24576516.550   100636714.41645
     -2353.364
  20999135.271   110351209.461 9      1963.041    20999134.612    85987959.62748
      1529.642
 18  2 20  9  5 30.0000000  0  9G02G05G06G07G09G13G16G23G30
  22085163.812   116058312.148 8     -1380.042    22085158.228    90435020.06747
     -1075.356
  21598191.650   113499266.985 9      2383.678    21598187.917    88440966.03347
      1857.410
  23155129.869   121681003.291 7     -3452.359    23155130.566    94816355.35546
     -2690.152
  20734218.914   108959071.724 9       188.554    20734215.480    84903161.92948
       146.926
  21497085.804   112967959.128 9     -2329.221    21497085.069    88026978.90948
     -1814.979
  24537849.998   128947272.958 7      3291.882    24537846.076   100478376.04144
      2565.105
  24517821.405   128842014.025 7     -1615.874    24517818.485   100396358.50744
     -1259.128
  24593768.134   129241107.160 8     -3022.631    24593764.501   100707341.60045
     -2355.300
  20987974.193   110292557.587 9      1946.664    20987973.505    85942256.87048
      1516.881
 18  2 20  9  6  0.0000000  0  9G02G05G06G07G09G13G16G23G30
  22093086.800   116099947.589 8     -1396.324    22093081.191    90467463.23947
     -1088.046
  21584613.006   113427910.742 9      2372.696    21584609.287    88385363.76847
      1848.854
  23174854.872   121784659.041 7     -3458.845    23174855.625    94897126.01347
     -2695.207
  20733190.213   108953666.042 9       171.175    20733186.808    84898949.71348
       133.383
  21510402.939   113037941.239 9     -2336.823    21510402.252    88081510.41248
     -1820.902
  24519063.107   128848547.642 7      3288.995    24519059.307   100401447.24445
      2562.850
  24527096.911   128890757.064 6     -1634.401    24527093.980   100434340.10044
     -1273.560
  24611027.310   129331804.316 8     -3024.616    24611023.625   100778014.61745
     -2356.846
  20976904.344   110234385.209 9      1930.786    20976903.654    85896927.75148
      1504.508
 18  2 20  9  6 30.0000000  0  9G02G05G06G07G09G13G16G23G30
  22101104.296   116142079.797 8     -1412.419    22101098.656    90500293.52447
     -1100.586
  21571098.673   113356892.433 9      2361.839    21571094.968    88330024.82048
      1840.394
  23194617.807   121888514.176 8     -3464.928    23194618.631    94978052.03047
     -2699.946
  20732261.844   108948787.535 9       154.038    20732258.463    84895148.27948
       120.029
  21523764.005   113108154.118 9     -2343.957    21523763.360    88136221.72748
     -1826.460
  24500293.628   128749913.719 7      3286.436    24500289.966   100324589.66045
      2560.860
  24536478.096   128940055.514 6     -1652.349    24536475.160   100472754.47244
     -1287.548
  24628298.041   129422562.245 8     -3026.093    24628294.290   100848735.00645
     -2357.995
  20965926.491   110176696.296 9      1915.139    20965925.811    85851975.35848
      1492.316
 18  2 20  9  7  0.0000000  0  9G02G05G06G07G09G13G16G23G30
  22109216.262   116184708.390 8     -1429.245    22109210.594    90533510.59547
     -1113.698
  21557649.295   113286215.506 9      2350.198    21557645.588    88274951.89247
      1831.323
  23214418.350   121992567.008 8     -3471.682    23214419.227    95059132.12646
     -2705.206
  20731433.878   108944436.600 9       136.181    20731430.508    84891757.94848
       106.114
  21537169.043   113178598.002 9     -2352.010    21537168.429    88191113.04848
     -1832.736
  24481541.895   128651372.854 7      3282.979    24481538.317   100247804.59945
      2558.166
  24545964.909   128989909.044 6     -1671.246    24545962.030   100511601.35745
     -1302.270
  24645580.462   129513381.609 8     -3028.240    24645576.649   100919503.26945
     -2359.670
  20955041.160   110119493.559 9      1898.688    20955040.485    85807401.80048
      1479.497
 18  2 20  9  7 30.0000000  0  8G02G05G06G07G09G13G23G30
  22117421.428   116227826.828 8     -1445.770    22117415.736    90567109.38447
     -1126.573
  21544264.292   113215876.866 9      2338.605    21544260.578    88220142.56247
      1822.290
  23234255.054   122096809.712 8     -3478.278    23234255.968    95140360.15847
     -2710.347
  20730705.339   108940608.030 9       118.543    20730701.964    84888774.64748
        92.371
  21550616.902   113249266.870 9     -2359.682    21550616.311    88246179.68048
     -1838.713
  24462807.141   128552921.102 8      3279.838    24462803.610   100171088.99145
      2555.720
  24662873.491   129604256.720 8     -3030.349    24662869.631   100990314.96545
     -2361.313
  20944247.675   110062773.467 9      1882.226    20944246.995    85763204.33748
      1466.670
 18  2 20  9  8  0.0000000  0  7G02G05G06G07G09G13G30
  22125723.540   116271454.608 8     -1461.704    22125717.861    90601105.03747
     -1138.991
  21530948.061   113145899.640 9      2327.622    21530944.336    88165614.85947
      1813.731
  23254131.361   122201260.447 8     -3483.917    23254132.292    95221750.30047
     -2714.742
  20730080.240   108937322.987 9       101.504    20730076.854    84886214.87348
        79.094
  21564111.419   113320180.868 9     -2366.804    21564110.846    88301437.31348
     -1844.263
  24444093.595   128454580.662 7      3277.393    24444090.086   100094460.10644
      2553.816
  20933550.325   110006558.545 9      1866.519    20933549.644    85719400.50548
      1454.431
 18  2 20  9  8 30.0000000  0  7G02G05G06G07G09G13G30
  22134115.475   116315554.537 8     -1478.201    22134109.817    90635468.61247
     -1151.846
  21517694.224   113076250.301 9      2315.798    21517690.482    88111342.65547
      1804.518
  23274039.939   122305880.693 8     -3490.316    23274040.876    95303272.53847
     -2719.731
  20729551.714   108934545.475 9        83.850    20729548.318    84884050.59248
        65.337
  21577645.591   113391303.314 9     -2374.609    21577645.037    88356857.38748
     -1850.346
  24425394.535   128356316.297 7      3273.966    24425391.042   100017890.48944
      2551.144
  20922942.582   109950814.574 9      1849.963    20922941.911    85675963.65948
      1441.529
 18  2 20  9  9  0.0000000  0  7G02G05G06G07G09G13G30
  22142600.689   116360144.638 8     -1494.447    22142595.091    90670214.10047
     -1164.506
  21504507.061   113006951.286 9      2304.186    21504503.303    88057343.42348
      1795.469
  23293984.021   122410687.394 8     -3496.492    23293984.953    95384940.06447
     -2724.541
  20729123.512   108932295.135 9        66.323    20729120.113    84882297.08548
        51.680
  21591223.016   113462653.032 9     -2382.083    21591222.482    88412454.55048
     -1856.170
  24406713.995   128258149.176 7      3270.804    24406710.474    99941396.63244
      2548.678
  20912428.511   109895562.821 9      1833.597    20912427.861    85632910.35548
      1428.776
 18  2 20  9  9 30.0000000  0  7G02G05G06G07G09G13G30
  22151178.946   116405223.924 8     -1510.650    22151173.385    90705340.81847
     -1177.131
  21491387.068   112938005.231 9      2292.450    21491383.298    88003619.22748
      1786.325
  23313963.151   122515678.184 8     -3502.440    23313964.036    95466751.04647
     -2729.175
  20728795.625   108930572.045 9        48.883    20728792.217    84880954.43248
        38.091
  21604843.600   113534229.569 9     -2389.471    21604843.081    88468228.45648
     -1861.926
  24388052.109   128160080.248 7      3267.344    24388048.519    99864979.31844
      2545.984
  20902008.471   109840805.239 9      1817.056    20902007.843    85590242.13448
      1415.889
 18  2 20  9 10  0.0000000  0  7G02G05G06G07G09G13G30
  22159849.618   116450788.753 8     -1526.696    22159844.101    90740845.85347
     -1189.635
  21478334.292   112869412.367 9      2280.682    21478330.535    87950170.23648
      1777.154
  23333976.450   122620848.396 8     -3508.413    23333977.247    95548701.84346
     -2733.830
  20728567.651   108929374.005 9        31.455    20728564.232    84880020.89648
        24.511
  21618506.835   113606030.172 9     -2396.797    21618506.318    88524176.95348
     -1867.636
  24369408.846   128062109.190 7      3264.264    24369405.224    99788638.22844
      2543.584
  20891682.394   109786541.369 9      1800.795    20891681.790    85547958.61148
      1403.218
 18  2 20  9 10 30.0000000  0  7G02G05G06G07G09G13G30
  22168612.356   116496837.354 8     -1542.979    22168606.877    90776727.84747
     -1202.323
  21465349.030   112801174.402 9      2268.661    21465345.316    87896997.80648
      1767.787
  23354023.355   122726194.984 8     -3514.478    23354024.039    95630790.04847
     -2738.556
  20728439.522   108928700.688 9        13.722    20728436.094    84879496.23548
        10.691
  21632212.497   113678053.683 9     -2404.495    21632211.959    88580299.14748
     -1873.634
  24350784.162   127964236.064 7      3260.732    24350780.536    99712373.48644
      2540.832
  20881450.502   109732772.451 9      1784.099    20881449.904    85506060.77348
      1390.207
 18  2 20  9 11  0.0000000  0  7G02G05G06G07G09G13G30
  22177467.398   116543370.938 8     -1559.535    22177461.984    90812987.73947
     -1215.223
  21452432.058   112733295.288 9      2256.273    21452428.400    87844104.99548
      1758.135
  23374103.675   122831717.089 8     -3520.725    23374104.246    95713015.01847
     -2743.424
  20728411.553   108928553.723 9        -4.226    20728408.121    84879381.72348
        -3.292
  21645960.795   113750301.204 9     -2412.232    21645960.235    88636595.88048
     -1879.663
  24332178.762   127866464.322 8      3257.091    24332175.134    99636187.72744
      2537.989
  20871313.450   109679501.891 9      1767.053    20871312.836    85464551.26648
      1376.926
 18  2 20  9 11 30.0000000  0  7G02G05G06G07G09G13G30
  22186414.038   116590385.814 8     -1575.300    22186408.680    90849622.66747
     -1227.507
  21439583.573   112665776.083 9      2244.470    21439579.963    87791492.64448
      1748.937
  23394216.585   122937410.469 7     -3526.113    23394217.061    95795373.44546
     -2747.623
  20728483.433   108928931.462 9       -21.531    20728479.987    84879676.08048
       -16.776
  21659751.241   113822770.363 9     -2419.511    21659750.668    88693065.33248
     -1885.333
  24313592.551   127768793.397 8      3253.811    24313588.921    99560080.51645
      2535.437
  20861271.224   109626729.632 9      1750.610    20861270.578    85423430.04448
      1364.113
 18  2 20  9 12  0.0000000  0  7G02G05G06G07G09G13G30
  22195451.819   116637879.511 8     -1591.224    22195446.504    90886630.68547
     -1239.915
  21426804.014   112598619.002 9      2232.453    21426800.445    87739162.45448
      1739.574
  23414361.425   123043271.779 7     -3531.603    23414361.853    95877862.70347
     -2751.901
  20728655.051   108929833.234 9       -38.866    20728651.585    84880378.75648
       -30.285
  21673583.558   113895459.619 9     -2426.672    21673582.995    88749706.27848
     -1890.913
  24295025.561   127671223.411 8      3250.474    24295021.898    99484051.95444
      2532.837
  20851323.991   109574456.485 9      1733.980    20851323.321    85382697.72048
      1351.154
 18  2 20  9 12 30.0000000  0  7G02G05G06G07G09G13G30
  22204580.456   116685850.717 8     -1606.984    22204575.130    90924010.82747
     -1252.196
  21414093.708   112531825.873 9      2220.306    21414090.174    87687115.86548
      1730.108
  23434537.631   123149298.305 7     -3537.104    23434538.100    95960480.68746
     -2756.187
  20728926.328   108931258.768 9       -56.262    20728922.839    84881489.57148
       -43.839
  21687457.590   113968368.236 9     -2433.924    21687457.055    88806518.16548
     -1896.565
  24276478.017   127573755.638 8      3247.028    24276474.303    99408103.07944
      2530.156
  20841471.999   109522683.955 9      1717.367    20841471.333    85342355.51148
      1338.209
 18  2 20  9 13  0.0000000  0  7G02G05G06G07G09G13G30
  22213799.642   116734297.693 8     -1622.254    22213794.280    90961761.70147
     -1264.095
  21401452.959   112465398.307 9      2208.659    21401449.451    87635354.13848
      1721.034
  23454744.571   123255486.857 7     -3541.832    23454745.119    96043224.96646
     -2759.867
  20729297.126   108933207.267 9       -73.081    20729293.622    84883007.89048
       -56.946
  21701373.109   114041494.987 9     -2440.648    21701372.607    88863500.03848
     -1901.804
  24257950.073   127476390.674 8      3244.218    24257946.302    99332234.29944
      2527.964
  20831715.462   109471413.073 9      1701.174    20831714.825    85302404.19748
      1325.591
 18  2 20  9 13 30.0000000  0  7G02G05G06G07G09G13G30
  22223107.561   116783210.901 8     -1637.979    22223102.122    90999875.86746
     -1276.348
  21388880.900   112399331.635 9      2196.368    21388877.415    87583873.60448
      1711.454
  23474980.406   123361827.258 8     -3546.996    23474981.028    96126087.56746
     -2763.893
  20729765.950   108935670.875 9       -90.504    20729762.444    84884927.58148
       -70.523
  21715328.578   114114831.629 9     -2447.924    21715328.112    88920645.44748
     -1907.475
  24239440.477   127379122.072 8      3240.873    24239436.663    99256440.61644
      2525.355
  20822053.251   109420637.798 9      1684.386    20822052.642    85262839.05048
      1312.508
 18  2 20  9 14  0.0000000  0  7G02G05G06G07G09G13G30
  22232504.872   116832593.764 8     -1654.463    22232499.351    91038355.97547
     -1289.194
  21376378.820   112333632.738 9      2183.352    21376375.349    87532679.65847
      1701.312
  23495245.545   123468321.516 8     -3552.713    23495246.223    96209070.05746
     -2768.350
  20730333.660   108938654.200 9      -108.613    20730330.164    84887252.25248
       -84.634
  21729324.749   114188382.102 9     -2455.581    21729324.309    88977957.47148
     -1913.441
  24220950.357   127281955.794 7      3236.556    24220946.498    99180726.67344
      2521.993
  20812486.532   109370364.334 9      1666.936    20812485.930    85223664.92848
      1298.911
 18  2 20  9 14 30.0000000  0  7G02G05G06G07G09G13G30
  22241991.714   116882447.096 8     -1669.433    22241986.119    91077202.67647
     -1300.859
  21363947.500   112268305.637 9      2171.434    21363944.046    87481775.41447
      1692.026
  23515539.975   123574969.573 8     -3557.406    23515540.733    96292172.37646
     -2772.007
  20731000.672   108942159.367 9      -125.471    20730997.189    84889983.55148
       -97.769
  21743361.954   114262148.164 9     -2462.363    21743361.519    89035437.49548
     -1918.725
  24202480.344   127184895.147 8      3233.599    24202476.458    99105095.02944
      2519.690
  20803016.052   109320596.629 9      1650.548    20803015.447    85184884.90648
      1286.142
 18  2 20  9 15  0.0000000  0  7G02G05G06G07G09G13G30
  22251566.621   116932763.319 8     -1684.879    22251560.995    91116410.08647
     -1312.894
  21351586.513   112203348.193 9      2159.103    21351583.079    87431159.22648
      1682.419
  23535862.010   123681762.711 8     -3562.108    23535862.865    96375387.75346
     -2775.669
  20731765.822   108946180.262 9      -142.573    20731762.349    84893116.72248
      -111.095
  21757438.913   114336123.057 9     -2469.261    21757438.450    89093080.25248
     -1924.100
  24184029.397   127087934.498 8      3230.451    24184025.491    99029541.25244
      2517.234
  20793640.933   109271330.098 9      1633.901    20793640.320    85146495.41848
      1273.172
 18  2 20  9 15 30.0000000  0  7G02G05G06G07G09G13G30
  22261231.017   116983549.919 8     -1700.809    22261225.364    91155984.02846
     -1325.307
  21339297.850   112138770.802 9      2146.107    21339294.458    87380839.17247
      1672.291
  23556212.882   123788707.247 8     -3567.460    23556213.832    96458721.08846
     -2779.843
  20732630.726   108950725.319 9      -160.396    20732627.270    84896658.31948
      -124.984
  21771557.203   114410315.032 9     -2476.828    21771556.691    89150892.15648
     -1929.997
  24165599.689   126991085.818 8      3226.095    24165595.757    98954074.79344
      2513.842
  20784363.176   109222575.148 9      1616.497    20784362.559    85108504.54848
      1259.608
 18  2 20  9 16  0.0000000  0  7G02G05G06G07G09G13G30
  22270983.190   117034797.915 8     -1716.153    22270977.509    91195917.51446
     -1337.264
  21327080.618   112074568.880 9      2133.514    21327077.282    87330811.70548
      1662.479
  23576590.707   123895793.317 8     -3572.094    23576591.695    96542164.72746
     -2783.452
  20733593.969   108955787.229 9      -177.619    20733590.540    84900602.66648
      -138.404
  21785715.297   114484716.161 9     -2483.843    21785714.727    89208867.03748
     -1935.463
  24147189.924   126894342.005 8      3222.802    24147185.975    98878690.03344
      2511.273
  20775181.666   109174325.988 9      1599.495    20775181.038    85070907.80448
      1246.359
 18  2 20  9 16 30.0000000  0  7G02G05G06G07G09G13G30
  22280823.604   117086509.682 8     -1731.727    22280817.875    91236212.38546
     -1349.398
  21314936.041   112010748.829 9      2120.669    21314932.772    87281081.80148
      1652.469
  23596995.771   124003022.402 8     -3577.024    23596996.759    96625719.81846
     -2787.292
  20734656.291   108961369.895 9      -195.054    20734652.901    84904952.79648
      -151.989
  21799913.825   114559329.800 9     -2490.939    21799913.193    89267007.51748
     -1940.992
  24128801.005   126797708.009 7      3218.954    24128797.059    98803390.87045
      2508.281
  20766097.444   109126588.100 9      1582.366    20766096.802    85033709.45648
      1233.014
 18  2 20  9 17  0.0000000  0  7G02G05G06G07G09G13G30
  22290751.750   117138682.496 8     -1746.554    22290745.971    91276866.51446
     -1360.950
  21302864.347   111947311.772 9      2108.262    21302861.150    87231650.32448
      1642.801
  23617427.359   124110390.717 8     -3581.097    23617428.340    96709383.36646
     -2790.468
  20735817.475   108967472.063 9      -211.857    20735814.120    84909707.72048
      -165.085
  21814152.448   114634154.125 9     -2497.522    21814151.770    89325312.15148
     -1946.122
  24110433.022   126701183.930 8      3215.789    24110429.129    98728177.30445
      2505.812
  20757110.553   109079361.724 9      1565.814    20757109.907    84996909.68348
      1220.114
 18  2 20  9 17 30.0000000  0  7G02G05G06G07G09G13G30
  22300766.909   117191312.565 8     -1761.641    22300761.111    91317876.94047
     -1372.710
  21290865.506   111884257.637 9      2095.652    21290862.372    87182517.24248
      1632.976
  23637884.484   124217893.401 8     -3585.305    23637885.469    96793151.64846
     -2793.745
  20737076.970   108974090.799 9      -228.994    20737073.618    84914865.16848
      -178.437
  21828430.594   114709186.233 9     -2504.298    21828429.886    89383778.70048
     -1951.402
  24092085.734   126604768.793 8      3212.249    24092081.891    98653048.68845
      2503.053
  20748220.810   109032646.022 9      1548.982    20748220.174    84960507.85948
      1207.000
 18  2 20  9 18  0.0000000  0  7G02G05G06G07G09G13G30
  22310868.043   117244394.487 8     -1776.738    22310862.274    91359239.45747
     -1384.474
  21278939.351   111821585.387 9      2082.779    21278936.280    87133681.71748
      1622.944
  23658365.929   124325523.987 8     -3589.658    23658366.901    96877019.61046
     -2797.137
  20738434.008   108981222.011 9      -246.083    20738430.631    84920421.94648
      -191.753
  21842747.395   114784421.509 9     -2511.050    21842746.671    89442403.56248
     -1956.664
  24073758.689   126508459.753 8      3208.634    24073754.907    98578002.70145
      2500.234
  20739427.773   108986438.522 9      1531.921    20739427.162    84924502.03548
      1193.705
 18  2 20  9 18 30.0000000  0  7G02G05G06G07G09G13G30
  22321055.707   117297931.167 8     -1792.104    22321050.001    91400956.32647
     -1396.443
  21267087.127   111759301.645 9      2069.558    21267084.103    87085148.93948
      1612.644
  23678872.127   124433284.622 8     -3594.203    23678873.069    96960988.90646
     -2800.680
  20739889.432   108988870.176 9      -263.596    20739886.015    84926381.54948
      -205.399
  21857103.655   114859864.099 9     -2518.239    21857102.911    89501189.96948
     -1962.265
  24055453.007   126412262.989 8      3204.717    24055449.250    98503044.24145
      2497.185
  20730732.600   108940745.310 9      1514.531    20730732.015    84888896.96448
      1180.156
 18  2 20  9 19  0.0000000  0  7G02G05G06G07G09G13G30
  22331329.524   117351920.498 8     -1807.259    22331323.879    91443025.90347
     -1408.256
  21255309.260   111697408.576 9      2056.391    21255306.275    87036920.57348
      1602.382
  23699402.500   124541172.305 7     -3598.486    23699403.385    97045057.19746
     -2804.017
  20741443.087   108997034.523 9      -280.861    20741439.629    84932743.37248
      -218.854
  21871499.168   114935512.883 9     -2525.202    21871498.388    89560137.04748
     -1967.691
  24037168.833   126316179.064 7      3200.684    24037165.096    98428173.67045
      2494.041
  20722135.510   108895567.384 9      1497.202    20722134.940    84853693.39648
      1166.651
 18  2 20  9 19 30.0000000  0  7G02G05G06G07G09G13G30
  22341689.155   117406360.692 8     -1822.394    22341683.576    91485446.80147
     -1420.049
  21243606.201   111635908.610 9      2043.274    21243603.251    86988998.51948
      1592.161
  23719956.513   124649184.325 7     -3602.603    23719957.360    97129222.38146
     -2807.224
  20743094.867   109005714.533 9      -298.149    20743091.374    84939507.01248
      -232.323
  21885933.775   115011367.087 9     -2532.036    21885932.940    89619244.20248
     -1973.016
  24018906.189   126220208.438 7      3197.100    24018902.453    98353391.41745
      2491.248
  20713636.703   108850905.883 9      1479.908    20713636.132    84818892.23648
      1153.176
 18  2 20  9 20  0.0000000  0  7G02G05G06G07G09G13G30
  22352133.978   117461248.544 8     -1837.368    22352128.428    91528216.53347
     -1431.716
  21231978.123   111574802.668 9      2029.939    21231975.209    86941383.49648
      1581.771
  23740533.411   124757316.559 6     -3606.725    23740534.255    97213481.20046
     -2810.437
  20744844.383   109014908.173 9      -315.352    20744840.868    84946670.88348
      -245.728
  21900407.067   115087424.513 9     -2538.980    21900406.179    89678509.69848
     -1978.428
  24000665.162   126124351.336 7      3193.130    24000661.453    98278697.58645
      2488.155
  20705236.126   108806760.603 9      1462.567    20705235.557    84784493.33348
      1139.664
 18  2 20  9 20 30.0000000  0  7G02G05G06G07G09G13G30
  22362663.643   117516582.155 8     -1851.633    22362658.104    91571333.60246
     -1442.831
  21220425.346   111514092.478 9      2017.220    21220422.462    86894076.86148
      1571.860
  23761132.577   124865566.023 7     -3609.806    23761133.445    97297831.38246
     -2812.836
  20746691.521   109024614.933 9      -331.955    20746688.004    84954234.60248
      -258.666
  21914918.837   115163684.250 9     -2545.093    21914917.905    89737932.86048
     -1983.189
  23982445.869   126028608.662 7      3189.892    23982442.225    98204092.95645
      2485.632
  20696933.969   108763132.561 9      1445.712    20696933.417    84750497.47648
      1126.530
 18  2 20  9 21  0.0000000  0  7G02G05G06G07G09G13G30
  22373277.326   117572357.254 8     -1866.574    22373271.788    91614794.67747
     -1454.476
  21208947.891   111453778.040 9      2003.670    21208945.029    86847078.58948
      1561.302
  23781753.200   124973928.089 7     -3614.220    23781754.128    97382269.26746
     -2816.276
  20748635.811   109034832.304 9      -349.266    20748632.323    84962196.20048
      -272.154
  21929468.566   115240143.390 9     -2552.246    21929467.614    89797511.37148
     -1988.764
  23964248.177   125932979.466 7      3185.459    23964244.648    98129576.72845
      2482.178
  20688730.070   108720020.807 9      1428.289    20688729.542    84716903.90849
      1112.953
 18  2 20  9 21 30.0000000  0  7G02G05G06G07G09G13G30
  22383975.025   117628573.932 8     -1881.411    22383969.481    91658599.85646
     -1466.034
  21197546.520   111393863.452 9      1990.396    21197543.667    86800391.89947
      1550.958
  23802395.003   125082401.606 7     -3617.668    23802395.981    97466794.04946
     -2818.965
  20750677.452   109045561.286 9      -366.292    20750674.015    84970556.45048
      -285.422
  21944056.398   115316802.831 9     -2558.853    21944055.433    89857245.97247
     -1993.913
  23946072.535   125837466.046 7      3181.731    23946069.129    98055150.68844
      2479.273
  20680624.970   108677428.200 9      1411.065    20680624.456    84683714.87048
      1099.532
 18  2 20  9 22  0.0000000  0  7G02G05G06G07G09G13G30
  22394755.777   117685226.979 8     -1895.271    22394750.219    91702745.05147
     -1476.837
  21186221.108   111334347.997 9      1977.577    21186218.258    86754016.21848
      1540.968
  23823056.931   125190980.765 8     -3620.463    23823057.960    97551401.13946
     -2821.140
  20752815.752   109056798.273 9      -382.617    20752812.374    84979312.54648
      -298.145
  21958681.615   115393658.739 9     -2564.762    21958680.639    89917133.66448
     -1998.518
  23927918.545   125742066.497 7      3178.534    23927915.229    97980813.40844
      2476.778
  20672618.271   108635352.718 9      1394.351    20672617.772    84650928.79249
      1086.507
 18  2 20  9 22 30.0000000  0  7G02G05G06G07G09G13G30
  22405619.434   117742315.761 8     -1910.044    22405613.858    91747229.79447
     -1488.348
  21174972.248   111275234.823 9      1963.839    21174969.402    86707954.00248
      1530.264
  23843738.696   125299664.079 8     -3624.372    23843739.774    97636089.38446
     -2824.187
  20755050.805   109068543.745 9      -399.819    20755047.498    84988464.85648
      -311.548
  21973344.293   115470711.450 9     -2571.532    21973343.309    89977174.69048
     -2003.794
  23909786.636   125646782.817 7      3174.561    23909783.376    97906566.39145
      2473.685
  20664710.408   108593796.610 9      1376.657    20664709.916    84618547.42048
      1072.721
 18  2 20  9 23  0.0000000  0  7G02G05G06G07G09G13G30
  22416566.882   117799844.913 8     -1924.507    22416561.286    91792057.67747
     -1499.617
  21163801.651   111216532.950 9      1950.176    21163798.805    86662212.28948
      1519.618
  23864441.004   125408455.371 7     -3628.047    23864442.121    97720861.78746
     -2827.052
  20757383.727   109080803.617 9      -416.929    20757380.495    84998018.00248
      -324.880
  21988045.517   115547966.799 9     -2578.193    21988044.529    90037373.62648
     -2008.983
  23891678.207   125551622.603 7      3170.275    23891674.984    97832415.60845
      2470.345
  20656902.853   108552767.576 9      1359.109    20656902.343    84586576.75449
      1059.047
 18  2 20  9 23 30.0000000  0  7G02G05G06G07G09G13G30
  22427596.065   117857803.616 8     -1939.260    22427590.452    91837220.27447
     -1511.111
  21152707.998   111158235.321 9      1936.354    21152705.154    86616785.55748
      1508.847
  23885161.643   125517343.001 7     -3631.272    23885162.797    97805709.26246
     -2829.563
  20759812.786   109093568.642 9      -434.012    20759809.616    85007964.76548
      -338.190
  22002783.459   115625415.088 9     -2584.907    22002782.475    90097722.90448
     -2014.215
  23873591.851   125456578.174 8      3166.143    23873588.676    97758354.99445
      2467.124
  20649194.108   108512257.685 9      1341.617    20649193.569    84555010.60149
      1045.416
 18  2 20  9 24  0.0000000  0  7G02G05G06G07G09G13G30
  22438706.883   117916191.232 8     -1953.292    22438701.270    91882717.07347
     -1522.049
  21141691.989   111100345.724 9      1922.884    21141689.139    86571676.78048
      1498.351
  23905900.385   125626325.749 7     -3634.139    23905901.584    97890630.85146
     -2831.798
  20762338.086   109106839.367 9      -450.754    20762334.940    85018305.58748
      -351.236
  22017558.250   115703057.010 9     -2591.191    22017557.273    90158223.07448
     -2019.110
  23855527.955   125361652.049 8      3162.341    23855524.822    97684386.62945
      2464.162
  20641584.630   108472269.492 9      1324.272    20641584.061    84523850.97948
      1031.900
 18  2 20  9 24 30.0000000  0  7G02G05G06G07G09G13G30
  22449898.783   117975005.080 8     -1967.521    22449893.181    91928546.03347
     -1533.135
  21130753.957   111042865.894 9      1909.081    21130751.095    86526887.30048
      1487.597
  23926656.560   125735400.093 7     -3637.484    23926657.796    97975623.81845
     -2834.401
  20764959.349   109120614.283 9      -467.597    20764956.195    85029039.28748
      -364.360
  22032369.581   115780890.941 9     -2597.629    22032368.613    90218872.86848
     -2024.127
  23837486.604   125266844.178 8      3158.311    23837483.525    97610510.36846
      2461.022
  20634074.430   108432803.141 9      1306.846    20634073.847    84493098.00248
      1018.322
 18  2 20  9 25  0.0000000  0  7G02G05G06G07G09G13G30
  22461172.080   118034246.566 8     -1981.876    22461166.500    91974708.19547
     -1544.321
  21119894.942   110985801.280 9      1895.150    21119892.059    86482421.36348
      1476.740
  23947430.355   125844566.881 7     -3640.499    23947431.616    98060688.79245
     -2836.754
  20767677.137   109134896.345 9      -484.571    20767673.965    85040168.15848
      -377.589
  22047217.988   115858919.694 9     -2604.181    22047217.019    90279674.47748
     -2029.232
  23819468.653   125172159.267 8      3154.037    23819465.608    97536729.93046
      2457.692
  20626664.399   108393863.215 9      1289.164    20626663.827    84462755.21948
      1004.544
 18  2 20  9 25 30.0000000  0  7G02G05G06G07G09G13G30
  22472526.002   118093911.792 8     -1995.777    22472520.440    92021200.56747
     -1555.150
  21109114.918   110929151.824 9      1881.449    21109112.005    86438278.93848
      1466.064
  23968220.827   125953821.354 7     -3642.939    23968222.100    98145822.11945
     -2838.656
  20770490.921   109149682.835 9      -501.211    20770487.727    85051690.09648
      -390.554
  22062102.942   115937140.484 9     -2610.514    22062101.958    90340625.72848
     -2034.166
  23801473.875   125077596.210 8      3150.197    23801470.864    97463044.46246
      2454.700
  20619354.337   108355448.659 9      1271.878    20619353.784    84432821.81348
       991.074
 18  2 20  9 26  0.0000000  0  7G02G05G06G07G09G13G30
  22483960.532   118154000.532 8     -2010.013    22483954.993    92068022.93347
     -1566.243
  21098414.677   110872921.660 9      1867.390    21098411.741    86394463.23648
      1455.109
  23989027.865   126063162.785 6     -3646.016    23989029.169    98231023.16346
     -2841.054
  20773400.959   109164975.094 9      -518.092    20773397.737    85063606.14648
      -403.705
  22077024.647   116015554.384 9     -2616.952    22077023.640    90401727.45248
     -2039.184
  23783502.832   124983157.936 7      3145.715    23783499.853    97389456.23945
      2451.210
  20612144.775   108317562.302 9      1254.098    20612144.230    84403300.00148
       977.220
 18  2 20  9 26 30.0000000  0  7G02G05G06G07G09G13G30
  22495474.844   118214508.555 8     -2024.058    22495469.345    92115172.01947
     -1577.188
  21087794.252   110817110.897 9      1853.158    21087791.304    86350974.32848
      1444.019
  24009850.438   126172586.216 6     -3648.799    24009851.801    98316288.13946
     -2843.221
  20776406.680   109180770.154 9      -535.032    20776403.433    85075913.99548
      -416.908
  22091982.570   116094158.574 9     -2623.429    22091981.542    90462977.43948
     -2044.231
  23765555.299   124888843.234 7      3141.589    23765552.345    97315964.30545
      2447.994
  20605035.509   108280202.946 9      1236.306    20605034.961    84374188.82548
       963.354
 18  2 20  9 27  0.0000000  0  7G02G05G06G07G09G13G30
  22507068.198   118275431.873 8     -2037.716    22507062.757    92162644.70247
     -1587.831
  21077253.664   110761719.702 9      1839.298    21077250.712    86307812.35748
      1433.220
  24030687.738   126282087.056 7     -3651.334    24030689.188    98401613.39345
     -2845.192
  20779507.546   109197065.154 9      -551.509    20779504.288    85088611.39448
      -429.746
  22106976.169   116172950.243 9     -2629.549    22106975.123    90524373.51648
     -2048.999
  23747631.097   124794651.148 8      3137.669    23747628.153    97242567.92145
      2444.939
  20598026.335   108243369.528 9      1218.969    20598025.779    84345487.45848
       949.847
 18  2 20  9 27 30.0000000  0  7G02G05G06G07G09G13G30
  22518740.158   118336768.282 8     -2051.310    22518734.770    92210439.29647
     -1598.425
  21066793.340   110706750.323 9      1825.383    21066790.384    86264979.07948
      1422.377
  24051539.226   126391662.449 7     -3653.614    24051540.759    98486996.73445
     -2846.975
  20782703.423   109213859.596 9      -568.018    20782700.169    85101697.98448
      -442.609
  22122005.286   116251928.531 9     -2635.617    22122004.231    90585915.01148
     -2053.727
  23729730.468   124700582.728 8      3133.595    23729727.500    97169267.87345
      2441.763
  20591117.386   108207062.837 9      1201.521    20591116.818    84317196.53848
       936.251
 18  2 20  9 28  0.0000000  0  7G02G05G06G07G09G13G30
  22530490.183   118398514.820 8     -2065.047    22530484.858    92258553.46147
     -1609.129
  21056413.488   110652203.764 9      1811.098    21056410.513    86222475.25548
      1411.245
  24072404.179   126501308.793 7     -3656.006    24072405.741    98572435.43446
     -2848.836
  20785993.956   109231151.485 9      -584.766    20785990.726    85115172.17348
      -455.662
  22137069.620   116331091.835 9     -2641.947    22137068.568    90647600.66448
     -2058.661
  23711853.425   124606638.144 8      3129.356    23711850.418    97096064.32345
      2438.460
  20584308.674   108171282.882 9      1183.800    20584308.101    84289316.05848
       922.441
 18  2 20  9 28 30.0000000  0  7G02G05G06G07G09G13G30
  22542318.466   118460672.567 8     -2079.187    22542313.203    92306988.03547
     -1620.147
  21046115.065   110598085.210 9      1796.213    21046112.054    86180304.95748
      1399.646
  24093282.787   126611026.590 7     -3659.039    24093284.369    98657929.75746
     -2851.202
  20789379.625   109248943.393 9      -601.950    20789376.409    85129035.99548
      -469.053
  22152169.581   116410442.432 9     -2648.690    22152168.542    90709432.26548
     -2063.916
  23694000.665   124512820.884 8      3124.554    23693997.615    97022959.93645
      2434.717
  20577600.946   108136033.644 9      1165.477    20577600.372    84261849.12648
       908.164
 18  2 20  9 29  0.0000000  0  7G02G05G06G07G09G13G30
  22554225.050   118523241.786 8     -2092.456    22554219.837    92355743.22747
     -1630.486
  21035898.952   110544399.197 9      1782.285    21035895.901    86138471.70048
      1388.794
  24114174.929   126720815.526 7     -3660.602    24114176.529    98743479.52146
     -2852.420
  20792860.674   109267236.534 9      -618.140    20792857.452    85143290.39548
      -481.668
  22167305.504   116489982.011 9     -2654.388    22167304.475    90771411.11848
     -2068.355
  23676172.863   124419135.076 8      3120.792    23676169.764    96949958.03645
      2431.788
  20570994.831   108101318.357 9      1148.312    20570994.252    84234798.25048
       894.787
 18  2 20  9 29 30.0000000  0  7G02G05G06G07G09G13G30
  22566208.680   118586215.861 8     -2105.644    22566203.493    92404813.88646
     -1640.762
  21025764.731   110491143.469 9      1768.283    21025761.644    86096973.72147
      1377.884
  24135079.298   126830668.603 7     -3662.529    24135080.899    98829079.25345
     -2853.923
  20796436.191   109286026.099 9      -634.267    20796432.948    85157931.62348
      -494.233
  22182476.396   116569705.431 9     -2660.187    22182475.357    90833533.24647
     -2072.873
  23658369.264   124325576.873 7      3116.893    23658366.140    96877055.62245
      2428.754
  20564489.637   108067133.437 9      1130.859    20564489.061    84208160.65848
       881.190
 18  2 20  9 30  0.0000000  0  7G02G05G06G07G09G13G30
  22578268.622   118649590.961 8     -2119.147    22578263.433    92454197.04146
     -1651.284
  21015712.479   110438318.497 9      1753.674    21015709.357    86055811.40248
      1366.500
  24155994.992   126940581.225 7     -3664.535    24155996.562    98914725.43245
     -2855.481
  20800105.642   109305309.258 9      -650.936    20800102.371    85172957.46748
      -507.222
  22197681.809   116649610.211 9     -2666.462    22197680.745    90895796.68647
     -2077.763
  23640589.893   124232146.008 7      3112.296    23640586.763    96804252.39045
      2425.166
  20558085.177   108033477.917 9      1112.994    20558084.625    84181935.59648
       867.269
 18  2 20  9 30 30.0000000  0  7G02G05G06G07G09G13G30
  22590404.596   118713365.556 8     -2132.458    22590399.376    92503891.50146
     -1661.657
  21005742.697   110385926.881 9      1739.078    21005739.555    86014986.76148
      1355.126
  24176921.734   127050551.424 7     -3666.537    24176923.237    99000416.41645
     -2857.042
  20803869.056   109325086.140 9      -667.523    20803865.762    85188368.01648
      -520.148
  22212921.697   116729696.153 9     -2672.416    22212920.603    90958201.29348
     -2082.402
  23622835.034   124138843.923 8      3107.947    23622831.905    96731549.48745
      2421.777
  20551781.734   108000353.190 9      1095.331    20551781.215    84156124.13349
       853.506
 18  2 20  9 31  0.0000000  0  7G02G05G06G07G09G13G30
  22602616.093   118777537.041 8     -2145.490    22602610.802    92553895.23747
     -1671.811
  20995855.778   110333970.714 9      1724.849    20995852.631    85974501.42748
      1344.038
  24197858.855   127160576.112 7     -3667.967    24197860.262    99086149.89846
     -2858.159
  20807726.144   109345355.271 9      -683.751    20807722.833    85204162.13048
      -532.794
  22228195.863   116809962.171 9     -2678.245    22228194.740    91020746.21247
     -2086.945
  23605104.722   124045670.849 8      3103.801    23605101.576    96658947.12045
      2418.546
  20545579.390   107967759.652 9      1077.722    20545578.902    84130726.57149
       839.783
 18  2 20  9 31 30.0000000  0  7G02G05G06G07G09G13G30
  22614903.202   118842105.720 8     -2159.224    22614897.850    92604208.42546
     -1682.515
  20986052.459   110282453.906 9      1709.574    20986049.328    85934358.45648
      1332.137
  24218806.335   127270655.148 7     -3670.307    24218807.684    99171925.70246
     -2859.981
  20811677.199   109366118.240 9      -700.708    20811673.880    85220341.05848
      -546.007
  22243504.634   116890410.009 9     -2684.811    22243503.478    91083432.81047
     -2092.061
  23587399.607   123952630.301 7      3098.895    23587396.427    96586448.06145
      2414.726
  20539478.741   107935700.551 9      1059.404    20539478.270    84105745.46248
       825.511
 18  2 20  9 32  0.0000000  0  7G02G05G06G07G09G13G30
  22627265.296   118907068.639 8     -2172.039    22627259.893    92654828.84547
     -1692.498
  20976332.999   110231377.789 9      1695.138    20976329.900    85894558.87148
      1320.887
  24239763.472   127380785.026 7     -3671.820    24239764.814    99257741.11446
     -2861.162
  20815721.852   109387373.100 9      -716.587    20815718.537    85236903.28348
      -558.379
  22258847.699   116971038.036 9     -2690.591    22258846.500    91146259.81847
     -2096.565
  23569719.845   123859722.900 7      3094.769    23569716.648    96514052.73545
      2411.509
  20533479.766   107904175.733 9      1041.979    20533479.291    84081180.66848
       811.933
 18  2 20  9 32 30.0000000  0  7G02G05G06G07G09G13G30
  22639702.326   118972425.281 8     -2185.231    22639696.901    92705756.03546
     -1702.776
  20966698.225   110180746.772 9      1680.167    20966695.150    85855106.13448
      1309.222
  24260730.053   127490964.866 7     -3673.390    24260731.465    99343595.48246
     -2862.384
  20819860.366   109409121.233 9      -733.326    20819857.067    85253849.88448
      -571.423
  22274225.272   117051847.439 9     -2696.870    22274224.034    91209228.15547
     -2101.457
  23552065.934   123766951.319 8      3090.052    23552062.708    96441763.25345
      2407.837
  20527582.960   107873187.824 9      1023.804    20527582.454    84057034.24848
       797.770
 18  2 20  9 33  0.0000000  0  7G02G05G06G07G09G13G30
  22652212.931   119038168.600 8     -2198.364    22652207.475    92756984.55647
     -1713.013
  20957147.565   110130557.815 9      1665.190    20957144.499    85815997.86448
      1297.553
  24281704.664   127601186.997 7     -3675.036    24281706.180    99429482.78947
     -2863.664
  20824091.549   109431356.318 9      -749.675    20824088.278    85271175.92348
      -584.162
  22289636.222   117132832.305 9     -2702.812    22289634.950    91272333.21848
     -2106.087
  23534437.088   123674311.063 8      3085.370    23534433.838    96369576.03245
      2404.184
  20521787.473   107842732.337 9      1005.931    20521786.921    84033302.70649
       783.843
 18  2 20  9 33 30.0000000  0  7G02G05G06G07G09G13G30
  22664797.580   119104300.917 8     -2210.469    22664792.097    92808516.18047
     -1722.443
  20947682.272   110080817.378 9      1650.921    20947679.201    85777239.08348
      1286.432
  24302687.669   127711453.316 7     -3675.886    24302689.329    99515404.51246
     -2864.332
  20828416.132   109454082.163 9      -765.299    20828412.892    85288884.35948
      -596.337
  22305081.318   117213996.580 9     -2708.061    22305080.029    91335578.06148
     -2110.178
  23516834.376   123581808.169 8      3081.657    23516831.093    96297495.86945
      2401.292
  20516094.329   107812814.600 9       988.668    20516093.736    84009990.18149
       770.391
 18  2 20  9 34  0.0000000  0  7G02G05G06G07G09G13G30
  22677455.043   119170815.937 8     -2223.695    22677449.490    92860346.04047
     -1732.751
  20938301.950   110031523.408 9      1635.552    20938298.861    85738828.20448
      1274.455
  24323677.810   127821757.294 7     -3677.565    24323679.627    99601355.59446
     -2865.638
  20832833.178   109477293.941 9      -781.963    20832829.957    85306971.45748
      -609.322
  22320559.660   117295335.598 9     -2714.260    22320558.366    91398959.06748
     -2115.011
  23499257.253   123489439.659 8      3076.643    23499253.955    96225520.39545
      2397.382
  20510502.882   107783431.319 9       970.411    20510502.270    83987094.12249
       756.163
 18  2 20  9 34 30.0000000  0  7G02G05G06G07G09G13G30
  22690185.150   119237712.636 8     -2236.122    22690179.515    92912473.29446
     -1742.434
  20929007.212   109982679.105 9      1620.718    20929004.101    85700767.70548
      1262.897
  24344674.865   127932097.557 7     -3678.359    24344676.822    99687334.93246
     -2866.257
  20837342.785   109500992.099 9      -797.953    20837339.578    85325437.54548
      -621.782
  22336071.345   117376849.908 9     -2719.940    22336070.055    91462476.67948
     -2119.435
  23481706.083   123397207.762 8      3072.265    23481702.774    96153651.41345
      2393.973
  20505013.505   107754584.432 9       952.751    20505012.893    83964616.03549
       742.404
 18  2 20  9 35  0.0000000  0  7G02G05G06G07G09G13G30
  22702986.346   119304983.083 8     -2248.425    22702980.588    92964891.81246
     -1752.020
  20919797.383   109934281.003 9      1605.834    20919794.240    85663054.89948
      1251.299
  24365677.258   128042465.804 7     -3679.389    24365679.292    99773336.09646
     -2867.057
  20841943.631   109525169.715 9      -813.819    20841940.439    85344277.23748
      -634.145
  22351615.171   117458533.131 9     -2725.509    22351613.879    91526125.92348
     -2123.774
  23464179.995   123305107.589 8      3068.010    23464176.674    96081885.05745
      2390.657
  20499625.257   107726268.906 9       935.018    20499624.641    83942551.98448
       728.586
 18  2 20  9 35 30.0000000  0  7G02G05G06G07G09G13G30
  22715858.966   119372628.785 8     -2260.729    22715853.120    93017602.69846
     -1761.608
  20910673.566   109886334.861 9      1590.868    20910670.389    85625694.26148
      1239.637
  24386685.260   128152863.305 7     -3680.106    24386687.278    99859360.06545
     -2867.617
  20846636.308   109549829.920 9      -829.815    20846633.127    85363492.97548
      -646.609
  22367191.772   117540388.462 9     -2731.117    22367190.463    91589909.25848
     -2128.145
  23446680.016   123213144.542 8      3063.273    23446676.666    96010225.54645
      2386.965
  20494338.983   107698489.228 9       917.215    20494338.346    83920905.47848
       714.713
 18  2 20  9 36  0.0000000  0  7G02G05G06G07G09G13G30
  22728802.620   119440647.946 8     -2273.731    22728796.701    93070604.62746
     -1771.739
  20901636.316   109838843.686 9      1575.226    20901633.109    85588688.15548
      1227.449
  24407698.432   128263287.657 7     -3681.474    24407700.358    99945404.94546
     -2868.683
  20851420.706   109574972.073 9      -846.351    20851417.528    85383084.25648
      -659.493
  22382801.029   117622415.372 9     -2737.343    22382799.692    91653826.29248
     -2132.995
  23429206.364   123121319.800 8      3058.216    23429202.968    95938673.80745
      2383.027
  20489154.816   107671246.173 9       898.891    20489154.143    83899677.13148
       700.436
 18  2 20  9 36 30.0000000  0  7G02G05G06G07G09G13G30
  22741817.518   119509041.439 8     -2285.635    22741811.575    93123898.21746
     -1781.016
  20892686.575   109791812.383 9      1560.372    20892683.343    85552040.38448
      1215.874
  24428716.845   128373739.493 7     -3681.942    24428718.652   100031471.24745
     -2869.048
  20856297.200   109600598.117 9      -861.909    20856294.025    85403052.59048
      -671.617
  22398443.429   117704616.450 9     -2742.629    22398442.067    91717879.03947
     -2137.115
  23411759.752   123029637.154 8      3054.097    23411756.314    95867232.79045
      2379.815
  20484073.494   107644543.590 9       881.395    20484072.795    83878869.92248
       686.802
 18  2 20  9 37  0.0000000  0  7G02G05G06G07G09G13G30
  22754902.783   119577804.818 8     -2298.163    22754896.822    93177480.04646
     -1790.777
  20883824.248   109745240.514 9      1544.713    20883820.991    85515750.62048
      1203.673
  24449739.525   128484213.883 7     -3683.013    24449741.199   100117555.14945
     -2869.879
  20861265.176   109626704.902 9      -878.238    20861262.005    85423395.53148
      -684.342
  22414118.367   117786988.608 9     -2748.604    22414116.998    91782065.10448
     -2141.770
  23394339.937   122938095.321 8      3048.946    23394336.462    95795901.49045
      2375.803
  20479094.672   107618379.686 9       863.147    20479093.960    83858482.45848
       672.583
 18  2 20  9 37 30.0000000  0  7G02G05G06G07G09G13G30
  22768058.098   119646936.360 8     -2310.258    22768052.111    93231348.75246
     -1800.199
  20875049.847   109699130.715 9      1529.461    20875046.567    85479820.89848
      1191.788
  24470766.154   128594708.973 7     -3683.119    24470767.773   100203655.12945
     -2869.965
  20866324.554   109653291.968 9      -893.931    20866321.387    85444112.70748
      -696.569
  22429825.870   117869531.962 9     -2754.117    22429824.516    91846384.55948
     -2146.066
  23376947.385   122846696.757 8      3044.551    23376943.896    95724681.82945
      2372.377
  20474218.592   107592755.752 9       845.383    20474217.883    83838515.75448
       658.740
 18  2 20  9 38  0.0000000  0  7G02G05G06G07G09G13G30
  22781282.575   119716431.361 8     -2322.520    22781276.574    93285500.64746
     -1809.758
  20866363.329   109653482.762 9      1513.871    20866360.031    85444251.05148
      1179.640
  24491795.720   128705219.784 7     -3683.948    24491797.325   100289767.39245
     -2870.610
  20871474.694   109680356.008 9      -910.000    20871471.523    85465201.56148
      -709.091
  22445565.331   117952243.377 9     -2759.772    22445564.003    91910834.98247
     -2150.473
  23359581.761   122755439.642 8      3039.619    23359578.279    95653572.37346
      2368.536
  20469444.901   107567669.907 9       827.215    20469444.219    83818968.34549
       644.584
 18  2 20  9 38 30.0000000  0  7G02G05G06G07G09G13G30
  22794575.739   119786287.499 8     -2334.328    22794569.733    93339933.97146
     -1818.960
  20857765.023   109608298.362 9      1498.556    20857761.707    85409042.40947
      1167.704
  24512827.758   128815743.537 7     -3684.124    24512829.400   100375889.71345
     -2870.751
  20876715.415   109707895.993 9      -925.825    20876712.236    85486661.27148
      -721.424
  22461336.617   118035122.013 9     -2765.165    22461335.328    91975415.69647
     -2154.676
  23342243.166   122664324.674 8      3034.943    23342239.701    95582573.69445
      2364.889
  20464773.677   107543122.465 9       809.491    20464773.036    83799840.45548
       630.771
 18  2 20  9 39  0.0000000  0  8G02G05G06G07G09G13G28G30
  22807937.118   119856502.143 8     -2346.718    22807931.112    93394646.65246
     -1828.612
  20849255.275   109563579.390 9      1482.625    20849251.940    85374196.45248
      1155.293
  24533861.691   128926277.507 7     -3684.710    24533863.398   100462020.04445
     -2871.205
  20882046.417   109735910.458 9      -941.895    20882043.225    85508490.71948
      -733.944
  22477139.559   118118167.049 9     -2771.137    22477138.316    92040126.08647
     -2159.328
  23324931.776   122573352.789 8      3029.724    23324928.314    95511686.52445
      2360.824
  24319888.031   127801871.002 7      3230.106

  20460204.984   107519113.816 9       791.096    20460204.371    83781132.41349
       616.438
 18  2 20  9 39 30.0000000  0  8G02G05G06G07G09G13G28G30
  22821365.784   119927070.372 8     -2358.094    22821359.772    93449634.86646
     -1837.477
  20840834.074   109519325.722 9      1467.260    20840830.715    85339713.07648
      1143.319
  24554896.685   129036816.881 7     -3684.635    24554898.485   100548154.53345
     -2871.147
  20887467.095   109764396.201 9      -957.426    20887463.891    85530687.39748
      -746.047
  22492973.615   118201375.559 8     -2776.375    22492972.423    92104963.85147
     -2163.410
  23307647.416   122482522.749 8      3025.168    23307643.947    95440909.83645
      2357.272
  24301451.203   127704986.373 7      3228.473    24301449.372    99510370.01245
      2515.695
  20455738.470   107495642.113 9       773.362    20455737.872    83762842.77049
       602.620
 18  2 20  9 40  0.0000000  0  8G02G05G06G07G09G13G28G30
  22834861.674   119997991.708 8     -2369.755    22834855.671    93504898.20147
     -1846.564
  20832502.034   109475540.490 9      1451.673    20832498.653    85305594.70448
      1131.174
  24575932.469   129147360.467 7     -3684.732    24575934.380   100634292.31546
     -2871.223
  20892977.526   109793353.632 9      -973.044    20892974.327    85553251.61748
      -758.217
  22508838.919   118284748.234 8     -2781.862    22508837.781    92169929.52248
     -2167.687
  23290390.545   122391837.196 8      3020.402    23290387.039    95370245.76945
      2353.561
  24283026.089   127608160.983 7      3226.701    24283024.265    99434921.72245
      2514.317
  20451374.484   107472709.230 9       755.511    20451373.900    83744972.99449
       588.710
 18  2 20  9 40 30.0000000  0  7G02G05G07G09G13G28G30
  22848423.260   120069258.289 8     -2381.405    22848417.285    93560430.58246
     -1855.641
  20824258.575   109432220.708 9      1436.032    20824255.172    85271839.02348
      1118.985
  20898576.494   109822776.429 9      -988.650    20898573.313    85576178.47148
      -770.377
  22524734.361   118368279.267 8     -2787.224    22524733.275    92235018.58148
     -2171.864
  23273160.356   122301291.878 8      3015.681    23273156.832    95299690.98646
      2349.883
  24264611.723   127511392.713 6      3224.419    24264609.856    99359517.92045
      2512.537
  20447112.131   107450310.430 9       737.554    20447111.561    83727519.38749
       574.717
 18  2 20  9 41  0.0000000  0  7G02G05G07G09G13G28G30
  22862052.978   120140882.812 8     -2393.295    22862047.043    93616241.84547
     -1864.906
  20816106.816   109389382.815 9      1420.118    20816103.399    85238458.84948
      1106.586
  20904266.628   109852678.342 9     -1004.472    20904263.476    85599478.66248
      -782.706
  22540662.638   118451982.925 9     -2792.846    22540661.592    92300242.17847
     -2176.245
  23255959.867   122210902.830 8      3010.558    23255956.363    95229257.99046
      2345.891
  24246211.580   127414699.477 7      3222.067    24246209.710    99284172.58045
      2510.703
  20442954.340   107428461.041 9       719.355    20442953.774    83710493.89349
       560.536
 18  2 20  9 41 30.0000000  0  7G02G05G07G09G13G28G30
  22875748.153   120212851.329 8     -2404.625    22875742.273    93672321.17547
     -1873.736
  20808044.961   109347017.334 9      1404.270    20808041.540    85205446.78248
      1094.237
  20910045.514   109883046.667 9     -1020.019    20910042.395    85623142.28548
      -794.820
  22556621.391   118535846.669 9     -2798.045    22556620.386    92365590.51248
     -2180.296
  23238787.054   122120659.207 8      3005.556    23238783.620    95158938.27146
      2341.990
  24227824.010   127318072.620 6      3219.709    24227822.145    99208879.00946
      2508.869
  20438898.940   107407149.665 9       701.452    20438898.374    83693887.62249
       546.586
 18  2 20  9 42  0.0000000  0  7G02G05G07G09G13G28G30
  22889508.504   120285162.333 8     -2416.028    22889502.666    93728667.38147
     -1882.619
  20800073.518   109305126.981 9      1388.476    20800070.098    85172804.94148
      1081.930
  20915913.155   109913881.378 9     -1035.540    20915910.074    85647169.31948
      -806.915
  22572610.720   118619871.037 9     -2803.240    22572609.770    92431063.99648
     -2184.345
  23221642.317   122030563.129 8      3001.044    23221638.962    95088733.50945
      2338.476
  24209450.021   127221516.806 7      3217.381    24209448.212    99133640.74145
      2507.050
  20434946.200   107386377.797 9       683.527    20434945.639    83677701.74549
       532.618
 18  2 20  9 42 30.0000000  0  7G02G05G07G09G13G28G30
  22903333.416   120357812.507 8     -2426.860    22903327.599    93785277.87547
     -1891.062
  20792192.815   109263713.526 9      1372.826    20792189.392    85140534.71448
      1069.733
  20921869.226   109945180.793 9     -1050.761    20921866.188    85671558.46248
      -818.775
  22588630.329   118704054.561 9     -2808.489    22588629.438    92496661.51247
     -2188.434
  23204525.688   121940614.826 8      2996.193    23204522.382    95018643.92245
      2334.698
  24191089.918   127125034.095 7      3215.219    24191088.165    99058459.47545
      2505.368
  20431096.032   107366145.028 9       665.792    20431095.492    83661935.94649
       518.798
 18  2 20  9 43  0.0000000  0  7G02G05G07G09G13G28G30
  22917223.009   120430802.601 8     -2438.680    22917217.195    93842153.25446
     -1900.269
  20784403.679   109222781.285 9      1356.328    20784400.249    85108639.45948
      1056.878
  20927914.073   109976946.688 9     -1066.603    20927911.077    85696311.09848
      -831.120
  22604680.663   118788399.578 8     -2814.145    22604679.838    92562384.86947
     -2192.842
  23187437.980   121850818.559 8      2990.461    23187434.701    94948672.82145
      2330.230
  24172744.877   127028630.251 7      3212.148    24172743.191    98983339.61144
      2502.971
  20427349.066   107346454.678 9       647.330    20427348.560    83646592.82148
       504.413
 18  2 20  9 43 30.0000000  0  7G02G05G07G09G13G28G30
  22931176.536   120504128.641 8     -2449.928    22931170.702    93899290.41046
     -1909.035
  20776706.195   109182330.726 9      1340.174    20776702.757    85077119.54048
      1044.292
  20934047.041   110009175.637 9     -1082.174    20934044.078    85721424.56148
      -843.252
  22620761.284   118872903.777 8     -2819.621    22620760.541    92628232.25047
     -2197.107
  23170378.953   121761173.187 8      2985.542    23170375.698    94878819.33246
      2326.398
  24154415.197   126932307.240 7      3209.094    24154413.545    98908282.77345
      2500.596
  20423705.060   107327305.384 9       629.177    20423704.595    83631671.28748
       490.268
 18  2 20  9 44  0.0000000  0  7G02G05G07G09G13G28G30
  22945192.977   120577785.320 8     -2460.815    22945187.156    93956685.19646
     -1917.519
  20769100.244   109142361.168 9      1324.205    20769096.807    85045974.41848
      1031.848
  20940267.530   110041864.425 9     -1097.340    20940264.586    85746896.33548
      -855.070
  22636871.557   118957563.854 8     -2824.686    22636870.896    92694201.09247
     -2201.056
  23153348.479   121671677.621 8      2980.694    23153345.267    94809082.52946
      2322.618
  24136101.010   126836065.601 7      3206.459    24136099.387    98833289.33745
      2498.542
  20420163.571   107308694.833 9       611.314    20420163.131    83617169.55749
       476.349
 18  2 20  9 44 30.0000000  0  7G02G05G07G09G13G28G30
  22959271.692   120651769.294 8     -2471.454    22959265.890    94014335.02346
     -1925.811
  20761585.936   109102873.234 9      1308.207    20761582.522    85015204.58948
      1019.381
  20946575.047   110075010.469 9     -1112.511    20946572.104    85772724.41548
      -866.893
  22653011.139   119042377.941 8     -2829.726    22653010.546    92760289.94247
     -2204.984
  23136346.506   121582331.697 8      2975.661    23136343.311    94739462.33946
      2318.696
  24117802.556   126739906.592 7      3203.914    24117800.940    98758360.28245
      2496.557
  20416724.421   107290622.075 9       593.324    20416723.990    83603086.89749
       462.331
 18  2 20  9 45  0.0000000  0  7G02G05G07G09G13G28G30
  22973412.594   120726080.028 8     -2482.450    22973406.853    94072239.45246
     -1934.378
  20754163.933   109063870.434 9      1291.957    20754160.559    84984812.79348
      1006.720
  20952969.733   110108614.519 9     -1127.812    20952966.776    85798909.37548
      -878.814
  22669180.294   119127347.408 8     -2834.856    22669179.741    92826499.87547
     -2208.980
  23119373.595   121493138.295 8      2970.676    23119370.392    94669960.97746
      2314.810
  24099520.833   126643835.626 7      3200.953    24099519.188    98683499.85345
      2494.251
  20413388.054   107273089.380 9       575.434    20413387.628    83589425.06249
       448.390
 18  2 20  9 45 30.0000000  0  7G02G05G07G09G13G28G30
  22987615.935   120800718.962 8     -2493.612    22987610.258    94130399.64946
     -1943.075
  20746835.395   109025358.849 9      1275.259    20746832.055    84954803.76748
       993.708
  20959452.184   110142679.826 9     -1143.374    20959449.198    85825453.76848
      -890.941
  22685379.642   119212475.535 9     -2840.621    22685379.097    92892833.46547
     -2213.472
  23102430.635   121404102.403 8      2964.982    23102427.399    94600582.36346
      2310.375
  24081257.281   126547860.264 7      3197.242    24081255.595    98608713.92245
      2491.363
  20410155.259   107256100.914 9       556.922    20410154.825    83576187.30749
       433.965
 18  2 20  9 46  0.0000000  0  7G02G05G07G09G13G28G30
  23001880.275   120875678.365 8     -2504.147    23001874.673    94188809.53447
     -1951.285
  20739599.752   108987335.433 9      1259.063    20739596.428    84925175.13848
       981.089
  20966021.083   110177199.390 9     -1158.331    20966018.059    85852352.11148
      -902.595
  22701608.105   119297756.553 9     -2845.432    22701607.541    92959286.18747
     -2217.220
  23085516.778   121315219.550 8      2960.086    23085513.511    94531323.00646
      2306.562
  24063011.471   126451978.346 7      3194.241    24063009.771    98534000.83745
      2489.024
  20407025.103   107239651.815 9       539.161    20407024.639    83563369.84249
       420.126
 18  2 20  9 46 30.0000000  0  7G02G05G07G09G13G28G30
  23016204.512   120950952.520 8     -2514.263    23016198.994    94247464.67347
     -1959.167
  20732456.656   108949798.325 9      1243.194    20732453.343    84895925.44448
       968.723
  20972675.580   110212168.826 9     -1173.040    20972672.505    85879601.00848
      -914.058
  22717864.917   119383186.387 9     -2850.085    22717864.317    93025854.85647
     -2220.848
  23068631.659   121226487.601 8      2955.259    23068628.360    94462181.22546
      2302.799
  24044783.329   126356189.123 7      3191.296    24044781.673    98459359.93645
      2486.726
  20403996.966   107223738.824 9       521.627    20403996.472    83550970.11248
       406.463
 18  2 20  9 47  0.0000000  0  7G02G05G07G09G13G28G30
  23030588.894   121026542.958 8     -2524.778    23030583.461    94306366.28446
     -1967.360
  20725407.307   108912753.804 9      1226.802    20725403.997    84867059.57948
       955.949
  20979416.222   110247590.987 9     -1188.122    20979413.084    85907202.67948
      -925.810
  22734150.729   119468768.536 9     -2855.035    22734150.089    93092542.20747
     -2224.704
  23051776.355   121137912.154 8      2950.074    23051773.013    94393161.39546
      2298.760
  24026574.250   126260500.179 7      3188.078    24026572.618    98384797.21045
      2484.221
  20401071.664   107208366.306 9       503.536    20401071.155    83538991.53149
       392.366
 18  2 20  9 47 30.0000000  0  7G02G05G07G09G13G28G30
  23045033.544   121102450.082 8     -2535.651    23045028.209    94365514.64147
     -1975.834
  20718452.448   108876205.844 9      1209.776    20718449.145    84838580.65148
       942.683
  20986243.317   110283467.542 9     -1203.592    20986240.111    85935158.43747
      -937.864
  22750465.933   119554505.131 9     -2860.572    22750465.261    93159349.90247
     -2229.020
  23034951.520   121049496.795 8      2944.400    23034948.108    94324266.33846
      2294.340
  24008385.345   126164917.209 7      3184.141    24008383.716    98310317.06045
      2481.150
  20398249.763   107193537.134 9       485.074    20398249.243    83527436.32848
       377.980
 18  2 20  9 48  0.0000000  0  7G02G05G07G09G13G28G30
  23059538.277   121178673.116 8     -2546.319    23059533.044    94424909.18246
     -1984.146
  20711592.786   108840158.161 9      1193.060    20711589.497    84810491.55048
       929.657
  20993156.958   110319798.939 9     -1218.936    20993153.698    85963468.61047
      -949.822
  22766810.712   119640397.196 9     -2865.903    22766810.023    93226278.74547
     -2233.173
  23018157.651   120961244.102 8      2938.776    23018154.163    94255498.01845
      2289.955
  23990217.570   126069445.291 7      3179.978    23990215.915    98235923.45545
      2477.908
  20395531.624   107179253.133 9       466.770    20395531.071    83516305.93049
       363.716
 18  2 20  9 48 30.0000000  0  7G02G05G07G09G13G28G30
  23074101.868   121255205.526 7     -2556.264    23074096.726    94484544.81547
     -1991.894
  20704827.953   108804608.792 9      1176.630    20704824.681    84782790.74348
       916.855
  21000156.190   110356580.196 9     -1233.599    21000152.893    85992129.32847
      -961.245
  22783184.223   119726440.312 8     -2870.589    22783183.532    93293325.28347
     -2236.825
  23001394.162   120873151.231 8      2933.809    23001390.577    94186854.24945
      2286.086
  23972070.832   125974083.796 7      3176.825    23972069.123    98161615.86545
      2475.450
  20392916.545   107165510.674 9       449.045    20392915.940    83505597.52048
       349.906
 18  2 20  9 49  0.0000000  0  7G02G05G07G09G13G28G30
  23088723.114   121332040.827 7     -2566.579    23088718.096    94544416.42046
     -1999.933
  20698157.457   108769555.149 9      1160.029    20698154.207    84755476.21648
       903.920
  21007239.974   110393805.819 9     -1248.375    21007236.657    86021136.30747
      -972.759
  22799585.524   119812629.612 8     -2875.644    22799584.853    93360485.74447
     -2240.762
  22984660.507   120785215.136 8      2928.431    22984656.819    94118332.62745
      2281.895
  23953944.795   125878831.260 7      3173.063    23953943.014    98087393.21445
      2472.522
  20390403.723   107152305.598 9       431.071    20390403.066    83495307.85648
       335.900
 18  2 20  9 49 30.0000000  0  7G02G05G07G09G13G28G30
  23103402.017   121409179.156 7     -2576.516    23103397.141    94604524.14546
     -2007.677
  20691582.211   108735002.025 9      1143.349    20691578.981    84728551.70548
       890.921
  21014408.515   110431476.906 9     -1263.249    21014405.182    86050490.41947
      -984.350
  22816015.028   119898967.159 8     -2880.592    22816014.409    93427761.71047
     -2244.618
  22967957.392   120697439.448 8      2923.158    22967953.620    94049935.98346
      2277.785
  23935840.686   125783693.888 7      3169.162    23935838.858    98013260.27245
      2469.480
  20387993.688   107139640.742 9       413.012    20387992.992    83485439.14148
       321.827
 18  2 20  9 50  0.0000000  0  7G02G05G07G09G13G28G30
  23118138.143   121486618.399 7     -2586.332    23118133.418    94664866.36446
     -2015.324
  20685102.631   108700951.626 9      1126.654    20685099.418    84702018.93348
       877.912
  21021661.777   110469593.105 9     -1277.931    21021658.432    86080191.35748
      -995.790
  22832472.740   119985453.078 8     -2885.192    22832472.189    93495153.30847
     -2248.202
  22951285.126   120609826.078 8      2917.750    22951281.298    93981665.87246
      2273.573
  23917759.176   125688675.282 7      3165.146    23917757.316    97939219.87245
      2466.351
  20385686.577   107127516.912 9       395.163    20385685.862    83475992.01248
       307.920
 18  2 20  9 50 30.0000000  0  7G02G05G07G09G13G28G30
  23132930.835   121564354.757 7     -2596.418    23132926.255    94725440.06746
     -2023.187
  20678718.751   108667404.089 9      1109.667    20678715.551    84675877.99548
       864.676
  21028999.195   110508151.471 9     -1292.801    21028995.843    86110236.83347
     -1007.377
  22848958.246   120072085.051 8     -2890.409    22848957.785    93562658.70147
     -2252.268
  22934643.630   120522374.350 8      2912.089    22934639.786    93913521.68645
      2269.160
  23899700.572   125593777.168 7      3160.898    23899698.712    97865273.38645
      2463.042
  20383482.083   107115932.465 9       376.896    20383481.387    83466965.17848
       293.686
 18  2 20  9 51  0.0000000  0  7G02G05G07G09G13G28G30
  23147779.793   121642386.902 7     -2605.794    23147775.314    94786244.29346
     -2030.490
  20672431.117   108634362.312 9      1092.837    20672427.933    84650131.15248
       851.562
  21036420.727   110547151.819 9     -1307.530    21036417.373    86140626.70648
     -1018.855
  22865471.692   120158863.814 8     -2895.110    22865471.352    93630278.44947
     -2255.933
  22918033.305   120435086.566 8      2906.742    22918029.463    93845505.25445
      2264.993
  23881665.727   125499003.896 6      3156.756    23881663.879    97791424.17845
      2459.815
  20381380.499   107104888.766 9       358.990    20381379.848    83458359.69049
       279.731
 18  2 20  9 51 30.0000000  0  7G02G05G07G09G13G28G30
  23162684.430   121720711.545 8     -2616.033    23162680.002    94847276.45846
     -2038.468
  20666239.938   108601827.481 9      1075.716    20666236.766    84624779.34448
       838.221
  21043926.055   110586592.542 9     -1322.298    21043922.704    86171359.73348
     -1030.362
  22882012.788   120245788.026 8     -2900.333    22882012.591    93698011.55647
     -2260.001
  22901454.200   120347962.981 8      2901.049    22901450.359    93777616.77146
      2260.558
  23863655.120   125404357.978 7      3152.416    23863653.280    97717674.19745
      2456.432
  20379381.691   107094385.122 9       340.802    20379381.064    83450175.03749
       265.561
 18  2 20  9 52  0.0000000  0  7G02G05G07G09G13G28G30
  23177643.546   121799322.233 8     -2624.895    23177639.165    94908531.49447
     -2045.375
  20660144.800   108569797.320 9      1059.378    20660141.637    84599820.77448
       825.489
  21051514.155   110626468.229 9     -1336.197    21051510.810    86202431.69348
     -1041.193
  22898580.694   120332853.086 8     -2904.154    22898580.644    93765854.41048
     -2262.979
  22884905.847   120261001.033 8      2896.261    22884901.995    93709854.22645
      2256.827
  23845668.635   125309838.553 7      3148.766    23845666.784    97644022.72845
      2453.584
  20377484.930   107084417.576 9       323.580    20377484.298    83442408.11349
       252.140
 18  2 20  9 52 30.0000000  0  7G02G05G07G09G13G28G30
  23192656.904   121878217.809 8     -2634.383    23192652.546    94970008.51846
     -2052.767
  20654146.251   108538274.774 9      1042.521    20654143.093    84575257.75648
       812.355
  21059185.061   110666779.083 9     -1350.676    21059181.725    86233842.74648
     -1052.475
  22915175.579   120420059.863 8     -2909.093    22915175.658    93833807.69447
     -2266.826
  22868388.663   120174202.932 8      2890.856    22868384.794    93642219.36046
      2252.615
  23827707.082   125215450.294 7      3144.190    23827705.188    97570473.52145
      2450.023
  20375690.478   107074987.609 9       305.681    20375689.815    83435060.09349
       238.193
 18  2 20  9 53  0.0000000  0  7G02G05G07G09G13G28G30
  23207723.950   121957395.392 8     -2643.827    23207719.587    95031705.27647
     -2060.128
  20648244.525   108507261.026 9      1025.303    20648241.367    84551091.20148
       798.938
  21066938.383   110707523.013 9     -1365.250    21066935.053    86265591.25547
     -1063.831
  22931797.249   120507407.308 8     -2913.933    22931797.426    93901870.58747
     -2270.599
  22851902.861   120087569.676 8      2885.102    22851899.001    93574712.93746
      2248.132
  23809771.034   125121195.807 7      3139.578    23809769.089    97497028.50545
      2446.428
  20373998.248   107066094.754 9       287.559    20373997.544    83428130.59649
       224.072
 18  2 20  9 53 30.0000000  0  7G02G05G07G09G13G28G30
  23222844.796   122036855.674 8     -2653.273    23222840.402    95093622.33047
     -2067.487
  20642440.634   108476761.371 9      1008.156    20642437.471    84527325.22948
       785.575
  21074774.528   110748702.219 9     -1379.832    21074771.195    86297678.94647
     -1075.194
  22948446.204   120594898.102 8     -2918.670    22948446.438    93970045.19347
     -2274.290
  22835449.202   120001105.332 8      2879.426    22835445.378    93507338.13446
      2243.709
  23791861.631   125027081.511 7      3134.943    23791859.623    97423692.76444
      2442.816
  20372408.822   107057742.193 9       269.505    20372408.087    83421622.11549
       210.004
 18  2 20  9 54  0.0000000  0  7G02G05G07G09G13G28G30
  23238018.474   122116593.488 8     -2662.612    23238014.014    95155755.64047
     -2074.766
  20636734.331   108446774.617 9       991.037    20636731.164    84503958.93648
       772.237
  21082692.728   110790312.702 9     -1394.113    21082689.390    86330102.71147
     -1086.322
  22965121.823   120682528.974 8     -2923.328    22965122.081    94038328.95447
     -2277.920
  22819027.353   119914808.233 8      2873.843    22819023.617    93440093.64346
      2239.359
  23773978.991   124933107.895 7      3130.087    23773976.937    97350466.62744
      2439.029
  20370921.695   107049927.262 9       251.584    20370920.952    83415532.56249
       196.039
 18  2 20  9 54 30.0000000  0  7G02G05G07G09G13G28G30
  23253244.506   122196606.377 8     -2671.747    23253239.963    95218103.29946
     -2081.882
  20631125.988   108417302.615 9       973.803    20631122.829    84480993.74248
       758.807
  21090692.776   110832353.293 9     -1408.475    21090689.435    86362861.62347
     -1097.512
  22981824.039   120770299.556 8     -2927.961    22981824.295    94106721.58147
     -2281.529
  22802637.551   119828679.744 8      2868.003    22802633.950    93372980.54746
      2234.809
  23756123.786   124839278.464 7      3125.248    23756121.684    97277352.83445
      2435.261
  20369536.888   107042650.078 9       233.659    20369536.152    83409862.03448
       182.072
 18  2 20  9 55  0.0000000  0  8G02G05G07G09G13G20G28G30
  23268522.546   122276892.494 8     -2680.528    23268517.903    95280663.86846
     -2088.725
  20625616.053   108388347.748 9       956.675    20625612.898    84458431.51448
       745.461
  21098774.520   110874823.171 9     -1422.618    21098771.176    86395955.03747
     -1108.532
  22998552.869   120858209.988 8     -2932.502    22998553.109    94175223.19247
     -2285.066
  22786280.180   119742721.723 8      2862.646    22786276.741    93306000.27146
      2230.634
  24441770.830   128442368.948 6      3559.704    24441768.649   100084957.47345
      2773.799
  23738296.758   124745597.092 7      3120.466    23738294.614    97204354.41346
      2431.535
  20368254.525   107035911.268 9       215.860    20368253.799    83404611.02149
       168.203
 18  2 20  9 55 30.0000000  0  8G02G05G07G09G13G20G28G30
  23283850.097   122357438.735 8     -2689.688    23283845.344    95343427.12447
     -2095.863
  20620202.835   108359901.035 9       939.293    20620199.685    84436265.22348
       731.915
  21106935.743   110917710.648 9     -1436.959    21106932.395    86429373.83348
     -1119.709
  23015306.238   120946249.156 8     -2937.303    23015306.469    94243825.07747
     -2288.810
  22769953.436   119656924.532 8      2856.703    22769950.166    93239145.29946
      2226.001
  24421460.801   128335637.887 6      3555.193    24421458.644   100001790.39645
      2770.279
  23720496.491   124652056.415 7      3115.075    23720494.321    97131465.65646
      2427.334
  20367072.614   107029700.208 9       197.726    20367071.902    83399771.22149
       154.071
 18  2 20  9 56  0.0000000  0  8G02G05G07G09G13G20G28G30
  23299229.548   122438257.822 8     -2698.658    23299224.685    95406403.01846
     -2102.852
  20614889.494   108331979.300 9       921.710    20614886.344    84414508.03448
       718.215
  21115179.010   110961029.395 9     -1451.306    21115175.656    86463128.70747
     -1130.888
  23032086.889   121034431.751 8     -2942.167    23032087.116    94312538.74947
     -2292.600
  22753660.476   119571304.925 8      2850.706    22753657.344    93172428.74047
      2221.328
  24401177.484   128229047.021 7      3550.747    24401175.060    99918732.58846
      2766.815
  23702726.444   124558674.652 7      3109.976    23702724.236    97058700.76945
      2423.363
  20365994.012   107024032.061 9       179.700    20365993.304    83395354.49049
       140.026
 18  2 20  9 56 30.0000000  0  8G02G05G07G09G13G20G28G30
  23314659.413   122519341.721 8     -2707.406    23314654.475    95469585.22646
     -2109.669
  20609675.354   108304578.922 9       904.487    20609672.215    84393157.10648
       704.796
  21123503.127   111004772.954 9     -1465.333    21123499.789    86497214.57348
     -1141.823
  23048893.705   121122751.824 8     -2946.410    23048893.941    94381359.54047
     -2295.906
  22737400.445   119485858.230 8      2845.076    22737397.435    93105846.91047
      2216.941
  24380920.165   128122593.749 7      3545.976    24380917.656    99835782.00646
      2763.098
  23684986.329   124465449.858 7      3104.677    23684984.091    96986058.12545
      2419.229
  20365017.683   107018901.301 9       161.969    20365016.969    83391356.49549
       126.209
 18  2 20  9 57  0.0000000  0  8G02G05G07G09G13G20G28G30
  23330139.022   122600687.064 7     -2715.898    23330134.057    95532971.14946
     -2116.287
  20604560.526   108277700.349 9       886.978    20604557.413    84372212.75548
       691.151
  21131907.627   111048939.057 9     -1479.380    21131904.325    86531629.70447
     -1152.765
  23065726.387   121211207.828 8     -2951.023    23065726.620    94450286.25647
     -2299.501
  22721173.371   119400584.585 8      2839.196    22721170.464    93039399.91447
      2212.361
  24360689.297   128016279.413 7      3541.076    24360686.755    99752939.68045
      2759.280
  23667276.505   124372384.163 7      3099.386    23667274.202    96913539.44545
      2415.105
  20364143.405   107014306.803 9       143.993    20364142.672    83387776.36549
       112.202
 18  2 20  9 57 30.0000000  0  8G02G05G07G09G13G20G28G30
  23345667.797   122682290.804 7     -2724.483    23345662.838    95596558.40246
     -2122.979
  20599545.218   108251344.793 9       869.688    20599542.124    84351675.96048
       677.679
  21140392.187   111093525.962 9     -1493.360    21140388.929    86566372.74547
     -1163.658
  23082584.738   121299798.714 8     -2955.415    23082584.952    94519318.06746
     -2302.922
  22704979.355   119315484.575 8      2833.498    22704976.525    92973088.23246
      2207.921
  24340485.264   127910106.096 7      3536.366    24340482.625    99670207.25245
      2755.611
  23649597.438   124279480.125 7      3094.237    23649595.052    96841146.75645
      2411.095
  20363371.047   107010247.932 9       126.210    20363370.284    83384613.60849
        98.346
 18  2 20  9 58  0.0000000  0  8G02G05G07G09G13G20G28G30
  23361245.141   122764149.958 7     -2732.432    23361240.223    95660344.66746
     -2129.170
  20594629.718   108225513.732 9       852.818    20594626.640    84331547.86148
       664.534
  21148956.443   111138531.626 9     -1506.602    21148953.232    86601442.07947
     -1173.975
  23099468.640   121388523.903 8     -2959.243    23099468.816    94588454.52747
     -2305.904
  22688818.645   119230559.387 8      2828.575    22688815.879    92906912.75947
      2204.086
  24320308.588   127804076.488 7      3532.394    24320305.827    99587586.77045
      2752.518
  23631949.766   124186741.164 7      3088.892    23631947.316    96768882.72946
      2406.934
  20362700.567   107006724.457 9       109.077    20362699.779    83381868.03949
        84.995
 18  2 20  9 58 30.0000000  0  8G02G05G07G09G13G20G28G30
  23376870.344   122846260.907 7     -2741.395    23376865.469    95724327.17646
     -2136.153
  20589814.050   108200207.265 9       834.642    20589810.982    84311828.52848
       650.368
  21157599.887   111183953.457 9     -1521.115    21157596.711    86636835.71847
     -1185.285
  23116377.676   121477381.219 8     -2964.246    23116377.803    94657693.95146
     -2309.805
  22672691.033   119145808.187 8      2821.977    22672688.316    92840872.88846
      2198.943
  24300159.370   127698191.249 7      3526.814    24300156.450    99505078.78545
      2748.164
  23614333.769   124094168.672 7      3082.685    23614331.275    96696748.42245
      2402.097
  20362131.629   107003734.615 9        90.573    20362130.828    83379538.29049
        70.576
 18  2 20  9 59  0.0000000  0  8G02G05G07G09G13G20G28G30
  23392543.437   122928623.582 8     -2749.356    23392538.588    95788505.83745
     -2142.356
  20585099.015   108175429.670 9       817.152    20585095.939    84292521.31948
       636.741
  21166322.860   111229793.252 9     -1534.882    21166319.710    86672555.06547
     -1196.008
  23133312.305   121566373.124 8     -2968.551    23133312.389    94727038.27446
     -2313.157
  22656597.448   119061235.756 8      2816.116    22656594.780    92774972.30346
      2194.377
  24280038.753   127592456.383 7      3522.170    24280035.706    99422687.98544
      2744.548
  23596750.628   124001768.813 7      3077.176    23596748.096    96624748.62245
      2397.801
  20361664.744   107001281.131 9        72.953    20361663.936    83377626.49248
        56.848
 18  2 20  9 59 30.0000000  0  8G02G05G07G09G13G20G28G30
  23408263.181   123011231.408 8     -2757.905    23408258.326    95852875.53845
     -2149.017
  20580484.181   108151178.533 9       799.369    20580481.082    84273624.31948
       622.885
  21175124.316   111276045.181 9     -1548.789    21175121.195    86708595.49347
     -1206.849
  23150271.683   121655495.028 8     -2973.242    23150271.749    94796483.87947
     -2316.812
  22640537.293   118976838.993 8      2810.124    22640534.652    92709208.59546
      2189.708
  24259946.457   127486870.324 7      3516.759    24259943.285    99340413.12345
      2740.332
  23579200.196   123909540.773 7      3071.320    23579197.623    96552882.69045
      2393.237
  20361299.111   106999359.793 9        55.010    20361298.310    83376129.35249
        42.865
                            4  1
RINEX FILE SPLICE; other post-header comments skipped       COMMENT
 18  2 20 10  0  0.0000000  0  8G02G05G07G09G13G20G28G30
  23424029.035   123094081.390 8     -2765.623    23424024.151    95917433.91945
     -2155.033
  20575969.701   108127454.759 9       781.935    20575966.571    84255138.25648
       609.300
  21184003.805   111322707.240 9     -1562.324    21184000.697    86744955.52847
     -1217.396
  23167255.555   121744745.615 8     -2977.174    23167255.617    94866029.75247
     -2319.877
  22624510.577   118892617.922 8      2804.398    22624507.942    92643581.78246
      2185.245
  24239882.786   127381434.795 7      3512.091    24239879.507    99258255.58144
      2736.693
  23561682.933   123817487.087 7      3065.182    23561680.295    96481152.62946
      2388.457
  20361034.542   106997969.610 9        37.491    20361033.771    83375046.09949
        29.214
 18  2 20 10  0 30.0000000  0  8G02G05G07G09G13G20G28G30
  23439840.941   123177173.357 8     -2773.704    23439835.985    95982180.88145
     -2161.328
  20571556.345   108104262.409 9       764.376    20571553.188    84237066.29248
       595.617
  21192961.576   111369780.634 9     -1575.846    21192958.476    86781636.08447
     -1227.933
  23184264.341   121834127.158 8     -2981.433    23184264.407    94935677.67247
     -2323.196
  22608518.066   118808576.657 8      2798.552    22608515.406    92578095.10146
      2180.689
  24219848.817   127276155.239 7      3506.624    24219845.427    99176219.53444
      2732.429
  23544199.999   123725613.599 7      3059.411    23544197.297    96409562.93145
      2383.958
  20360871.530   106997113.115 9        19.902    20360870.791    83374378.71049
        15.508
 18  2 20 10  1  0.0000000  0  8G02G05G07G09G13G20G28G30
  23455698.062   123260502.704 8     -2781.729    23455693.026    96047112.77945
     -2167.583
  20567243.965   108081600.663 9       746.287    20567240.784    84219407.78248
       581.523
  21201996.993   111417262.047 9     -1589.707    21201993.901    86818634.58447
     -1238.732
  23201297.516   121923636.905 8     -2986.187    23201297.582    95005425.49447
     -2326.901
  22592559.565   118724714.142 8      2792.205    22592556.849    92512747.72346
      2175.746
  24199844.554   127171032.006 7      3501.324    24199841.046    99094305.35745
      2728.305
  23526751.464   123633921.136 7      3053.007    23526748.693    96338114.35945
      2378.970
  20360809.604   106996787.765 9         1.720    20360808.885    83374125.19349
         1.340
 18  2 20 10  1 30.0000000  0  8G02G05G07G09G13G20G28G30
  23471600.331   123344069.442 8     -2789.407    23471595.187    96112229.69746
     -2173.567
  20563033.336   108059473.624 9       728.762    20563030.134    84202165.93248
       567.866
  21211110.274   111465152.577 9     -1603.050    21211107.184    86855951.87348
     -1249.130
  23218355.508   122013277.042 8     -2990.088    23218355.556    95075274.91147
     -2329.940
  22576635.733   118641033.706 8      2786.465    22576632.939    92447542.20546
      2171.271
  24179871.126   127066070.584 7      3496.070    24179867.549    99012517.21245
      2724.210
  23509338.569   123542415.685 8      3047.235    23509335.756    96266811.44046
      2374.469
  20360849.225   106996996.043 9       -15.793    20360848.516    83374287.48849
       -12.307
 18  2 20 10  2  0.0000000  0  8G02G05G07G09G13G20G28G30
  23487546.969   123427869.283 8     -2797.195    23487541.728    96177528.22345
     -2179.634
  20558924.481   108037881.424 9       710.621    20558921.270    84185340.83948
       553.730
  21220300.845   111513449.291 9     -1616.773    21220297.741    86893585.68647
     -1259.823
  23235437.874   122103045.326 8     -2994.570    23235437.874    95145224.19747
     -2333.433
  22560746.549   118557535.381 8      2780.141    22560743.654    92382478.59146
      2166.345
  24159928.634   126961271.903 6      3490.355    24159925.006    98930855.91445
      2719.760
  23491961.533   123451098.755 8      3040.662    23491958.656    96195655.44446
      2369.348
  20360990.018   106997735.955 9       -33.744    20360989.307    83374864.04449
       -26.295
 18  2 20 10  2 30.0000000  0  8G02G05G07G09G13G20G28G30
  23503537.224   123511898.325 8     -2804.879    23503531.898    96243005.34146
     -2185.621
  20554917.429   108016824.171 9       692.904    20554914.222    84168932.57448
       539.925
  21229568.185   111562149.307 9     -1630.142    21229565.060    86931533.74047
     -1270.240
  23252544.294   122192939.989 8     -2998.595    23252544.236    95215271.94947
     -2336.568
  22544891.988   118474218.935 8      2774.112    22544888.996    92317556.67546
      2161.646
  24140017.339   126856637.257 6      3484.966    24140013.671    98849322.43445
      2715.559
  23474620.700   123359971.847 8      3034.553    23474617.766    96124647.46245
      2364.587
  20361231.687   106999005.892 9       -51.233    20361230.966    83375853.60049
       -39.922
 18  2 20 10  3  0.0000000  0  8G02G05G07G09G13G20G28G30
  23519570.973   123596155.953 8     -2812.309    23519565.582    96308660.58746
     -2191.410
  20551012.748   107996304.981 9       675.042    20551009.547    84152943.59648
       526.007
  21238912.347   111611253.026 9     -1643.490    21238909.197    86969796.37447
     -1280.642
  23269674.983   122282962.207 8     -3002.769    23269674.864    95285419.10146
     -2339.822
  22529072.539   118391087.090 8      2768.128    22529069.473    92252778.61746
      2156.982
  24120138.037   126752170.980 6      3479.412    24120134.344    98767920.19045
      2711.234
  23457317.074   123269040.592 8      3027.784    23457314.092    96053791.96745
      2359.314
  20361574.473   107000807.240 9       -68.851    20361573.736    83377257.25148
       -53.649
 18  2 20 10  3 30.0000000  0  8G02G05G07G09G13G20G28G30
  23535646.978   123680635.672 7     -2819.530    23535641.533    96374488.89646
     -2197.038
  20547210.051   107976321.689 9       657.205    20547206.858    84137372.19248
       512.107
  21248332.369   111660755.382 9     -1656.647    21248329.195    87008369.63248
     -1290.894
  23286829.168   122373107.868 8     -3006.855    23286829.011    95355662.42947
     -2343.006
  22513287.754   118308137.464 8      2762.051    22513284.658    92188142.55347
      2152.247
  24100290.604   126647872.129 6      3474.069    24100286.910    98686648.37045
      2707.069
  23440050.567   123178304.445 7      3021.180    23440047.569    95983088.50746
      2354.167
  20362017.639   107003136.072 9       -86.435    20362016.886    83379071.92349
       -67.352
 18  2 20 10  4  0.0000000  0  8G02G05G07G09G13G20G28G30
  23551765.524   123765338.866 7     -2827.144    23551760.059    96440491.31646
     -2202.971
  20543510.289   107956879.345 9       639.087    20543507.108    84122222.31248
       497.989
  21257828.664   111710658.549 9     -1670.097    21257825.476    87047255.20048
     -1301.374
  23304007.478   122463380.323 8     -3011.157    23304007.324    95426004.55046
     -2346.357
  22497538.532   118225374.941 8      2755.665    22497535.437    92123652.31246
      2147.274
  24080476.297   126543747.366 7      3467.825    24080472.614    98605512.20346
      2702.203
  23422822.440   123087770.066 7      3014.432    23422819.450    95912542.27145
      2348.910
  20362561.847   107005995.875 9      -104.085    20362561.086    83381300.33549
       -81.105
 18  2 20 10  4 30.0000000  0  8G02G05G07G09G13G20G28G30
  23567925.116   123850257.969 7     -2834.323    23567919.658    96506662.00046
     -2208.563
  20539912.782   107937974.382 9       621.088    20539909.627    84107491.17548
       483.966
  21267400.134   111760956.858 9     -1683.310    21267396.938    87086448.68248
     -1311.669
  23321208.858   122553774.072 8     -3015.154    23321208.739    95496441.19747
     -2349.471
  22481824.130   118142795.616 8      2749.382    22481821.062    92059304.83146
      2142.378
  24060694.645   126439794.167 7      3462.269    24060690.982    98524509.72546
      2697.874
  23405632.422   122997435.970 7      3007.736    23405629.446    95842152.10046
      2343.691
  20363206.056   107009381.290 9      -121.672    20363205.303    83383938.33749
       -94.808
 18  2 20 10  5  0.0000000  0  8G02G05G07G09G13G20G28G30
  23584126.299   123935395.732 7     -2841.382    23584120.891    96573003.05245
     -2214.066
  20536418.844   107919613.661 9       602.958    20536415.729    84093184.12048
       469.838
  21277047.558   111811654.324 9     -1696.480    21277044.374    87125953.18248
     -1321.933
  23338434.284   122644294.158 8     -3019.402    23338434.223    95566976.27547
     -2352.783
  22466145.860   118060406.251 8      2743.292    22466142.824    91995105.35646
      2137.632
  24040947.263   126336021.096 6      3456.178    24040943.613    98443647.62446
      2693.128
  23388482.165   122907310.709 7      3000.844    23388479.187    95771924.63446
      2338.322
  20363951.266   107013297.450 9      -139.209    20363950.542    83386989.90149
      -108.474
 18  2 20 10  5 30.0000000  0  8G02G05G07G09G13G20G28G30
  23600367.278   124020742.905 7     -2848.616    23600361.957    96639507.32346
     -2219.702
  20533027.413   107901791.610 9       584.958    20533024.348    84079296.80648
       455.811
  21286769.157   111862741.690 9     -1709.587    21286765.988    87165761.51748
     -1332.146
  23355682.363   122734933.311 8     -3023.443    23355682.368    95637604.14047
     -2355.931
  22450502.707   117978201.331 8      2736.868    22450499.692    91931049.58146
      2132.625
  24021233.365   126232423.933 6      3449.893    24021229.735    98362922.58145
      2688.228
  23371370.984   122817390.785 7      2993.754    23371367.991    95701857.17046
      2332.795
  20364796.128   107017737.240 9      -156.904    20364795.435    83390449.48649
      -122.263
 18  2 20 10  6  0.0000000  0  8G02G05G07G09G13G20G28G30
  23616648.421   124106301.044 7     -2855.356    23616643.263    96706175.93146
     -2224.957
  20529739.581   107884513.994 9       566.816    20529736.557    84065833.73048
       441.676
  21296565.543   111914222.064 9     -1722.493    21296562.386    87205876.09148
     -1342.202
  23372953.765   122825695.002 8     -3027.551    23372953.822    95708327.48246
     -2359.132
  22434895.566   117896185.622 8      2730.622    22434892.568    91867141.25346
      2127.759
  24001554.118   126129008.897 7      3444.247    24001550.523    98282339.45245
      2683.830
  23354300.205   122727683.370 7      2986.674    23354297.189    95631955.32945
      2327.279
  20365741.320   107022704.181 9      -174.333    20365740.644    83394319.82849
      -135.844
 18  2 20 10  6 30.0000000  0  8G02G05G07G09G13G20G28G30
  23632969.128   124192067.248 6     -2862.309    23632964.142    96773006.68646
     -2230.372
  20526555.607   107867782.140 9       548.637    20526552.601    84052795.92848
       427.511
  21306436.468   111966094.138 9     -1735.579    21306433.306    87246295.89148
     -1352.399
  23390248.409   122916578.841 8     -3031.521    23390248.490    95779146.00946
     -2362.226
  22419324.820   117814361.113 8      2724.307    22419321.858    91803381.91946
      2122.837
  23981910.145   126025779.417 7      3438.017    23981906.580    98201900.94546
      2678.978
  23337270.466   122638191.742 7      2979.653    23337267.447    95562221.64845
      2321.811
  20366786.758   107028197.930 9      -191.800    20366786.083    83398600.67649
      -149.453
 18  2 20 10  7  0.0000000  0  8G02G05G07G09G13G20G28G30
  23649328.129   124278034.646 6     -2869.198    23649323.318    96839994.19346
     -2235.740
  20523474.879   107851592.760 9       530.466    20523471.883    84040180.82348
       413.351
  21316380.801   112018351.890 9     -1748.363    21316377.629    87287016.20547
     -1362.361
  23407565.354   123007579.867 8     -3035.352    23407565.430    95850055.85346
     -2365.210
  22403789.768   117732724.005 8      2718.014    22403786.862    91739768.59547
      2117.934
  23962301.150   125922733.537 7      3431.748    23962297.624    98121605.44246
      2674.090
  23320281.535   122548914.523 7      2972.375    23320278.512    95492655.00445
      2316.137
  20367931.511   107034213.587 9      -209.304    20367930.836    83403288.20249
      -163.094
 18  2 20 10  7 30.0000000  0  8G02G05G07G09G13G20G28G30
  23665725.233   124364202.243 7     -2875.480    23665720.593    96907137.70246
     -2240.636
  20520497.903   107835948.575 9       512.570    20520494.915    84027990.54748
       399.406
  21326398.567   112070995.493 9     -1761.019    21326395.382    87328037.17747
     -1372.223
  23424904.791   123098699.074 8     -3039.178    23424904.834    95921057.79547
     -2368.190
  22388290.884   117651276.941 8      2711.848    22388288.043    91676303.36247
      2113.129
  23942727.871   125819875.435 7      3425.552    23942724.374    98041456.27845
      2669.260
  23303334.247   122459856.278 7      2965.013    23303331.204    95423259.02045
      2310.402
  20369175.766   107040752.186 9      -226.499    20369175.097    83408383.21449
      -176.491
 18  2 20 10  8  0.0000000  0  8G02G05G07G09G13G20G28G30
  23682159.566   124450565.333 7     -2881.988    23682155.043    96974433.54846
     -2245.707
  20517624.611   107820849.231 9       494.323    20517621.628    84016224.82048
       385.187
  21336489.157   112124021.791 9     -1773.788    21336485.970    87369356.35647
     -1382.173
  23442266.303   123189934.236 8     -3042.950    23442266.305    95992150.09046
     -2371.132
  22372828.076   117570019.331 8      2705.522    22372825.301    91612985.72846
      2108.198
  23923190.494   125717205.999 7      3419.435    23923187.029    97961454.11645
      2664.494
  23286428.920   122371018.511 7      2957.809    23286425.833    95354034.83746
      2304.791
  20370519.097   107047811.461 9      -243.858    20370518.434    83413883.94649
      -190.020
 18  2 20 10  8 30.0000000  0  8G02G05G07G09G13G20G28G30
  23698631.347   124537125.084 7     -2888.563    23698626.902    97041882.65246
     -2250.829
  20514855.935   107806299.659 9       475.905    20514852.948    84004887.49448
       370.836
  21346652.974   112177432.926 9     -1786.696    21346649.796    87410975.41247
     -1392.231
  23459650.493   123281288.584 8     -3047.004    23459650.431    96063335.27446
     -2374.289
  22357402.280   117488956.210 8      2698.960    22357399.540    91549819.65146
      2103.086
  23903690.238   125614731.772 7      3412.406    23903686.817    97881604.08945
      2659.020
  23269566.886   122282408.221 8      2949.877    23269563.761    95284987.91846
      2298.608
  20371962.121   107055394.680 9      -261.429    20371961.461    83419792.95649
      -203.710
 18  2 20 10  9  0.0000000  0  8G02G05G07G09G13G20G28G30
  23715139.518   124623875.893 7     -2895.023    23715135.095    97109480.63746
     -2255.864
  20512191.507   107792297.849 9       457.370    20512188.510    83993976.99248
       356.393
  21356889.168   112231224.449 9     -1799.554    21356886.008    87452890.88048
     -1402.249
  23477056.659   123372758.312 8     -3050.938    23477056.531    96134610.35047
     -2377.355
  22342013.074   117408085.395 8      2692.322    22342010.342    91486803.44246
      2097.915
  23884227.006   125512452.108 7      3405.871    23884223.643    97801905.66445
      2653.926
  23252748.140   122194025.369 8      2942.179    23252744.993    95216118.22446
      2292.608
  20373504.115   107063497.994 9      -278.953    20373503.456    83426107.23549
      -217.365
 18  2 20 10  9 30.0000000  0  8G02G05G07G09G13G20G28G30
  23731683.635   124710815.341 7     -2900.970    23731679.204    97177225.60346
     -2260.497
  20509631.576   107778845.142 9       439.354    20509628.572    83983494.36148
       342.354
  21367197.387   112285394.445 9     -1811.906    21367194.250    87495101.25948
     -1411.876
  23494484.772   123464343.299 8     -3054.731    23494484.598    96205975.22347
     -2380.311
  22326660.729   117327408.277 8      2686.202    22326657.993    91423938.16547
      2093.145
  23864801.430   125410370.358 7      3399.251    23864798.101    97722361.46244
      2648.769
  23235973.269   122105873.074 7      2934.507    23235970.116    95147428.19246
      2286.630
  20375145.054   107072121.224 9      -295.985    20375144.390    83432826.63849
      -230.638
 18  2 20 10 10  0.0000000  0  8G02G05G07G09G13G20G28G30
  23748263.278   124797941.357 8     -2907.590    23748258.810    97245115.95846
     -2265.655
  20507176.511   107765943.565 9       420.528    20507173.496    83973441.18848
       327.684
  21377577.549   112339942.509 9     -1824.816    21377574.433    87537606.24048
     -1421.936
  23511934.873   123556043.823 8     -3058.670    23511934.671    96277430.12646
     -2383.382
  22311345.559   117246926.555 8      2679.357    22311342.806    91361225.15646
      2087.810
  23845414.087   125308489.530 6      3392.404    23845410.791    97642973.81446
      2643.432
  23219243.039   122017955.424 7      2926.363    23219239.883    95078921.00246
      2280.286
  20376884.988   107081264.647 9      -313.731    20376884.313    83439951.39049
      -244.467
 18  2 20 10 10 30.0000000  0  8G02G05G07G09G13G20G28G30
  23764878.171   124885252.544 8     -2913.551    23764873.642    97313150.61246
     -2270.299
  20504826.789   107753595.605 9       402.158    20504823.768    83963819.40448
       313.370
  21388029.628   112394868.476 9     -1837.354    21388026.528    87580405.69148
     -1431.704
  23529407.090   123647860.572 8     -3062.732    23529406.871    96348975.59247
     -2386.547
  22296068.157   117166643.163 8      2672.561    22296065.383    91298666.67147
      2082.516
  23826065.669   125206813.320 7      3385.514    23826062.419    97563745.61646
      2638.064
  23202558.278   121930276.860 7      2918.387    23202555.127    95010600.10245
      2274.068
  20378724.005   107090928.791 9      -330.970    20378723.329    83447481.90249
      -257.897
 18  2 20 10 11  0.0000000  0  8G02G05G07G09G13G20G28G30
  23781527.130   124972742.621 8     -2919.054    23781522.522    97381324.64746
     -2274.589
  20502581.863   107741798.377 9       384.249    20502578.851    83954626.75648
       299.415
  21398552.628   112450167.135 9     -1849.316    21398549.537    87623495.55548
     -1441.025
  23546900.550   123739789.055 8     -3066.062    23546900.319    96420608.13247
     -2389.142
  22280827.917   117086555.077 8      2666.514    22280825.130    91236260.38647
      2077.804
  23806756.018   125105340.818 7      3379.038    23806752.823    97484676.15146
      2633.017
  23185918.801   121842836.307 7      2911.095    23185915.654    94942464.64945
      2268.387
  20380661.250   107101109.129 9      -347.754    20380660.594    83455414.63549
      -270.977
 18  2 20 10 11 30.0000000  0  8G02G05G07G09G13G20G28G30
  23798210.308   125060412.459 8     -2925.036    23798205.623    97449638.74146
     -2279.252
  20500442.596   107730556.403 9       365.637    20500439.594    83945866.77448
       284.911
  21409146.826   112505839.922 9     -1861.786    21409143.750    87666876.93748
     -1450.742
  23564415.849   123831832.333 8     -3069.835    23564415.636    96492330.11246
     -2392.080
  22265625.662   117006666.615 8      2659.706    22265622.885    91174009.64447
      2072.499
  23787486.455   125004078.967 7      3372.303    23787483.315    97405770.82746
      2627.769
  23169325.938   121755640.646 8      2902.650    23169322.802    94874520.01146
      2261.807
  20382697.285   107111808.623 9      -365.110    20382696.652    83463751.90349
      -284.501
 18  2 20 10 12  0.0000000  0  8G02G05G07G09G13G20G28G30
  23814926.832   125148257.821 7     -2930.949    23814922.085    97518089.63546
     -2283.859
  20498409.016   107719869.918 9       347.133    20498406.011    83937539.65948
       270.493
  21419811.726   112561884.360 9     -1874.073    21419808.665    87710547.93648
     -1460.316
  23581952.613   123923988.566 8     -3073.457    23581952.439    96564140.13546
     -2394.903
  22250461.421   116926978.067 8      2653.146    22250458.656    91111914.70446
      2067.388
  23768257.153   124903028.719 7      3364.882    23768254.062    97327030.40646
      2621.988
  23152779.966   121668691.471 7      2894.276    23152776.852    94806767.47846
      2255.283
  20384831.719   107123025.263 9      -382.394    20384831.087    83472492.15449
      -297.969
 18  2 20 10 12 30.0000000  0  8G02G05G07G09G13G20G28G30
  23831675.842   125236274.168 7     -2936.707    23831671.054    97586673.77146
     -2288.345
  20496480.918   107709737.642 9       328.415    20496477.908    83929644.37148
       255.907
  21430546.640   112618296.693 9     -1886.665    21430543.611    87754505.58547
     -1470.130
  23599510.410   124016255.291 8     -3077.459    23599510.298    96636036.23946
     -2398.021
  22235335.077   116847488.498 8      2646.309    22235332.293    91049974.77746
      2062.058
  23749068.247   124802190.608 7      3357.529    23749065.211    97248455.26946
      2616.256
  23136281.140   121581989.954 7      2885.687    23136278.054    94739207.91346
      2248.590
  20387064.083   107134756.444 9      -399.740    20387063.432    83481633.33249
      -311.486
 18  2 20 10 13  0.0000000  0  8G02G05G07G09G13G20G28G30
  23848456.648   125324457.817 7     -2942.743    23848451.861    97655388.27046
     -2293.048
  20494658.321   107700159.790 9       309.383    20494655.295    83922181.11048
       241.078
  21441351.112   112675074.653 9     -1899.222    21441348.108    87798748.16047
     -1479.912
  23617088.955   124108631.021 8     -3081.611    23617088.914    96708017.28347
     -2401.257
  22220246.613   116768197.982 8      2639.096    22220243.771    90988189.96746
      2056.439
  23729920.072   124701566.539 7      3349.842    23729917.075    97170046.94146
      2610.267
  23119829.923   121495538.617 8      2876.736    23119826.855    94671843.29645
      2241.617
  20389394.041   107147000.540 9      -417.364    20389393.369    83491174.19849
      -325.218
 18  2 20 10 13 30.0000000  0  8G02G05G07G09G13G20G28G30
  23865268.974   125412807.168 8     -2947.760    23865264.227    97724231.88146
     -2296.958
  20492941.631   107691138.505 9       291.536    20492938.584    83915151.54148
       227.171
  21452225.098   112732217.890 9     -1910.763    21452222.115    87843275.35847
     -1488.906
  23634688.399   124201116.534 8     -3084.554    23634688.425    96780083.87446
     -2403.550
  22205196.448   116689108.886 8      2633.153    22205193.571    90926562.11946
      2051.809
  23710813.428   124601160.597 7      3343.235    23710810.470    97091808.57345
      2605.120
  23103427.091   121409341.358 8      2869.174    23103424.012    94604676.62745
      2235.721
  20391821.732   107159758.144 9      -433.761    20391821.049    83501115.18749
      -337.996
 18  2 20 10 14  0.0000000  0  8G02G05G07G09G13G20G28G30
  23882112.270   125501319.236 7     -2953.121    23882107.595    97793202.27146
     -2301.137
  20491330.978   107682674.427 9       272.845    20491327.906    83908556.15848
       212.606
  21463168.182   112789724.250 9     -1922.824    21463165.204    87888085.51347
     -1498.305
  23652308.556   124293710.835 8     -3088.322    23652308.626    96852235.24046
     -2406.486
  22190184.702   116610222.015 8      2626.322    22190181.848    90865091.86646
      2046.486
  23691748.677   124500974.623 7      3335.797    23691745.734    97013741.58146
      2599.322
  23087073.109   121323400.697 8      2860.516    23087070.000    94537709.90146
      2228.975
  20394346.920   107173028.081 9      -450.868    20394346.229    83511455.39949
      -351.326
 18  2 20 10 14 30.0000000  0  8G02G05G07G09G13G20G28G30
  23898985.903   125589990.603 7     -2958.465    23898981.341    97862296.75645
     -2305.300
  20489826.436   107674767.935 9       254.143    20489823.341    83902395.24748
       198.034
  21474179.978   112847591.631 9     -1935.064    21474177.003    87933176.96447
     -1507.842
  23669949.211   124386412.719 8     -3092.101    23669949.292    96924470.42346
     -2409.431
  22175211.537   116531537.940 8      2619.356    22175208.735    90803779.62346
      2041.059
  23672726.276   124401011.218 7      3328.349    23672723.332    96935848.02845
      2593.520
  23070768.474   121237719.346 8      2851.507    23070765.337    94470945.23246
      2221.954
  20396969.327   107186808.899 9      -468.040    20396968.634    83522193.70149
      -364.706
 18  2 20 10 15  0.0000000  0  8G02G05G07G09G13G20G28G30
  23915889.344   125678818.800 8     -2963.438    23915884.877    97931513.50746
     -2309.175
  20488428.167   107667419.913 9       235.660    20488425.040    83896669.51348
       183.631
  21485260.211   112905818.696 9     -1946.761    21485257.233    87978548.69747
     -1516.956
  23687610.261   124479221.753 8     -3095.357    23687610.311    96996789.10646
     -2411.969
  22160277.195   116453057.751 8      2612.637    22160274.410    90742626.24546
      2035.822
  23653746.725   124301273.067 7      3320.839    23653743.782    96858130.01645
      2587.667
  23054513.712   121152300.300 7      2842.970    23054510.569    94404384.98945
      2215.303
  20399688.836   107201100.018 9      -484.754    20399688.144    83533329.64248
      -377.729
 18  2 20 10 15 30.0000000  0  8G02G05G07G09G13G20G28G30
  23932822.022   125767800.427 7     -2968.393    23932817.637    98000849.79046
     -2313.034
  20487136.192   107660630.528 9       217.160    20487133.041    83891379.09048
       169.216
  21496408.380   112964402.707 9     -1958.574    21496405.403    88024198.55648
     -1526.164
  23705291.426   124572136.477 8     -3098.674    23705291.413    97069190.14446
     -2414.552
  22145381.683   116374781.491 8      2605.962    22145378.873    90681631.77546
      2030.620
  23634810.410   124201761.968 7      3313.423    23634807.469    96780588.89346
      2581.888
  23038309.273   121067145.821 8      2834.100    23038306.153    94338030.90846
      2208.390
  20402505.127   107215899.685 9      -501.636    20402504.425    83544861.84849
      -390.885
 18  2 20 10 16  0.0000000  0  8G02G05G07G09G13G20G28G30
  23949783.450   125856932.973 8     -2973.623    23949779.121    98070303.66245
     -2317.108
  20485950.748   107654400.978 9       198.426    20485947.592    83886524.89348
       154.617
  21507624.172   113023342.110 9     -1970.523    21507621.193    88070125.36248
     -1535.474
  23722992.674   124665156.695 8     -3102.375    23722992.580    97141673.38046
     -2417.437
  22130525.300   116296710.779 8      2598.977    22130522.448    90620797.46946
      2025.178
  23615917.843   124102480.924 7      3305.558    23615914.893    96703227.07445
      2575.762
  23022155.821   120982259.115 8      2825.130    23022152.724    94271885.43545
      2201.401
  20405418.122   107231207.514 9      -518.656    20405417.393    83556790.02749
      -404.146
 18  2 20 10 16 30.0000000  0  8G02G05G07G09G13G20G28G30
  23966773.404   125946215.347 7     -2978.711    23966769.086    98139874.30746
     -2321.073
  20484872.343   107648733.814 9       179.388    20484869.182    83882108.89448
       139.781
  21518907.711   113082637.439 9     -1982.510    21518904.728    88116329.50547
     -1544.813
  23740714.223   124758283.667 8     -3106.116    23740714.025    97214239.81446
     -2420.351
  22115708.607   116218848.547 8      2591.866    22115705.711    90560125.60246
      2019.637
  23597069.922   124003434.428 7      3297.592    23597066.958    96626047.99446
      2569.554
  23006054.265   120897644.941 8      2815.881    23006051.180    94205952.29245
      2194.191
  20408427.974   107247024.354 9      -535.798    20408427.213    83569114.84349
      -417.504
 18  2 20 10 17  0.0000000  0  8G02G05G07G09G13G20G28G30
  23983790.586   126035640.520 7     -2983.324    23983786.255    98209556.18445
     -2324.668
  20483900.250   107643625.604 9       160.652    20483897.089    83878128.48348
       125.185
  21530257.873   113142282.846 9     -1994.359    21530254.878    88162806.43547
     -1554.047
  23758455.185   124851512.626 8     -3109.591    23758454.900    97286885.69546
     -2423.061
  22100930.964   116141191.459 8      2584.851    22100928.045    90499613.57546
      2014.170
  23578266.327   123904620.830 7      3289.598    23578263.350    96549050.37745
      2563.322
  22990004.425   120813302.526 8      2806.566    22990001.320    94140230.91945
      2186.934
  20411533.744   107263345.254 9      -552.689    20411532.964    83581832.42949
      -430.668
 18  2 20 10 17 30.0000000  0  8G02G05G07G09G13G20G28G30
  24000835.404   126125211.007 7     -2988.001    24000831.024    98279351.33645
     -2328.314
  20483035.707   107639082.634 9       142.161    20483032.565    83874588.51448
       110.775
  21541675.274   113202281.638 9     -2005.671    21541672.256    88209558.74247
     -1562.859
  23776216.386   124944848.091 8     -3112.710    23776216.037    97359614.58246
     -2425.489
  22086193.556   116063745.937 8      2578.183    22086190.630    90439266.43346
      2008.975
  23559508.525   123806047.986 7      3281.848    23559505.532    96472240.38346
      2557.285
  22974007.705   120729239.450 8      2797.558    22974004.599    94074727.25446
      2179.917
  20414736.223   107280174.416 9      -569.304    20414735.437    83594946.07249
      -443.612
 18  2 20 10 18  0.0000000  0  8G02G05G07G09G13G20G28G30
  24017906.765   126214920.834 7     -2992.260    24017902.328    98349255.01845
     -2331.636
  20482278.289   107635102.386 9       123.666    20482275.151    83871487.00448
        96.363
  21553159.066   113262629.298 9     -2017.032    21553156.025    88256582.88347
     -1571.714
  23793997.095   125038286.193 8     -3115.893    23793996.716    97432423.45146
     -2427.969
  22071495.916   115986509.448 8      2571.331    22071493.008    90379082.17946
      2003.635
  23540796.502   123707715.582 7      3274.109    23540793.483    96395617.72645
      2551.254
  22958064.077   120645455.408 8      2788.530    22958061.009    94009441.01846
      2172.881
  20418034.612   107297507.643 9      -585.893    20418033.830    83608452.49948
      -456.539
 18  2 20 10 18 30.0000000  0  8G02G05G07G09G13G20G28G30
  24035004.749   126304770.776 6     -2996.975    24035000.266    98419267.89045
     -2335.308
  20481628.749   107631689.025 9       104.393    20481625.596    83868827.23848
        81.344
  21564709.468   113323327.060 9     -2029.001    21564706.406    88303879.83047
     -1581.040
  23811797.911   125131829.978 8     -3119.990    23811797.548    97505314.65346
     -2431.163
  22056839.011   115909487.024 8      2563.772    22056836.124    90319064.71846
      1997.744
  23522131.333   123609629.420 7      3265.454    23522128.271    96319186.96045
      2544.511
  22942174.840   120561957.109 8      2778.490    22942171.810    93944377.43546
      2165.058
  20421429.435   107315347.632 9      -603.001    20421428.665    83622353.79648
      -469.871
 18  2 20 10 19  0.0000000  0  8G02G05G07G09G13G20G28G30
  24052128.027   126394753.884 6     -3001.691    24052123.534    98489384.50945
     -2338.982
  20481086.410   107628839.156 9        85.602    20481083.252    83866606.57848
        66.703
  21576325.492   113384369.705 9     -2040.489    21576322.415    88351445.51947
     -1589.993
  23829617.898   125225474.579 8     -3123.146    23829617.587    97578284.41947
     -2433.623
  22042222.215   115832675.371 8      2556.844    22042219.336    90259211.49246
      1992.346
  23503512.759   123511788.119 7      3257.224    23503509.658    96242946.98845
      2538.095
  22926339.770   120478743.281 8      2768.986    22926336.759    93879535.50146
      2157.651
  20424919.708   107333689.245 9      -619.820    20424918.951    83636645.97048
      -482.977
 18  2 20 10 19 30.0000000  0  8G02G05G07G09G13G20G28G30
  24069275.954   126484866.943 6     -3005.649    24069271.458    98559602.42645
     -2342.069
  20480651.337   107626552.892 9        66.851    20480648.187    83864825.06748
        52.092
  21588006.636   113445754.601 9     -2051.836    21588003.551    88399277.90847
     -1598.832
  23847456.879   125319218.951 8     -3126.438    23847456.646    97651331.92746
     -2436.187
  22027645.645   115756075.147 8      2549.849    22027642.786    90199523.02446
      1986.897
  23484941.275   123414194.406 7      3249.076    23484938.131    96166899.96645
      2531.750
  22910559.317   120395816.438 8      2759.392    22910556.301    93814917.20346
      2150.176
  20428505.158   107352531.012 9      -636.274    20428504.409    83651327.87948
      -495.798
 18  2 20 10 20  0.0000000  0  8G02G05G07G09G13G20G28G30
  24086447.711   126575105.395 7     -3010.009    24086443.203    98629918.06244
     -2345.460
  20480323.368   107624829.354 9        47.873    20480320.206    83863482.03848
        37.305
  21599752.345   113507478.711 9     -2063.240    21599749.269    88447374.60047
     -1607.719
  23865314.440   125413060.918 8     -3129.663    23865314.277    97724455.48246
     -2438.699
  22013109.252   115679685.965 8      2542.662    22013106.431    90139998.98846
      1981.295
  23466417.036   123316848.931 7      3240.633    23466413.844    96091046.35945
      2525.169
  22894833.673   120313177.626 8      2749.637    22894830.644    93750523.35246
      2142.576
  20432185.317   107371870.444 9      -653.160    20432184.574    83666397.57248
      -508.955
 18  2 20 10 20 30.0000000  0  8G02G05G07G09G13G20G28G30
  24103642.710   126665465.875 7     -3014.399    24103638.164    98700328.78244
     -2348.883
  20480102.482   107623668.577 9        29.100    20480099.307    83862577.52848
        22.674
  21611562.168   113569539.781 9     -2074.544    21611559.107    88495733.87447
     -1616.527
  23883190.352   125506999.275 8     -3133.126    23883190.244    97797654.14247
     -2441.398
  21998613.063   115603508.044 8      2535.440    21998610.273    90080639.57946
      1975.668
  23447940.374   123219753.543 7      3232.048    23447937.151    96015387.64046
      2518.480
  22879163.328   120230829.410 8      2739.819    22879160.283    93686355.94046
      2134.925
  20435959.858   107391705.838 9      -669.653    20435959.109    83681853.72748
      -521.808
 18  2 20 10 21  0.0000000  0  8G02G05G07G09G13G20G28G30
  24120861.400   126755950.735 7     -3017.398    24120856.795    98770836.44445
     -2351.221
  20479989.746   107623076.192 9        10.901    20479986.574    83862115.92248
         8.494
  21623436.709   113631940.871 9     -2084.972    21623433.655    88544358.08747
     -1624.653
  23901085.438   125601038.350 8     -3135.643    23901085.373    97870931.27846
     -2443.361
  21984158.216   115527547.368 8      2529.082    21984155.441    90021449.45846
      1970.715
  23429512.792   123122916.096 7      3224.131    23429509.556    95939929.91746
      2512.311
  22863549.745   120148779.483 8      2730.670    22863546.700    93622420.96046
      2127.796
  20439829.547   107412041.204 9      -685.554    20439828.785    83697699.46349
      -534.197
 18  2 20 10 21 30.0000000  0  8G02G05G07G09G13G20G28G30
  24138102.670   126846554.074 8     -3022.517    24138098.013    98841436.43345
     -2355.209
  20479984.676   107623049.641 9        -8.994    20479981.509    83862095.23348
        -7.008
  21635375.035   113694677.174 9     -2097.156    21635371.971    88593243.51647
     -1634.147
  23918998.967   125695174.360 8     -3139.809    23918998.931    97944283.95646
     -2446.605
  21969744.356   115451802.138 8      2520.846    21969741.572    89962427.23447
      1964.298
  23411134.212   123026336.103 7      3214.555    23411130.983    95864672.80346
      2504.850
  22847992.865   120067027.637 8      2719.703    22847989.841    93558718.27246
      2119.250
  20443793.579   107432872.364 9      -703.095    20443792.788    83713931.54448
      -547.865
 18  2 20 10 22  0.0000000  0  8G02G05G07G09G13G20G28G30
  24155366.051   126937273.212 8     -3025.906    24155361.382    98912126.59945
     -2357.851
  20480087.456   107623589.801 9       -27.527    20480084.282    83862516.13248
       -21.450
  21647376.852   113757747.056 9     -2107.977    21647373.757    88642388.86447
     -1642.580
  23936930.897   125789406.997 8     -3142.823    23936930.869    98017711.92146
     -2448.955
  21955371.712   115376273.384 8      2514.038    21955368.928    89903573.66647
      1958.991
  23392805.118   122930016.119 7      3206.250    23392801.900    95789618.28445
      2498.378
  22832493.313   119985577.033 8      2709.844    22832490.331    93495250.31046
      2111.569
  20447851.819   107454198.499 9      -719.264    20447850.988    83730549.30749
      -560.466
 18  2 20 10 22 30.0000000  0  8G02G05G07G09G13G20G28G30
  24172651.144   127028106.324 8     -3029.370    24172646.494    98982905.56745
     -2360.554
  20480298.411   107624698.351 9       -46.187    20480295.230    83863379.92548
       -35.991
  21659442.080   113821150.152 9     -2118.685    21659438.933    88691793.86647
     -1650.925
  23954881.291   125883736.607 8     -3145.573    23954881.267    98091215.44746
     -2451.100
  21941040.653   115300963.160 8      2506.938    21941037.893    89844890.39147
      1953.458
  23374526.367   122833960.705 7      3197.685    23374523.161    95714769.92045
      2491.702
  22817051.811   119904431.422 8      2700.011    22817048.846    93432019.99046
      2103.905
  20452004.241   107476019.550 9      -735.335    20452003.375    83747552.72249
      -572.990
 18  2 20 10 23  0.0000000  0  8G02G05G07G09G13G20G28G30
  24189957.669   127119052.041 8     -3033.191    24189953.045    99053772.28845
     -2363.528
  20480617.822   107626376.867 9       -65.279    20480614.644    83864687.85248
       -50.866
  21671570.589   113884885.734 9     -2129.908    21671567.375    88741457.94647
     -1659.669
  23972850.255   125978163.866 8     -3149.055    23972850.245    98164795.06546
     -2453.812
  21926751.651   115225873.956 8      2499.444    21926748.947    89786379.34147
      1947.620
  23356298.535   122738172.888 7      3188.563    23356295.346    95640130.07546
      2484.596
  22801669.140   119823594.932 8      2689.615    22801666.161    93369030.53046
      2095.804
  20456250.868   107498335.697 9      -751.908    20456249.991    83764941.93149
      -585.901
 18  2 20 10 23 30.0000000  0  8G02G05G07G09G13G20G28G30
  24207284.328   127210103.518 8     -3036.490    24207279.722    99124721.41145
     -2366.100
  20481045.028   107628621.905 9       -83.900    20481041.854    83866437.23048
       -65.377
  21683761.333   113948948.324 9     -2140.518    21683758.048    88791376.83247
     -1667.937
  23990836.908   126072684.184 8     -3151.814    23990836.908    98238447.19346
     -2455.961
  21912504.138   115151002.807 8      2492.355    21912501.492    89728038.20647
      1942.097
  23338121.492   122642651.899 8      3179.803    23338118.334    95565698.14345
      2477.769
  22786345.037   119743066.330 8      2679.551    22786342.008    93306281.00346
      2087.963
  20460590.748   107521141.915 9      -767.983    20460589.887    83782713.01249
      -598.429
 18  2 20 10 24  0.0000000  0  8G02G05G07G09G13G20G28G30
  24224630.990   127301260.219 8     -3040.713    24224626.399    99195752.54846
     -2369.388
  20481580.603   107631436.434 9      -103.627    20481577.423    83868630.36948
       -80.748
  21696014.348   114013338.176 9     -2152.126    21696010.999    88841550.73748
     -1676.981
  24008841.554   126167299.196 8     -3155.534    24008841.549    98312173.11846
     -2458.859
  21898298.726   115076352.858 8      2484.305    21898296.111    89669869.41947
      1935.822
  23319996.101   122547402.310 7      3169.994    23319992.973    95491477.70346
      2470.126
  22771080.545   119662850.969 8      2668.169    22771077.486    93243775.54846
      2079.094
  20465024.118   107544439.398 9      -785.127    20465023.286    83800866.88649
      -611.786
 18  2 20 10 24 30.0000000  0  8G02G05G07G09G13G20G28G30
  24241997.303   127392520.311 7     -3043.820    24241992.732    99266864.25446
     -2371.809
  20482224.835   107634821.888 9      -122.454    20482221.642    83871268.38148
       -95.418
  21708329.542   114078054.771 9     -2162.783    21708326.146    88891979.24247
     -1685.285
  24026864.262   126262009.116 8     -3158.475    24026864.260    98385972.99345
     -2461.150
  21884135.817   115001926.255 8      2477.030    21884133.176    89611874.66647
      1930.154
  23301923.081   122452427.923 7      3161.180    23301919.968    95417471.71145
      2463.258
  22755876.225   119582952.015 8      2657.940    22755873.157    93181516.67546
      2071.125
  20469550.903   107568227.808 9      -801.217    20469550.096    83819403.30649
      -624.324
 18  2 20 10 25  0.0000000  0  9G02G05G07G09G13G15G20G28G30
  24259382.099   127483877.579 7     -3046.824    24259377.557    99338051.65645
     -2374.150
  20482977.083   107638774.951 9      -141.153    20482973.886    83874348.68848
      -109.989
  21720705.865   114143092.669 9     -2173.244    21720702.444    88942658.12047
     -1693.438
  24044904.266   126356809.932 8     -3161.468    24044904.281    98459843.70545
     -2463.484
  21870014.860   114927720.173 8      2469.908    21870012.152    89554051.76547
      1924.604
  24513175.668   128817607.785 8      3357.201    24513171.357   100377342.55444
      2616.001
  23283902.338   122357728.190 8      3152.111    23283899.222    95343679.71145
      2456.190
  22740732.113   119503369.474 8      2647.488    22740729.064    93119504.34346
      2062.978
  20474170.231   107592502.601 9      -817.281    20474169.447    83838318.73148
      -636.843
 18  2 20 10 25 30.0000000  0  9G02G05G07G09G13G15G20G28G30
  24276785.101   127575330.756 7     -3050.640    24276780.571    99409313.80845
     -2377.122
  20483837.755   107643297.753 9      -160.854    20483834.569    83877872.93748
      -125.341
  21733143.326   114208451.889 9     -2184.586    21733139.900    88993587.37647
     -1702.275
  24062961.778   126451702.677 8     -3165.416    24062961.832    98533786.04545
     -2466.559
  21855936.478   114853737.768 8      2461.694    21855933.717    89496403.14847
      1918.204
  24494015.718   128716922.485 8      3354.578    24494011.959   100298886.49445
      2613.958
  23265934.592   122263307.008 7      3142.017    23265931.465    95270104.77546
      2448.326
  22725649.067   119424107.672 8      2636.135    22725646.022    93057741.90346
      2054.132
  20478882.203   107617264.289 9      -834.074    20478881.447    83857613.55148
      -649.929
 18  2 20 10 26  0.0000000  0  9G02G05G07G09G13G15G20G28G30
  24294206.161   127666878.865 6     -3053.467    24294201.652    99480649.90146
     -2379.326
  20484807.238   107648392.418 9      -179.485    20484804.051    83881842.80848
      -139.858
  21745641.915   114274132.341 9     -2194.780    21745638.497    89044766.93547
     -1710.219
  24081036.998   126546688.434 8     -3167.861    24081037.111    98607800.86346
     -2468.463
  21841901.203   114779981.900 8      2454.629    21841898.424    89438931.05347
      1912.698
  24474868.130   128616302.369 8      3352.748    24474864.759   100220481.22745
      2612.532
  23248020.698   122169168.933 7      3133.036    23248017.568    95196750.45946
      2441.329
  22710627.887   119345170.830 8      2625.562    22710624.825    92996232.66446
      2045.892
  20483686.932   107642513.457 9      -849.849    20483686.197    83877288.22549
      -662.219
 18  2 20 10 26 30.0000000  0  9G02G05G07G09G13G15G20G28G30
  24311644.007   127758515.373 6     -3056.265    24311639.533    99552054.89446
     -2381.509
  20485884.984   107654055.982 9      -198.631    20485881.786    83886255.96948
      -154.776
  21758200.626   114340128.747 9     -2205.406    21758197.217    89096192.69448
     -1718.498
  24099129.149   126641763.071 8     -3170.984    24099129.320    98681884.94146
     -2470.897
  21827908.488   114706449.792 8      2446.965    21827905.735    89381633.32347
      1906.727
  24455732.500   128515745.234 7      3350.366    24455729.447   100142125.03745
      2610.676
  23230160.518   122075313.083 7      3123.594    23230157.403    95123616.03946
      2433.971
  22695668.415   119266558.411 8      2614.608    22695665.315    92934976.26046
      2037.358
  20488583.526   107668245.377 9      -866.131    20488582.804    83897339.06049
      -674.907
 18  2 20 10 27  0.0000000  0  9G02G05G07G09G13G15G20G28G30
  24329098.152   127850237.658 6     -3058.646    24329093.735    99623526.73345
     -2383.362
  20487071.011   107660288.583 9      -217.059    20487067.803    83891112.53548
      -169.138
  21770819.133   114406439.354 9     -2215.451    21770815.738    89147863.28248
     -1726.326
  24117238.092   126736925.883 8     -3173.456    24117238.322    98756037.72646
     -2472.826
  21813958.524   114633142.420 8      2439.944    21813955.810    89324510.71246
      1901.256
  24436609.097   128415252.353 7      3348.905    24436606.341   100063818.94245
      2609.537
  23212354.501   121981741.874 7      3114.350    23212351.402    95050703.41746
      2426.767
  22680771.124   119188272.881 8      2604.077    22680767.982    92873974.58146
      2029.152
  20493571.736   107694458.779 9      -881.636    20493571.007    83917765.09348
      -686.989
 18  2 20 10 27 30.0000000  0  9G02G05G07G09G13G15G20G28G30
  24346568.638   127942045.818 6     -3061.799    24346564.286    99695065.49545
     -2385.818
  20488365.964   107667093.625 9      -236.519    20488362.759    83896415.16349
      -184.301
  21783497.673   114473065.411 9     -2226.346    21783494.292    89199779.68048
     -1734.814
  24135364.265   126832179.211 8     -3176.651    24135364.563    98830261.03647
     -2475.313
  21800052.115   114560063.884 8      2431.857    21800049.413    89267566.40447
      1894.954
  24417498.784   128314827.860 8      3346.071    24417496.258    99985566.12646
      2607.328
  23194603.735   121888461.111 7      3104.220    23194600.651    94978017.13246
      2418.874
  22665937.210   119110320.363 8      2592.573    22665934.036    92813232.37147
      2020.188
  20498651.951   107721155.489 9      -898.186    20498651.197    83938567.71249
      -699.885
 18  2 20 10 28  0.0000000  0  9G02G05G07G09G13G15G20G28G30
  24364054.417   128033934.083 6     -3064.048    24364050.143    99766666.63345
     -2387.572
  20489769.376   107674468.603 9      -255.148    20489766.175    83902161.89848
      -198.816
  21796235.346   114540002.184 9     -2236.143    21796231.988    89251938.19048
     -1742.449
  24153506.995   126927519.595 8     -3179.371    24153507.352    98904552.19246
     -2477.434
  21786188.898   114487212.329 8      2424.786    21786186.167    89210798.97346
      1889.445
  24398401.175   128214469.736 8      3344.400    24398398.801    99907365.01745
      2606.028
  23176908.248   121795470.804 8      3094.969    23176905.189    94905557.16146
      2411.665
  22651166.550   119032700.267 8      2581.942    22651163.349    92752749.20746
      2011.904
  20503823.371   107748331.389 9      -913.677    20503822.571    83959743.73548
      -711.955
 18  2 20 10 28 30.0000000  0  9G02G05G07G09G13G15G20G28G30
  24381555.005   128125900.191 6     -3066.998    24381550.784    99838328.46145
     -2389.874
  20491281.403   107682414.332 9      -274.499    20491278.205    83908353.37648
      -213.896
  21809031.905   114607248.424 9     -2246.860    21809028.578    89304337.84648
     -1750.801
  24171666.246   127022946.820 8     -3182.335    24171666.661    98978911.00546
     -2479.743
  21772369.228   114414589.623 8      2416.833    21772366.454    89154209.86247
      1883.247
  24379316.500   128114179.523 7      3341.779    24379314.160    99829216.85445
      2603.985
  23159268.565   121702773.762 7      3085.020    23159265.528    94833325.71546
      2403.913
  22636459.794   118955415.932 8      2570.407    22636456.576    92692527.66947
      2002.917
  20509085.848   107775985.735 9      -929.944    20509085.006    83981292.57749
      -724.632
 18  2 20 10 29  0.0000000  0  8G05G07G09G13G15G20G28G30
  20492903.483   107690938.388 9      -293.253    20492900.291    83914995.49148
      -228.509
  21821888.446   114674809.914 9     -2256.809    21821885.156    89356983.15048
     -1758.553
  24189843.322   127118467.828 8     -3185.120    24189843.805    99053342.89846
     -2481.912
  21758594.640   114342203.918 8      2409.447    21758591.849    89097805.43347
      1877.491
  24360246.417   128013965.939 8      3339.720    24360244.045    99751128.38845
      2602.382
  23141686.625   121610380.139 7      3075.097    23141683.616    94761330.68746
      2396.179
  22621818.917   118878477.843 8      2559.210    22621815.699    92632575.95546
      1994.190
  20514440.577   107804124.816 9      -945.521    20514439.719    84003219.12849
      -736.770
 18  2 20 10 29 30.0000000  0  8G05G07G09G13G15G20G28G30
  20494632.741   107700025.727 9      -312.867    20494629.554    83922076.53448
      -243.793
  21834801.779   114742669.895 9     -2267.554    21834798.517    89409861.05548
     -1766.925
  24208035.198   127214066.653 8     -3188.582    24208035.741    99127835.42146
     -2484.613
  21744862.449   114270040.891 8      2401.137    21744859.670    89041574.50347
      1871.016
  24341188.282   127913815.215 8      3336.719    24341185.848    99673088.91245
      2600.042
  23124160.029   121518277.473 7      3064.629    23124157.045    94689562.40746
      2388.024
  22607241.590   118801873.670 8      2547.262    22607238.370    92572884.43246
      1984.880
  20519884.377   107832732.039 9      -961.905    20519883.521    84025510.47449
      -749.536
 18  2 20 10 30  0.0000000  0  8G05G07G09G13G15G20G28G30
  20496471.030   107709686.035 9      -331.440    20496467.856    83929604.04548
      -258.266
  21847773.220   114810835.235 9     -2277.142    21847769.975    89462976.90148
     -1774.396
  24226243.492   127309751.865 7     -3190.864    24226244.075    99202395.27046
     -2486.389
  21731174.612   114198110.898 8      2393.882    21731171.837    88985525.17647
      1865.363
  24322144.044   127813737.364 8      3334.840    24322141.550    99595106.20145
      2598.576
  23106691.058   121426477.521 7      3055.071    23106688.093    94618029.98946
      2380.575
  22592730.049   118725615.286 8      2536.192    22592726.822    92513462.35646
      1976.256
  20525418.772   107861815.354 9      -977.225    20525417.934    84048172.79249
      -761.474
 18  2 20 10 30 30.0000000  0  8G05G07G09G13G15G20G28G30
  20498418.089   107719917.912 9      -350.635    20498414.929    83937576.93048
      -273.222
  21860802.219   114879303.040 9     -2287.372    21860798.982    89516328.42047
     -1782.368
  24244467.821   127405521.277 8     -3193.672    24244468.441    99277020.69546
     -2488.578
  21717531.119   114126413.796 8      2385.943    21717528.331    88929657.31247
      1859.177
  24303113.611   127713731.984 8      3332.190    24303111.092    99517179.98346
      2596.514
  23089279.897   121334981.337 7      3044.762    23089276.942    94546734.27746
      2372.541
  22578284.372   118649703.135 8      2524.550    22578281.141    92454310.06146
      1967.181
  20531043.214   107891371.928 9      -993.156    20531042.396    84071203.89149
      -773.888
 18  2 20 10 31  0.0000000  0  8G05G07G09G13G15G20G28G30
  20500473.856   107730721.051 9      -369.568    20500470.703    83945994.96148
      -287.976
  21873888.340   114948071.120 9     -2297.227    21873885.099    89569913.93347
     -1790.047
  24262707.954   127501373.849 8     -3196.413    24262708.572    99351710.95546
     -2490.712
  21703931.987   114054949.830 8      2378.326    21703929.162    88873971.12447
      1853.242
  24284097.152   127613799.817 8      3329.994    24284094.656    99439310.79746
      2594.802
  23071926.981   121243791.326 7      3034.882    23071924.032    94475677.16345
      2364.845
  22563905.057   118574139.711 8      2513.022    22563901.791    92395429.50646
      1958.200
  20536757.382   107921400.037 9     -1008.728    20536756.576    84094602.42549
      -786.021
 18  2 20 10 31 30.0000000  0  8G05G07G09G13G15G20G28G30
  20502637.998   107742093.628 9      -388.720    20502634.859    83954856.69748
      -302.898
  21887030.841   115017135.510 9     -2307.127    21887027.592    89623730.33147
     -1797.761
  24280963.437   127597306.889 8     -3199.170    24280964.040    99426463.89646
     -2492.861
  21690377.063   113983718.142 8      2370.443    21690374.189    88818465.91447
      1847.099
  24265094.470   127513939.929 8      3327.276    24265092.024    99361497.91145
      2592.682
  23054632.416   121152907.863 7      3024.189    23054629.491    94404858.89546
      2356.510
  22549592.276   118498925.773 8      2501.122    22549588.968    92336821.26346
      1948.927
  20542560.665   107951896.371 9     -1024.413    20542559.851    84118365.79849
      -798.244
 18  2 20 10 32  0.0000000  0  8G05G07G09G13G15G20G28G30
  20504911.363   107754040.208 9      -407.455    20504908.245    83964165.71448
      -317.497
  21900230.261   115086499.054 9     -2316.811    21900227.001    89677779.83747
     -1805.308
  24299234.977   127693324.319 8     -3201.684    24299235.540    99501282.64046
     -2494.819
  21676867.398   113912724.371 8      2362.783    21676864.459    88763146.11347
      1841.131
  24246106.597   127414158.025 7      3325.158    24246104.212    99283745.81346
      2591.032
  23037397.645   121062338.662 7      3014.061    23037394.747    94334285.51846
      2348.620
  22535347.386   118424068.586 8      2489.520    22535344.037    92278491.03046
      1939.889
  20548453.658   107982864.156 9     -1039.815    20548452.814    84142496.54449
      -810.245
 18  2 20 10 32 30.0000000  0  8G05G07G09G13G15G20G28G30
  20507293.497   107766558.422 9      -426.937    20507290.396    83973920.16748
      -332.677
  21913485.761   115156157.334 9     -2326.964    21913482.490    89732059.01547
     -1813.218
  24317522.035   127789423.108 8     -3204.733    24317522.566    99576164.77246
     -2497.194
  21663402.732   113841967.076 9      2354.444    21663399.740    88708010.58147
      1834.633
  24227133.296   127314452.936 8      3322.192    24227130.965    99206053.59745
      2588.724
  23020222.682   120972083.724 7      3003.133    23020219.806    94263957.01846
      2340.105
  22521170.441   118349568.463 8      2477.108    22521167.068    92220439.04446
      1930.217
  20554435.662   108014299.699 9     -1055.791    20554434.780    84166991.77249
      -822.693
 18  2 20 10 33  0.0000000  0  8G05G07G09G13G15G20G28G30
  20509784.794   107779650.245 9      -446.200    20509781.712    83984121.57048
      -347.687
  21926797.440   115226110.730 9     -2336.899    21926794.163    89786568.13347
     -1820.961
  24335824.816   127885604.327 8     -3207.638    24335825.334    99651111.10746
     -2499.459
  21649983.630   113771449.132 8      2346.456    21649980.600    88653061.53447
      1828.408
  24208175.166   127214827.590 8      3319.374    24208172.869    99128423.51146
      2586.528
  23003108.328   120882147.192 8      2992.105    23003105.467    94193876.60546
      2331.512
  22507062.196   118275429.456 8      2465.168    22507058.808    92162668.45246
      1920.912
  20560506.739   108046203.311 9     -1071.480    20560505.828    84191851.71949
      -834.919
 18  2 20 10 33 30.0000000  0  8G05G07G09G13G15G20G28G30
  20512385.159   107793315.216 9      -465.386    20512382.090    83994769.58548
      -362.640
  21940164.746   115296356.384 9     -2346.714    21940161.460    89841304.99247
     -1828.609
  24354143.044   127981866.703 8     -3210.484    24354143.562    99726120.66346
     -2501.680
  21636610.185   113701171.073 8      2338.297    21636607.119    88598299.40246
      1822.049
  24189232.404   127115282.811 8      3316.520    24189230.104    99050856.17545
      2584.302
  22986054.977   120792531.223 8      2981.410    22986052.118    94124045.98546
      2323.177
  22493023.053   118201653.679 8      2452.671    22493019.674    92105180.89646
      1911.174
  20566666.507   108078573.003 9     -1086.999    20566665.578    84217074.84749
      -847.014
 18  2 20 10 34  0.0000000  0  8G05G07G09G13G15G20G28G30
  20515094.109   107807550.823 9      -483.871    20515091.055    84005862.26048
      -377.043
  21953586.992   115366890.686 9     -2355.745    21953583.697    89896266.77847
     -1835.647
  24372476.050   128078206.977 8     -3212.397    24372476.580    99801190.94046
     -2503.170
  21623282.033   113631131.109 9      2330.822    21623278.942    88543722.81947
      1816.225
  24170304.647   127015816.759 8      3314.293    24170302.321    98973350.18145
      2582.566
  22969062.635   120703235.839 8      2971.501    22969059.771    94054465.17546
      2315.454
  22479053.044   118128241.160 8      2441.216    22479049.687    92047976.38246
      1902.246
  20572914.214   108111404.875 9     -1101.822    20572913.280    84242658.13049
      -858.563
 18  2 20 10 34 30.0000000  0  8G05G07G09G13G15G20G28G30
  20517912.155   107822359.768 9      -503.242    20517909.122    84017401.70849
      -392.137
  21967064.227   115437713.916 9     -2365.690    21967060.920    89951453.71348
     -1843.395
  24390824.306   128174627.445 8     -3215.351    24390824.883    99876323.69547
     -2505.470
  21609999.952   113561333.276 8      2322.550    21609996.857    88489334.91547
      1809.780
  24151392.660   126916433.510 8      3311.277    24151390.306    98895908.70846
      2580.218
  22952132.281   120614266.252 8      2959.997    22952129.413    93985138.24747
      2306.492
  22465153.186   118055197.333 8      2428.617    22465149.855    91991059.17647
      1892.430
  20579250.145   108144700.396 9     -1117.635    20579249.218    84268602.69949
      -870.885
 18  2 20 10 35  0.0000000  0  8G05G07G09G13G15G20G28G30
  20520838.970   107837740.177 9      -522.357    20520835.952    84029386.44048
      -407.032
  21980595.855   115508822.938 9     -2375.227    21980592.539    90006863.34047
     -1850.826
  24409187.362   128271125.784 8     -3217.920    24409188.019    99951517.12846
     -2507.473
  21596763.843   113491777.025 9      2314.312    21596760.764    88435135.24947
      1803.360
  24132496.364   126817132.722 8      3308.472    24132493.993    98818531.49846
      2578.030
  22935264.269   120525624.206 8      2949.226    22935261.408    93916066.52946
      2298.098
  22451323.745   117982523.459 8      2416.114    22451320.431    91934430.23046
      1882.687
  20585673.722   108178456.547 9     -1133.019    20585672.813    84294906.19749
      -882.871
 18  2 20 10 35 30.0000000  0  8G05G07G09G13G15G20G28G30
  20523874.474   107853691.629 9      -541.112    20523871.457    84041816.12148
      -421.647
  21994181.405   115580215.275 9     -2384.334    21994178.087    90062493.72247
     -1857.923
  24427564.938   128367700.406 8     -3220.346    24427565.695   100026769.98046
     -2509.364
  21583573.702   113422462.306 9      2306.597    21583570.647    88381123.78247
      1797.348
  24113615.657   126717913.940 8      3305.858    24113613.284    98741218.20245
      2575.994
  22918458.823   120437310.926 8      2938.385    22918455.969    93847250.98146
      2289.649
  22437564.985   117910220.847 8      2403.959    22437561.663    91878090.55546
      1873.216
  20592184.508   108212670.985 9     -1147.984    20592183.627    84321566.79449
      -894.533
 18  2 20 10 36  0.0000000  0  8G05G07G09G13G15G20G28G30
  20527018.602   107870214.020 9      -560.506    20527015.590    84054690.70548
      -436.758
  22007820.500   115651889.016 9     -2393.901    22007817.190    90118343.37947
     -1865.379
  24445956.931   128464350.816 8     -3223.268    24445957.772   100102081.90046
     -2511.640
  21570429.780   113353390.474 9      2298.229    21570426.719    88327301.57847
      1790.827
  24094750.973   126618779.343 8      3302.739    24094748.601    98663970.49345
      2573.565
  22901716.471   120349329.325 8      2926.998    22901713.618    93778693.90446
      2280.779
  22423877.425   117838292.321 8      2391.017    22423874.081    91822042.37346
      1863.130
  20598782.268   108247342.458 9     -1163.520    20598781.424    84348583.51849
      -906.639
 18  2 20 10 36 30.0000000  0  8G05G07G09G13G15G20G28G30
  20530271.692   107887309.021 9      -579.291    20530268.696    84068011.48148
      -451.395
  22021513.158   115723844.273 9     -2403.118    22021509.859    90174412.39747
     -1872.561
  24464363.554   128561078.016 8     -3225.432    24464364.470   100177453.65146
     -2513.327
  21557332.555   113284564.129 9      2290.155    21557329.470    88273670.67847
      1784.537
  24075902.871   126519731.836 8      3300.283    24075900.487    98586790.63046
      2571.649
  22885038.043   120261683.694 8      2915.853    22885035.189    93710398.62246
      2272.093
  22410261.865   117766742.120 8      2378.832    22410258.481    91766288.99847
      1853.636
  20605467.049   108282471.230 9     -1178.504    20605466.244    84375956.58349
      -918.315
 18  2 20 10 37  0.0000000  0  8G05G07G09G13G15G20G28G30
  20533632.801   107904971.629 9      -598.272    20533629.825    84081774.54448
      -466.187
  22035258.143   115796074.549 9     -2412.310    22035254.861    90230695.71547
     -1879.723
  24482783.802   128657876.741 8     -3227.684    24482784.783   100252881.14246
     -2515.081
  21544281.357   113215979.647 8      2282.069    21544278.251    88220228.23747
      1778.237
  24057070.666   126420767.815 8      3297.599    24057068.270    98509675.80846
      2569.557
  22868423.113   120174371.797 8      2904.898    22868420.241    93642363.39446
      2263.556
  22396717.906   117695568.151 8      2366.097    22396714.483    91710828.79647
      1843.714
  20612237.693   108318051.191 9     -1193.525    20612236.914    84403681.22649
      -930.020
 18  2 20 10 37 30.0000000  0  8G05G07G09G13G15G20G28G30
  20537103.186   107923208.476 9      -617.532    20537100.213    84095985.06648
      -481.194
  22049056.307   115868584.358 9     -2421.673    22049053.044    90287196.85547
     -1887.019
  24501218.796   128754752.876 8     -3230.511    24501219.808   100328368.94946
     -2517.284
  21531277.702   113147644.950 9      2273.676    21531274.591    88166980.42347
      1771.695
  24038255.761   126321894.827 8      3294.102    24038253.366    98432631.94446
      2566.833
  22851873.425   120087402.860 8      2893.245    22851870.518    93574595.42846
      2254.478
  22383247.250   117624779.394 8      2353.157    22383243.810    91655668.75847
      1833.631
  20619095.169   108354087.444 9     -1208.836    20619094.401    84431761.41749
      -941.950
 18  2 20 10 38  0.0000000  0  8G05G07G09G13G15G20G28G30
  20540682.101   107942015.651 9      -636.748    20540679.116    84110639.99548
      -496.168
  22062906.632   115941368.350 9     -2430.982    22062903.398    90343911.64347
     -1894.271
  24519667.658   128851701.898 8     -3233.188    24519668.667   100403913.55546
     -2519.371
  21518320.985   113079556.906 9      2265.281    21518317.875    88113924.81447
      1765.153
  24019457.618   126223110.042 8      3291.134    24019455.240    98355656.81846
      2564.523
  22835388.788   120000775.534 8      2881.592    22835385.838    93507093.60546
      2245.396
  22369849.692   117554374.657 8      2340.152    22369846.232    91600807.93847
      1823.495
  20626038.459   108390574.690 9     -1223.968    20626037.684    84460193.03549
      -953.741
 18  2 20 10 38 30.0000000  0  8G05G07G09G13G15G20G28G30
  20544370.340   107961397.339 9      -655.517    20544367.334    84125742.59948
      -510.792
  22076809.571   116014428.903 9     -2439.797    22076806.371    90400841.93647
     -1901.141
  24538131.092   128948727.544 8     -3235.478    24538132.087   100479517.87546
     -2521.154
  21505412.255   113011721.024 9      2257.093    21505409.165    88061065.69047
      1758.773
  24000677.328   126124419.341 7      3288.314    24000674.991    98278755.02646
      2562.326
  22818970.621   119914497.460 8      2870.240    22818967.603    93439863.93946
      2236.552
  22356526.488   117484360.634 8      2327.401    22356522.987    91546251.56346
      1813.560
  20633068.128   108427515.847 9     -1238.810    20633067.332    84488978.34848
      -965.306
 18  2 20 10 39  0.0000000  0  7G05G07G13G15G20G28G30
  20548166.666   107981347.069 9      -674.885    20548163.652    84141287.82948
      -525.884
  22090763.639   116087758.175 9     -2449.235    22090760.481    90457981.61647
     -1908.495
  21492550.531   112944132.209 9      2248.386    21492547.449    88008399.08647
      1751.989
  23981913.930   126025817.547 7      3284.739    23981911.664    98201922.50446
      2559.539
  22802618.139   119828564.566 8      2858.224    22802615.043    93372903.26146
      2227.189
  22343276.891   117414733.493 8      2313.838    22343273.323    91491996.65846
      1802.993
  20640182.679   108464903.047 9     -1254.139    20640181.851    84518111.22948
      -977.250
 18  2 20 10 39 30.0000000  0  7G05G07G13G15G20G28G30
  20552071.425   108001866.729 9      -693.222    20552068.414    84157277.17248
      -540.173
  22104768.945   116161356.791 9     -2457.449    22104765.829    90515331.18847
     -1914.895
  21479736.447   112876793.772 9      2240.684    21479733.348    87955927.57947
      1745.988
  23963168.112   125927308.179 8      3282.353    23963165.912    98125162.00145
      2557.681
  22786332.297   119742981.766 8      2847.110    22786329.137    93306215.36246
      2218.529
  22330101.894   117345498.277 8      2301.435    22330098.269    91438047.12546
      1793.327
  20647382.313   108502737.376 9     -1268.405    20647381.452    84547592.52548
      -988.368
 18  2 20 10 40  0.0000000  0  7G05G07G13G15G20G28G30
  20556084.249   108022954.241 9      -712.816    20556081.241    84173708.99148
      -555.441
  22118824.783   116235220.873 9     -2466.970    22118821.706    90572887.59547
     -1922.313
  21466969.857   112809704.862 9      2231.693    21466966.722    87903650.50447
      1738.981
  23944439.753   125828890.385 8      3278.624    23944437.599    98048472.83545
      2554.774
  22770113.110   119657749.328 8      2834.981    22770109.903    93239800.49346
      2209.077
  22317001.499   117276655.218 8      2287.867    22316997.833    91384403.18546
      1782.755
  20654666.344   108541015.220 9     -1283.640    20654665.455    84577419.41048
     -1000.239
 18  2 20 10 40 30.0000000  0  7G05G07G13G15G20G28G30
  20560205.658   108044612.404 9      -731.356    20560202.650    84190585.47648
      -569.889
  22132931.314   116309351.302 9     -2475.391    22132928.260    90630651.54247
     -1928.877
  21454251.450   112742869.124 9      2223.676    21454248.261    87851570.71547
      1732.734
  23925729.608   125730568.133 8      3275.756    23925727.453    97971858.12046
      2552.538
  22753961.719   119572873.227 8      2823.198    22753958.494    93173663.29246
      2199.896
  22303976.676   117208209.506 7      2274.701    22303973.025    91331068.88047
      1772.493
  20662035.002   108579737.813 9     -1298.135    20662034.092    84607592.85549
     -1011.534
 18  2 20 10 41  0.0000000  0  7G05G07G13G15G20G28G30
  20564435.431   108066840.051 9      -750.475    20564432.422    84207905.71848
      -584.785
  22147088.129   116383745.938 9     -2484.198    22147085.074    90688621.37247
     -1935.740
  21441581.322   112676287.063 9      2215.147    21441578.091    87799688.58947
      1726.088
  23907037.828   125632342.197 8      3272.479    23907035.641    97895318.44645
      2549.984
  22737878.492   119488355.357 8      2811.302    22737875.275    93107805.21746
      2190.625
  22291027.824   117140163.176 8      2261.565    22291024.235    91278045.78446
      1762.256
  20669487.908   108618903.136 9     -1312.962    20669486.987    84638111.28848
     -1023.088
 18  2 20 10 41 30.0000000  0  7G05G07G13G15G20G28G30
  20568773.479   108089636.602 9      -769.207    20568770.484    84225669.23848
      -599.384
  22161294.781   116458402.393 9     -2492.731    22161291.711    90746795.20947
     -1942.389
  21428959.559   112609959.222 9      2206.854    21428956.301    87748004.56747
      1719.627
  23888364.547   125534213.344 8      3269.428    23888362.324    97818854.40845
      2547.607
  22721863.730   119404197.346 8      2799.364    22721860.535    93042227.55046
      2181.323
  22278155.342   117072518.147 8      2248.327    22278151.853    91225335.36846
      1751.941
  20677024.682   108658509.145 9     -1327.336    20677023.768    84668973.10548
     -1034.288
 18  2 20 10 42  0.0000000  0  7G05G07G13G15G20G28G30
  20573219.766   108113002.025 9      -788.615    20573216.789    84243876.05348
      -614.506
  22175551.010   116533319.337 9     -2501.776    22175547.916    90805172.02047
     -1949.438
  21416386.471   112543887.135 9      2197.834    21416383.188    87696519.83147
      1712.597
  23869709.976   125436182.848 8      3265.593    23869707.732    97742467.02045
      2544.617
  22705918.142   119320402.960 8      2786.749    22705914.994    92976933.23846
      2171.492
  22265359.753   117005277.102 7      2234.286    22265356.361    91172939.72447
      1741.000
  20684645.068   108698554.559 9     -1342.418    20684644.179    84700177.31648
     -1046.041
 18  2 20 10 42 30.0000000  0  7G05G07G13G15G20G28G30
  20577774.642   108136938.054 9      -807.319    20577771.678    84262527.48848
      -629.081
  22189856.790   116608496.684 9     -2510.276    22189853.668    90863751.74847
     -1956.061
  21403862.626   112478073.833 9      2189.322    21403859.319    87645236.74647
      1705.966
  23851074.754   125338254.072 8      3262.497    23851072.500    97666158.90145
      2542.206
  22690042.510   119236976.229 8      2774.624    22690039.405    92911925.42046
      2162.045
  22252641.808   116938444.236 7      2220.970    22252638.502    91120862.16846
      1730.626
  20692349.161   108739039.949 9     -1356.953    20692348.293    84731724.38148
     -1057.366
 18  2 20 10 43  0.0000000  0  7G05G07G13G15G20G28G30
  20582436.932   108161438.567 9      -826.437    20582433.982    84281618.77648
      -643.978
  22204210.793   116683927.408 9     -2518.994    22204207.654    90922528.90147
     -1962.855
  21391387.116   112412514.575 9      2180.649    21391383.796    87594151.61447
      1699.207
  23832458.006   125240422.375 8      3259.091    23832455.747    97589926.42645
      2539.550
  22674236.246   119153913.932 8      2762.321    22674233.172    92847201.56746
      2152.458
  22240000.959   116872016.539 8      2207.098    22239997.758    91069100.31646
      1719.814
  20700135.601   108779958.033 9     -1371.483    20700134.745    84763608.60148
     -1068.690
 18  2 20 10 43 30.0000000  0  7G05G07G13G15G20G28G30
  20587207.401   108186507.595 9      -845.312    20587204.466    84301153.07348
      -658.685
  22218613.431   116759613.789 9     -2527.478    22218610.282    90981505.28247
     -1969.464
  21378960.976   112347214.903 9      2172.038    21378957.659    87543268.77747
      1692.498
  23813860.901   125142693.913 8      3255.617    23813858.632    97513774.39846
      2536.847
  22658500.709   119071223.327 8      2749.768    22658497.654    92782767.36246
      2142.679
  22227438.477   116806000.692 8      2193.360    22227435.382    91017659.39447
      1709.113
  20708004.911   108821311.655 9     -1385.979    20708004.049    84795832.21848
     -1079.982
 18  2 20 10 44  0.0000000  0  7G05G07G13G15G20G28G30
  20592086.087   108212145.289 9      -864.254    20592083.164    84321130.48748
      -673.444
  22233064.534   116835554.798 9     -2535.750    22233061.390    91040680.05546
     -1975.910
  21366584.573   112282176.595 9      2163.444    21366581.272    87492589.59947
      1685.802
  23795283.737   125045070.320 8      3252.273    23795281.465    97437704.09446
      2534.239
  22642836.597   118988907.810 8      2737.474    22642833.560    92718625.38646
      2133.096
  22214954.980   116740399.824 8      2179.701    22214951.984    90966541.82347
      1698.469
  20715956.960   108863100.007 9     -1400.282    20715956.090    84828394.57448
     -1091.128
 18  2 20 10 44 30.0000000  0  7G05G07G13G15G20G28G30
  20597072.376   108238348.431 9      -882.706    20597069.467    84341548.51748
      -687.823
  22247563.168   116911745.660 9     -2543.706    22247560.029    91100049.53947
     -1982.109
  21354257.496   112217397.413 9      2155.047    21354254.221    87442112.32647
      1679.258
  23776726.106   124947549.426 8      3249.090    23776723.838    97361713.82146
      2531.759
  22627243.685   118906966.489 8      2725.321    22627240.653    92654775.01446
      2123.626
  22202550.194   116675212.670 8      2166.196    22202547.298    90915746.65247
      1687.945
  20723990.833   108905318.302 9     -1414.304    20723989.963    84861291.94148
     -1102.056
 18  2 20 10 45  0.0000000  0  7G05G07G13G15G20G28G30
  20602166.614   108265118.751 9      -901.425    20602163.730    84362408.48048
      -702.409
  22262109.497   116988187.104 9     -2551.841    22262106.363    91159614.27847
     -1988.448
  21341980.475   112152881.237 9      2146.532    21341977.219    87391839.98847
      1672.623
  23758188.825   124850135.465 8      3245.579    23758186.562    97285806.86646
      2529.021
  22611722.967   118825404.529 8      2712.646    22611719.944    92591220.24246
      2113.750
  22190225.111   116610444.397 8      2152.421    22190222.325    90865277.88847
      1677.212
  20732106.708   108947967.497 9     -1428.505    20732105.852    84894525.06848
     -1113.121
 18  2 20 10 45 30.0000000  0  7G05G07G13G15G20G28G30
  20607367.639   108292450.293 9      -920.268    20607364.741    84383705.77648
      -717.093
  22276702.082   117064871.556 9     -2559.982    22276698.946    91219368.37246
     -1994.792
  21329752.574   112088623.268 9      2137.801    21329749.318    87341768.85347
      1665.818
  23739670.981   124752823.698 8      3242.125    23739668.722    97209979.56146
      2526.333
  22596273.806   118744218.640 8      2700.090    22596270.796    92527958.52046
      2103.966
  22177979.099   116546091.509 8      2138.258    22177976.396    90815132.79546
      1666.176
  20740303.188   108991040.288 9     -1442.694    20740302.353    84928088.27548
     -1124.179
 18  2 20 10 46  0.0000000  0  7G05G07G13G15G20G28G30
  20612676.211   108320346.908 9      -939.601    20612673.276    84405443.38048
      -732.157
  22291341.432   117141801.702 9     -2568.701    22291338.284    91279313.92147
     -2001.587
  21317574.813   112024628.838 9      2128.562    21317571.531    87291903.07647
      1658.620
  23721173.603   124655619.365 8      3237.951    23721171.355    97134235.94346
      2523.077
  22580897.531   118663415.853 8      2686.790    22580894.528    92464995.33746
      2093.603
  22165813.442   116482160.765 8      2123.799    22165810.768    90765316.66047
      1654.909
  20748580.764   109034539.251 9     -1457.334    20748579.948    84961983.57649
     -1135.586
 18  2 20 10 46 30.0000000  0  7G05G07G13G15G20G28G30
  20618092.950   108348811.891 9      -957.743    20618090.005    84427623.86548
      -746.294
  22306027.943   117218979.580 9     -2576.154    22306024.776    91339452.50046
     -2007.394
  21305448.178   111960903.025 9      2120.252    21305444.869    87242246.58847
      1652.144
  23702697.704   124558528.071 8      3235.083    23702695.474    97058580.43446
      2520.846
  22565595.435   118583002.891 8      2674.590    22565592.435    92402335.90446
      2084.099
  22153729.329   116418658.501 8      2110.049    22153726.653    90715834.42547
      1644.197
  20756939.919   109078466.844 9     -1470.853    20756939.110    84996212.86948
     -1146.119
 18  2 20 10 47  0.0000000  0  7G05G07G13G15G20G28G30
  20623616.862   108377840.178 9      -976.981    20623613.948    84450243.31848
      -761.283
  22320760.471   117296399.296 9     -2584.699    22320757.291    91399779.52847
     -2014.053
  21293371.900   111897441.906 9      2110.998    21293368.581    87192796.36547
      1644.934
  23684242.774   124461546.975 8      3230.729    23684240.577    96983010.77746
      2517.451
  22550367.199   118502978.023 8      2661.054    22550364.207    92339978.86446
      2073.548
  22141726.355   116355582.510 8      2095.291    22141723.673    90666684.33947
      1632.695
  20765379.551   109122817.302 9     -1485.432    20765378.739    85030771.66548
     -1157.478
 18  2 20 10 47 30.0000000  0  7G05G07G13G15G20G28G30
  20629247.602   108407429.799 9      -995.971    20629244.731    84473300.15748
      -776.081
  22335538.433   117374057.766 9     -2592.841    22335535.253    91460292.59347
     -2020.396
  21281346.124   111834246.210 9      2101.809    21281342.835    87143552.97947
      1637.772
  23665808.686   124364675.483 8      3226.926    23665806.520    96907526.53946
      2514.489
  22535212.905   118423341.765 8      2647.838    22535209.923    92277924.64746
      2063.250
  22129804.640   116292933.554 8      2080.782    22129801.929    90617867.01847
      1621.390
  20773899.045   109167587.406 9     -1499.598    20773898.222    85065657.45448
     -1168.518
 18  2 20 10 48  0.0000000  0  7G05G07G13G15G20G28G30
  20634984.923   108437579.458 9     -1013.868    20634982.047    84496793.37248
      -790.029
  22350361.251   117451952.008 9     -2599.939    22350358.087    91520989.37947
     -2025.928
  21269370.897   111771316.144 8      2093.811    21269367.670    87094516.57547
      1631.541
  23647395.603   124267914.270 8      3223.848    23647393.458    96832128.22046
      2512.090
  22520132.970   118344096.258 8      2635.500    22520130.004    92216174.91846
      2053.638
  22117964.457   116230712.967 8      2067.275    22117961.698    90569383.47647
      1610.865
  20782497.943   109212774.786 9     -1512.796    20782497.109    85100868.38948
     -1178.803
 18  2 20 10 48 30.0000000  0  7G05G07G13G15G20G28G30
  20640829.150   108468291.005 9     -1033.533    20640826.243    84520724.42048
      -805.352
  22365228.938   117530082.092 9     -2608.780    22365225.794    91581869.95147
     -2032.816
  21257446.586   111708653.677 8      2083.791    21257443.420    87045688.69547
      1623.734
  23629004.080   124171266.280 8      3219.210    23629001.930    96756818.13546
      2508.475
  22505128.217   118265245.778 8      2621.165    22505125.277    92154732.99646
      2042.466
  22106206.591   116168924.912 8      2051.962    22106203.787    90521236.97546
      1598.933
  20791176.235   109258379.431 9     -1527.587    20791175.385    85136404.47348
     -1190.327
 18  2 20 10 49  0.0000000  0  7G05G07G13G15G20G28G30
  20646780.343   108499564.772 9     -1052.518    20646777.437    84545093.58348
      -820.144
  22380141.566   117608448.297 9     -2616.794    22380138.447    91642934.50447
     -2039.061
  21245573.803   111646261.970 9      2074.610    21245570.675    86997071.78347
      1616.579
  23610634.660   124074734.371 8      3215.225    23610632.475    96681598.50645
      2505.371
  22490199.410   118186794.525 8      2607.701    22490196.481    92093602.18446
      2031.977
  22094531.704   116107573.032 8      2037.064    22094528.863    90473430.37247
      1587.326
  20799933.972   109304401.500 9     -1541.634    20799933.102    85172265.80948
     -1201.273
 18  2 20 10 49 30.0000000  0  7G05G07G13G15G20G28G30
  20652839.020   108531403.290 9     -1070.501    20652836.171    84569902.80248
      -834.157
  22395099.342   117687051.693 9     -2623.885    22395096.239    91704183.87146
     -2044.587
  21233753.322   111584145.120 9      2066.094    21233750.197    86948669.05147
      1609.942
  23592288.126   123978322.677 8      3211.820    23592285.884    96606472.53945
      2502.717
  22475347.624   118108747.934 8      2595.015    22475344.690    92032786.66546
      2022.090
  22082940.832   116046662.607 8      2023.171    22082937.960    90425967.73846
      1576.497
  20808771.391   109350842.295 9     -1554.786    20808770.494    85208453.42348
     -1211.521
 18  2 20 10 50  0.0000000  0  7G05G07G13G15G20G28G30
  20659004.085   108563800.907 9     -1088.969    20659001.333    84595147.69048
      -848.549
  22410100.974   117765885.596 9     -2631.297    22410097.868    91765612.86647
     -2050.363
  21221984.379   111522299.023 9      2057.321    21221981.234    86900477.29347
      1603.107
  23573963.783   123882027.730 8      3208.231    23573961.454    96531437.56745
      2499.922
  22460572.382   118031103.587 8      2581.704    22460569.430    91972284.58046
      2011.716
  22071433.424   115986190.788 8      2008.704    22071430.486    90378846.88646
      1565.224
  20817687.214   109397695.170 9     -1568.357    20817686.290    85244962.14448
     -1222.099
 18  2 20 10 50 30.0000000  0  7G05G07G13G15G20G28G30
  20665275.511   108596757.405 9     -1107.968    20665272.843    84620828.06348
      -863.352
  22425146.166   117844948.409 9     -2639.393    22425143.038    91827220.23247
     -2056.670
  21210267.310   111460725.378 9      2047.743    21210264.133    86852497.83047
      1595.645
  23555661.999   123785851.332 8      3203.776    23555659.566    96456494.95845
      2496.450
  22445874.201   117953864.235 8      2567.734    22445871.222    91912098.08046
      2000.833
  22060009.949   115926160.001 8      1993.498    22060006.932    90332069.68646
      1553.376
  20826681.188   109444958.817 9     -1582.370    20826680.250    85281790.95248
     -1233.016
 18  2 20 10 51  0.0000000  0  7G05G07G13G15G20G28G30
  20671652.482   108630268.487 9     -1126.260    20671649.849    84646940.56248
      -877.605
  22440233.926   117924234.910 9     -2646.599    22440230.759    91889001.89846
     -2062.286
  21198601.624   111399421.653 9      2038.852    21198598.426    86804728.68547
      1588.716
  23537382.283   123689790.860 8      3200.060    23537379.732    96381642.67145
      2493.554
  22431252.873   117877028.793 8      2554.361    22431249.883    91852226.32446
      1990.412
  22048670.185   115866569.089 8      1979.072    22048667.082    90285635.24646
      1542.136
  20835752.317   109492627.961 9     -1595.702    20835751.383    85318935.72748
     -1243.405
 18  2 20 10 51 30.0000000  0  7G05G07G13G15G20G28G30
  20678135.956   108664339.250 9     -1145.158    20678133.308    84673489.17648
      -892.332
  22455365.088   118003749.490 9     -2654.484    22455361.873    91950961.28746
     -2068.430
  21186988.585   111338394.669 9      2029.487    21186985.386    86757175.19747
      1581.419
  23519126.020   123593853.532 8      3195.604    23519123.358    96306886.31645
      2490.082
  22416710.010   117800605.681 8      2540.365    22416707.030    91792675.86846
      1979.508
  22037415.590   115807425.764 8      1963.844    22037412.401    90239549.57946
      1530.270
  20844901.443   109540707.003 9     -1609.554    20844900.529    85356399.89748
     -1254.198
 18  2 20 10 52  0.0000000  0  7G05G07G13G15G20G28G30
  20684725.748   108698968.769 9     -1163.875    20684723.067    84700473.20748
      -906.915
  22470539.209   118083489.890 9     -2661.980    22470535.947    92013096.64747
     -2074.271
  21175428.415   111277645.534 9      2020.034    21175425.223    86709838.21547
      1574.054
  23500893.427   123498040.704 8      3191.547    23500890.701    96232226.99045
      2486.921
  22402246.113   117724597.529 8      2526.422    22402243.162    91733448.75746
      1968.643
  22026246.561   115748732.131 8      1948.718    22026243.309    90193814.32146
      1518.483
  20854128.201   109589194.038 9     -1623.240    20854127.311    85394181.99048
     -1264.862
 18  2 20 10 52 30.0000000  0  7G05G07G13G15G20G28G30
  20691422.184   108734158.612 9     -1182.401    20691419.491    84727893.84148
      -921.353
  22485756.446   118163456.879 9     -2669.444    22485753.156    92075408.56247
     -2080.088
  21163921.701   111217177.304 9      2010.885    21163918.511    86662720.12047
      1566.922
  23482685.154   123402355.799 8      3187.264    23482682.435    96157667.35046
      2483.583
  22387862.023   117649008.723 8      2512.517    22387859.110    91674548.39246
      1957.806
  22015163.943   115690492.557 8      1933.590    22015160.642    90148432.86446
      1506.693
  20863432.687   109638089.492 9     -1636.667    20863431.825    85432282.32548
     -1275.325
 18  2 20 10 53  0.0000000  0  7G05G07G13G15G20G28G30
  20698223.921   108769901.866 9     -1200.751    20698221.240    84755745.72148
      -935.649
  22501015.308   118243642.703 9     -2676.548    22501012.001    92137891.01247
     -2085.622
  21152467.532   111156985.235 9      2001.711    21152464.329    86615817.23147
      1559.776
  23464500.356   123306794.403 8      3183.165    23464497.686    96083203.97246
      2480.391
  22373557.041   117573835.745 8      2498.725    22373554.165    91615972.06546
      1947.060
  22004166.950   115632703.137 8      1918.694    22004163.604    90103402.20647
      1495.089
  20872813.475   109687385.887 9     -1650.022    20872812.630    85470695.09048
     -1285.731
 18  2 20 10 53 30.0000000  0  8G05G07G13G15G20G21G28G30
  20705130.819   108806197.755 9     -1219.180    20705128.160    84784028.22448
      -950.011
  22516315.546   118324045.917 9     -2683.843    22516312.237    92200542.84346
     -2091.306
  21141066.149   111097070.500 9      1992.481    21141062.926    86569130.43147
      1552.583
  23446339.260   123211357.483 8      3179.093    23446336.659    96008837.57446
      2477.217
  22359331.765   117499081.544 8      2484.876    22359328.913    91557722.03846
      1936.267
  25481376.532   133905539.308 6      1051.043    25481372.530   104341950.30943
       819.000
  21993256.012   115575365.941 8      1903.639    21993252.651    90058723.91146
      1483.356
  20882270.256   109737081.559 9     -1663.197    20882269.424    85509418.97848
     -1295.998
 18  2 20 10 54  0.0000000  0  8G05G07G13G15G20G21G28G30
  20712142.304   108843043.310 9     -1238.023    20712139.660    84812739.04048
      -964.694
  22531656.346   118404662.310 9     -2691.578    22531653.042    92263360.79147
     -2097.334
  21129717.310   111037431.930 9      1982.688    21129714.055    86522658.82847
      1544.952
  23428201.677   123116043.957 8      3174.430    23428199.109    95934567.31446
      2473.583
  22345186.145   117424745.888 8      2470.136    22345183.273    91499798.15646
      1924.780
  25475416.669   133874221.307 6      1036.179    25475413.200   104317546.63643
       807.412
  21982431.089   115518480.705 8      1887.946    21982427.746    90014397.77946
      1471.129
  20891802.274   109787172.549 9     -1676.897    20891801.460    85548450.90248
     -1306.674
 18  2 20 10 54 30.0000000  0  8G05G07G13G15G20G21G28G30
  20719258.260   108880437.872 9     -1256.103    20719255.612    84841877.64548
      -978.782
  22547037.333   118485489.835 9     -2698.238    22547034.045    92326343.24347
     -2102.525
  21118421.212   110978070.481 9      1973.529    21118417.913    86476403.15447
      1537.815
  23410087.962   123020855.629 8      3170.393    23410085.355    95860394.59546
      2470.437
  22331120.689   117350831.416 8      2456.344    22331117.786    91442202.46746
      1914.034
  25469538.417   133843329.720 6      1022.029    25469534.492   104293475.26044
       796.387
  21971692.565   115462049.397 8      1872.953    21971689.232    89970425.33546
      1459.443
  20901409.139   109837656.876 9     -1689.777    20901408.346    85587789.32948
     -1316.710
 18  2 20 10 55  0.0000000  0  8G05G07G13G15G20G21G28G30
  20726480.595   108918391.472 9     -1274.187    20726477.925    84871451.86748
      -992.872
  22562460.301   118566538.042 9     -2705.192    22562457.030    92389497.67147
     -2107.942
  21107180.172   110918998.349 9      1964.428    21107176.812    86430372.93247
      1530.724
  23392000.441   122925804.886 8      3166.217    23391997.739    95786329.08745
      2467.182
  22317137.949   117277351.545 8      2442.415    22317135.028    91384945.41146
      1903.180
  25463743.499   133812876.690 6      1007.977    25463739.351   104269745.66944
       785.433
  21961042.911   115406085.150 8      1857.867    21961039.543    89926816.84246
      1447.688
  20911092.653   109888544.051 9     -1702.615    20911091.879    85627441.67748
     -1326.713
 18  2 20 10 55 30.0000000  0  8G05G07G13G15G20G21G28G30
  20733808.016   108956897.269 9     -1293.170    20733805.325    84901456.35948
     -1007.665
  22577923.904   118647799.766 9     -2712.680    22577920.655    92452818.46746
     -2113.777
  21095993.330   110860210.948 9      1954.437    21095989.915    86384564.56747
      1522.939
  23373938.230   122830887.227 8      3161.286    23373935.413    95712367.28945
      2463.342
  22303237.284   117204303.115 8      2427.282    22303234.348    91328024.56446
      1891.390
  25458031.073   133782857.539 6       993.026    25458026.956   104246354.10844
       773.788
  21950481.401   115350584.256 8      1841.996    21950478.014    89883569.41846
      1435.321
  20920851.447   109939826.776 9     -1716.381    20920850.691    85667402.23648
     -1337.440
 18  2 20 10 56  0.0000000  0  8G05G07G13G15G20G21G28G30
  20741240.450   108995954.984 9     -1310.906    20741237.733    84931890.93648
     -1021.484
  22593427.844   118729273.518 9     -2719.201    22593424.608    92516304.49146
     -2118.857
  21084860.924   110801709.668 9      1945.537    21084857.462    86338979.16647
      1516.005
  23355901.626   122736104.312 8      3157.264    23355898.721    95638510.49746
      2460.208
  22289419.187   117131688.725 8      2413.561    22289416.246    91271441.94946
      1880.699
  25452401.317   133753272.961 6       978.961    25452397.235   104223301.20344
       762.828
  21940008.507   115295549.105 8      1826.946    21940005.139    89840684.90646
      1423.596
  20930685.240   109991503.631 9     -1728.906    20930684.497    85707669.91148
     -1347.198
 18  2 20 10 56 30.0000000  0  8G05G07G13G15G20G21G28G30
  20748776.817   109035558.846 9     -1329.410    20748774.090    84962751.08048
     -1035.903
  22608970.950   118810953.047 9     -2726.213    22608967.718    92579950.85446
     -2124.321
  21073782.219   110743490.609 9      1935.677    21073778.726    86293613.66847
      1508.320
  23337889.878   122641452.261 8      3152.557    23337886.926    95564755.70346
      2456.541
  22275683.265   117059506.133 8      2398.693    22275680.323    91215195.79246
      1869.112
  25446853.484   133724118.875 6       964.477    25446849.491   104200583.73145
       751.540
  21929623.693   115240976.697 8      1811.150    21929620.352    89798160.94547
      1411.285
  20940592.765   110043567.934 9     -1742.227    20940592.031    85748239.48948
     -1357.579
 18  2 20 10 57  0.0000000  0  8G05G07G13G15G20G21G28G30
  20756417.428   109075710.473 9     -1347.811    20756414.720    84994038.03848
     -1050.243
  22624553.295   118892838.702 9     -2733.183    22624550.060    92643757.82747
     -2129.754
  21062757.956   110685557.700 9      1925.975    21062754.450    86248471.13947
      1500.759
  23319903.850   122546935.298 8      3148.042    23319900.891    95491106.14846
      2453.022
  22262030.471   116987760.258 8      2383.945    22262027.518    91159289.91646
      1857.619
  25441388.111   133695398.375 6       949.934    25441384.329   104178204.13945
       740.207
  21919327.784   115186871.451 8      1795.440    21919324.458    89756001.01747
      1399.045
  20950574.198   110096020.605 9     -1755.130    20950573.472    85789111.68148
     -1367.635
 18  2 20 10 57 30.0000000  0  8G05G07G13G15G20G21G28G30
  20764161.275   109116404.693 9     -1365.237    20764158.595    85025747.80948
     -1063.820
  22640173.704   118974924.413 9     -2739.353    22640170.446    92707720.71347
     -2134.562
  21051787.424   110627907.197 9      1917.180    21051783.904    86203548.67348
      1493.906
  23301942.920   122452550.194 8      3144.070    23301939.956    95417559.35546
      2449.928
  22248460.338   116916448.844 8      2370.071    22248457.377    91103722.60446
      1846.811
  25436004.683   133667108.480 6       935.679    25436001.101   104156160.03745
       729.101
  21909120.367   115133231.160 8      1780.476    21909117.049    89714203.39647
      1387.384
  20960628.323   110148855.418 9     -1767.222    20960627.611    85830281.66048
     -1377.056
 18  2 20 10 58  0.0000000  0  8G05G07G13G15G20G21G28G30
  20772009.430   109157647.057 9     -1383.851    20772006.767    85057884.70848
     -1078.326
  22655833.255   119057215.717 9     -2746.393    22655829.965    92771843.79146
     -2140.047
  21040872.207   110570547.352 9      1907.178    21040868.679    86158852.69547
      1486.112
  23284008.764   122358305.650 8      3139.113    23284005.788    95344122.08046
      2446.065
  22234974.747   116845581.656 8      2354.956    22234971.804    91048501.43746
      1835.031
  25430704.595   133639256.642 6       921.347    25430701.163   104134457.32243
       717.933
  21899003.146   115080064.649 8      1764.354    21898999.816    89672774.93447
      1374.820
  20970756.191   110202077.805 9     -1780.480    20970755.511    85871753.63448
     -1387.387
 18  2 20 10 58 30.0000000  0  8G05G07G13G15G20G21G28G30
  20779961.873   109199437.411 9     -1402.065    20779959.213    85090448.60648
     -1092.519
  22671531.743   119139711.626 9     -2753.289    22671528.413    92836126.30546
     -2145.421
  21030012.699   110513480.282 9      1897.466    21030009.176    86114384.86848
      1478.545
  23266101.731   122264203.562 8      3134.543    23266098.736    95270795.80846
      2442.501
  22221574.253   116775161.566 8      2339.881    22221571.331    90993628.64446
      1823.284
  25425488.186   133611844.417 6       907.096    25425484.908   104113097.12044
       706.827
  21888976.518   115027374.364 8      1748.471    21888973.164    89631717.59947
      1362.444
  20980957.577   110255686.679 9     -1793.149    20980956.933    85913526.78248
     -1397.259
 18  2 20 10 59  0.0000000  0  8G05G07G13G15G20G21G28G30
  20788017.918   109241772.100 9     -1419.651    20788015.257    85123436.64748
     -1106.224
  22687268.314   119222407.647 9     -2759.311    22687264.949    92900564.74246
     -2150.113
  21019208.606   110456704.324 9      1888.224    21019205.093    86070143.86648
      1471.344
  23248221.570   122170242.618 8      3130.194    23248218.567    95197579.50946
      2439.111
  22208258.803   116705188.412 8      2325.368    22208255.892    90939104.12346
      1811.976
  25420355.005   133584869.779 6       892.456    25420351.845   104092077.96044
       695.421
  21879040.340   114975159.525 8      1733.007    21879037.004    89591030.74047
      1350.395
  20991231.660   110309677.523 9     -1805.566    20991231.052    85955597.55148
     -1406.936
 18  2 20 10 59 30.0000000  0  8G05G07G13G15G20G21G28G30
  20796176.778   109284647.073 9     -1438.107    20796174.091    85156845.69648
     -1120.603
  22703042.036   119305298.950 9     -2766.151    22703038.656    92965155.34446
     -2155.442
  21008459.431   110400216.986 9      1878.178    21008455.922    86026127.76747
      1463.515
  23230367.906   122076420.902 8      3124.947    23230364.919    95124471.69546
      2435.024
  22195028.237   116635661.329 8      2310.144    22195025.330    90884927.18346
      1800.111
  25415304.755   133558330.554 7       876.716    25415301.709   104071398.01944
       683.149
  21869194.389   114923418.800 8      1716.819    21869191.088    89550713.30547
      1337.783
  21001577.507   110364045.497 9     -1818.520    21001576.919    85997962.19848
     -1417.029
                            4  1
RINEX FILE SPLICE; other post-header comments skipped       COMMENT
 18  2 20 11  0  0.0000000  0  8G05G07G13G15G20G21G28G30
  20804438.875   109328064.578 9     -1456.102    20804436.157    85190677.50648
     -1134.624
  22718853.262   119388387.467 9     -2772.710    22718849.888    93029899.62646
     -2160.554
  20997766.164   110344023.478 9      1868.426    20997762.655    85982340.62448
      1455.916
  23212541.735   121982743.599 8      3120.288    23212538.770    95051476.39646
      2431.393
  22181883.633   116566585.919 8      2295.270    22181880.704    90831102.19246
      1788.522
  25410338.124   133532230.690 6       862.992    25410335.119   104051060.44244
       672.460
  21859439.692   114872157.619 8      1701.058    21859436.408    89510769.54547
      1325.500
  21011995.477   110418792.441 9     -1830.966    21011994.897    86040622.14848
     -1426.727
 18  2 20 11  0 30.0000000  0  8G05G07G13G15G20G21G28G30
  20812804.290   109372025.015 9     -1474.207    20812801.560    85224932.38048
     -1148.732
  22734702.018   119471673.318 9     -2779.326    22734698.676    93094797.68346
     -2165.709
  20987129.247   110288126.128 9      1858.472    20987125.741    85938784.25148
      1448.160
  23194743.572   121889213.493 8      3115.456    23194740.620    94978595.80046
      2427.629
  22168825.883   116497966.832 8      2279.868    22168822.919    90777632.77646
      1776.521
  25405455.442   133506572.070 6       847.664    25405452.420   104031066.71444
       660.517
  21849776.904   114821379.327 8      1684.683    21849773.617    89471202.05447
      1312.740
  21022485.522   110473918.091 9     -1843.718    21022484.949    86083577.19248
     -1436.663
 18  2 20 11  1  0.0000000  0  8G05G07G13G15G20G21G28G30
  20821273.886   109416532.945 9     -1491.862    20821271.172    85259613.86748
     -1162.491
  22750589.003   119555160.132 9     -2785.448    22750585.720    93159852.33446
     -2170.480
  20976549.932   110232531.458 9      1848.858    20976546.427    85895463.73147
      1440.669
  23176974.710   121795837.411 8      3110.791    23176971.767    94905835.22946
      2423.993
  22155856.467   116429811.849 8      2264.955    22155853.455    90724525.00246
      1764.901
  25400657.946   133481361.253 6       833.643    25400654.871   104011421.95844
       649.597
  21840207.489   114771091.649 8      1668.901    21840204.191    89432016.85647
      1300.441
  21033048.378   110529426.345 9     -1855.880    21033047.812    86126830.37548
     -1446.141
 18  2 20 11  1 30.0000000  0  8G05G07G13G15G20G21G28G30
  20829844.034   109461569.298 9     -1510.114    20829841.355    85294707.10748
     -1176.712
  22766510.455   119638828.082 9     -2792.042    22766507.246    93225048.12046
     -2175.616
  20966024.963   110177222.317 9      1838.747    20966021.456    85852365.69348
      1432.791
  23159231.937   121702598.560 8      3105.554    23159229.015    94833181.60746
      2419.914
  22142972.248   116362104.509 8      2249.272    22142969.181    90671766.02746
      1752.682
  25395942.369   133456580.758 6       818.551    25395939.274   103992112.48944
       637.835
  21830728.181   114721277.484 8      1652.463    21830724.871    89393200.62847
      1287.635
  21043680.236   110585297.099 9     -1868.448    21043679.686    86170366.01148
     -1455.933
 18  2 20 11  2  0.0000000  0  8G05G07G13G15G20G21G28G30
  20838516.815   109507144.978 9     -1528.272    20838514.185    85330220.59348
     -1190.862
  22782468.425   119722687.948 9     -2798.702    22782465.291    93290393.45546
     -2180.808
  20955557.011   110122212.811 9      1828.561    20955553.490    85809501.14347
      1424.852
  23141517.924   121609511.037 8      3100.180    23141515.047    94760645.92746
      2415.727
  22130176.109   116294860.103 8      2233.607    22130172.998    90619367.78246
      1740.473
  25391311.233   133432243.869 6       803.845    25391308.125   103973148.65944
       626.375
  21821341.800   114671951.748 8      1635.911    21821338.469    89354764.99746
      1274.736
  21054383.165   110641541.300 9     -1881.023    21054382.625    86214192.65148
     -1465.733
 18  2 20 11  2 30.0000000  0  8G05G07G13G15G20G21G28G30
  20847291.509   109553256.288 9     -1545.955    20847288.927    85366151.46348
     -1204.642
  22798462.011   119806735.026 9     -2804.626    22798458.937    93355884.68846
     -2185.423
  20945145.658   110067500.803 9      1818.736    20945142.109    85766868.42847
      1417.198
  23123832.352   121516573.058 8      3095.547    23123829.551    94688226.76546
      2412.116
  22117467.867   116228077.706 8      2218.280    22117464.732    90567329.55947
      1728.530
  25386763.832   133408347.165 7       789.213    25386760.711   103954527.88444
       614.973
  21812048.014   114623112.641 8      1619.761    21812044.652    89316708.56346
      1262.152
  21065156.210   110698153.957 9     -1893.220    21065155.662    86258306.41648
     -1475.236
 18  2 20 11  3  0.0000000  0  8G05G07G13G15G20G21G28G30
  20856168.279   109599904.102 9     -1564.269    20856165.741    85402500.38948
     -1218.910
  22814491.417   119890970.207 9     -2811.272    22814488.384    93421522.47946
     -2190.602
  20934791.541   110013089.509 9      1808.411    20934787.956    85724470.01948
      1409.152
  23106175.964   121423788.436 8      3089.941    23106173.265    94615927.07647
      2407.748
  22104848.470   116161762.254 8      2202.452    22104845.342    90515655.19347
      1716.198
  25382301.065   133384895.053 6       773.884    25382297.926   103936253.50145
       603.027
  21802847.743   114574764.935 8      1603.019    21802844.354    89279035.03047
      1249.107
  21075999.551   110755135.909 9     -1905.926    21075998.984    86302707.93148
     -1485.137
 18  2 20 11  3 30.0000000  0  8G05G07G13G15G20G21G28G30
  20865145.514   109647079.988 9     -1581.282    20865143.000    85439260.81548
     -1232.168
  22830554.985   119975384.842 9     -2816.554    22830551.976    93487300.10246
     -2194.717
  20924493.502   109958972.896 9      1799.059    20924489.892    85682301.23048
      1401.864
  23088547.622   121331151.238 8      3085.432    23088545.035    94543742.26346
      2404.233
  22092316.944   116095908.574 8      2187.325    22092313.860    90464340.63047
      1704.409
  25377921.453   133361880.079 6       760.077    25377918.285   103918319.77944
       592.274
  21793739.838   114526902.676 8      1587.363    21793736.414    89241739.77846
      1236.908
  21086911.408   110812477.890 9     -1917.220    21086910.815    86347389.98548
     -1493.938
 18  2 20 11  4  0.0000000  0  8G05G07G13G15G20G21G28G30
  20874224.286   109694789.378 9     -1599.643    20874221.801    85476436.93648
     -1246.476
  22846653.503   120059983.065 9     -2823.535    22846650.497    93553220.77746
     -2200.158
  20914252.962   109905158.524 9      1788.312    20914249.360    85640367.95948
      1393.489
  23070948.852   121238669.359 8      3079.626    23070946.382    94471678.46347
      2399.707
  22079874.879   116030525.145 8      2171.164    22079871.835    90413392.51547
      1691.816
  25373626.370   133339309.108 6       744.497    25373623.176   103900731.97944
       580.125
  21784725.849   114479533.960 8      1570.275    21784722.388    89204829.10647
      1223.591
  21097892.693   110870184.680 9     -1930.058    21097892.080    86392356.29548
     -1503.942
 18  2 20 11  4 30.0000000  0  8G05G07G13G15G20G21G28G30
  20883404.028   109743029.387 9     -1617.219    20883401.566    85514026.54248
     -1260.171
  22862786.386   120144761.864 9     -2829.312    22862783.369    93619282.16646
     -2204.658
  20904069.800   109851645.741 9      1778.329    20904066.234    85598669.69148
      1385.712
  23053379.543   121146342.374 8      3074.546    23053377.183    94399735.38547
      2395.752
  22067522.439   115965612.732 8      2155.375    22067519.411    90362811.43846
      1679.515
  25369415.470   133317180.721 7       729.941    25369412.253   103883489.08044
       568.782
  21775805.725   114432658.518 8      1553.895    21775802.252    89168302.81047
      1210.829
  21108942.701   110928252.703 9     -1941.972    21108942.077    86437604.09548
     -1513.225
 18  2 20 11  5  0.0000000  0  8G05G07G13G15G20G21G28G30
  20892684.451   109791798.365 9     -1634.158    20892681.996    85552028.33548
     -1273.370
  22878953.338   120229719.691 9     -2834.745    22878950.305    93685483.06146
     -2208.893
  20893944.192   109798435.456 9      1768.838    20893940.670    85557207.13547
      1378.316
  23035839.997   121054171.814 8      3069.966    23035837.732    94327914.19546
      2392.184
  22055260.089   115901173.639 8      2140.332    22055257.062    90312599.16546
      1667.792
  25365288.991   133295496.067 7       715.730    25365285.768   103866591.96144
       557.712
  21766979.842   114386278.303 8      1538.032    21766976.387    89132162.40947
      1198.469
  21120061.082   110986680.082 9     -1953.246    21120060.461    86483131.91348
     -1522.010
 18  2 20 11  5 30.0000000  0  8G05G07G13G15G20G21G28G30
  20902065.909   109841098.086 9     -1651.811    20902063.454    85590443.67948
     -1287.127
  22895154.602   120314857.826 9     -2840.578    22895151.551    93751824.45146
     -2213.438
  20883877.019   109745532.226 9      1758.559    20883873.520    85515983.84748
      1370.305
  23018331.042   120962162.139 8      3064.526    23018328.847    94256218.39046
      2387.943
  22043088.882   115837213.486 8      2124.245    22043085.838    90262760.09747
      1655.257
  25361247.636   133274258.595 7       700.885    25361244.433   103850043.27444
       546.141
  21758249.077   114340397.897 9      1521.256    21758245.649    89096411.45647
      1185.393
  21131248.143   111045468.392 9     -1965.316    21131247.532    86528940.97348
     -1531.416
